timestamp,q[0],q[1],q[2],q[3],delta_q_reset[0],delta_q_reset[1],delta_q_reset[2],delta_q_reset[3],quat_reset_counter
703919614,0.7370553,-0.0034547253,-0.018909361,-0.6755591,0.9992966,8.889046e-10,1.3428485e-09,0.03750357,5
703924577,0.7369732,-0.0034292627,-0.018843623,-0.67565054,0.9992966,8.889046e-10,1.3428485e-09,0.03750357,5
703974265,0.73754823,-0.0035445748,-0.018933725,-0.6750198,0.9992966,8.889046e-10,1.3428485e-09,0.03750357,5
704023873,0.7372134,-0.0036050854,-0.01881748,-0.6753883,0.9992966,8.889046e-10,1.3428485e-09,0.03750357,5
704068558,0.7373189,-0.0035117911,-0.018708874,-0.67527664,0.9992966,8.889046e-10,1.3428485e-09,0.03750357,5
704118435,0.73744035,-0.0037408357,-0.01851409,-0.6751482,0.9992966,8.889046e-10,1.3428485e-09,0.03750357,5
704172818,0.7371686,-0.0031977522,-0.019202348,-0.6754284,0.9992966,8.889046e-10,1.3428485e-09,0.03750357,5
704222466,0.7374555,-0.0034886848,-0.01882382,-0.6751244,0.9992966,8.889046e-10,1.3428485e-09,0.03750357,5
704272114,0.73739153,-0.0034553595,-0.018775668,-0.6751958,0.9992966,8.889046e-10,1.3428485e-09,0.03750357,5
704321765,0.737429,-0.0036956742,-0.018546555,-0.67515993,0.9992966,8.889046e-10,1.3428485e-09,0.03750357,5
704371512,0.73746157,-0.0034880168,-0.018723257,-0.67512065,0.9992966,8.889046e-10,1.3428485e-09,0.03750357,5
704421089,0.7377149,-0.0034536999,-0.018770048,-0.6748426,0.9992966,8.889046e-10,1.3428485e-09,0.03750357,5
704470708,0.7375264,-0.0035497383,-0.01862879,-0.675052,0.9992966,8.889046e-10,1.3428485e-09,0.03750357,5
704520356,0.7376595,-0.0035774154,-0.01863782,-0.6749062,0.9992966,8.889046e-10,1.3428485e-09,0.03750357,5
704570004,0.73792595,-0.0034489578,-0.01861249,-0.67461616,0.9992966,8.889046e-10,1.3428485e-09,0.03750357,5
704619718,0.7377425,-0.003502505,-0.018647334,-0.6748156,0.9992966,8.889046e-10,1.3428485e-09,0.03750357,5
704674265,0.737763,-0.003503955,-0.018681705,-0.67479223,0.9992966,8.889046e-10,1.3428485e-09,0.03750357,5
704723919,0.73797166,-0.0036367376,-0.018602576,-0.6745655,0.9992966,8.889046e-10,1.3428485e-09,0.03750357,5
704768598,0.73810554,-0.003438305,-0.01865456,-0.67441857,0.9992966,8.889046e-10,1.3428485e-09,0.03750357,5
704818246,0.7379813,-0.0035655426,-0.018678248,-0.6745532,0.9992966,8.889046e-10,1.3428485e-09,0.03750357,5
704872858,0.7380693,-0.0036557766,-0.018591523,-0.6744589,0.9992966,8.889046e-10,1.3428485e-09,0.03750357,5
704922666,0.738282,-0.0036570365,-0.018459132,-0.6742297,0.9992966,8.889046e-10,1.3428485e-09,0.03750357,5
704972154,0.73837614,-0.003506019,-0.018614631,-0.67412305,0.9992966,8.889046e-10,1.3428485e-09,0.03750357,5
705021805,0.73836166,-0.0036126985,-0.018484967,-0.67414194,0.9992966,8.889046e-10,1.3428485e-09,0.03750357,5
705071451,0.73840004,-0.0038210151,-0.018461403,-0.67409945,0.9992966,8.889046e-10,1.3428485e-09,0.03750357,5
705121103,0.73846835,-0.0035883188,-0.018416876,-0.6740271,0.9992966,8.889046e-10,1.3428485e-09,0.03750357,5
705170808,0.73867655,-0.0035223549,-0.018594341,-0.6737943,0.9992966,8.889046e-10,1.3428485e-09,0.03750357,5
705220396,0.738701,-0.0037476006,-0.018344043,-0.6737732,0.9992966,8.889046e-10,1.3428485e-09,0.03750357,5
705270048,0.7385504,-0.0037474963,-0.018345542,-0.6739382,0.9992966,8.889046e-10,1.3428485e-09,0.03750357,5
705319726,0.7386761,-0.0034187017,-0.018407622,-0.6738006,0.9992966,8.889046e-10,1.3428485e-09,0.03750357,5
705374305,0.73872906,-0.0033121281,-0.018411722,-0.67374295,0.9992966,8.889046e-10,1.3428485e-09,0.03750357,5
705423956,0.73872685,-0.0029532572,-0.018102214,-0.67375535,0.9992966,8.889046e-10,1.3428485e-09,0.03750357,5
705468640,0.7388732,-0.0036821913,-0.017049305,-0.6736188,0.9992966,8.889046e-10,1.3428485e-09,0.03750357,5
705518285,0.73906136,-0.0028015831,-0.020074336,-0.6733332,0.9992966,8.889046e-10,1.3428485e-09,0.03750357,5
705572898,0.7392381,-0.0031984332,-0.018435141,-0.67318416,0.9992966,8.889046e-10,1.3428485e-09,0.03750357,5
705622546,0.73945177,-0.0032294781,-0.01833261,-0.6729522,0.9992966,8.889046e-10,1.3428485e-09,0.03750357,5
705672200,0.7394043,-0.0034699165,-0.017972855,-0.6730128,0.9992966,8.889046e-10,1.3428485e-09,0.03750357,5
705722024,0.7393266,-0.003818523,-0.017537015,-0.6731078,0.9992966,8.889046e-10,1.3428485e-09,0.03750357,5
705771545,0.7392921,-0.003853723,-0.017702866,-0.6731412,0.9992966,8.889046e-10,1.3428485e-09,0.03750357,5
705821139,0.7395126,-0.0038505057,-0.017448371,-0.67290556,0.9992966,8.889046e-10,1.3428485e-09,0.03750357,5
705870787,0.73948854,-0.0033548148,-0.017359365,-0.6729369,0.9992966,8.889046e-10,1.3428485e-09,0.03750357,5
705920436,0.7396684,-0.0036364107,-0.018017566,-0.67272055,0.9992966,8.889046e-10,1.3428485e-09,0.03750357,5
705970162,0.7393724,-0.0031035736,-0.018623492,-0.673032,0.9992966,8.889046e-10,1.3428485e-09,0.03750357,5
706019732,0.7395392,-0.0031253446,-0.018986784,-0.67283845,0.9992966,8.889046e-10,1.3428485e-09,0.03750357,5
706074345,0.73968923,-0.0034363947,-0.018471261,-0.67268634,0.9992966,8.889046e-10,1.3428485e-09,0.03750357,5
706123993,0.73957324,-0.00366995,-0.017635118,-0.6728351,0.9992966,8.889046e-10,1.3428485e-09,0.03750357,5
706168678,0.73975396,-0.0034904233,-0.017735314,-0.6726348,0.9992966,8.889046e-10,1.3428485e-09,0.03750357,5
706218330,0.73997295,-0.0033040112,-0.017713936,-0.67239535,0.9992966,8.889046e-10,1.3428485e-09,0.03750357,5
706273128,0.73975295,-0.0028763134,-0.018452939,-0.67261946,0.9992966,8.889046e-10,1.3428485e-09,0.03750357,5
706322586,0.7400466,-0.0028605897,-0.018759266,-0.67228794,0.9992966,8.889046e-10,1.3428485e-09,0.03750357,5
706372235,0.7400054,-0.0031886082,-0.01869119,-0.6723337,0.9992966,8.889046e-10,1.3428485e-09,0.03750357,5
706421884,0.7399331,-0.0037432401,-0.01730912,-0.6724474,0.9992966,8.889046e-10,1.3428485e-09,0.03750357,5
706471531,0.73976916,-0.0037733014,-0.01774986,-0.672616,0.9992966,8.889046e-10,1.3428485e-09,0.03750357,5
706521272,0.73989946,-0.0035165616,-0.017950464,-0.6724688,0.9992966,8.889046e-10,1.3428485e-09,0.03750357,5
706570829,0.73987955,-0.0032680167,-0.017907245,-0.67249304,0.9992966,8.889046e-10,1.3428485e-09,0.03750357,5
706620475,0.7396344,-0.0032531999,-0.01872989,-0.67274034,0.9992966,8.889046e-10,1.3428485e-09,0.03750357,5
706670127,0.7397609,-0.0031515758,-0.018243242,-0.6726152,0.9992966,8.889046e-10,1.3428485e-09,0.03750357,5
706719772,0.73978245,-0.003043519,-0.01783959,-0.67260283,0.9992966,8.889046e-10,1.3428485e-09,0.03750357,5
706774445,0.7396926,-0.0037503561,-0.016967459,-0.67272055,0.9992966,8.889046e-10,1.3428485e-09,0.03750357,5
706824035,0.7398821,-0.0035064556,-0.017555565,-0.6724983,0.9992966,8.889046e-10,1.3428485e-09,0.03750357,5
706868715,0.73980135,-0.0036919387,-0.01787639,-0.6725777,0.9992966,8.889046e-10,1.3428485e-09,0.03750357,5
706918365,0.7398073,-0.003502041,-0.017325211,-0.6725866,0.9992966,8.889046e-10,1.3428485e-09,0.03750357,5
706972978,0.73967093,-0.0027175236,-0.017817553,-0.67272735,0.9992966,8.889046e-10,1.3428485e-09,0.03750357,5
707022626,0.74020094,-0.0026048624,-0.017076494,-0.67216396,0.9992966,8.889046e-10,1.3428485e-09,0.03750357,5
707072419,0.7398146,-0.0031853882,-0.017435169,-0.67257744,0.9992966,8.889046e-10,1.3428485e-09,0.03750357,5
707121923,0.73984456,-0.004031859,-0.017798865,-0.67253035,0.9992966,8.889046e-10,1.3428485e-09,0.03750357,5
707171571,0.73970515,-0.003209102,-0.017697226,-0.67269075,0.9992966,8.889046e-10,1.3428485e-09,0.03750357,5
707221221,0.74009794,-0.0028245312,-0.018069211,-0.6722504,0.9992966,8.889046e-10,1.3428485e-09,0.03750357,5
707270912,0.73973894,-0.0034138223,-0.01763371,-0.6726542,0.9992966,8.889046e-10,1.3428485e-09,0.03750357,5
707320619,0.7398927,-0.0030850212,-0.017598333,-0.67248756,0.9992966,8.889046e-10,1.3428485e-09,0.03750357,5
707370164,0.7400388,-0.0031912832,-0.017604161,-0.6723262,0.9992966,8.889046e-10,1.3428485e-09,0.03750357,5
707419812,0.73980206,-0.0032501037,-0.017709725,-0.67258364,0.9992966,8.889046e-10,1.3428485e-09,0.03750357,5
707474425,0.7399594,-0.0026668895,-0.017703379,-0.67241335,0.9992966,8.889046e-10,1.3428485e-09,0.03750357,5
707524073,0.7397479,-0.0033703619,-0.0168091,-0.6726658,0.9992966,8.889046e-10,1.3428485e-09,0.03750357,5
707568762,0.74004745,-0.002876132,-0.017779332,-0.6723135,0.9992966,8.889046e-10,1.3428485e-09,0.03750357,5
707618596,0.7397935,-0.0033172485,-0.01713081,-0.6726078,0.9992966,8.889046e-10,1.3428485e-09,0.03750357,5
707673018,0.7398628,-0.003115966,-0.01671849,-0.67254287,0.9992966,8.889046e-10,1.3428485e-09,0.03750357,5
707722666,0.73980564,-0.0029474418,-0.016970845,-0.6726002,0.9992966,8.889046e-10,1.3428485e-09,0.03750357,5
707772314,0.7399349,-0.0026964375,-0.01762282,-0.67244226,0.9992966,8.889046e-10,1.3428485e-09,0.03750357,5
707821973,0.7400589,-0.0028903761,-0.017702824,-0.67230284,0.9992966,8.889046e-10,1.3428485e-09,0.03750357,5
707871717,0.73967254,-0.0031167294,-0.01776711,-0.67272526,0.9992966,8.889046e-10,1.3428485e-09,0.03750357,5
707921259,0.7398186,-0.0031796896,-0.016863657,-0.6725876,0.9992966,8.889046e-10,1.3428485e-09,0.03750357,5
707970912,0.739721,-0.003200239,-0.016544592,-0.6727027,0.9992966,8.889046e-10,1.3428485e-09,0.03750357,5
708020555,0.73987544,-0.0029218788,-0.01667202,-0.672531,0.9992966,8.889046e-10,1.3428485e-09,0.03750357,5
708070204,0.7399623,-0.002924027,-0.01620146,-0.6724469,0.9992966,8.889046e-10,1.3428485e-09,0.03750357,5
708119864,0.740136,-0.002596629,-0.0159566,-0.67226297,0.9992966,8.889046e-10,1.3428485e-09,0.03750357,5
708174466,0.7400248,-0.0029759384,-0.015379862,-0.6723972,0.9992966,8.889046e-10,1.3428485e-09,0.03750357,5
708219163,0.74002564,-0.002952058,-0.015680393,-0.6723894,0.9992966,8.889046e-10,1.3428485e-09,0.03750357,5
708268797,0.73984516,-0.0024581838,-0.015398452,-0.6725965,0.9992966,8.889046e-10,1.3428485e-09,0.03750357,5
708318445,0.73981833,-0.0028838771,-0.0149583,-0.67263424,0.9992966,8.889046e-10,1.3428485e-09,0.03750357,5
708373058,0.7397103,-0.0023884885,-0.0151310265,-0.6727512,0.9992966,8.889046e-10,1.3428485e-09,0.03750357,5
708422880,0.7400989,-0.0025919806,-0.014979454,-0.6723262,0.9992966,8.889046e-10,1.3428485e-09,0.03750357,5
708472354,0.74007607,-0.0026479345,-0.014521126,-0.67236125,0.9992966,8.889046e-10,1.3428485e-09,0.03750357,5
708522003,0.74020326,-0.0026183024,-0.015034847,-0.67221,0.9992966,8.889046e-10,1.3428485e-09,0.03750357,5
708571651,0.7406244,-0.0021965355,-0.014756133,-0.6717537,0.9992966,8.889046e-10,1.3428485e-09,0.03750357,5
708621300,0.7406934,-0.0017560351,-0.014485905,-0.6716847,0.9992966,8.889046e-10,1.3428485e-09,0.03750357,5
708671082,0.7410709,-0.002046247,-0.013055546,-0.6712968,0.9992966,8.889046e-10,1.3428485e-09,0.03750357,5
708720595,0.7413278,-0.0014735317,-0.014010478,-0.6709953,0.9992966,8.889046e-10,1.3428485e-09,0.03750357,5
708770244,0.741587,-0.0018478459,-0.014507748,-0.6706974,0.9992966,8.889046e-10,1.3428485e-09,0.03750357,5
708819892,0.74179643,-0.0017517618,-0.01393108,-0.67047817,0.9992966,8.889046e-10,1.3428485e-09,0.03750357,5
708874551,0.7420473,-0.0015942261,-0.013111296,-0.67021745,0.9992966,8.889046e-10,1.3428485e-09,0.03750357,5
708924150,0.7424598,-0.0018887102,-0.012179929,-0.6697773,0.9992966,8.889046e-10,1.3428485e-09,0.03750357,5
708968851,0.74252445,-0.0016615461,-0.012418792,-0.6697018,0.9992966,8.889046e-10,1.3428485e-09,0.03750357,5
709018512,0.74251544,-0.0017760948,-0.013655666,-0.6696874,0.9992966,8.889046e-10,1.3428485e-09,0.03750357,5
709073098,0.74273306,-0.0018042974,-0.013130708,-0.66945654,0.9992966,8.889046e-10,1.3428485e-09,0.03750357,5
709122746,0.7429612,-0.0015494755,-0.013139624,-0.66920376,0.9992966,8.889046e-10,1.3428485e-09,0.03750357,5
709172394,0.7427647,-0.0018559063,-0.012052386,-0.6694416,0.9992966,8.889046e-10,1.3428485e-09,0.03750357,5
709222173,0.7430774,-0.0017433494,-0.012929839,-0.6690784,0.9992966,8.889046e-10,1.3428485e-09,0.03750357,5
709271691,0.7432873,-0.0017471031,-0.012556499,-0.6688522,0.9992966,8.889046e-10,1.3428485e-09,0.03750357,5
709321339,0.7434564,-0.0012753604,-0.011681929,-0.6686812,0.9992966,8.889046e-10,1.3428485e-09,0.03750357,5
709370990,0.74347883,-0.0017076215,-0.011724741,-0.6686546,0.9992966,8.889046e-10,1.3428485e-09,0.03750357,5
709420635,0.7432994,-0.0012218783,-0.0104033295,-0.6688769,0.9992966,8.889046e-10,1.3428485e-09,0.03750357,5
709470372,0.74287206,-0.0016109858,-0.011363063,-0.66933507,0.9992966,8.889046e-10,1.3428485e-09,0.03750357,5
709519932,0.7418752,-0.0017432953,-0.01068831,-0.67045057,0.9992966,8.889046e-10,1.3428485e-09,0.03750357,5
709574545,0.7415306,-0.0014693824,-0.010794165,-0.6708306,0.9992966,8.889046e-10,1.3428485e-09,0.03750357,5
709619228,0.74066174,-0.0015763072,-0.01049232,-0.6717943,0.9992966,8.889046e-10,1.3428485e-09,0.03750357,5
709668876,0.739665,-0.0021906842,-0.010725862,-0.67288625,0.9992966,8.889046e-10,1.3428485e-09,0.03750357,5
709718526,0.73833776,-0.0013163514,-0.011058148,-0.6743393,0.9992966,8.889046e-10,1.3428485e-09,0.03750357,5
709773334,0.7377452,-0.0015610239,-0.0094735045,-0.675011,0.9992966,8.889046e-10,1.3428485e-09,0.03750357,5
709822786,0.7369693,-0.0007241343,-0.009535033,-0.6758586,0.9992966,8.889046e-10,1.3428485e-09,0.03750357,5
709872434,0.73616344,-0.00054556906,-0.008779748,-0.67674667,0.9992966,8.889046e-10,1.3428485e-09,0.03750357,5
709922083,0.73568434,-0.0008590062,-0.009470167,-0.67725784,0.9992966,8.889046e-10,1.3428485e-09,0.03750357,5
709971731,0.7349172,-0.00083727227,-0.009802169,-0.6780855,0.9992966,8.889046e-10,1.3428485e-09,0.03750357,5
710021470,0.7341481,-0.0019973705,-0.009604291,-0.67891854,0.9992966,8.889046e-10,1.3428485e-09,0.03750357,5
710071028,0.7330217,-0.0019197331,-0.011419161,-0.6801067,0.9992966,8.889046e-10,1.3428485e-09,0.03750357,5
710120682,0.7329022,-0.0025533948,-0.0101660965,-0.6802533,0.9992966,8.889046e-10,1.3428485e-09,0.03750357,5
710170326,0.7320454,-0.001716817,-0.009854739,-0.68118244,0.9992966,8.889046e-10,1.3428485e-09,0.03750357,5
710219972,0.7313967,-0.0016929111,-0.009895678,-0.68187845,0.9992966,8.889046e-10,1.3428485e-09,0.03750357,5
710274604,0.73077154,-0.00184803,-0.010588445,-0.6825375,0.9992966,8.889046e-10,1.3428485e-09,0.03750357,5
710319268,0.73005104,-0.0022194246,-0.010653958,-0.68330604,0.9992966,8.889046e-10,1.3428485e-09,0.03750357,5
710368968,0.72960174,-0.0019706804,-0.010560806,-0.68378794,0.9992966,8.889046e-10,1.3428485e-09,0.03750357,5
710418565,0.72869325,-0.0017528839,-0.010184803,-0.68476236,0.9992966,8.889046e-10,1.3428485e-09,0.03750357,5
710473179,0.7278582,-0.0015919096,-0.009349879,-0.68566215,0.9992966,8.889046e-10,1.3428485e-09,0.03750357,5
710522827,0.7272674,-0.0026377793,-0.0102559505,-0.6862725,0.9992966,8.889046e-10,1.3428485e-09,0.03750357,5
710567638,0.7265623,-0.0025623257,-0.011512666,-0.6869993,0.9992966,8.889046e-10,1.3428485e-09,0.03750357,5
710622173,0.72591436,-0.0026120811,-0.010887491,-0.687694,0.9992966,8.889046e-10,1.3428485e-09,0.03750357,5
710671790,0.7252539,-0.0020547549,-0.010812783,-0.68839365,0.9992966,8.889046e-10,1.3428485e-09,0.03750357,5
710721419,0.72437346,-0.0021298926,-0.009779487,-0.6893352,0.9992966,8.889046e-10,1.3428485e-09,0.03750357,5
710771068,0.72324365,-0.0022068224,-0.01005387,-0.6905163,0.9992966,8.889046e-10,1.3428485e-09,0.03750357,5
710820772,0.7226866,-0.0018275086,-0.010015183,-0.69110096,0.9992966,8.889046e-10,1.3428485e-09,0.03750357,5
710870370,0.72242653,-0.0023723894,-0.009180867,-0.6913827,0.9992966,8.889046e-10,1.3428485e-09,0.03750357,5
710920011,0.7216415,-0.0018569012,-0.008895108,-0.6922074,0.9992966,8.889046e-10,1.3428485e-09,0.03750357,5
710974624,0.72036713,-0.0015602744,-0.009394562,-0.69352764,0.9992966,8.889046e-10,1.3428485e-09,0.03750357,5
711019310,0.7192307,-0.0005777486,-0.0078018885,-0.69472736,0.9992966,8.889046e-10,1.3428485e-09,0.03750357,5
711068956,0.7188025,0.00021012247,-0.0059968913,-0.69518846,0.9992966,8.889046e-10,1.3428485e-09,0.03750357,5
711118799,0.71798277,0.0018329165,-0.0048434567,-0.69604164,0.9992966,8.889046e-10,1.3428485e-09,0.03750357,5
711173219,0.71661985,0.0035800007,-0.0028490569,-0.697449,0.9992966,8.889046e-10,1.3428485e-09,0.03750357,5
711222869,0.7154382,0.0059824637,-0.0014263169,-0.698649,0.9992966,8.889046e-10,1.3428485e-09,0.03750357,5
711272516,0.7144174,0.007552626,0.0009040381,-0.6996785,0.9992966,8.889046e-10,1.3428485e-09,0.03750357,5
711322162,0.7132244,0.008748488,0.0033189743,-0.7008733,0.9992966,8.889046e-10,1.3428485e-09,0.03750357,5
711371932,0.71229917,0.0104366345,0.005460647,-0.70177716,0.9992966,8.889046e-10,1.3428485e-09,0.03750357,5
711421458,0.7116058,0.011293828,0.0067755072,-0.7024555,0.9992966,8.889046e-10,1.3428485e-09,0.03750357,5
711471107,0.7119875,0.012316394,0.007458312,-0.7020446,0.9992966,8.889046e-10,1.3428485e-09,0.03750357,5
711520755,0.7118294,0.012741592,0.008615313,-0.7021841,0.9992966,8.889046e-10,1.3428485e-09,0.03750357,5
711570408,0.7122137,0.013397976,0.0076557533,-0.7017931,0.9992966,8.889046e-10,1.3428485e-09,0.03750357,5
711620077,0.7116762,0.013076869,0.0072819833,-0.70234823,0.9992966,8.889046e-10,1.3428485e-09,0.03750357,5
711674665,0.7111708,0.0133128455,0.0072714803,-0.70285565,0.9992966,8.889046e-10,1.3428485e-09,0.03750357,5
711719348,0.711249,0.013919705,0.0077859666,-0.70275927,0.9992966,8.889046e-10,1.3428485e-09,0.03750357,5
711768997,0.7109305,0.014634731,0.0065325,-0.70307964,0.9992966,8.889046e-10,1.3428485e-09,0.03750357,5
711818664,0.71122277,0.013042361,0.006990666,-0.702811,0.9992966,8.889046e-10,1.3428485e-09,0.03750357,5
711873260,0.711755,0.013187163,0.006806686,-0.70227104,0.9992966,8.889046e-10,1.3428485e-09,0.03750357,5
711923084,0.7115968,0.013756477,0.007907751,-0.7024089,0.9992966,8.889046e-10,1.3428485e-09,0.03750357,5
711972554,0.7119431,0.014982158,0.005877727,-0.7020528,0.9992966,8.889046e-10,1.3428485e-09,0.03750357,5
712022203,0.7121927,0.01431573,0.002370236,-0.701834,0.9992966,8.889046e-10,1.3428485e-09,0.03750357,5
712071850,0.71268487,0.012692906,0.0016949929,-0.70136756,0.9992966,8.889046e-10,1.3428485e-09,0.03750357,5
712121498,0.7127542,0.010317402,0.003467431,-0.7013294,0.9992966,8.889046e-10,1.3428485e-09,0.03750357,5
712171223,0.71248716,0.011083603,0.003771617,-0.70158744,0.9992966,8.889046e-10,1.3428485e-09,0.03750357,5
712220795,0.71121097,0.013659852,0.003656736,-0.70283645,0.9992966,8.889046e-10,1.3428485e-09,0.03750357,5
712270465,0.7107488,0.016485758,-0.0011893025,-0.7032518,0.9992966,8.889046e-10,1.3428485e-09,0.03750357,5
712320092,0.7110687,0.017809546,-0.0074431165,-0.7028576,0.9992966,8.889046e-10,1.3428485e-09,0.03750357,5
712374704,0.7118349,0.017680991,-0.006843401,-0.7020909,0.9992966,8.889046e-10,1.3428485e-09,0.03750357,5
712419388,0.71298444,0.018696273,-0.0039723283,-0.70091933,0.9992966,8.889046e-10,1.3428485e-09,0.03750357,5
712469043,0.71467257,0.019980235,-0.006588711,-0.6991427,0.9992966,8.889046e-10,1.3428485e-09,0.03750357,5
712518685,0.71678364,0.018447086,-0.014742067,-0.6968957,0.9992966,8.889046e-10,1.3428485e-09,0.03750357,5
712573299,0.72055477,0.0137361195,-0.021087613,-0.6929412,0.9992966,8.889046e-10,1.3428485e-09,0.03750357,5
712622947,0.723981,0.010224395,-0.021615697,-0.68940544,0.9992966,8.889046e-10,1.3428485e-09,0.03750357,5
712667631,0.7269506,0.007749694,-0.02469441,-0.6862019,0.9992966,8.889046e-10,1.3428485e-09,0.03750357,5
712722387,0.73090047,0.0011388147,-0.031862613,-0.68173903,0.9992966,8.889046e-10,1.3428485e-09,0.03750357,5
712771890,0.7321889,0.00048148597,-0.02953038,-0.6804611,0.9992966,8.889046e-10,1.3428485e-09,0.03750357,5
712821539,0.7313808,0.003616825,-0.026787305,-0.6814334,0.9992966,8.889046e-10,1.3428485e-09,0.03750357,5
712871186,0.7309068,0.0023260445,-0.030791951,-0.6817784,0.9992966,8.889046e-10,1.3428485e-09,0.03750357,5
712920835,0.7299514,0.00019974571,-0.033225525,-0.6826911,0.9992966,8.889046e-10,1.3428485e-09,0.03750357,5
712970530,0.7302866,-0.004822778,-0.038341224,-0.68204707,0.9992966,8.889046e-10,1.3428485e-09,0.03750357,5
713020134,0.7311746,-0.008866075,-0.041845147,-0.6808482,0.9992966,8.889046e-10,1.3428485e-09,0.03750357,5
713074744,0.7331726,-0.012904961,-0.03944124,-0.67877525,0.9992966,8.889046e-10,1.3428485e-09,0.03750357,5
713119428,0.7349792,-0.014677356,-0.038709413,-0.67682487,0.9992966,8.889046e-10,1.3428485e-09,0.03750357,5
713169076,0.73692816,-0.01494101,-0.038949803,-0.6746827,0.9992966,8.889046e-10,1.3428485e-09,0.03750357,5
713218780,0.7383166,-0.015276821,-0.035037003,-0.6733704,0.9992966,8.889046e-10,1.3428485e-09,0.03750357,5
713273382,0.74013996,-0.017235858,-0.034553364,-0.6713434,0.9992966,8.889046e-10,1.3428485e-09,0.03750357,5
713322985,0.7414454,-0.017761866,-0.03595543,-0.6698138,0.9992966,8.889046e-10,1.3428485e-09,0.03750357,5
713367669,0.7427925,-0.01755697,-0.038892746,-0.6681605,0.9992966,8.889046e-10,1.3428485e-09,0.03750357,5
713422282,0.7446626,-0.018343018,-0.042005103,-0.6658655,0.9992966,8.889046e-10,1.3428485e-09,0.03750357,5
713471931,0.74592847,-0.018935885,-0.04085906,-0.66450185,0.9992966,8.889046e-10,1.3428485e-09,0.03750357,5
713521676,0.7474449,-0.019301577,-0.040074974,-0.66283303,0.9992966,8.889046e-10,1.3428485e-09,0.03750357,5
713571227,0.74896747,-0.020371862,-0.036471155,-0.6612886,0.9992966,8.889046e-10,1.3428485e-09,0.03750357,5
713620875,0.7494307,-0.017825669,-0.03598829,-0.6608637,0.9992966,8.889046e-10,1.3428485e-09,0.03750357,5
713670523,0.7497814,-0.016119396,-0.035994302,-0.6605092,0.9992966,8.889046e-10,1.3428485e-09,0.03750357,5
713720174,0.7507202,-0.016358355,-0.035214256,-0.65947825,0.9992966,8.889046e-10,1.3428485e-09,0.03750357,5
713774808,0.75150883,-0.020227365,-0.03718394,-0.65836364,0.9992966,8.889046e-10,1.3428485e-09,0.03750357,5
713819491,0.7525672,-0.021751419,-0.038398508,-0.65703505,0.9992966,8.889046e-10,1.3428485e-09,0.03750357,5
713869116,0.752697,-0.021902587,-0.038173378,-0.65689445,0.9992966,8.889046e-10,1.3428485e-09,0.03750357,5
713918767,0.7535056,-0.023228232,-0.036948953,-0.65599126,0.9992966,8.889046e-10,1.3428485e-09,0.03750357,5
713973378,0.7536809,-0.023916438,-0.034368902,-0.6559055,0.9992966,8.889046e-10,1.3428485e-09,0.03750357,5
714023049,0.7537088,-0.02014346,-0.031525936,-0.65614295,0.9992966,8.889046e-10,1.3428485e-09,0.03750357,5
714067919,0.7537374,-0.015180427,-0.02769732,-0.6564164,0.9992966,8.889046e-10,1.3428485e-09,0.03750357,5
714122327,0.75333226,-0.009999007,-0.023231722,-0.65715367,0.9992966,8.889046e-10,1.3428485e-09,0.03750357,5
714171970,0.7527115,-0.0044996724,-0.01952545,-0.65804553,0.9992966,8.889046e-10,1.3428485e-09,0.03750357,5
714221618,0.7522458,-0.0034525595,-0.012863197,-0.658748,0.9992966,8.889046e-10,1.3428485e-09,0.03750357,5
714271266,0.7526112,-0.0029890854,-0.008020988,-0.65840954,0.9992966,8.889046e-10,1.3428485e-09,0.03750357,5
714320975,0.7526247,-0.0010290496,-0.005872559,-0.6584227,0.9992966,8.889046e-10,1.3428485e-09,0.03750357,5
714370563,0.7532858,-0.00047695456,-0.0056785606,-0.65766865,0.9992966,8.889046e-10,1.3428485e-09,0.03750357,5
714420211,0.7536615,-0.00050101324,-0.007405729,-0.6572209,0.9992966,8.889046e-10,1.3428485e-09,0.03750357,5
714474824,0.75455767,-0.00033083698,-0.011693215,-0.6561296,0.9992966,8.889046e-10,1.3428485e-09,0.03750357,5
714519555,0.7555127,-0.00025201554,-0.013223642,-0.6550005,0.9992966,8.889046e-10,1.3428485e-09,0.03750357,5
714569155,0.75628805,-0.00048793698,-0.015564657,-0.65405345,0.9992966,8.889046e-10,1.3428485e-09,0.03750357,5
714618812,0.7568464,0.0004442921,-0.012366244,-0.65347576,0.9992966,8.889046e-10,1.3428485e-09,0.03750357,5
714673417,0.75790775,0.002230264,-0.007360924,-0.6523164,0.9992966,8.889046e-10,1.3428485e-09,0.03750357,5
714723065,0.75834656,0.0056875595,-0.007861866,-0.6517794,0.9992966,8.889046e-10,1.3428485e-09,0.03750357,5
714767748,0.75866896,0.008180692,-0.011638576,-0.651321,0.9992966,8.889046e-10,1.3428485e-09,0.03750357,5
714822361,0.75879085,0.007946412,-0.014493478,-0.65112466,0.9992966,8.889046e-10,1.3428485e-09,0.03750357,5
714872137,0.7592152,0.00508877,-0.012814548,-0.6506937,0.9992966,8.889046e-10,1.3428485e-09,0.03750357,5
714921658,0.75877506,0.004366173,-0.01428551,-0.6511815,0.9992966,8.889046e-10,1.3428485e-09,0.03750357,5
714971306,0.758961,0.0027822244,-0.01886553,-0.65085673,0.9992966,8.889046e-10,1.3428485e-09,0.03750357,5
715020958,0.75839823,-0.0007345386,-0.025309104,-0.6512994,0.9992966,8.889046e-10,1.3428485e-09,0.03750357,5
715070603,0.758159,-0.0026872875,-0.028445823,-0.65144354,0.9992966,8.889046e-10,1.3428485e-09,0.03750357,5
715120281,0.75756633,-0.004341186,-0.026682626,-0.6521981,0.9992966,8.889046e-10,1.3428485e-09,0.03750357,5
715174866,0.757291,-0.006108373,-0.024908228,-0.6525738,0.9992966,8.889046e-10,1.3428485e-09,0.03750357,5
715219547,0.7567668,-0.007201713,-0.022900663,-0.6532441,0.9992966,8.889046e-10,1.3428485e-09,0.03750357,5
715269200,0.75636435,-0.006040453,-0.021544084,-0.6537679,0.9992966,8.889046e-10,1.3428485e-09,0.03750357,5
715318845,0.7558262,-0.0041078506,-0.020348962,-0.65444326,0.9992966,8.889046e-10,1.3428485e-09,0.03750357,5
715373455,0.75509304,-0.0020762982,-0.019144038,-0.65533495,0.9992966,8.889046e-10,1.3428485e-09,0.03750357,5
715423289,0.7546969,-0.0007039966,-0.017971206,-0.65582705,0.9992966,8.889046e-10,1.3428485e-09,0.03750357,5
715467788,0.75397706,-0.0010090164,-0.017771313,-0.6566595,0.9992966,8.889046e-10,1.3428485e-09,0.03750357,5
715522401,0.7520222,-0.0020232361,-0.018034257,-0.658888,0.9992966,8.889046e-10,1.3428485e-09,0.03750357,5
715572051,0.74917614,-0.0023414926,-0.017890252,-0.6621252,0.9992966,8.889046e-10,1.3428485e-09,0.03750357,5
715621698,0.74606436,-0.0020008842,-0.016529605,-0.6656657,0.9992966,8.889046e-10,1.3428485e-09,0.03750357,5
715671430,0.7421242,-0.0014102721,-0.014772219,-0.6700982,0.9992966,8.889046e-10,1.3428485e-09,0.03750357,5
715720995,0.7372088,-0.0008648419,-0.0137581555,-0.6755244,0.9992966,8.889046e-10,1.3428485e-09,0.03750357,5
715770642,0.73130584,-0.0005061886,-0.013805621,-0.6819098,0.9992966,8.889046e-10,1.3428485e-09,0.03750357,5
715820291,0.72487086,-0.0012436991,-0.014892946,-0.68872267,0.9992966,8.889046e-10,1.3428485e-09,0.03750357,5
715874905,0.71765393,-0.002345769,-0.015654042,-0.69622004,0.9992966,8.889046e-10,1.3428485e-09,0.03750357,5
715919587,0.7126678,-0.002743171,-0.015527179,-0.70132446,0.9992966,8.889046e-10,1.3428485e-09,0.03750357,5
715969236,0.7090078,-0.0017934799,-0.01508953,-0.705037,0.9992966,8.889046e-10,1.3428485e-09,0.03750357,5
716018888,0.705639,-0.0010100952,-0.015350657,-0.70840454,0.9992966,8.889046e-10,1.3428485e-09,0.03750357,5
716073519,0.70301574,-0.0010739826,-0.014109972,-0.7110336,0.9992966,8.889046e-10,1.3428485e-09,0.03750357,5
716123145,0.70069975,-0.0011922701,-0.01328466,-0.7133316,0.9992966,8.889046e-10,1.3428485e-09,0.03750357,5
716167830,0.6991716,-0.00052478974,-0.012542325,-0.71484375,0.9992966,8.889046e-10,1.3428485e-09,0.03750357,5
716222588,0.69725716,0.0004113978,-0.012754755,-0.7167075,0.9992966,8.889046e-10,1.3428485e-09,0.03750357,5
716272090,0.69596153,-0.00018616398,-0.01315772,-0.7179585,0.9992966,8.889046e-10,1.3428485e-09,0.03750357,5
716321738,0.69454885,-0.0005297997,-0.012776528,-0.7193319,0.9992966,8.889046e-10,1.3428485e-09,0.03750357,5
716371386,0.69377166,-8.125549e-05,-0.012519416,-0.7200863,0.9992966,8.889046e-10,1.3428485e-09,0.03750357,5
716421037,0.6931027,0.0006562322,-0.01266011,-0.72072744,0.9992966,8.889046e-10,1.3428485e-09,0.03750357,5
716470729,0.6930275,-6.5133056e-05,-0.012350589,-0.7208054,0.9992966,8.889046e-10,1.3428485e-09,0.03750357,5
716520330,0.69219196,-0.00069046364,-0.012162697,-0.72161067,0.9992966,8.889046e-10,1.3428485e-09,0.03750357,5
716574945,0.6917739,-2.9245235e-05,-0.012251711,-0.72201025,0.9992966,8.889046e-10,1.3428485e-09,0.03750357,5
716619636,0.6917796,0.0014265709,-0.011248016,-0.72201973,0.9992966,8.889046e-10,1.3428485e-09,0.03750357,5
716669275,0.69159883,0.0028235263,-0.010381723,-0.7222017,0.9992966,8.889046e-10,1.3428485e-09,0.03750357,5
716718991,0.6914442,0.0027758535,-0.009941874,-0.7223561,0.9992966,8.889046e-10,1.3428485e-09,0.03750357,5
716773536,0.6910923,0.002801691,-0.009421175,-0.7226997,0.9992966,8.889046e-10,1.3428485e-09,0.03750357,5
716823185,0.69111496,0.004088447,-0.009133172,-0.7226756,0.9992966,8.889046e-10,1.3428485e-09,0.03750357,5
716867868,0.6910905,0.0034714283,-0.009533336,-0.7226971,0.9992966,8.889046e-10,1.3428485e-09,0.03750357,5
716922481,0.69126874,0.0020580937,-0.009623392,-0.7225308,0.9992966,8.889046e-10,1.3428485e-09,0.03750357,5
716972132,0.6914109,0.0014347889,-0.010236318,-0.7223878,0.9992966,8.889046e-10,1.3428485e-09,0.03750357,5
717021887,0.6918273,0.0012621313,-0.010087268,-0.72199154,0.9992966,8.889046e-10,1.3428485e-09,0.03750357,5
717071425,0.6924204,9.834423e-05,-0.010624588,-0.72141606,0.9992966,8.889046e-10,1.3428485e-09,0.03750357,5
717121075,0.6928496,-0.00079938624,-0.01160925,-0.7209883,0.9992966,8.889046e-10,1.3428485e-09,0.03750357,5
717170722,0.6935963,-0.0019496941,-0.012585167,-0.7202514,0.9992966,8.889046e-10,1.3428485e-09,0.03750357,5
717220370,0.6943914,-0.0028570998,-0.012978502,-0.7194748,0.9992966,8.889046e-10,1.3428485e-09,0.03750357,5
717275020,0.6953162,-0.0036145167,-0.012446198,-0.7185872,0.9992966,8.889046e-10,1.3428485e-09,0.03750357,5
717319667,0.6958542,-0.0036867338,-0.01279142,-0.7180598,0.9992966,8.889046e-10,1.3428485e-09,0.03750357,5
717369316,0.6963834,-0.0042607347,-0.013518641,-0.71753,0.9992966,8.889046e-10,1.3428485e-09,0.03750357,5
717418970,0.6971501,-0.004865824,-0.014982448,-0.7167522,0.9992966,8.889046e-10,1.3428485e-09,0.03750357,5
717473576,0.6980209,-0.0069557116,-0.015359932,-0.71587896,0.9992966,8.889046e-10,1.3428485e-09,0.03750357,5
717523224,0.6980768,-0.0068261386,-0.016157685,-0.71580803,0.9992966,8.889046e-10,1.3428485e-09,0.03750357,5
717568051,0.69846433,-0.005350316,-0.016406838,-0.7154368,0.9992966,8.889046e-10,1.3428485e-09,0.03750357,5
717622521,0.6987962,-0.0036219885,-0.014668781,-0.71516126,0.9992966,8.889046e-10,1.3428485e-09,0.03750357,5
717672226,0.69874096,-0.0020721864,-0.013089938,-0.71525204,0.9992966,8.889046e-10,1.3428485e-09,0.03750357,5
717721817,0.6989337,-0.0010196524,-0.012071081,-0.7150839,0.9992966,8.889046e-10,1.3428485e-09,0.03750357,5
717771465,0.6988276,-0.00023769477,-0.01189005,-0.7151913,0.9992966,8.889046e-10,1.3428485e-09,0.03750357,5
717821187,0.69871885,-0.00042464185,-0.011128376,-0.7153098,0.9992966,8.889046e-10,1.3428485e-09,0.03750357,5
717870763,0.6983713,-0.00038875255,-0.0108655915,-0.7156532,0.9992966,8.889046e-10,1.3428485e-09,0.03750357,5
717920410,0.69812256,-7.537459e-05,-0.010598491,-0.7158999,0.9992966,8.889046e-10,1.3428485e-09,0.03750357,5
717975024,0.6974801,0.00045023445,-0.010742081,-0.7165235,0.9992966,8.889046e-10,1.3428485e-09,0.03750357,5
718019707,0.69703066,0.0011316602,-0.010911186,-0.7169575,0.9992966,8.889046e-10,1.3428485e-09,0.03750357,5
718069381,0.6964463,0.0007844493,-0.011108003,-0.71752256,0.9992966,8.889046e-10,1.3428485e-09,0.03750357,5
718119004,0.69608384,0.00079602114,-0.011099492,-0.7178743,0.9992966,8.889046e-10,1.3428485e-09,0.03750357,5
718173616,0.695652,0.0012998338,-0.011209459,-0.7182904,0.9992966,8.889046e-10,1.3428485e-09,0.03750357,5
718223318,0.6952595,0.00071985886,-0.011244696,-0.71867055,0.9992966,8.889046e-10,1.3428485e-09,0.03750357,5
718267948,0.6950335,0.0005581999,-0.011004144,-0.71889293,0.9992966,8.889046e-10,1.3428485e-09,0.03750357,5
718322561,0.6945672,0.0001796444,-0.011108902,-0.7193421,0.9992966,8.889046e-10,1.3428485e-09,0.03750357,5
718372342,0.69376755,-0.0012531362,-0.012072531,-0.72009677,0.9992966,8.889046e-10,1.3428485e-09,0.03750357,5
718421858,0.6937858,-0.0028084053,-0.012389551,-0.72006947,0.9992966,8.889046e-10,1.3428485e-09,0.03750357,5
718471506,0.6932304,-0.0024181867,-0.014279118,-0.72057056,0.9992966,8.889046e-10,1.3428485e-09,0.03750357,5
718521156,0.6931327,-0.0021539521,-0.0150716575,-0.72064924,0.9992966,8.889046e-10,1.3428485e-09,0.03750357,5
718570802,0.6925746,-0.002461959,-0.013372854,-0.7212181,0.9992966,8.889046e-10,1.3428485e-09,0.03750357,5
718620492,0.69216734,-0.0028491414,-0.011662891,-0.72163725,0.9992966,8.889046e-10,1.3428485e-09,0.03750357,5
718675063,0.6918808,-0.002720035,-0.012975111,-0.72189003,0.9992966,8.889046e-10,1.3428485e-09,0.03750357,5
718719746,0.6914933,-0.0021305212,-0.014225041,-0.7222398,0.9992966,8.889046e-10,1.3428485e-09,0.03750357,5
718769394,0.690809,-0.0020212333,-0.014153674,-0.7228959,0.9992966,8.889046e-10,1.3428485e-09,0.03750357,5
718819050,0.6906556,-0.0012935713,-0.013167911,-0.7230629,0.9992966,8.889046e-10,1.3428485e-09,0.03750357,5
718873667,0.69032454,-0.00060504366,-0.012570825,-0.72339046,0.9992966,8.889046e-10,1.3428485e-09,0.03750357,5
718923499,0.69028753,-0.000403552,-0.0118416315,-0.72343814,0.9992966,8.889046e-10,1.3428485e-09,0.03750357,5
718967988,0.6899925,-0.0009923422,-0.012745571,-0.7237037,0.9992966,8.889046e-10,1.3428485e-09,0.03750357,5
719022600,0.6895119,-0.0013414831,-0.014655528,-0.72412485,0.9992966,8.889046e-10,1.3428485e-09,0.03750357,5
719072248,0.6896862,-0.0009334692,-0.015374701,-0.7239446,0.9992966,8.889046e-10,1.3428485e-09,0.03750357,5
719121909,0.6890834,-0.0013477528,-0.015172462,-0.724522,0.9992966,8.889046e-10,1.3428485e-09,0.03750357,5
719171639,0.68883586,-0.00021434063,-0.013015144,-0.72480047,0.9992966,8.889046e-10,1.3428485e-09,0.03750357,5
719221200,0.68901384,0.001204004,-0.012109739,-0.72464603,0.9992966,8.889046e-10,1.3428485e-09,0.03750357,5
719270841,0.6887656,0.0018784191,-0.013102884,-0.72486335,0.9992966,8.889046e-10,1.3428485e-09,0.03750357,5
719320489,0.6886007,-0.00012957033,-0.014992104,-0.7249857,0.9992966,8.889046e-10,1.3428485e-09,0.03750357,5
719370138,0.6889873,-0.0056722937,-0.018833503,-0.7245065,0.9992966,8.889046e-10,1.3428485e-09,0.03750357,5
719419786,0.6889768,-0.013270958,-0.02609646,-0.72419184,0.9992966,8.889046e-10,1.3428485e-09,0.03750357,5
719469437,0.6888148,-0.021267409,-0.03389282,-0.72383225,0.9992966,8.889046e-10,1.3428485e-09,0.03750357,5
719519084,0.6886143,-0.028571986,-0.04208187,-0.72334164,0.9992966,8.889046e-10,1.3428485e-09,0.03750357,5
719573695,0.6882693,-0.03446073,-0.047392726,-0.72308487,0.9992966,8.889046e-10,1.3428485e-09,0.03750357,5
719623345,0.6884464,-0.03738311,-0.048599888,-0.72269094,0.9992966,8.889046e-10,1.3428485e-09,0.03750357,5
719668040,0.6882738,-0.037872825,-0.048943385,-0.7228067,0.9992966,8.889046e-10,1.3428485e-09,0.03750357,5
719717804,0.6885352,-0.037327006,-0.04812272,-0.72264117,0.9992966,8.889046e-10,1.3428485e-09,0.03750357,5
719772288,0.68879133,-0.035160854,-0.04486277,-0.72271544,0.9992966,8.889046e-10,1.3428485e-09,0.03750357,5
719821937,0.68870234,-0.029135805,-0.03821313,-0.7234501,0.9992966,8.889046e-10,1.3428485e-09,0.03750357,5
719871585,0.68942904,-0.021208469,-0.03189583,-0.72333986,0.9992966,8.889046e-10,1.3428485e-09,0.03750357,5
719921234,0.6895188,-0.015959809,-0.028932344,-0.7235137,0.9992966,8.889046e-10,1.3428485e-09,0.03750357,5
719970951,0.6903816,-0.012607409,-0.025268838,-0.7228941,0.9992966,8.889046e-10,1.3428485e-09,0.03750357,5
720020530,0.69088656,-0.009053206,-0.02251701,-0.7225558,0.9992966,8.889046e-10,1.3428485e-09,0.03750357,5
720075142,0.69128317,-0.004622028,-0.017791748,-0.7223501,0.9992966,8.889046e-10,1.3428485e-09,0.03750357,5
720119855,0.6917355,-0.002165709,-0.016090715,-0.7219684,0.9992966,8.889046e-10,1.3428485e-09,0.03750357,5
720169474,0.6919905,-0.0031099694,-0.017570222,-0.72168607,0.9992966,8.889046e-10,1.3428485e-09,0.03750357,5
720219122,0.69216275,-0.004723622,-0.018804811,-0.72148097,0.9992966,8.889046e-10,1.3428485e-09,0.03750357,5
720273735,0.6922433,-0.0052461745,-0.018361168,-0.7214116,0.9992966,8.889046e-10,1.3428485e-09,0.03750357,5
720323384,0.69209486,-0.003944478,-0.018100714,-0.7215689,0.9992966,8.889046e-10,1.3428485e-09,0.03750357,5
720368067,0.6919066,-0.0016739472,-0.016078314,-0.7218061,0.9992966,8.889046e-10,1.3428485e-09,0.03750357,5
720422680,0.6920525,2.600259e-05,-0.012871617,-0.72173244,0.9992966,8.889046e-10,1.3428485e-09,0.03750357,5
720472330,0.6920913,0.0009032791,-0.011412047,-0.72171926,0.9992966,8.889046e-10,1.3428485e-09,0.03750357,5
720522098,0.6920602,0.0017869249,-0.012027141,-0.72173744,0.9992966,8.889046e-10,1.3428485e-09,0.03750357,5
720571624,0.69209874,0.0022597872,-0.012967063,-0.7216829,0.9992966,8.889046e-10,1.3428485e-09,0.03750357,5
720621286,0.6920325,0.0018765575,-0.012186389,-0.7217611,0.9992966,8.889046e-10,1.3428485e-09,0.03750357,5
720670921,0.69208676,0.0018516955,-0.01074349,-0.721732,0.9992966,8.889046e-10,1.3428485e-09,0.03750357,5
720720569,0.6921597,0.0025857007,-0.010160712,-0.72166824,0.9992966,8.889046e-10,1.3428485e-09,0.03750357,5
720770297,0.6916997,0.0028924127,-0.009993107,-0.72211033,0.9992966,8.889046e-10,1.3428485e-09,0.03750357,5
720819865,0.6915268,0.002466268,-0.010299926,-0.72227323,0.9992966,8.889046e-10,1.3428485e-09,0.03750357,5
720869513,0.6914703,0.0022698538,-0.01119909,-0.7223146,0.9992966,8.889046e-10,1.3428485e-09,0.03750357,5
720919162,0.6911644,0.0019591234,-0.012003902,-0.7225953,0.9992966,8.889046e-10,1.3428485e-09,0.03750357,5
720973775,0.7165594,0.0009587398,-0.013075747,-0.6974029,0.9993506,-6.165163e-11,-7.538883e-10,0.03603424,6
721023425,0.71559256,0.00046627785,-0.014421853,-0.69836897,0.9993506,-6.165163e-11,-7.538883e-10,0.03603424,6
721068259,0.7146797,0.0009338113,-0.01594863,-0.6992694,0.9993506,-6.165163e-11,-7.538883e-10,0.03603424,6
721122758,0.7129081,0.0011535698,-0.016260248,-0.701068,0.9993506,-6.165163e-11,-7.538883e-10,0.03603424,6
721172406,0.71142215,-5.354952e-05,-0.016868107,-0.70256245,0.9993506,-6.165163e-11,-7.538883e-10,0.03603424,6
721222017,0.7096809,-0.0013443116,-0.01827205,-0.70428497,0.9993506,-6.165163e-11,-7.538883e-10,0.03603424,6
721271664,0.7083755,-0.0026639418,-0.020860841,-0.7055224,0.9993506,-6.165163e-11,-7.538883e-10,0.03603424,6
721321400,0.7066563,-0.0041991407,-0.023332369,-0.70715976,0.9993506,-6.165163e-11,-7.538883e-10,0.03603424,6
721370960,0.7049644,-0.0070654647,-0.025644952,-0.70874375,0.9993506,-6.165163e-11,-7.538883e-10,0.03603424,6
721420609,0.70405513,-0.011082901,-0.027589967,-0.70952266,0.9993506,-6.165163e-11,-7.538883e-10,0.03603424,6
721470257,0.7028794,-0.0137619395,-0.029179651,-0.7105771,0.9993506,-6.165163e-11,-7.538883e-10,0.03603424,6
721519908,0.7015065,-0.015270458,-0.030450905,-0.71184844,0.9993506,-6.165163e-11,-7.538883e-10,0.03603424,6
721569592,0.7010616,-0.017489344,-0.032546796,-0.7121428,0.9993506,-6.165163e-11,-7.538883e-10,0.03603424,6
721619202,0.70062983,-0.019356832,-0.034417294,-0.7124315,0.9993506,-6.165163e-11,-7.538883e-10,0.03603424,6
721673815,0.70010036,-0.020418966,-0.034610234,-0.7129129,0.9993506,-6.165163e-11,-7.538883e-10,0.03603424,6
721723511,0.6999025,-0.021627665,-0.034557324,-0.7130741,0.9993506,-6.165163e-11,-7.538883e-10,0.03603424,6
721768146,0.6998797,-0.022015862,-0.033281796,-0.7131452,0.9993506,-6.165163e-11,-7.538883e-10,0.03603424,6
721822759,0.69997704,-0.021218127,-0.031738598,-0.71314424,0.9993506,-6.165163e-11,-7.538883e-10,0.03603424,6
721872544,0.70029706,-0.021096738,-0.032370042,-0.71280515,0.9993506,-6.165163e-11,-7.538883e-10,0.03603424,6
721922056,0.7002508,-0.02316122,-0.0346839,-0.71267766,0.9993506,-6.165163e-11,-7.538883e-10,0.03603424,6
721971704,0.7004518,-0.02558753,-0.036177896,-0.71232283,0.9993506,-6.165163e-11,-7.538883e-10,0.03603424,6
722021353,0.70071155,-0.02680485,-0.03578029,-0.7120426,0.9993506,-6.165163e-11,-7.538883e-10,0.03603424,6
722071002,0.70055735,-0.026461987,-0.03566111,-0.7122131,0.9993506,-6.165163e-11,-7.538883e-10,0.03603424,6
722120686,0.70096457,-0.02476861,-0.036333486,-0.7118393,0.9993506,-6.165163e-11,-7.538883e-10,0.03603424,6
722170297,0.7012931,-0.023255873,-0.0353937,-0.7116141,0.9993506,-6.165163e-11,-7.538883e-10,0.03603424,6
722219944,0.70160085,-0.022810707,-0.03355514,-0.7114141,0.9993506,-6.165163e-11,-7.538883e-10,0.03603424,6
722269593,0.7016587,-0.021806046,-0.03215832,-0.7114531,0.9993506,-6.165163e-11,-7.538883e-10,0.03603424,6
722319241,0.7022659,-0.020474726,-0.03240476,-0.71088207,0.9993506,-6.165163e-11,-7.538883e-10,0.03603424,6
722373854,0.7025599,-0.019251617,-0.033856705,-0.71055806,0.9993506,-6.165163e-11,-7.538883e-10,0.03603424,6
722423506,0.7032377,-0.02070603,-0.03389803,-0.70984435,0.9993506,-6.165163e-11,-7.538883e-10,0.03603424,6
722468219,0.70351917,-0.021638108,-0.03349766,-0.70955664,0.9993506,-6.165163e-11,-7.538883e-10,0.03603424,6
722522799,0.7044093,-0.021007616,-0.03228121,-0.7087484,0.9993506,-6.165163e-11,-7.538883e-10,0.03603424,6
722572447,0.7055713,-0.0170429,-0.028489558,-0.7078609,0.9993506,-6.165163e-11,-7.538883e-10,0.03603424,6
722622095,0.706864,-0.010382125,-0.023444055,-0.7068846,0.9993506,-6.165163e-11,-7.538883e-10,0.03603424,6
722671845,0.7080795,-0.004200663,-0.01789188,-0.7058935,0.9993506,-6.165163e-11,-7.538883e-10,0.03603424,6
722721392,0.70981884,-0.00034769,-0.013822076,-0.70424867,0.9993506,-6.165163e-11,-7.538883e-10,0.03603424,6
722771039,0.7111744,0.0008894834,-0.01223541,-0.7029086,0.9993506,-6.165163e-11,-7.538883e-10,0.03603424,6
722820688,0.7124882,0.0017835802,-0.012303901,-0.7015741,0.9993506,-6.165163e-11,-7.538883e-10,0.03603424,6
722870336,0.71361446,0.002377839,-0.0125069,-0.70042306,0.9993506,-6.165163e-11,-7.538883e-10,0.03603424,6
722920040,0.7142766,0.0030689025,-0.01155808,-0.69976145,0.9993506,-6.165163e-11,-7.538883e-10,0.03603424,6
722969633,0.7140503,0.0028001554,-0.010745985,-0.7000064,0.9993506,-6.165163e-11,-7.538883e-10,0.03603424,6
723019283,0.7139722,0.0020887135,-0.011005209,-0.7000845,0.9993506,-6.165163e-11,-7.538883e-10,0.03603424,6
723073894,0.713475,0.003473086,-0.012541636,-0.70055985,0.9993506,-6.165163e-11,-7.538883e-10,0.03603424,6
723123543,0.71292794,0.0040901783,-0.013151938,-0.7011021,0.9993506,-6.165163e-11,-7.538883e-10,0.03603424,6
723168225,0.7126872,0.0029861836,-0.012143217,-0.70137054,0.9993506,-6.165163e-11,-7.538883e-10,0.03603424,6
723222995,0.7122796,0.0009221104,-0.012318604,-0.7017872,0.9993506,-6.165163e-11,-7.538883e-10,0.03603424,6
723272486,0.7124524,-0.004369,-0.012650301,-0.7015928,0.9993506,-6.165163e-11,-7.538883e-10,0.03603424,6
723322135,0.71179575,-0.007742247,-0.012172187,-0.7022384,0.9993506,-6.165163e-11,-7.538883e-10,0.03603424,6
723371784,0.71169275,-0.0077505223,-0.009723658,-0.70238084,0.9993506,-6.165163e-11,-7.538883e-10,0.03603424,6
723421436,0.7109384,-0.0071384334,-0.0072757313,-0.70318043,0.9993506,-6.165163e-11,-7.538883e-10,0.03603424,6
723471141,0.70928264,-0.008481298,-0.005804984,-0.70484936,0.9993506,-6.165163e-11,-7.538883e-10,0.03603424,6
723520739,0.7056173,-0.010089105,-0.005334214,-0.7085013,0.9993506,-6.165163e-11,-7.538883e-10,0.03603424,6
723570377,0.70093954,-0.008945924,-0.006778662,-0.71313244,0.9993506,-6.165163e-11,-7.538883e-10,0.03603424,6
723620024,0.69591475,-0.006726094,-0.008789873,-0.7180392,0.9993506,-6.165163e-11,-7.538883e-10,0.03603424,6
723669673,0.69064355,-0.0043631033,-0.0105855325,-0.7231048,0.9993506,-6.165163e-11,-7.538883e-10,0.03603424,6
723719342,0.6853443,-0.0037029316,-0.013077929,-0.7280924,0.9993506,-6.165163e-11,-7.538883e-10,0.03603424,6
723773940,0.6815025,-0.0031976746,-0.01500883,-0.73165494,0.9993506,-6.165163e-11,-7.538883e-10,0.03603424,6
723818629,0.679368,-0.002201707,-0.0150100235,-0.7336409,0.9993506,-6.165163e-11,-7.538883e-10,0.03603424,6
723868265,0.6774117,-0.0013370005,-0.0143593075,-0.7354627,0.9993506,-6.165163e-11,-7.538883e-10,0.03603424,6
723922878,0.6756713,-0.0026339972,-0.01443799,-0.73705703,0.9993506,-6.165163e-11,-7.538883e-10,0.03603424,6
723972526,0.6746644,-0.0040861974,-0.015908794,-0.7379419,0.9993506,-6.165163e-11,-7.538883e-10,0.03603424,6
724022294,0.67316943,-0.004142268,-0.018200727,-0.7392527,0.9993506,-6.165163e-11,-7.538883e-10,0.03603424,6
724071823,0.6723202,-0.0051019723,-0.020068223,-0.73997086,0.9993506,-6.165163e-11,-7.538883e-10,0.03603424,6
724121471,0.6716973,-0.0068916227,-0.022083575,-0.7404644,0.9993506,-6.165163e-11,-7.538883e-10,0.03603424,6
724171119,0.67100364,-0.009062069,-0.024731252,-0.74098605,0.9993506,-6.165163e-11,-7.538883e-10,0.03603424,6
724220767,0.6707172,-0.01084604,-0.027402077,-0.7411276,0.9993506,-6.165163e-11,-7.538883e-10,0.03603424,6
724270500,0.6702395,-0.012941347,-0.028828032,-0.7414719,0.9993506,-6.165163e-11,-7.538883e-10,0.03603424,6
724320064,0.6700823,-0.01566245,-0.030374872,-0.7414998,0.9993506,-6.165163e-11,-7.538883e-10,0.03603424,6
724369719,0.66953623,-0.018005844,-0.03287297,-0.7418332,0.9993506,-6.165163e-11,-7.538883e-10,0.03603424,6
724419360,0.6695949,-0.01752251,-0.034966037,-0.74169606,0.9993506,-6.165163e-11,-7.538883e-10,0.03603424,6
724473973,0.6694944,-0.013768112,-0.03259281,-0.74197406,0.9993506,-6.165163e-11,-7.538883e-10,0.03603424,6
724523621,0.6695697,-0.009165357,-0.024942728,-0.7422738,0.9993506,-6.165163e-11,-7.538883e-10,0.03603424,6
724568461,0.6696185,-0.003707814,-0.019135682,-0.7424495,0.9993506,-6.165163e-11,-7.538883e-10,0.03603424,6
724622919,0.6694446,0.00019196332,-0.014989759,-0.7427108,0.9993506,-6.165163e-11,-7.538883e-10,0.03603424,6
724672566,0.6698409,0.00028972645,-0.012639189,-0.74239707,0.9993506,-6.165163e-11,-7.538883e-10,0.03603424,6
724722264,0.6698032,-0.0006750174,-0.011756549,-0.7424453,0.9993506,-6.165163e-11,-7.538883e-10,0.03603424,6
724771863,0.6699249,-0.000642491,-0.012014716,-0.7423314,0.9993506,-6.165163e-11,-7.538883e-10,0.03603424,6
724821603,0.66998947,-0.0020339852,-0.013246572,-0.74224967,0.9993506,-6.165163e-11,-7.538883e-10,0.03603424,6
724871159,0.6703399,-0.0052705854,-0.016483627,-0.74185246,0.9993506,-6.165163e-11,-7.538883e-10,0.03603424,6
724920807,0.6705725,-0.008097949,-0.019337261,-0.74154776,0.9993506,-6.165163e-11,-7.538883e-10,0.03603424,6
724970456,0.67073524,-0.008749868,-0.021619694,-0.74133015,0.9993506,-6.165163e-11,-7.538883e-10,0.03603424,6
725020105,0.67146516,-0.0078088907,-0.02270943,-0.74064696,0.9993506,-6.165163e-11,-7.538883e-10,0.03603424,6
725069754,0.6713884,-0.007825676,-0.022369511,-0.74072677,0.9993506,-6.165163e-11,-7.538883e-10,0.03603424,6
725119400,0.67195934,-0.009595912,-0.022444794,-0.74018574,0.9993506,-6.165163e-11,-7.538883e-10,0.03603424,6
725174016,0.67187697,-0.012420578,-0.02450785,-0.7401531,0.9993506,-6.165163e-11,-7.538883e-10,0.03603424,6
725218713,0.67196375,-0.014755839,-0.02187755,-0.7401138,0.9993506,-6.165163e-11,-7.538883e-10,0.03603424,6
725268344,0.6715968,-0.015959146,-0.013719544,-0.7406179,0.9993506,-6.165163e-11,-7.538883e-10,0.03603424,6
725322959,0.67157525,-0.017811032,-0.005343343,-0.740703,0.9993506,-6.165163e-11,-7.538883e-10,0.03603424,6
725372751,0.6713045,-0.017896265,-0.0034754896,-0.7409575,0.9993506,-6.165163e-11,-7.538883e-10,0.03603424,6
725422254,0.67141014,-0.015602703,-0.0071921013,-0.7408868,0.9993506,-6.165163e-11,-7.538883e-10,0.03603424,6
725471902,0.67120135,-0.013927501,-0.012069215,-0.741046,0.9993506,-6.165163e-11,-7.538883e-10,0.03603424,6
725521550,0.6712878,-0.013215588,-0.012943714,-0.74096596,0.9993506,-6.165163e-11,-7.538883e-10,0.03603424,6
725571204,0.6711056,-0.013649206,-0.008002868,-0.74119294,0.9993506,-6.165163e-11,-7.538883e-10,0.03603424,6
725620894,0.67127424,-0.01467438,0.0011981173,-0.7410628,0.9993506,-6.165163e-11,-7.538883e-10,0.03603424,6
725670495,0.6710888,-0.016484614,0.0065324646,-0.7411649,0.9993506,-6.165163e-11,-7.538883e-10,0.03603424,6
725720143,0.67109627,-0.014924113,0.0036101693,-0.74121124,0.9993506,-6.165163e-11,-7.538883e-10,0.03603424,6
725769793,0.67169195,-0.010994201,-0.0026343106,-0.74074435,0.9993506,-6.165163e-11,-7.538883e-10,0.03603424,6
725819440,0.6713057,-0.009295415,-0.007861431,-0.74108064,0.9993506,-6.165163e-11,-7.538883e-10,0.03603424,6
725874083,0.6713627,-0.0074868277,-0.009424453,-0.7410312,0.9993506,-6.165163e-11,-7.538883e-10,0.03603424,6
725918922,0.6715524,-0.0053110127,-0.010445903,-0.74086446,0.9993506,-6.165163e-11,-7.538883e-10,0.03603424,6
725968384,0.6717414,-0.004605708,-0.012591195,-0.7406644,0.9993506,-6.165163e-11,-7.538883e-10,0.03603424,6
726022997,0.6717826,-0.005108106,-0.016356174,-0.74055016,0.9993506,-6.165163e-11,-7.538883e-10,0.03603424,6
726072649,0.6718743,-0.0064052343,-0.019906418,-0.74037004,0.9993506,-6.165163e-11,-7.538883e-10,0.03603424,6
726122293,0.67172337,-0.009502076,-0.02312067,-0.7403803,0.9993506,-6.165163e-11,-7.538883e-10,0.03603424,6
726172049,0.67151314,-0.011537393,-0.025388371,-0.7404677,0.9993506,-6.165163e-11,-7.538883e-10,0.03603424,6
726221590,0.67075074,-0.01311297,-0.027150298,-0.74106985,0.9993506,-6.165163e-11,-7.538883e-10,0.03603424,6
726271239,0.6703217,-0.015341511,-0.029926872,-0.7413083,0.9993506,-6.165163e-11,-7.538883e-10,0.03603424,6
726320886,0.66934675,-0.017229535,-0.031153362,-0.7420967,0.9993506,-6.165163e-11,-7.538883e-10,0.03603424,6
726370534,0.6685152,-0.017779853,-0.029456371,-0.7429022,0.9993506,-6.165163e-11,-7.538883e-10,0.03603424,6
726420259,0.66736454,-0.0184403,-0.028195312,-0.7439688,0.9993506,-6.165163e-11,-7.538883e-10,0.03603424,6
726469834,0.666377,-0.018533232,-0.029159337,-0.7448141,0.9993506,-6.165163e-11,-7.538883e-10,0.03603424,6
726519482,0.6656038,-0.018839011,-0.028992046,-0.745504,0.9993506,-6.165163e-11,-7.538883e-10,0.03603424,6
726574092,0.66483575,-0.019882906,-0.027700095,-0.74621105,0.9993506,-6.165163e-11,-7.538883e-10,0.03603424,6
726618775,0.66412026,-0.02110077,-0.028161013,-0.74679726,0.9993506,-6.165163e-11,-7.538883e-10,0.03603424,6
726668423,0.6630197,-0.022798441,-0.031089874,-0.74760854,0.9993506,-6.165163e-11,-7.538883e-10,0.03603424,6
726723237,0.66263455,-0.024756817,-0.03255462,-0.7478254,0.9993506,-6.165163e-11,-7.538883e-10,0.03603424,6
726772685,0.6625201,-0.026776984,-0.035792746,-0.7477092,0.9993506,-6.165163e-11,-7.538883e-10,0.03603424,6
726822333,0.66235495,-0.029170215,-0.04019066,-0.7475425,0.9993506,-6.165163e-11,-7.538883e-10,0.03603424,6
726871983,0.66207945,-0.031086907,-0.040192317,-0.74770916,0.9993506,-6.165163e-11,-7.538883e-10,0.03603424,6
726921634,0.66205055,-0.029948993,-0.03681271,-0.74795526,0.9993506,-6.165163e-11,-7.538883e-10,0.03603424,6
726971357,0.6628248,-0.025638305,-0.034070414,-0.74755955,0.9993506,-6.165163e-11,-7.538883e-10,0.03603424,6
727020923,0.6632175,-0.020321088,-0.03120802,-0.7474997,0.9993506,-6.165163e-11,-7.538883e-10,0.03603424,6
727070574,0.6641058,-0.014899037,-0.025484156,-0.7470557,0.9993506,-6.165163e-11,-7.538883e-10,0.03603424,6
727120222,0.66473347,-0.010679302,-0.019428764,-0.74675155,0.9993506,-6.165163e-11,-7.538883e-10,0.03603424,6
727169876,0.6656315,-0.007835307,-0.015280259,-0.746083,0.9993506,-6.165163e-11,-7.538883e-10,0.03603424,6
727219561,0.6665318,-0.0043799123,-0.013649791,-0.7453388,0.9993506,-6.165163e-11,-7.538883e-10,0.03603424,6
727274132,0.66748714,-0.0013589364,-0.011663665,-0.7445288,0.9993506,-6.165163e-11,-7.538883e-10,0.03603424,6
727318815,0.6683249,-0.0006520271,-0.009981385,-0.74380237,0.9993506,-6.165163e-11,-7.538883e-10,0.03603424,6
727368463,0.66907436,-0.0019184595,-0.009234455,-0.74313563,0.9993506,-6.165163e-11,-7.538883e-10,0.03603424,6
727423077,0.6702174,-0.0028556276,-0.010028669,-0.74209166,0.9993506,-6.165163e-11,-7.538883e-10,0.03603424,6
727472724,0.6715452,-0.0016679168,-0.013113486,-0.74084574,0.9993506,-6.165163e-11,-7.538883e-10,0.03603424,6
727522504,0.6722169,-0.00035260705,-0.014307661,-0.74021596,0.9993506,-6.165163e-11,-7.538883e-10,0.03603424,6
727572021,0.6730628,-0.0013520141,-0.013310539,-0.73946434,0.9993506,-6.165163e-11,-7.538883e-10,0.03603424,6
727621669,0.6740933,-0.0033622119,-0.014183959,-0.7385024,0.9993506,-6.165163e-11,-7.538883e-10,0.03603424,6
727671318,0.67489934,-0.0046468955,-0.016899917,-0.7377016,0.9993506,-6.165163e-11,-7.538883e-10,0.03603424,6
727720967,0.67555183,-0.0046509965,-0.01923895,-0.7370469,0.9993506,-6.165163e-11,-7.538883e-10,0.03603424,6
727770643,0.67608976,-0.004751923,-0.019420605,-0.736548,0.9993506,-6.165163e-11,-7.538883e-10,0.03603424,6
727820271,0.6769966,-0.00640881,-0.017989634,-0.7357384,0.9993506,-6.165163e-11,-7.538883e-10,0.03603424,6
727869911,0.6768594,-0.0065746973,-0.017723883,-0.7358696,0.9993506,-6.165163e-11,-7.538883e-10,0.03603424,6
727919559,0.67777723,-0.0047870646,-0.016392965,-0.73506904,0.9993506,-6.165163e-11,-7.538883e-10,0.03603424,6
727974172,0.6780395,-0.0042072292,-0.015221449,-0.7348559,0.9993506,-6.165163e-11,-7.538883e-10,0.03603424,6
728018856,0.67793417,-0.0056859856,-0.014859623,-0.7349504,0.9993506,-6.165163e-11,-7.538883e-10,0.03603424,6
728068675,0.6782824,-0.0075955642,-0.017363235,-0.734557,0.9993506,-6.165163e-11,-7.538883e-10,0.03603424,6
728123116,0.6785878,-0.008244292,-0.020312995,-0.73419213,0.9993506,-6.165163e-11,-7.538883e-10,0.03603424,6
728172764,0.67853093,-0.008997851,-0.022375755,-0.7341758,0.9993506,-6.165163e-11,-7.538883e-10,0.03603424,6
728222413,0.6789391,-0.01044006,-0.022533244,-0.7337745,0.9993506,-6.165163e-11,-7.538883e-10,0.03603424,6
728272062,0.6783742,-0.011151802,-0.022496022,-0.73428744,0.9993506,-6.165163e-11,-7.538883e-10,0.03603424,6
728321802,0.6784074,-0.010585287,-0.022380566,-0.7342688,0.9993506,-6.165163e-11,-7.538883e-10,0.03603424,6
728371358,0.67785466,-0.010713956,-0.022923399,-0.7347604,0.9993506,-6.165163e-11,-7.538883e-10,0.03603424,6
728421005,0.67715925,-0.010891784,-0.022812875,-0.7354021,0.9993506,-6.165163e-11,-7.538883e-10,0.03603424,6
728470653,0.67689633,-0.013054628,-0.024209062,-0.73556435,0.9993506,-6.165163e-11,-7.538883e-10,0.03603424,6
728520301,0.67624485,-0.016784608,-0.025444388,-0.7360461,0.9993506,-6.165163e-11,-7.538883e-10,0.03603424,6
728569952,0.6754838,-0.017786903,-0.027422626,-0.73665005,0.9993506,-6.165163e-11,-7.538883e-10,0.03603424,6
728619598,0.6747915,-0.018769113,-0.028836813,-0.7372059,0.9993506,-6.165163e-11,-7.538883e-10,0.03603424,6
728674211,0.6739593,-0.019112842,-0.028860833,-0.73795706,0.9993506,-6.165163e-11,-7.538883e-10,0.03603424,6
728718934,0.6734905,-0.01900986,-0.02812401,-0.738416,0.9993506,-6.165163e-11,-7.538883e-10,0.03603424,6
728768542,0.6729714,-0.019835329,-0.02835501,-0.73885864,0.9993506,-6.165163e-11,-7.538883e-10,0.03603424,6
728823155,0.672886,-0.021815574,-0.030719612,-0.7387861,0.9993506,-6.165163e-11,-7.538883e-10,0.03603424,6
728872958,0.6722895,-0.023977851,-0.0327929,-0.7391729,0.9993506,-6.165163e-11,-7.538883e-10,0.03603424,6
728922452,0.67209977,-0.025341203,-0.03371534,-0.73925847,0.9993506,-6.165163e-11,-7.538883e-10,0.03603424,6
728967147,0.6720361,-0.025358673,-0.033007924,-0.73934764,0.9993506,-6.165163e-11,-7.538883e-10,0.03603424,6
729021755,0.67195576,-0.02459947,-0.031147819,-0.73952705,0.9993506,-6.165163e-11,-7.538883e-10,0.03603424,6
729071398,0.67177546,-0.022530666,-0.02969648,-0.7398164,0.9993506,-6.165163e-11,-7.538883e-10,0.03603424,6
729121103,0.6719459,-0.020859959,-0.02989187,-0.7397027,0.9993506,-6.165163e-11,-7.538883e-10,0.03603424,6
729170693,0.671917,-0.020993289,-0.030589629,-0.7396966,0.9993506,-6.165163e-11,-7.538883e-10,0.03603424,6
729220346,0.6720836,-0.022557855,-0.030858159,-0.7394881,0.9993506,-6.165163e-11,-7.538883e-10,0.03603424,6
729270023,0.67181844,-0.024135634,-0.030562486,-0.7396915,0.9993506,-6.165163e-11,-7.538883e-10,0.03603424,6
729319637,0.6716995,-0.023608398,-0.030307684,-0.7398269,0.9993506,-6.165163e-11,-7.538883e-10,0.03603424,6
729374297,0.67157483,-0.021403644,-0.030069038,-0.74001694,0.9993506,-6.165163e-11,-7.538883e-10,0.03603424,6
729419118,0.67139065,-0.020057736,-0.030089926,-0.7402209,0.9993506,-6.165163e-11,-7.538883e-10,0.03603424,6
729468582,0.67180425,-0.01963216,-0.029197037,-0.73989266,0.9993506,-6.165163e-11,-7.538883e-10,0.03603424,6
729523200,0.67147887,-0.020189542,-0.029033648,-0.7401795,0.9993506,-6.165163e-11,-7.538883e-10,0.03603424,6
729572843,0.6718126,-0.021094924,-0.028929878,-0.73985535,0.9993506,-6.165163e-11,-7.538883e-10,0.03603424,6
729622491,0.6720502,-0.020616487,-0.027633777,-0.73970264,0.9993506,-6.165163e-11,-7.538883e-10,0.03603424,6
729667265,0.672143,-0.01897547,-0.026378054,-0.73970807,0.9993506,-6.165163e-11,-7.538883e-10,0.03603424,6
729721789,0.6726225,-0.015913641,-0.024098556,-0.73942214,0.9993506,-6.165163e-11,-7.538883e-10,0.03603424,6
729771436,0.6729068,-0.013178862,-0.022607213,-0.7392643,0.9993506,-6.165163e-11,-7.538883e-10,0.03603424,6
729821084,0.67279416,-0.013834351,-0.021834208,-0.73937815,0.9993506,-6.165163e-11,-7.538883e-10,0.03603424,6
729870736,0.672916,-0.015220058,-0.023955502,-0.7391743,0.9993506,-6.165163e-11,-7.538883e-10,0.03603424,6
729920453,0.67303175,-0.016721936,-0.02642069,-0.7389524,0.9993506,-6.165163e-11,-7.538883e-10,0.03603424,6
729970028,0.6733943,-0.018227778,-0.026638385,-0.7385786,0.9993506,-6.165163e-11,-7.538883e-10,0.03603424,6
730019677,0.67385757,-0.019362325,-0.02655489,-0.73813003,0.9993506,-6.165163e-11,-7.538883e-10,0.03603424,6
730074290,0.67408824,-0.01974523,-0.02683749,-0.737899,0.9993506,-6.165163e-11,-7.538883e-10,0.03603424,6
730118973,0.6745603,-0.021734241,-0.02762367,-0.7373826,0.9993506,-6.165163e-11,-7.538883e-10,0.03603424,6
730168622,0.6753003,-0.022928348,-0.027727425,-0.73666483,0.9993506,-6.165163e-11,-7.538883e-10,0.03603424,6
730223416,0.675996,-0.021440033,-0.029934827,-0.73598486,0.9993506,-6.165163e-11,-7.538883e-10,0.03603424,6
730272883,0.67625827,-0.020459749,-0.028136142,-0.7358428,0.9993506,-6.165163e-11,-7.538883e-10,0.03603424,6
730322548,0.67657995,-0.02231413,-0.026405772,-0.7355572,0.9993506,-6.165163e-11,-7.538883e-10,0.03603424,6
730367214,0.67616093,-0.022218259,-0.026481483,-0.7359426,0.9993506,-6.165163e-11,-7.538883e-10,0.03603424,6
730421830,0.6756165,-0.020950068,-0.028924808,-0.7363878,0.9993506,-6.165163e-11,-7.538883e-10,0.03603424,6
730471551,0.67503214,-0.01943011,-0.029847443,-0.7369283,0.9993506,-6.165163e-11,-7.538883e-10,0.03603424,6
730521123,0.6735592,-0.017629191,-0.028811794,-0.7383612,0.9993506,-6.165163e-11,-7.538883e-10,0.03603424,6
730570771,0.6725096,-0.017655468,-0.027061015,-0.7393828,0.9993506,-6.165163e-11,-7.538883e-10,0.03603424,6
730620420,0.6709473,-0.018093215,-0.025387213,-0.7408495,0.9993506,-6.165163e-11,-7.538883e-10,0.03603424,6
730670069,0.6694145,-0.017876903,-0.025144406,-0.7422483,0.9993506,-6.165163e-11,-7.538883e-10,0.03603424,6
730719742,0.6682922,-0.015272586,-0.024566663,-0.74333626,0.9993506,-6.165163e-11,-7.538883e-10,0.03603424,6
730774350,0.6674016,-0.010722136,-0.022782216,-0.7442723,0.9993506,-6.165163e-11,-7.538883e-10,0.03603424,6
730819014,0.6670581,-0.009124825,-0.021708244,-0.7446335,0.9993506,-6.165163e-11,-7.538883e-10,0.03603424,6
730868661,0.6664887,-0.007832125,-0.020965647,-0.7451791,0.9993506,-6.165163e-11,-7.538883e-10,0.03603424,6
730923274,0.66670203,-0.007126799,-0.019575495,-0.7450332,0.9993506,-6.165163e-11,-7.538883e-10,0.03603424,6
730972922,0.66689557,-0.007187122,-0.018350622,-0.74489063,0.9993506,-6.165163e-11,-7.538883e-10,0.03603424,6
731022765,0.6675546,-0.0076806415,-0.018834418,-0.74428296,0.9993506,-6.165163e-11,-7.538883e-10,0.03603424,6
731067257,0.66828406,-0.007887387,-0.021158107,-0.7435635,0.9993506,-6.165163e-11,-7.538883e-10,0.03603424,6
731121867,0.66880333,-0.008159265,-0.02275247,-0.74304634,0.9993506,-6.165163e-11,-7.538883e-10,0.03603424,6
731171515,0.6693166,-0.009218522,-0.021889484,-0.74259764,0.9993506,-6.165163e-11,-7.538883e-10,0.03603424,6
731221164,0.6696284,-0.011329246,-0.02049435,-0.7423271,0.9993506,-6.165163e-11,-7.538883e-10,0.03603424,6
