timestamp,roll,pitch,yaw,thrust_body[0],thrust_body[1],thrust_body[2]
703920156,-0.03343311,0.13501596,-0.0006828656,0.0,0.0,-0.0
703925257,-0.03312266,0.13414887,-0.00060329115,0.0,0.0,-0.0
703939979,-0.03329076,0.13474482,-0.0018400163,0.0,0.0,-0.0
703964844,-0.019210875,0.13370788,-0.0017995086,0.0,0.0,-0.0
703979752,-0.032851253,0.13565317,-0.0010358355,0.0,0.0,-0.0
703999561,-0.020298995,0.13627642,-0.001254369,0.0,0.0,-0.0
704024472,-0.031168051,0.13545337,-0.0015667886,0.0,0.0,-0.0
704084064,-0.0319951,0.13413051,-0.00086237537,0.0,0.0,-0.0
704104089,-0.03231019,0.1352944,-0.0016118223,0.0,0.0,-0.0
704118975,-0.02714516,0.13376625,-0.0019127153,0.0,0.0,-0.0
704143574,-0.03470325,0.13503984,-0.00047203962,0.0,0.0,-0.0
704163517,-0.01588268,0.13351913,-0.0012237794,0.0,0.0,-0.0
704183452,-0.022270918,0.13711129,-0.002093074,0.0,0.0,-0.0
704198260,-0.026213717,0.13377202,-0.0014094852,0.0,0.0,-0.0
704223009,-0.019815033,0.13453545,-0.0015903097,0.0,0.0,-0.0
704242844,-0.031001588,0.13442104,-0.0008018296,0.0,0.0,-0.0
704257791,-0.03190717,0.13293016,-0.0025913818,0.0,0.0,-0.0
704282622,-0.015481735,0.13432334,-0.0017773235,0.0,0.0,-0.0
704302472,-0.034909688,0.13465428,-0.0003635943,0.0,0.0,-0.0
704322245,-0.02786428,0.1336814,-0.0018460392,0.0,0.0,-0.0
704342098,-0.019675054,0.13372602,-0.000920878,0.0,0.0,-0.0
704362118,-0.03161309,0.13372995,-0.0010072989,0.0,0.0,-0.0
704382009,-0.0297224,0.13326712,-0.0017517285,0.0,0.0,-0.0
704401793,-0.031067718,0.1349065,-0.0006024404,0.0,0.0,-0.0
704421684,-0.019616708,0.13374197,-0.0020997145,0.0,0.0,-0.0
704441519,-0.017104,0.13302806,-0.0017511444,0.0,0.0,-0.0
704461401,-0.030982032,0.13309267,-0.0002577094,0.0,0.0,-0.0
704481184,-0.018183898,0.13318045,-0.0022034373,0.0,0.0,-0.0
704501105,-0.018088847,0.13395803,-0.0018793967,0.0,0.0,-0.0
704520933,-0.017219786,0.13362372,-0.00027656514,0.0,0.0,-0.0
704540696,-0.03096251,0.13255876,-0.0018831647,0.0,0.0,-0.0
704560539,-0.03018164,0.13303284,-0.0019177644,0.0,0.0,-0.0
704580464,-0.029323047,0.13317114,-0.00025644465,0.0,0.0,-0.0
704605287,-0.02924145,0.13306105,-0.00028356342,0.0,0.0,-0.0
704620243,-0.030506404,0.1330096,-0.0019132134,0.0,0.0,-0.0
704640168,-0.029464904,0.1330263,-0.0002391951,0.0,0.0,-0.0
704664974,-0.016501818,0.13326168,-0.0002741125,0.0,0.0,-0.0
704679844,-0.031207547,0.13354969,-0.002401146,0.0,0.0,-0.0
704699704,-0.017185848,0.13407625,-0.00035831408,0.0,0.0,-0.0
704724522,-0.016241718,0.13386832,-0.00021063173,0.0,0.0,-0.0
704744291,-0.03076006,0.13252908,-0.0022440024,0.0,0.0,-0.0
704759182,-0.029873181,0.13375746,-0.00037121866,0.0,0.0,-0.0
704784018,-0.016085317,0.13389492,-0.00012517732,0.0,0.0,-0.0
704803878,-0.029912747,0.13310307,-0.0016840514,0.0,0.0,-0.0
704818708,-0.030060438,0.13394408,-0.000889204,0.0,0.0,-0.0
704843550,-0.015830789,0.13419157,-0.0002287319,0.0,0.0,-0.0
704863448,-0.02860722,0.13356963,-0.0013494914,0.0,0.0,-0.0
704883349,-0.031050777,0.133234,-0.002282838,0.0,0.0,-0.0
704898364,-0.026988469,0.13351628,-0.00044037058,0.0,0.0,-0.0
704923314,-0.014725188,0.13269182,-0.001084128,0.0,0.0,-0.0
704943012,-0.030804778,0.13194412,-0.0019679237,0.0,0.0,-0.0
704957886,-0.014099079,0.13362806,-0.00079697307,0.0,0.0,-0.0
704982722,-0.026418883,0.13328359,-0.00081709237,0.0,0.0,-0.0
705002507,-0.017384036,0.13242806,-0.0015774856,0.0,0.0,-0.0
705022326,-0.015372716,0.13254371,-0.0016301045,0.0,0.0,-0.0
705042252,-0.025480006,0.13351482,-0.0009045765,0.0,0.0,-0.0
705062047,-0.016179541,0.13311264,-0.0011867702,0.0,0.0,-0.0
705081887,-0.028623234,0.1332502,-0.0018599818,0.0,0.0,-0.0
705101766,-0.012921823,0.13353166,-0.0014082326,0.0,0.0,-0.0
705121708,-0.014943921,0.13173327,-0.00072451634,0.0,0.0,-0.0
705141524,-0.01646996,0.13217199,-0.0016511397,0.0,0.0,-0.0
705161407,-0.024971606,0.1339137,-0.0018566453,0.0,0.0,-0.0
705181346,-0.013596505,0.13278146,-0.00061607256,0.0,0.0,-0.0
705201148,-0.028967418,0.1319743,-0.0009071151,0.0,0.0,-0.0
705221014,-0.025221007,0.1324043,-0.0025525668,0.0,0.0,-0.01623011
705240827,-0.02512945,0.1320178,-0.0007683587,0.0,0.0,-0.02746634
705260682,-0.02898586,0.13143605,-0.00022045571,0.0,0.0,-0.03495716
705280500,-0.013499848,0.13194324,-0.0029070633,0.0,0.0,-0.04119951
705305273,-0.024382181,0.13236968,-0.0028060637,0.0,0.0,-0.06866585
705320346,-0.028835775,0.13024,0.0004282836,0.0,0.0,-0.08988984
705340145,-0.02746633,0.13084649,-0.0019215307,0.0,0.0,-0.08988984
705364882,-0.026384354,0.13197678,-0.004736755,0.0,0.0,-0.19473685
705379890,-0.024191767,0.12965047,-0.0010366146,0.0,0.0,-0.19473685
705399724,-0.019967902,0.12679903,-0.0020281281,0.0,0.0,-0.20526315
705424649,-0.030698631,0.12315263,-0.0017964565,0.0,0.0,-0.20421053
705444472,-0.034429893,0.12545349,-0.0032811784,0.0,0.0,-0.20526315
705459440,-0.022119671,0.14201993,-0.005193921,0.0,0.0,-0.20526315
705484078,-0.037960097,0.13609542,-0.006283847,0.0,0.0,-0.20631579
705504088,-0.03718615,0.13551696,-0.007510485,0.0,0.0,-0.20631579
705518886,-0.049431495,0.14072953,-0.004814562,0.0,0.0,-0.20631579
705538745,-0.03138473,0.13459139,-0.0051273624,0.0,0.0,-0.20736842
705563519,-0.021214407,0.13160878,-0.0051559443,0.0,0.0,-0.20631579
705583444,-0.01730777,0.13299532,-0.0044871285,0.0,0.0,-0.20631579
705598285,-0.02215947,0.13200639,-0.003529838,0.0,0.0,-0.20631579
705623103,-0.030064477,0.12769754,-0.007870566,0.0,0.0,-0.20631579
705642933,-0.021793885,0.12835269,-0.007510559,0.0,0.0,-0.20631579
705657761,-0.026513824,0.12658548,-0.00816781,0.0,0.0,-0.20631579
705682669,-0.028429924,0.13389532,-0.005565741,0.0,0.0,-0.20631579
705702537,-0.024707876,0.12912536,-0.006342128,0.0,0.0,-0.20631579
705722494,-0.0049905325,0.125201,-0.0068614646,0.0,0.0,-0.20631579
705742238,-0.02194848,0.1287586,-0.008152115,0.0,0.0,-0.20631579
705762182,-0.03192622,0.13184495,-0.008077338,0.0,0.0,-0.20631579
705782094,-0.032376584,0.1320493,-0.00631294,0.0,0.0,-0.20631579
705801911,-0.029018113,0.1269066,-0.010103708,0.0,0.0,-0.20631579
705821681,-0.016354144,0.12462916,-0.008317456,0.0,0.0,-0.20631579
705841572,-0.024252666,0.13173553,-0.008263097,0.0,0.0,-0.20631579
705861522,-0.03340968,0.13367301,-0.008252679,0.0,0.0,-0.20631579
705881292,-0.029817266,0.12786472,-0.0078978,0.0,0.0,-0.20631579
705901088,-0.007437091,0.12556241,-0.008819783,0.0,0.0,-0.20736842
705920902,-0.023395231,0.12820509,-0.009665273,0.0,0.0,-0.20631579
705940768,-0.029595193,0.12712291,-0.008776131,0.0,0.0,-0.20631579
705960727,-0.026147591,0.1254634,-0.009011965,0.0,0.0,-0.20631579
705980650,-0.018497454,0.12331764,-0.00737593,0.0,0.0,-0.20736842
706005672,-0.036992285,0.12920497,-0.007593221,0.0,0.0,-0.20736842
706020266,-0.02434615,0.13303092,-0.008758492,0.0,0.0,-0.20736842
706040224,-0.033550818,0.13014631,-0.009590868,0.0,0.0,-0.20631579
706064999,-0.006450118,0.1274803,-0.009353369,0.0,0.0,-0.20631579
706079888,-0.021037364,0.13184623,-0.009774024,0.0,0.0,-0.20736842
706099682,-0.0177592,0.12476285,-0.01052436,0.0,0.0,-0.20736842
706124649,-0.007277988,0.124803424,-0.008913241,0.0,0.0,-0.20631579
706144417,-0.028871913,0.13139084,-0.009389368,0.0,0.0,-0.20631579
706159321,-0.025184833,0.12974325,-0.009690016,0.0,0.0,-0.20631579
706184118,-0.018653065,0.1275151,-0.01216129,0.0,0.0,-0.20631579
706203961,-0.020089671,0.12436275,-0.011909273,0.0,0.0,-0.20736842
706218944,-0.023933705,0.12233906,-0.012139615,0.0,0.0,-0.20631579
706238725,-0.0072036916,0.124555245,-0.009380539,0.0,0.0,-0.20736842
706263683,-0.009789116,0.122383505,-0.0113684675,0.0,0.0,-0.20736842
706283391,-0.023269493,0.123092405,-0.010572901,0.0,0.0,-0.20736842
706298350,-0.016093645,0.11889976,-0.01081701,0.0,0.0,-0.20736842
706323223,-0.037345093,0.12850006,-0.012848318,0.0,0.0,-0.20736842
706343085,-0.01127648,0.12543298,-0.012741159,0.0,0.0,-0.20736842
706357934,-0.017563507,0.13046859,-0.012849091,0.0,0.0,-0.20736842
706382625,-0.029800942,0.12609029,-0.010846069,0.0,0.0,-0.20736842
706402513,-0.011127606,0.12195758,-0.011503608,0.0,0.0,-0.20736842
706422418,-0.016167942,0.12229598,-0.0117931655,0.0,0.0,-0.20736842
706442308,-0.010660326,0.12893333,-0.013545289,0.0,0.0,-0.20736842
706462107,-0.02384543,0.12837407,-0.012053128,0.0,0.0,-0.20736842
706481981,-0.032576323,0.12454453,-0.011769312,0.0,0.0,-0.20736842
706501909,-0.02255842,0.124982655,-0.011786703,0.0,0.0,-0.20736842
706521841,-0.011513506,0.12644035,-0.01165536,0.0,0.0,-0.20736842
706541803,-0.019008903,0.12556548,-0.012385542,0.0,0.0,-0.20736842
706561523,-0.026552863,0.11917969,-0.010884096,0.0,0.0,-0.20736842
706581386,-0.005017474,0.124876425,-0.01113443,0.0,0.0,-0.20736842
706601169,-0.021863414,0.13017139,-0.011558857,0.0,0.0,-0.20736842
706620988,-0.03331448,0.13170132,-0.009442034,0.0,0.0,-0.20736842
706640883,-0.020239444,0.124608934,-0.009949569,0.0,0.0,-0.20736842
706660721,-0.027858235,0.12148947,-0.012360744,0.0,0.0,-0.20736842
706680607,-0.0086441785,0.12316199,-0.012268475,0.0,0.0,-0.20736842
706705398,-0.028756032,0.12196162,-0.010774319,0.0,0.0,-0.20736842
706720331,-0.027536612,0.12129122,-0.010549767,0.0,0.0,-0.20736842
706740208,-0.024038784,0.12548563,-0.011663236,0.0,0.0,-0.20736842
706765045,-0.034322873,0.12995647,-0.010532696,0.0,0.0,-0.20631579
706779994,-0.026557704,0.130097,-0.008559953,0.0,0.0,-0.20631579
706799971,-0.032214183,0.12646222,-0.010537209,0.0,0.0,-0.20631579
706824630,-0.020600962,0.12259972,-0.011379597,0.0,0.0,-0.20736842
706844514,-0.031057313,0.12362786,-0.01159412,0.0,0.0,-0.20736842
706859388,-0.025756039,0.11882751,-0.011310085,0.0,0.0,-0.20736842
706879223,-0.026933566,0.11710868,-0.011215246,0.0,0.0,-0.20736842
706904034,-0.023742694,0.12576996,-0.0111997165,0.0,0.0,-0.20736842
706919006,-0.018626712,0.12035656,-0.010730369,0.0,0.0,-0.20736842
706938862,-0.026593102,0.12403196,-0.009396762,0.0,0.0,-0.20736842
706963580,-0.0170236,0.115435384,-0.0116708055,0.0,0.0,-0.20631579
706983450,-0.018317163,0.11956944,-0.012798407,0.0,0.0,-0.20631579
706998379,-0.024111615,0.12352529,-0.013247176,0.0,0.0,-0.20631579
707023177,-0.025080265,0.110064924,-0.013914403,0.0,0.0,-0.20736842
707043026,-0.019426981,0.1158811,-0.011019196,0.0,0.0,-0.20736842
707057933,-0.021578986,0.11875728,-0.010538876,0.0,0.0,-0.20736842
707082778,-0.02427767,0.119510144,-0.009779917,0.0,0.0,-0.20631579
707102705,-0.017752072,0.12323899,-0.011130644,0.0,0.0,-0.20631579
707122599,-0.017679542,0.12954111,-0.01113547,0.0,0.0,-0.20631579
707142405,-0.022580944,0.12784903,-0.011138226,0.0,0.0,-0.20631579
707162288,-0.02357035,0.12108327,-0.010240262,0.0,0.0,-0.20631579
707182210,-0.021963155,0.11717179,-0.010573926,0.0,0.0,-0.20631579
707202064,-0.024135428,0.12235932,-0.012186414,0.0,0.0,-0.20631579
707221690,-0.03165346,0.121544115,-0.013189363,0.0,0.0,-0.20631579
707241614,-0.025845483,0.11910758,-0.012239215,0.0,0.0,-0.20631579
707261458,-0.022411728,0.12040267,-0.012028531,0.0,0.0,-0.20631579
707281331,-0.029959556,0.13048205,-0.012163409,0.0,0.0,-0.20631579
707301140,-0.033659063,0.12633668,-0.011575035,0.0,0.0,-0.20631579
707321151,-0.02502676,0.119321644,-0.011441887,0.0,0.0,-0.20631579
707341117,-0.016153269,0.11761649,-0.012725722,0.0,0.0,-0.20631579
707360864,-0.020321371,0.115634434,-0.012769398,0.0,0.0,-0.20736842
707380730,-0.0059460485,0.11282918,-0.011190923,0.0,0.0,-0.20631579
707405566,-0.028140018,0.12301509,-0.01114006,0.0,0.0,-0.20631579
707420477,-0.0244142,0.12184846,-0.010713419,0.0,0.0,-0.20631579
707440230,-0.032849133,0.124405906,-0.010917746,0.0,0.0,-0.20631579
707464972,-0.012153386,0.1242112,-0.012379944,0.0,0.0,-0.20631579
707479855,-0.026437698,0.123787776,-0.01149785,0.0,0.0,-0.20631579
707499789,-0.02899007,0.124246344,-0.011200342,0.0,0.0,-0.20631579
707524597,-0.0153742125,0.1142513,-0.010166395,0.0,0.0,-0.21473685
707544451,-0.015541348,0.11892913,-0.0100854905,0.0,0.0,-0.21473685
707559374,-0.021327335,0.12040494,-0.0109429555,0.0,0.0,-0.23052631
707579207,-0.024235351,0.11885498,-0.011552802,0.0,0.0,-0.23473684
707604264,-0.025023751,0.11845047,-0.010691687,0.0,0.0,-0.23473684
707619164,-0.018701347,0.1168726,-0.010578713,0.0,0.0,-0.23894736
707638871,-0.011336239,0.11807245,-0.0107432725,0.0,0.0,-0.23894736
707663678,-0.0255523,0.11714701,-0.012613712,0.0,0.0,-0.23894736
707683641,-0.030772472,0.11759878,-0.011490138,0.0,0.0,-0.24105264
707698508,-0.032480605,0.11852434,-0.010976865,0.0,0.0,-0.24105264
707723268,-0.020856071,0.112097055,-0.0106351115,0.0,0.0,-0.24631579
707743003,-0.025742635,0.111688726,-0.010763008,0.0,0.0,-0.25368422
707757879,-0.023653273,0.11315073,-0.011029019,0.0,0.0,-0.26105264
707782795,-0.018946249,0.11504201,-0.010538516,0.0,0.0,-0.26105264
707802678,-0.029694142,0.11884388,-0.012048978,0.0,0.0,-0.26105264
707822485,-0.027813893,0.11860238,-0.012823914,0.0,0.0,-0.26105264
707842347,-0.030835578,0.12061995,-0.011187484,0.0,0.0,-0.26105264
707862340,-0.024937065,0.111970074,-0.01119298,0.0,0.0,-0.26105264
707882256,-0.018575242,0.112406634,-0.011310364,0.0,0.0,-0.26105264
707902022,-0.018906925,0.11783195,-0.01054275,0.0,0.0,-0.26105264
707921813,-0.017685518,0.11309757,-0.010747221,0.0,0.0,-0.26105264
707941662,-0.020660141,0.116800636,-0.009907075,0.0,0.0,-0.26105264
707961583,-0.027627498,0.11776586,-0.008858666,0.0,0.0,-0.26210526
707981388,-0.022291182,0.110761546,-0.011895437,0.0,0.0,-0.2631579
708001261,-0.019786242,0.11526564,-0.011397091,0.0,0.0,-0.2863158
708021080,-0.018487297,0.1089919,-0.011179728,0.0,0.0,-0.2936842
708041063,-0.014704943,0.107198596,-0.010271638,0.0,0.0,-0.29789472
708060848,-0.021289708,0.114680186,-0.011067736,0.0,0.0,-0.2989474
708080690,-0.02044421,0.10862458,-0.0134682255,0.0,0.0,-0.3
708105496,-0.01771041,0.10445596,-0.013593537,0.0,0.0,-0.30105263
708120435,-0.015358788,0.099233806,-0.013248867,0.0,0.0,-0.30105263
708140419,-0.015642105,0.10178117,-0.012326492,0.0,0.0,-0.3031579
708165274,-0.018729517,0.10203635,-0.012133913,0.0,0.0,-0.3031579
708180006,-0.013731066,0.1023273,-0.012086111,0.0,0.0,-0.3094737
708199847,-0.017435217,0.10126563,-0.013531272,0.0,0.0,-0.31368423
708219736,-0.009521592,0.09970316,-0.012324982,0.0,0.0,-0.31473684
708244678,-0.018675663,0.10317731,-0.013337875,0.0,0.0,-0.31473684
708259563,-0.0129124895,0.105550185,-0.011690824,0.0,0.0,-0.31473684
708279371,-0.018376993,0.10000186,-0.010369662,0.0,0.0,-0.31578946
708304114,-0.008996726,0.09576393,-0.010966914,0.0,0.0,-0.32105264
708319063,-0.0038510384,0.09219471,-0.010519406,0.0,0.0,-0.32105264
708338776,-0.0051243966,0.089983486,-0.011004926,0.0,0.0,-0.34
708363592,-0.003070596,0.078855515,-0.010481855,0.0,0.0,-0.34210527
708383519,-0.0042096116,0.08587245,-0.010622588,0.0,0.0,-0.3431579
708398473,0.00050010136,0.08699938,-0.011971194,0.0,0.0,-0.34526318
708423378,-0.0068515963,0.08980381,-0.012836858,0.0,0.0,-0.34526318
708443101,-0.0011265577,0.07855051,-0.0128996195,0.0,0.0,-0.34526318
708458076,-0.00045576153,0.07525264,-0.012206944,0.0,0.0,-0.34526318
708482909,-0.015432092,0.08746407,-0.013565339,0.0,0.0,-0.34526318
708502769,-0.010528126,0.09174784,-0.013108222,0.0,0.0,-0.3463158
708522566,-0.0070867967,0.09055188,-0.013714174,0.0,0.0,-0.3463158
708542438,-0.014629916,0.094197825,-0.013757046,0.0,0.0,-0.3463158
708562311,-0.0063324207,0.082147874,-0.015428055,0.0,0.0,-0.34736842
708582169,0.0004861937,0.07965166,-0.018208466,0.0,0.0,-0.35894737
708602005,-0.0063844165,0.083917335,-0.018619915,0.0,0.0,-0.36421052
708621780,-0.010596607,0.07766279,-0.017685845,0.0,0.0,-0.36421052
708641619,-0.008690257,0.07226342,-0.018847521,0.0,0.0,-0.36421052
708661623,-0.0011169087,0.07393636,-0.019824378,0.0,0.0,-0.36421052
708681575,-0.0023003893,0.074683964,-0.021430414,0.0,0.0,-0.36421052
708701269,0.0044277227,0.06483912,-0.02193018,0.0,0.0,-0.36421052
708721124,-0.009188738,0.07053113,-0.022912951,0.0,0.0,-0.36421052
708741035,-0.0027030818,0.07354428,-0.022774026,0.0,0.0,-0.36421052
708760890,-0.0005708172,0.074006744,-0.02476537,0.0,0.0,-0.36421052
708780828,-0.011968782,0.08097276,-0.02465683,0.0,0.0,-0.36421052
708805576,-0.0042453445,0.069220625,-0.025048293,0.0,0.0,-0.36421052
708820401,-0.0058407793,0.07213172,-0.026833717,0.0,0.0,-0.3663158
708840329,-0.002570409,0.07555655,-0.02859038,0.0,0.0,-0.36842105
708865138,0.0032779016,0.06683627,-0.029447276,0.0,0.0,-0.36842105
708880038,0.0028595778,0.057821497,-0.02885261,0.0,0.0,-0.36842105
708899800,-0.005553079,0.059772234,-0.030381378,0.0,0.0,-0.36842105
708924715,0.010733759,0.05636536,-0.0322273,0.0,0.0,-0.36947367
708944611,0.00083166006,0.06449355,-0.032425962,0.0,0.0,-0.36947367
708959772,-0.0041090185,0.06871462,-0.033027362,0.0,0.0,-0.36947367
708979296,0.0023758565,0.060350213,-0.032305647,0.0,0.0,-0.36947367
709004144,-0.0017135075,0.067765914,-0.033591982,0.0,0.0,-0.36947367
709019101,-0.0032385509,0.06958877,-0.032818135,0.0,0.0,-0.36947367
709038965,-0.00038182348,0.06085823,-0.03207467,0.0,0.0,-0.36947367
709063709,-0.006408413,0.06302866,-0.03256718,0.0,0.0,-0.36947367
709083548,0.0051425607,0.05945304,-0.033212688,0.0,0.0,-0.36947367
709098461,0.0095432,0.06120991,-0.035461664,0.0,0.0,-0.36947367
709123342,-0.00094292,0.062574446,-0.03648463,0.0,0.0,-0.3705263
709143202,0.0049639726,0.048647072,-0.034224637,0.0,0.0,-0.3705263
709157965,0.005343528,0.054361083,-0.034382418,0.0,0.0,-0.3705263
709182806,0.002818605,0.05965311,-0.037620038,0.0,0.0,-0.37157896
709202757,0.0030020718,0.061054066,-0.03748871,0.0,0.0,-0.37157896
709222684,0.0027490915,0.062227003,-0.03744985,0.0,0.0,-0.37368423
709242507,0.00037910548,0.048911683,-0.036551043,0.0,0.0,-0.38210526
709262346,0.011025278,0.053257056,-0.037830506,0.0,0.0,-0.38315788
709282314,0.011451661,0.051842336,-0.03967316,0.0,0.0,-0.3905263
709302119,0.0053786584,0.054932892,-0.040038776,0.0,0.0,-0.3905263
709321986,0.009099379,0.046059355,-0.040487327,0.0,0.0,-0.3968421
709341839,0.005285721,0.04894581,-0.040445622,0.0,0.0,-0.3989474
709361739,0.01809768,0.044455945,-0.039215177,0.0,0.0,-0.40210527
709381394,0.021027269,0.042304154,-0.040673938,0.0,0.0,-0.4031579
709401300,0.00745833,0.038650706,-0.039993495,0.0,0.0,-0.4063158
709421159,0.019749826,0.03329358,-0.039069697,0.0,0.0,-0.40736842
709440993,0.025813315,0.038714055,-0.03741133,0.0,0.0,-0.40736842
709460867,0.022689575,0.039781127,-0.035768885,0.0,0.0,-0.40842104
709480914,0.010516394,0.044334035,-0.035705853,0.0,0.0,-0.40842104
709505613,0.009829278,0.040752478,-0.0302827,0.0,0.0,-0.40842104
709520571,0.022402467,0.040826805,-0.027215494,0.0,0.0,-0.40842104
709540481,0.016018901,0.04620787,-0.025962476,0.0,0.0,-0.40842104
709560269,0.017714541,0.03578901,-0.02625884,0.0,0.0,-0.40842104
709580020,0.0146137895,0.0418654,-0.023443125,0.0,0.0,-0.40842104
709599879,0.023669245,0.03380534,-0.019162167,0.0,0.0,-0.40842104
709619790,0.022605656,0.03768509,-0.017064903,0.0,0.0,-0.40842104
709644570,0.021163465,0.040181577,-0.013164327,0.0,0.0,-0.40842104
709659442,0.019860484,0.050859287,-0.0097647505,0.0,0.0,-0.40842104
709679287,0.017215058,0.043374993,-0.0067059323,0.0,0.0,-0.40842104
709704221,0.020112898,0.041953728,-0.0010213116,0.0,0.0,-0.40842104
709719102,0.015336282,0.04122875,0.002241814,0.0,0.0,-0.40842104
709738963,0.019225324,0.033194374,0.004128933,0.0,0.0,-0.40842104
709763874,0.02535561,0.03248796,0.006019703,0.0,0.0,-0.4094737
709783639,0.02928892,0.031421293,0.010055514,0.0,0.0,-0.4105263
709798599,0.031772867,0.027987298,0.01125175,0.0,0.0,-0.41157895
709823435,0.023131661,0.021647047,0.013738202,0.0,0.0,-0.41157895
709843239,0.017131094,0.025783146,0.017081277,0.0,0.0,-0.41157895
709858042,0.020583443,0.019530997,0.018623665,0.0,0.0,-0.41157895
709882833,0.01942267,0.017386107,0.023372145,0.0,0.0,-0.41157895
709902766,0.030962255,0.008881908,0.02350024,0.0,0.0,-0.41157895
709922648,0.025113314,0.02242716,0.024369808,0.0,0.0,-0.41157895
709942484,0.028575577,0.018952493,0.028559703,0.0,0.0,-0.41157895
709962322,0.02077077,0.023295123,0.028994642,0.0,0.0,-0.41157895
709982253,0.019070275,0.027669474,0.031860694,0.0,0.0,-0.41157895
710002124,0.018541787,0.03779818,0.0350307,0.0,0.0,-0.41157895
710022052,0.034964707,0.033989444,0.03697598,0.0,0.0,-0.41157895
710042100,0.030088574,0.040044148,0.039817166,0.0,0.0,-0.41157895
710061620,0.022752529,0.041944593,0.043228056,0.0,0.0,-0.41157895
710081532,0.026177747,0.050637912,0.04579726,0.0,0.0,-0.41157895
710101396,0.02231174,0.053985704,0.04761865,0.0,0.0,-0.41157895
710121251,0.035428826,0.04448038,0.047164768,0.0,0.0,-0.41157895
710141057,0.03222306,0.04659361,0.05030542,0.0,0.0,-0.41157895
710160986,0.04671977,0.034736533,0.05343221,0.0,0.0,-0.4105263
710180819,0.037370227,0.04037834,0.054670423,0.0,0.0,-0.4094737
710205654,0.042942517,0.031731956,0.05753669,0.0,0.0,-0.4094737
710220505,0.042152584,0.03478811,0.059572745,0.0,0.0,-0.4094737
710240365,0.04970751,0.036000896,0.059851144,0.0,0.0,-0.4094737
710260283,0.042993452,0.044516925,0.063142106,0.0,0.0,-0.4094737
710280119,0.04400837,0.04047694,0.06572683,0.0,0.0,-0.4105263
710300177,0.040214114,0.044497978,0.067923024,0.0,0.0,-0.4105263
710319835,0.040578272,0.046943128,0.070517585,0.0,0.0,-0.4105263
710344674,0.038447972,0.04335713,0.07166922,0.0,0.0,-0.4105263
710359536,0.042596992,0.04911211,0.07334708,0.0,0.0,-0.4105263
710379561,0.041382503,0.03916931,0.07649131,0.0,0.0,-0.4105263
710404342,0.046942536,0.039963074,0.081755325,0.0,0.0,-0.4105263
710419161,0.040376298,0.038621858,0.08170045,0.0,0.0,-0.4105263
710438975,0.04657413,0.025374413,0.08438255,0.0,0.0,-0.4105263
710463773,0.04450763,0.028411418,0.08844697,0.0,0.0,-0.4105263
710483574,0.05075965,0.027345903,0.088499054,0.0,0.0,-0.4105263
710498527,0.05103948,0.033355203,0.08995194,0.0,0.0,-0.4105263
710523351,0.048269838,0.04742398,0.093278766,0.0,0.0,-0.4105263
710543234,0.049112115,0.046122126,0.094527304,0.0,0.0,-0.4105263
710558222,0.044113576,0.0425613,0.09705959,0.0,0.0,-0.4105263
710582998,0.034930065,0.054734856,0.102251016,0.0,0.0,-0.4105263
710603023,0.039365027,0.053723242,0.10362843,0.0,0.0,-0.41157895
710622844,0.042511664,0.053479403,0.104259215,0.0,0.0,-0.41368422
710642611,0.043677423,0.04924766,0.1043251,0.0,0.0,-0.42000002
710662517,0.046192497,0.04295993,0.10780466,0.0,0.0,-0.42000002
710682371,0.04311871,0.04918676,0.11229685,0.0,0.0,-0.42421055
710702168,0.04432618,0.04613352,0.11523872,0.0,0.0,-0.42421055
710721963,0.047869068,0.03899401,0.11690813,0.0,0.0,-0.42421055
710741806,0.04976781,0.040285613,0.12135232,0.0,0.0,-0.42421055
710761660,0.04403379,0.042445272,0.124719314,0.0,0.0,-0.42421055
710781483,0.046828337,0.035353594,0.12752049,0.0,0.0,-0.42421055
710801395,0.039128825,0.03985413,0.12849244,0.0,0.0,-0.42421055
710821338,0.043025598,0.038888585,0.13059632,0.0,0.0,-0.42421055
710841286,0.043742266,0.043713294,0.1337285,0.0,0.0,-0.42421055
710861064,0.05447106,0.04052971,0.13198698,0.0,0.0,-0.42421055
710881071,0.044959515,0.041881543,0.13444729,0.0,0.0,-0.42421055
710905748,0.04523539,0.030719709,0.13604176,0.0,0.0,-0.42947367
710920645,0.05335305,0.028756034,0.13913399,0.0,0.0,-0.42947367
710940441,0.046286277,0.035046082,0.1432198,0.0,0.0,-0.44421053
710960293,0.050142806,0.02806339,0.14528471,0.0,0.0,-0.45473683
710980066,0.03251917,0.025250945,0.14798856,0.0,0.0,-0.45578948
710999992,0.030733738,0.020741617,0.15372667,0.0,0.0,-0.4568421
711019826,0.038775377,0.006956611,0.1587844,0.0,0.0,-0.4568421
711044636,0.057576805,-0.0047073085,0.16062178,0.0,0.0,-0.4568421
711059605,0.057994675,-0.007980171,0.16210687,0.0,0.0,-0.4568421
711079405,0.05002168,-0.02356097,0.16283825,0.0,0.0,-0.45789474
711104425,0.043759003,-0.037206866,0.16715221,0.0,0.0,-0.4568421
711119385,0.0425713,-0.042287584,0.16909188,0.0,0.0,-0.4568421
711139138,0.044345796,-0.055705246,0.17238262,0.0,0.0,-0.45789474
711163828,0.055799257,-0.070890725,0.17716709,0.0,0.0,-0.45789474
711183799,0.04200399,-0.08404386,0.18222071,0.0,0.0,-0.45789474
711198642,0.043332513,-0.099156134,0.1841987,0.0,0.0,-0.4589474
711223416,0.034429085,-0.11117548,0.18974368,0.0,0.0,-0.4589474
711243202,0.03302476,-0.124711625,0.19363584,0.0,0.0,-0.4589474
711258092,0.03226913,-0.13811553,0.19705746,0.0,0.0,-0.4589474
711283016,0.040628843,-0.1527212,0.20015284,0.0,0.0,-0.4589474
711302861,0.047213983,-0.16893154,0.20317987,0.0,0.0,-0.4589474
711322674,0.051428102,-0.18023375,0.20750217,0.0,0.0,-0.4589474
711342558,0.05643,-0.19839726,0.21047002,0.0,0.0,-0.46105263
711362633,0.05635692,-0.20603421,0.21334544,0.0,0.0,-0.46210527
711382536,0.05514164,-0.21607132,0.21616016,0.0,0.0,-0.4631579
711402221,0.058686025,-0.22689614,0.2175646,0.0,0.0,-0.4631579
711422056,0.058985617,-0.23526469,0.22033209,0.0,0.0,-0.4631579
711441915,0.060531735,-0.2463834,0.21763834,0.0,0.0,-0.4631579
711461808,0.053793192,-0.24973331,0.21784605,0.0,0.0,-0.46421054
711481581,0.05352847,-0.2539022,0.21571742,0.0,0.0,-0.47157896
711501451,0.061682217,-0.26299414,0.21783078,0.0,0.0,-0.47368422
711521236,0.06183993,-0.26560277,0.21845841,0.0,0.0,-0.47368422
711541088,0.05332048,-0.27318388,0.21570659,0.0,0.0,-0.47578946
711561006,0.0480764,-0.26733133,0.21589878,0.0,0.0,-0.47789475
711580858,0.044227004,-0.26025745,0.21578294,0.0,0.0,-0.47789475
711600722,0.047233056,-0.25334316,0.21969041,0.0,0.0,-0.47894737
711620599,0.059184726,-0.25527856,0.21979767,0.0,0.0,-0.47894737
711640594,0.043179795,-0.2555937,0.22242136,0.0,0.0,-0.47789475
711660401,0.048958123,-0.26094398,0.2216034,0.0,0.0,-0.47789475
711680262,0.047888786,-0.26566675,0.22086798,0.0,0.0,-0.47789475
711700084,0.046753943,-0.26554632,0.22227567,0.0,0.0,-0.47789475
711719889,0.043510053,-0.2682892,0.22308575,0.0,0.0,-0.47789475
711744821,0.03234648,-0.26811686,0.22148472,0.0,0.0,-0.48000002
711759625,0.027610749,-0.26371318,0.22453949,0.0,0.0,-0.48000002
711779433,0.042793173,-0.25613192,0.22540312,0.0,0.0,-0.48105264
711804230,0.050446067,-0.25400332,0.22508189,0.0,0.0,-0.48210526
711819189,0.044611678,-0.2529287,0.22334547,0.0,0.0,-0.48210526
711839070,0.04235503,-0.25193065,0.22243617,0.0,0.0,-0.4831579
711863922,0.041057296,-0.24889074,0.21954386,0.0,0.0,-0.48526317
711883805,0.057520337,-0.25706995,0.21969326,0.0,0.0,-0.48736843
711898756,0.05573682,-0.26042333,0.22092128,0.0,0.0,-0.48736843
711923648,0.046023473,-0.26803073,0.22031549,0.0,0.0,-0.49052632
711943370,0.037862916,-0.26959762,0.22053503,0.0,0.0,-0.49052632
711958236,0.041548703,-0.25865814,0.21952717,0.0,0.0,-0.49263158
711983071,0.010346047,-0.24643473,0.21794459,0.0,0.0,-0.49263158
712002960,0.011179423,-0.23403232,0.21606472,0.0,0.0,-0.4936842
712022720,0.0032642623,-0.22036088,0.21572208,0.0,0.0,-0.49578947
712042531,-0.007888942,-0.2113432,0.21254006,0.0,0.0,-0.49789476
712062505,0.008085228,-0.20355849,0.2124637,0.0,0.0,-0.5
712082360,0.024002075,-0.19979784,0.21230559,0.0,0.0,-0.5
712102226,0.04407636,-0.19625181,0.21171117,0.0,0.0,-0.50631577
712122040,0.05055255,-0.19487359,0.21129836,0.0,0.0,-0.50631577
712141890,0.04014846,-0.19498426,0.20915414,0.0,0.0,-0.50842106
712161846,0.036882166,-0.20130068,0.21181524,0.0,0.0,-0.50842106
712181790,0.046682168,-0.20773286,0.21459115,0.0,0.0,-0.5094737
712201493,0.02286125,-0.220499,0.21963489,0.0,0.0,-0.5117993
712221331,0.021271152,-0.22637825,0.22355832,0.0,0.0,-0.5094737
712241243,0.0034121359,-0.22668575,0.22558868,0.0,0.0,-0.5117993
712261089,-0.029982008,-0.21014112,0.22760612,0.0,0.0,-0.5117993
712281011,-0.06558693,-0.19284436,0.22613056,0.0,0.0,-0.51299876
712300779,-0.095579274,-0.1705573,0.22662179,0.0,0.0,-0.51299876
712320602,-0.11746876,-0.15944977,0.22427016,0.0,0.0,-0.5141983
712340541,-0.1268017,-0.1500901,0.22453883,0.0,0.0,-0.5141983
712360394,-0.11163974,-0.16814215,0.22152632,0.0,0.0,-0.5141983
712380269,-0.09721301,-0.17673539,0.21952327,0.0,0.0,-0.5141983
712400010,-0.06786277,-0.30688772,0.21486029,0.0,0.0,-0.5141983
712419848,-0.057040475,-0.418266,0.21072291,0.0,0.0,-0.51299876
712444815,-0.07242834,-0.43760473,0.20747821,0.0,0.0,-0.51299876
712459803,-0.08317074,-0.45498157,0.20038112,0.0,0.0,-0.5141983
712479531,-0.103051275,-0.4354065,0.19584969,0.0,0.0,-0.51299876
712504377,-0.14072573,-0.35381034,0.18713257,0.0,0.0,-0.5141983
712519324,-0.15399723,-0.31511897,0.18015489,0.0,0.0,-0.51299876
712539222,-0.17035045,-0.26818404,0.16879451,0.0,0.0,-0.51299876
712563963,-0.17330329,-0.24475098,0.15396297,0.0,0.0,-0.5141983
712583758,-0.16510037,-0.21886311,0.14397168,0.0,0.0,-0.5141983
712598658,-0.13830063,-0.2827223,0.1373863,0.0,0.0,-0.51299876
712623553,-0.12360172,-0.34906214,0.12273893,0.0,0.0,-0.5141983
712643317,-0.11811869,-0.39382005,0.11300954,0.0,0.0,-0.51299876
712658221,-0.11054306,-0.4026742,0.104924485,0.0,0.0,-0.51299876
712683032,-0.13865216,-0.35916096,0.09155439,0.0,0.0,-0.51299876
712703019,-0.13948995,-0.3499726,0.08038834,0.0,0.0,-0.51299876
712722949,-0.13132498,-0.33453375,0.06562988,0.0,0.0,-0.51299876
712742703,-0.118052155,-0.31533504,0.05518637,0.0,0.0,-0.51299876
712762499,-0.11056045,-0.3313925,0.05239459,0.0,0.0,-0.51299876
712782421,-0.11400529,-0.369466,0.057480678,0.0,0.0,-0.51299876
712802299,-0.11476387,-0.39632112,0.061529994,0.0,0.0,-0.51299876
712822089,-0.1234211,-0.38598305,0.062399965,0.0,0.0,-0.51299876
712842104,-0.13263837,-0.33738145,0.060050208,0.0,0.0,-0.51299876
712861890,-0.15627898,-0.30706754,0.062052,0.0,0.0,-0.51299876
712881785,-0.15393852,-0.28937516,0.066926,0.0,0.0,-0.51299876
712901597,-0.14521539,-0.2610327,0.071819656,0.0,0.0,-0.5141983
712921463,-0.15979445,-0.2371289,0.072636835,0.0,0.0,-0.5141983
712941288,-0.15404092,-0.20808472,0.07291529,0.0,0.0,-0.5141983
712961084,-0.1469395,-0.16156468,0.07027637,0.0,0.0,-0.5153978
712981021,-0.14981952,-0.12533759,0.065727025,0.0,0.0,-0.5165973
713001029,-0.14938416,-0.093441874,0.06349098,0.0,0.0,-0.5165973
713020711,-0.13847126,-0.074662104,0.059328213,0.0,0.0,-0.51779675
713040643,-0.12141297,-0.08079029,0.054831766,0.0,0.0,-0.51779675
713060417,-0.10089591,-0.09534278,0.048461255,0.0,0.0,-0.51779675
713080363,-0.074310385,-0.09116437,0.04040293,0.0,0.0,-0.51779675
713100168,-0.06442053,-0.08693014,0.033951525,0.0,0.0,-0.51779675
713120024,-0.05826297,-0.10180178,0.027037144,0.0,0.0,-0.5165973
713144778,-0.06606658,-0.10733378,0.02015777,0.0,0.0,-0.51779675
713159677,-0.06138223,-0.10834464,0.01389092,0.0,0.0,-0.51779675
713179610,-0.05661069,-0.13245262,0.008115845,0.0,0.0,-0.51779675
713204347,-0.04071696,-0.15481734,0.0007301304,0.0,0.0,-0.51779675
713219314,-0.02353848,-0.1610485,-0.00028904722,0.0,0.0,-0.51779675
713239131,-0.008770238,-0.16751966,-0.0058498494,0.0,0.0,-0.51779675
713264157,-0.0044028223,-0.15177152,-0.012765703,0.0,0.0,-0.51779675
713283884,-0.002091309,-0.14739543,-0.019381184,0.0,0.0,-0.51779675
713298783,-0.0057914513,-0.13557209,-0.021540837,0.0,0.0,-0.51779675
713323597,-0.011121765,-0.13105339,-0.027249306,0.0,0.0,-0.51779675
713343563,-0.0231128,-0.11092405,-0.03072469,0.0,0.0,-0.51779675
713358293,-0.036282346,-0.10069944,-0.03591652,0.0,0.0,-0.51779675
713383160,-0.052466884,-0.07861467,-0.04047265,0.0,0.0,-0.51779675
713402890,-0.05777195,-0.057942152,-0.046928722,0.0,0.0,-0.51779675
713422763,-0.061468553,-0.048999283,-0.05511012,0.0,0.0,-0.51779675
713442618,-0.0576629,-0.043854922,-0.058071952,0.0,0.0,-0.51779675
713462530,-0.05295478,-0.048339013,-0.06265549,0.0,0.0,-0.51779675
713482382,-0.048471957,-0.044187874,-0.06934488,0.0,0.0,-0.51779675
713502314,-0.04370484,-0.048540868,-0.074388,0.0,0.0,-0.51779675
713522203,-0.037476093,-0.031041993,-0.078781456,0.0,0.0,-0.5165973
713542114,-0.023658227,-0.039531726,-0.08550085,0.0,0.0,-0.5165973
713561887,-0.0022398797,-0.053676818,-0.091078386,0.0,0.0,-0.5165973
713581784,0.0024411688,-0.06319334,-0.09262233,0.0,0.0,-0.5165973
713601668,-0.0035482824,-0.07426441,-0.091875635,0.0,0.0,-0.5165973
713621570,-0.017546475,-0.06463651,-0.09468831,0.0,0.0,-0.51779675
713641240,-0.026818968,-0.06106943,-0.09520707,0.0,0.0,-0.51779675
713661062,-0.032544445,-0.06543234,-0.09611193,0.0,0.0,-0.51779675
713680995,-0.04428386,-0.072183035,-0.09896984,0.0,0.0,-0.51779675
713700832,-0.041003667,-0.08166302,-0.10162334,0.0,0.0,-0.51779675
713720691,-0.038357466,-0.07512177,-0.10490094,0.0,0.0,-0.51779675
713740546,-0.025775565,-0.060096353,-0.10810307,0.0,0.0,-0.51779675
713760406,-0.01799195,-0.039747816,-0.107559316,0.0,0.0,-0.51779675
713780374,-0.016058333,-0.021394514,-0.112344936,0.0,0.0,-0.52019584
713800315,-0.0062533813,-0.0035411944,-0.11635387,0.0,0.0,-0.5213953
713820022,-0.015347747,0.0021926712,-0.1227276,0.0,0.0,-0.52379435
713844882,-0.025405517,0.002410599,-0.12129836,0.0,0.0,-0.52499384
713859810,-0.012546832,0.0041012405,-0.12258926,0.0,0.0,-0.5010526
713879675,-0.021703301,0.005809772,-0.12446952,0.0,0.0,-0.50421053
713904512,-0.011524076,0.040284634,-0.12777542,0.0,0.0,-0.50631577
713919344,0.00077993004,0.06808622,-0.13109258,0.0,0.0,-0.51299876
713939159,0.014808511,0.0718195,-0.13178581,0.0,0.0,-0.51299876
713963971,0.03387696,0.14063022,-0.13312313,0.0,0.0,-0.51779675
713983816,0.030095005,0.122118324,-0.1319985,0.0,0.0,-0.51779675
713998713,0.0313861,0.16255094,-0.13271101,0.0,0.0,-0.5213953
714023603,0.026510695,0.22767246,-0.13195285,0.0,0.0,-0.5273929
714043517,0.020331392,0.23119357,-0.13182071,0.0,0.0,-0.5297919
714058472,0.01749322,0.28317776,-0.13063875,0.0,0.0,-0.5333904
714083221,0.019480083,0.26975578,-0.13056456,0.0,0.0,-0.536989
714103226,0.012436574,0.23973235,-0.12968081,0.0,0.0,-0.53818846
714122917,0.004795283,0.20295137,-0.12605073,0.0,0.0,-0.53818846
714142845,-0.011294436,0.16883233,-0.12323786,0.0,0.0,-0.539388
714162689,-0.017532097,0.13262093,-0.12057053,0.0,0.0,-0.539388
714182470,-0.01036159,0.11520188,-0.11892094,0.0,0.0,-0.5405875
714202268,0.00967724,0.09421526,-0.115828335,0.0,0.0,-0.54538554
714222093,0.0314704,0.06501025,-0.114920616,0.0,0.0,-0.5465851
714242015,0.05391323,0.047378458,-0.1153829,0.0,0.0,-0.54778457
714261874,0.063331105,0.026708933,-0.11860102,0.0,0.0,-0.5573806
714281763,0.07382186,0.005997386,-0.11663405,0.0,0.0,-0.5573806
714301579,0.07178737,-0.012193718,-0.11714369,0.0,0.0,-0.5633782
714321560,0.06831935,-0.023890775,-0.11747737,0.0,0.0,-0.5645777
714341494,0.06661196,-0.03172937,-0.12025462,0.0,0.0,-0.5645777
714361290,0.062850215,-0.02138985,-0.12323767,0.0,0.0,-0.5657772
714381137,0.0662293,-0.028050806,-0.12290901,0.0,0.0,-0.5669768
714400996,0.058165923,-0.022075247,-0.124840036,0.0,0.0,-0.56817627
714420752,0.049786646,-0.013783122,-0.12634747,0.0,0.0,-0.56817627
714440587,0.043814894,-0.0017179726,-0.12851134,0.0,0.0,-0.56817627
714460507,0.02270889,0.01687,-0.13287784,0.0,0.0,-0.56937575
714480310,0.00745383,0.029315943,-0.13653517,0.0,0.0,-0.5705753
714500184,1.5986398e-05,0.045456387,-0.13927093,0.0,0.0,-0.5717748
714520074,-0.0026589239,0.049873266,-0.14260623,0.0,0.0,-0.5717748
714544836,-0.014178608,0.059144437,-0.1445172,0.0,0.0,-0.5717748
714559810,-0.01713252,0.06904925,-0.14789598,0.0,0.0,-0.5717748
714579659,-0.021844713,0.076281026,-0.1503482,0.0,0.0,-0.5717748
714604632,-0.012457092,0.046173047,-0.15461245,0.0,0.0,-0.5717748
714619406,-0.0025919946,0.02575156,-0.15386413,0.0,0.0,-0.5717748
714639363,0.013296571,0.008314282,-0.15758568,0.0,0.0,-0.5717748
714664076,0.022915734,-0.031953935,-0.16148822,0.0,0.0,-0.5717748
714683968,0.022121258,-0.041854415,-0.1627829,0.0,0.0,-0.5717748
714698748,0.013179555,-0.04665718,-0.16441953,0.0,0.0,-0.5717748
714723527,-0.016133456,-0.08259187,-0.16610521,0.0,0.0,-0.5717748
714743538,-0.042257246,-0.07373595,-0.16750824,0.0,0.0,-0.5717748
714758383,-0.058640137,-0.091924675,-0.16834567,0.0,0.0,-0.5717748
714783186,-0.08485587,-0.090134464,-0.16756146,0.0,0.0,-0.5717748
714803012,-0.07085131,-0.09480215,-0.16865775,0.0,0.0,-0.5717748
714822919,-0.086532824,-0.114375316,-0.16987707,0.0,0.0,-0.5717748
714842824,-0.061302036,-0.1770552,-0.17027608,0.0,0.0,-0.5717748
714862792,-0.043543354,-0.19406985,-0.17252183,0.0,0.0,-0.5717748
714882635,-0.03366662,-0.21088484,-0.17227957,0.0,0.0,-0.5717748
714902335,-0.03406409,-0.2313214,-0.17038189,0.0,0.0,-0.5717748
714922314,-0.043836236,-0.22004221,-0.16918416,0.0,0.0,-0.5717748
714942117,-0.053990044,-0.2322221,-0.17036295,0.0,0.0,-0.5717748
714962036,-0.07849065,-0.21497138,-0.17191635,0.0,0.0,-0.5717748
714981783,-0.08215307,-0.1734934,-0.1706662,0.0,0.0,-0.5717748
715001654,-0.08887021,-0.13251969,-0.1684794,0.0,0.0,-0.5717748
715021547,-0.10194406,-0.08712545,-0.1672167,0.0,0.0,-0.5717748
715041416,-0.1042316,-0.05462021,-0.1658005,0.0,0.0,-0.5717748
715061220,-0.10636201,-0.027632946,-0.16585103,0.0,0.0,-0.5717748
715081011,-0.11992594,-0.018517625,-0.16556877,0.0,0.0,-0.5717748
715100867,-0.11037799,-0.019359892,-0.16339916,0.0,0.0,-0.5717748
715120803,-0.08966797,-0.022977887,-0.1608027,0.0,0.0,-0.5669768
715140774,-0.072487816,-0.0017558766,-0.16112934,0.0,0.0,-0.56817627
715160507,-0.060481273,0.027745347,-0.16114199,0.0,0.0,-0.56817627
715180356,-0.0486968,0.04310301,-0.15942946,0.0,0.0,-0.5645777
715200460,-0.034159504,0.06563772,-0.15621994,0.0,0.0,-0.54898405
715220369,-0.024201622,0.06995265,-0.15453313,0.0,0.0,-0.5405875
715245039,-0.019340122,0.06316107,-0.15358941,0.0,0.0,-0.53459
715259881,-0.021172764,0.065064184,-0.15212914,0.0,0.0,-0.5357895
715279798,-0.024322873,0.053524837,-0.1493476,0.0,0.0,-0.5357895
715304523,-0.029906701,0.039204866,-0.14735553,0.0,0.0,-0.5297919
715319329,-0.031688325,0.028145408,-0.145824,0.0,0.0,-0.5297919
715339242,-0.034165658,0.019002687,-0.14218321,0.0,0.0,-0.5153978
715364042,-0.039680224,0.0034548398,-0.14111868,0.0,0.0,-0.5117993
715383970,-0.0453426,-0.018078934,-0.13727163,0.0,0.0,-0.5105998
715398919,-0.043764636,-0.02393795,-0.15026268,0.0,0.0,-0.5094737
715423856,-0.04585514,-0.03493148,-0.18626836,0.0,0.0,-0.50631577
715443640,-0.044119243,-0.037871175,-0.26739442,0.0,0.0,-0.5010526
715458477,-0.042675048,-0.037791967,-0.2711901,0.0,0.0,-0.5010526
715483278,-0.045130294,-0.031085527,-0.3565813,0.0,0.0,-0.5273929
715503055,-0.042640742,-0.021039871,-0.36274275,0.0,0.0,-0.5273929
715522971,-0.042440847,-0.019392096,-0.43070772,0.0,0.0,-0.5273929
715542853,-0.03873391,0.0021730554,-0.47051477,0.0,0.0,-0.5273929
715562632,-0.039636567,0.0024649664,-0.47746196,0.0,0.0,-0.5273929
715582464,-0.03875354,-0.0022861236,-0.44849968,0.0,0.0,-0.5273929
715602339,-0.03516991,-0.008032207,-0.45987895,0.0,0.0,-0.5273929
715622270,-0.0325375,-0.026696276,-0.4774078,0.0,0.0,-0.5261934
715642130,-0.026902158,-0.037051458,-0.5406573,0.0,0.0,-0.5261934
715662038,-0.021928344,-0.04757581,-0.61554694,0.0,0.0,-0.52379435
715681930,-0.027472908,-0.05723837,-0.6245284,0.0,0.0,-0.52379435
715701838,-0.025995124,-0.064334445,-0.6558697,0.0,0.0,-0.5213953
715721634,-0.02567993,-0.07792515,-0.67623645,0.0,0.0,-0.51899636
715741473,-0.033663202,-0.09180436,-0.6897321,0.0,0.0,-0.51899636
715761326,-0.029286088,-0.09300266,-0.6880828,0.0,0.0,-0.52019584
715781079,-0.034065675,-0.09963052,-0.66715467,0.0,0.0,-0.51899636
715801025,-0.036105897,-0.095841944,-0.6638884,0.0,0.0,-0.52019584
715820805,-0.037265938,-0.0854693,-0.64133924,0.0,0.0,-0.52019584
715840642,-0.032418393,-0.07867392,-0.49774143,0.0,0.0,-0.52019584
715860517,-0.031938244,-0.063886106,-0.49074757,0.0,0.0,-0.52019584
715880469,-0.029551113,-0.06332463,-0.40940693,0.0,0.0,-0.5213953
715900301,-0.020306805,-0.060210023,-0.25379506,0.0,0.0,-0.5213953
715920140,-0.01899703,-0.05873809,-0.19586673,0.0,0.0,-0.5213953
715945044,-0.016309604,-0.06712826,-0.18014833,0.0,0.0,-0.52259487
715960066,-0.020470202,-0.04896909,-0.16995104,0.0,0.0,-0.5273929
715979814,-0.020385314,-0.035176046,-0.16145328,0.0,0.0,-0.5273929
716004594,-0.025890658,-0.028480109,-0.14874907,0.0,0.0,-0.5
716019460,-0.028585127,-0.02775868,-0.14006838,0.0,0.0,-0.5010526
716039299,-0.021581586,-0.033818867,-0.13307916,0.0,0.0,-0.5010526
716064072,-0.020556832,-0.024966108,-0.12237562,0.0,0.0,-0.5010526
716084029,-0.011566861,-0.031490967,-0.11629337,0.0,0.0,-0.5010526
716098914,-0.013444949,-0.028942324,-0.11035864,0.0,0.0,-0.5021053
716123667,-0.006022959,-0.03455552,-0.10110584,0.0,0.0,-0.50631577
716143529,-0.002726124,-0.04446224,-0.096276,0.0,0.0,-0.50842106
716158488,-0.0030867627,-0.045975,-0.09089528,0.0,0.0,-0.52019584
716183325,-0.004766483,-0.052487664,-0.084597625,0.0,0.0,-0.5297919
716203236,-0.011524783,-0.050954003,-0.07917955,0.0,0.0,-0.53459
716223061,-0.014618138,-0.05384785,-0.07398531,0.0,0.0,-0.5429866
716242836,-0.015865859,-0.04246679,-0.07080293,0.0,0.0,-0.54898405
716262751,-0.0137503985,-0.036754485,-0.066925846,0.0,0.0,-0.54898405
716282686,-0.010243824,-0.03338556,-0.060675237,0.0,0.0,-0.55138314
716302455,-0.010712559,-0.030974539,-0.057326898,0.0,0.0,-0.55618113
716322398,-0.0054721413,-0.034873214,-0.0529837,0.0,0.0,-0.55618113
716342250,-0.0037700802,-0.037479132,-0.052311428,0.0,0.0,-0.5573806
716362143,-0.006514964,-0.041600324,-0.049162842,0.0,0.0,-0.5573806
716381924,-0.01099197,-0.0434663,-0.044645354,0.0,0.0,-0.5597797
716401776,-0.0142175555,-0.04442473,-0.0417354,0.0,0.0,-0.5597797
716421585,-0.014677817,-0.04684896,-0.041636482,0.0,0.0,-0.5609792
716441438,-0.007856295,-0.04933686,-0.04101464,0.0,0.0,-0.5609792
716461266,-0.0041058324,-0.02556413,-0.06666039,0.0,0.0,-0.56817627
716481303,-0.00429465,-0.013008495,-0.06696715,0.0,0.0,-0.56817627
716501229,0.0028830597,-0.014289038,-0.069881454,0.0,0.0,-0.56937575
716520912,0.0026025902,0.009121945,-0.03965056,0.0,0.0,-0.57297426
716540819,-1.3612397e-05,0.008756911,-0.040603414,0.0,0.0,-0.57417375
716560618,0.003031563,0.02275626,-0.038812377,0.0,0.0,-0.58017135
716580553,-0.0027910022,0.020937921,-0.03894081,0.0,0.0,-0.58137083
716600372,-0.0073027695,0.012535447,-0.038538665,0.0,0.0,-0.5825704
716620208,-0.007520152,0.00019587239,-0.03633421,0.0,0.0,-0.5837699
716644990,-0.009793103,-0.010892771,-0.035590906,0.0,0.0,-0.5861689
716659824,-0.010491847,-0.018042112,-0.035018366,0.0,0.0,-0.5861689
716679734,-0.0104017835,-0.01508527,-0.03412074,0.0,0.0,-0.5897674
716704541,-0.006007858,-0.018529829,-0.034365192,0.0,0.0,-0.59096694
716719515,-0.007189863,-0.014598365,-0.033622842,0.0,0.0,-0.59336597
716739358,-0.0049404884,-0.016112661,-0.03333171,0.0,0.0,-0.59456545
716764379,-0.0012265495,-0.01738746,-0.031174853,0.0,0.0,-0.5969645
716784038,-0.0047970517,-0.020202069,-0.031036353,0.0,0.0,-0.6029621
716798979,-0.001886242,-0.027991641,-0.033400938,0.0,0.0,-0.60416156
716823834,-0.011301242,-0.03415614,-0.03097063,0.0,0.0,-0.6029621
716843737,-0.012195306,-0.037561253,-0.031650867,0.0,0.0,-0.60176253
716858444,-0.010049928,-0.028120952,-0.030421838,0.0,0.0,-0.60176253
716883359,-0.00686617,-0.025199693,-0.034773793,0.0,0.0,-0.59936357
716903166,-0.0012470039,-0.01833321,-0.03376251,0.0,0.0,-0.5969645
716923000,0.0022645646,-0.010670626,-0.032275252,0.0,0.0,-0.595765
716942866,0.0024013123,-0.0026084972,-0.032073937,0.0,0.0,-0.59456545
716962671,0.0023024299,0.0017980426,-0.032866914,0.0,0.0,-0.5921665
716982562,0.00072842324,0.0018358912,-0.034296405,0.0,0.0,-0.5921665
717002542,0.0016746889,-0.008852489,-0.035598915,0.0,0.0,-0.5873684
717022500,0.0048733107,-0.0086745275,-0.03663867,0.0,0.0,-0.5837699
717042239,0.009102605,-0.0050862557,-0.03778684,0.0,0.0,-0.5837699
717062096,0.010830006,0.0026310852,-0.04014983,0.0,0.0,-0.5825704
717082005,0.008962767,-0.02728219,-0.04238146,0.0,0.0,-0.5825704
717101863,0.009345016,-0.029997092,-0.04337222,0.0,0.0,-0.5825704
717121770,0.008327812,-0.023624346,-0.044629876,0.0,0.0,-0.5825704
717141437,0.0075433385,-0.01646753,-0.046841525,0.0,0.0,-0.58137083
717161259,0.0084998505,-0.008147195,-0.04947301,0.0,0.0,-0.58137083
717181198,0.009547815,-0.0010046219,-0.05205351,0.0,0.0,-0.58137083
717201092,0.011042586,0.0056479103,-0.05491517,0.0,0.0,-0.58137083
717220875,0.013641923,0.0077594845,-0.056867443,0.0,0.0,-0.58137083
717240746,0.018356033,0.009741168,-0.058034714,0.0,0.0,-0.58137083
717260672,0.021403737,0.012425668,-0.059674665,0.0,0.0,-0.58137083
717280588,0.021583969,0.004451138,-0.062310345,0.0,0.0,-0.57297426
717300593,0.022105472,-0.023453252,-0.06485898,0.0,0.0,-0.56817627
717320291,0.02166682,-0.034210965,-0.0681841,0.0,0.0,-0.5645777
717345074,0.015273012,-0.020883074,-0.0690175,0.0,0.0,-0.5621787
717359925,0.022286272,-0.01920997,-0.07172356,0.0,0.0,-0.5633782
717379791,0.01390565,-0.007590186,-0.07392074,0.0,0.0,-0.5633782
717404644,0.011303091,0.020086339,-0.076834284,0.0,0.0,-0.5633782
717419520,0.012026299,0.025055759,-0.07863612,0.0,0.0,-0.5633782
717439490,0.01618745,0.03501984,-0.080497935,0.0,0.0,-0.5633782
717464214,0.02658514,0.043920685,-0.08390403,0.0,0.0,-0.55858016
717484140,0.028524349,0.050565742,-0.086027615,0.0,0.0,-0.5573806
717499051,0.024916306,0.051864583,-0.08591868,0.0,0.0,-0.5573806
717523858,0.018984465,0.07298577,-0.08623887,0.0,0.0,-0.55018353
717543698,0.0132831,0.094891675,-0.08801086,0.0,0.0,-0.54178697
717558607,0.008440171,0.11609636,-0.08852083,0.0,0.0,-0.5273929
717583392,0.0007393434,0.1037244,-0.090443455,0.0,0.0,-0.5153978
717603262,0.0008400563,0.09305019,-0.09020608,0.0,0.0,-0.50842106
717623125,0.0051615033,0.07727014,-0.0915991,0.0,0.0,-0.5213953
717642979,0.005485233,0.07602815,-0.09315392,0.0,0.0,-0.52019584
717662872,0.0065288497,0.061772518,-0.09126107,0.0,0.0,-0.52019584
717682700,0.0058953594,0.054113805,-0.092088744,0.0,0.0,-0.5165973
717702494,0.006104377,0.046098936,-0.09381895,0.0,0.0,-0.5165973
717722399,0.006227202,0.03902238,-0.092316896,0.0,0.0,-0.51299876
717742266,-0.01144274,0.036424614,-0.09171956,0.0,0.0,-0.5117993
717762136,-0.012793545,0.033047643,-0.091585,0.0,0.0,-0.5094737
717781877,-0.010286448,0.030811248,-0.09188521,0.0,0.0,-0.5117993
717801734,-0.0044269236,0.027360938,-0.091179855,0.0,0.0,-0.5117993
717821715,0.009698062,0.024982898,-0.09052999,0.0,0.0,-0.51299876
717841659,-0.0021012016,0.019913642,-0.08978252,0.0,0.0,-0.51299876
717861378,0.0007495264,0.021133814,-0.08784096,0.0,0.0,-0.51299876
717881287,-3.5425035e-06,0.019584432,-0.087622166,0.0,0.0,-0.51299876
717901173,0.0014410504,0.015008241,-0.08664171,0.0,0.0,-0.5141983
717921035,-0.0008795514,0.01733651,-0.08576892,0.0,0.0,-0.5141983
717940926,0.009538489,0.016491182,-0.08305417,0.0,0.0,-0.5153978
717960698,-0.0043641143,0.011690308,-0.08345638,0.0,0.0,-0.52019584
717980527,-0.0047695544,0.013598291,-0.08233114,0.0,0.0,-0.5213953
718000462,-0.011117002,0.014823004,-0.07862764,0.0,0.0,-0.52379435
718020236,-0.014581536,0.008991633,-0.07719427,0.0,0.0,-0.5031579
718044993,-0.017539378,0.012172395,-0.07561304,0.0,0.0,-0.50631577
718060011,-0.012946856,0.012473877,-0.07427901,0.0,0.0,-0.50631577
718079905,-0.01494218,0.013319809,-0.07246417,0.0,0.0,-0.51299876
718104859,-0.012960879,0.013771085,-0.07045642,0.0,0.0,-0.5153978
718119654,-0.025673736,0.0142007135,-0.06979615,0.0,0.0,-0.52499384
718139396,-0.039936457,0.011476971,-0.06850391,0.0,0.0,-0.53459
718164228,-0.042214263,0.011180829,-0.06599279,0.0,0.0,-0.55018353
718184150,-0.030190613,0.010531871,-0.06588791,0.0,0.0,-0.5573806
718199054,-0.015702784,0.0027857637,-0.06318129,0.0,0.0,-0.5597797
718223868,-0.013999701,0.006510734,-0.06338419,0.0,0.0,-0.5597797
718243648,-0.008583885,0.008378422,-0.060841262,0.0,0.0,-0.5597797
718258527,-0.009664003,0.007965569,-0.061401997,0.0,0.0,-0.5597797
718283485,-0.04756462,-0.050521955,-0.058512636,0.0,0.0,-0.5597797
718303282,-0.045211144,-0.05296655,-0.058157817,0.0,0.0,-0.5597797
718323101,-0.03346584,-0.036969572,-0.05776287,0.0,0.0,-0.5597797
718342922,-0.008826607,-0.02899218,-0.053936496,0.0,0.0,-0.5597797
718362984,0.0037625162,-0.06668195,-0.051788047,0.0,0.0,-0.5597797
718382833,0.022520298,-0.069922134,-0.05242021,0.0,0.0,-0.5597797
718402605,0.016228164,-0.06292934,-0.053582087,0.0,0.0,-0.5597797
718422397,0.018140884,-0.04572152,-0.051969092,0.0,0.0,-0.5597797
718442361,0.013916963,-0.037175436,-0.049130533,0.0,0.0,-0.5597797
718462372,-0.010294854,0.015231816,-0.04814551,0.0,0.0,-0.5609792
718482087,-0.016345555,0.016271863,-0.047283623,0.0,0.0,-0.5609792
718501885,-0.032617584,0.029039627,-0.04645271,0.0,0.0,-0.5609792
718521695,-0.049329966,0.030224089,-0.04700429,0.0,0.0,-0.5621787
718541628,-0.043487545,0.0043163868,-0.044978004,0.0,0.0,-0.5645777
718561468,-0.034970634,5.6717895e-06,-0.043244343,0.0,0.0,-0.5645777
718581249,-0.0033030547,-0.0028362782,-0.04253569,0.0,0.0,-0.5657772
718601068,0.016518822,-0.009478569,-0.0407758,0.0,0.0,-0.5669768
718620971,0.026245441,-0.013320073,-0.03948151,0.0,0.0,-0.56937575
718640973,0.015449316,-0.009693431,-0.03887757,0.0,0.0,-0.56937575
718660756,0.009724254,-0.0027187346,-0.03744025,0.0,0.0,-0.56937575
718680688,-0.0027766635,0.012688901,-0.03597917,0.0,0.0,-0.5705753
718700521,-0.021977598,0.041877255,-0.033907793,0.0,0.0,-0.5717748
718720438,-0.016060732,0.060532924,-0.034495365,0.0,0.0,-0.57537335
718745278,-0.022670051,0.06606086,-0.031119306,0.0,0.0,-0.57657284
718760157,-0.004596139,0.059502408,-0.030689534,0.0,0.0,-0.57657284
718779946,-0.0039396854,0.057898514,-0.028204713,0.0,0.0,-0.57657284
718804660,0.0020356008,0.027352083,-0.030014843,0.0,0.0,-0.57657284
718819570,-0.0012487029,0.024048166,-0.027851962,0.0,0.0,-0.57657284
718839376,0.0059841475,0.013959158,-0.027405448,0.0,0.0,-0.57657284
718864207,3.75879e-05,-0.015367473,-0.024374524,0.0,0.0,-0.57657284
718884163,-0.0018300129,-0.018000495,-0.025604889,0.0,0.0,-0.57657284
718899120,0.014389381,-0.04075455,-0.025179818,0.0,0.0,-0.57657284
718924039,0.015433389,-0.04408363,-0.024724094,0.0,0.0,-0.57657284
718943739,0.01863565,-0.032857914,-0.024288641,0.0,0.0,-0.57657284
718958688,0.01457684,-0.023503033,-0.022525616,0.0,0.0,-0.57657284
718983507,0.013320332,-0.02596206,-0.022267802,0.0,0.0,-0.57657284
719003401,0.018932672,-0.0077547412,-0.020210737,0.0,0.0,-0.57657284
719023144,0.010035643,0.009152192,-0.019113995,0.0,0.0,-0.57657284
719042949,0.0040238677,0.021511838,-0.018831141,0.0,0.0,-0.57537335
719062842,0.000902713,0.023095679,-0.020473072,0.0,0.0,-0.57537335
719082691,-0.010315332,0.0524441,-0.020134455,0.0,0.0,-0.57537335
719102611,-0.007885929,0.0616646,-0.017646816,0.0,0.0,-0.57537335
719122437,-0.006939947,0.061812997,-0.015990706,0.0,0.0,-0.57537335
719142348,-0.0060782246,0.04444309,-0.014745705,0.0,0.0,-0.57537335
719162232,-0.0022036694,0.030187298,-0.014124438,0.0,0.0,-0.57537335
719182175,0.01870548,0.016314972,-0.013710065,0.0,0.0,-0.57537335
719201934,0.017941574,-0.002367456,-0.014322531,0.0,0.0,-0.57537335
719221804,0.011486558,-0.008828405,-0.014994685,0.0,0.0,-0.57537335
719241692,0.0065983357,-0.013376519,-0.013530028,0.0,0.0,-0.57537335
719261500,-0.0004990072,-0.08847833,-0.012366207,0.0,0.0,-0.57537335
719281433,-0.006010023,-0.1644829,-0.012499177,0.0,0.0,-0.57537335
719301106,-0.009008542,-0.19862042,-0.012014984,0.0,0.0,-0.57537335
719320961,-0.004825473,-0.32433417,-0.010474056,0.0,0.0,-0.57417375
719340935,-0.000761018,-0.35489684,-0.0126966415,0.0,0.0,-0.57417375
719360765,0.003682906,-0.40344378,-0.014289049,0.0,0.0,-0.57417375
719380580,0.009462984,-0.45288938,-0.013425849,0.0,0.0,-0.57537335
719400464,0.0073900954,-0.44428164,-0.014102309,0.0,0.0,-0.57417375
719420377,0.005772735,-0.50284857,-0.014530809,0.0,0.0,-0.57537335
719445318,0.0065949406,-0.45824382,-0.015221783,0.0,0.0,-0.57417375
719460306,0.0043341056,-0.41659802,-0.01594974,0.0,0.0,-0.57417375
719479958,0.002472191,-0.3530426,-0.015657276,0.0,0.0,-0.57417375
719504886,-0.0054228823,-0.28534764,-0.02001784,0.0,0.0,-0.57417375
719519708,-0.008765858,-0.27284896,-0.016942272,0.0,0.0,-0.57417375
719539586,-0.004109111,-0.24191032,-0.017651219,0.0,0.0,-0.57417375
719564279,-0.007696194,-0.1725755,-0.016423538,0.0,0.0,-0.57417375
719584103,-0.0032018628,-0.0808066,-0.018573776,0.0,0.0,-0.57417375
719598996,0.0026152658,-0.047014832,-0.020434653,0.0,0.0,-0.57417375
719623875,0.008781169,-0.016502116,-0.02040777,0.0,0.0,-0.57417375
719643717,-0.002690167,0.018710269,-0.020548783,0.0,0.0,-0.57417375
719658578,-0.00368831,0.019582141,-0.018660018,0.0,0.0,-0.57417375
719683465,0.00050879124,0.0476215,-0.019925639,0.0,0.0,-0.57417375
719703461,-0.014106106,0.111910164,-0.01937427,0.0,0.0,-0.57417375
719723366,-0.015151271,0.22783905,-0.019037277,0.0,0.0,-0.57417375
719743126,-0.010056497,0.27993378,-0.019473573,0.0,0.0,-0.57417375
719762991,-0.016611652,0.35368457,-0.021799307,0.0,0.0,-0.57297426
719782862,0.006332928,0.35119307,-0.022648517,0.0,0.0,-0.57297426
719802718,0.010141132,0.3171636,-0.020901881,0.0,0.0,-0.57417375
719822495,0.010742625,0.28147298,-0.01949254,0.0,0.0,-0.57417375
719842285,0.00857665,0.26049018,-0.019799892,0.0,0.0,-0.57417375
719862140,0.0038231637,0.20836146,-0.021402262,0.0,0.0,-0.57417375
719882069,-0.0062145083,0.20735198,-0.022820894,0.0,0.0,-0.57417375
719901953,-0.016317854,0.18620163,-0.022503104,0.0,0.0,-0.57417375
719921808,-0.019181777,0.17923549,-0.021925693,0.0,0.0,-0.57417375
719941698,-0.022428209,0.16472803,-0.02492236,0.0,0.0,-0.57417375
719961540,-0.01747866,0.18435161,-0.027121143,0.0,0.0,-0.57417375
719981489,-0.013912132,0.21105143,-0.028997641,0.0,0.0,-0.57537335
720001257,-0.019781694,0.20977643,-0.03166292,0.0,0.0,-0.57537335
720021159,-0.019780377,0.18086661,-0.03125941,0.0,0.0,-0.57537335
720041063,-0.019606063,0.1502562,-0.031227484,0.0,0.0,-0.57537335
720060873,-0.019011704,0.04313266,-0.031034283,0.0,0.0,-0.57537335
720080612,-0.02043162,-0.022623362,-0.03182575,0.0,0.0,-0.57537335
720100475,-0.024457665,-0.08270553,-0.03418126,0.0,0.0,-0.57537335
720120435,-0.022547673,-0.085196435,-0.0358787,0.0,0.0,-0.57537335
720145277,-0.024559325,-0.077288516,-0.035550226,0.0,0.0,-0.57537335
720160125,-0.02660741,-0.049177926,-0.03789424,0.0,0.0,-0.57537335
720179972,-0.027824631,-0.038768273,-0.03796674,0.0,0.0,-0.57537335
720204866,-0.023140226,-0.022376955,-0.03914018,0.0,0.0,-0.57537335
720219772,-0.025114408,-0.017706366,-0.039736208,0.0,0.0,-0.57537335
720239618,-0.024555434,0.017405216,-0.040190198,0.0,0.0,-0.57537335
720264512,-0.020294627,0.09017045,-0.04256763,0.0,0.0,-0.57537335
720284205,-0.0116717955,0.12869155,-0.03913069,0.0,0.0,-0.57537335
720299153,-0.012478125,0.13187595,-0.042782485,0.0,0.0,-0.57537335
720323972,-0.036186047,0.121861614,-0.039680526,0.0,0.0,-0.57537335
720343850,-0.024625694,0.10327806,-0.040809795,0.0,0.0,-0.57537335
720358676,-0.039653677,0.09367844,-0.038699552,0.0,0.0,-0.56937575
720383523,-0.01719843,0.06732066,-0.039594986,0.0,0.0,-0.5573806
720403397,-0.012192423,0.052215118,-0.037826173,0.0,0.0,-0.53818846
720423310,-0.01016072,0.037463278,-0.0386828,0.0,0.0,-0.5153978
720443141,-0.00322779,0.022980321,-0.03850022,0.0,0.0,-0.5031579
720463005,-0.0028948828,0.017006082,-0.038810454,0.0,0.0,-0.5031579
720482802,-0.0054618856,0.01545089,-0.038219877,0.0,0.0,-0.5165973
720497717,-0.024370719,0.01299056,-0.039071757,0.0,0.0,-0.5021053
720522617,-0.030564217,0.0038913004,-0.03850739,0.0,0.0,-0.49473685
720542494,-0.039226353,0.01574435,-0.03902844,0.0,0.0,-0.49473685
720562272,-0.042756878,0.018560823,-0.036703408,0.0,0.0,-0.49473685
720582175,-0.04117755,0.014871171,-0.039208397,0.0,0.0,-0.49473685
720602087,-0.036841825,0.013857801,-0.038406856,0.0,0.0,-0.49473685
720621885,-0.032759186,0.014046466,-0.038342096,0.0,0.0,-0.49684212
720641691,-0.025738353,0.011848487,-0.03843967,0.0,0.0,-0.49684212
720661612,-0.020513117,0.0027323999,-0.0394468,0.0,0.0,-0.49684212
720681460,-0.017754488,0.00036871803,-0.03801084,0.0,0.0,-0.49684212
720701231,-0.018055255,-0.0068663307,-0.036826458,0.0,0.0,-0.49684212
720721088,-0.007735333,-0.020518888,-0.039156757,0.0,0.0,-0.49684212
720740897,0.0074406667,-0.019560058,-0.03645303,0.0,0.0,-0.49789476
720760837,0.0017524115,-0.024304988,-0.035559647,0.0,0.0,-0.49789476
720780828,0.01617026,-0.02149527,-0.036748994,0.0,0.0,-0.49789476
720800755,0.006362673,-0.016687812,-0.035125148,0.0,0.0,-0.5031579
720820437,0.0045585725,-0.018175535,-0.03428834,0.0,0.0,-0.5031579
720845303,0.016103964,-0.06097352,-0.033440955,0.0,0.0,-0.51779675
720860125,0.011842189,-0.055044137,-0.032590713,0.0,0.0,-0.51779675
720879999,-0.0020627591,-0.06764968,-0.032977622,0.0,0.0,-0.52019584
720904861,-0.00853906,-0.060151618,-0.03321011,0.0,0.0,-0.5213953
720919752,-0.0074053262,-0.05546468,-0.03137469,0.0,0.0,-0.5213953
720939583,-0.007511908,-0.065393396,-0.03313492,0.0,0.0,-0.5213953
720964370,-0.0049429135,-0.07326842,-0.029812392,0.0,0.0,-0.5213953
720984302,-0.0035326586,-0.06649243,-0.029593129,0.0,0.0,-0.5213953
720999183,-0.0058406484,-0.0611428,-0.025754644,0.0,0.0,-0.5213953
721024016,-0.012190823,-0.052850038,-0.022202332,0.0,0.0,-0.5213953
721043832,-0.018338587,-0.047793437,-0.018012118,0.0,0.0,-0.5213953
721058762,-0.022783495,-0.06282654,-0.015569468,0.0,0.0,-0.5213953
721083667,-0.029012157,-0.06469298,-0.010681301,0.0,0.0,-0.5213953
721103412,-0.033002064,-0.062239878,-0.006617371,0.0,0.0,-0.5213953
721123383,-0.034508225,-0.06076339,-0.00069177063,0.0,0.0,-0.5213953
721143215,-0.031869758,-0.07333488,0.0023634518,0.0,0.0,-0.5213953
721163067,-0.026982032,-0.105280474,0.008275294,0.0,0.0,-0.5213953
721182852,-0.02889492,-0.13815705,0.013936022,0.0,0.0,-0.5213953
721197735,-0.027962398,-0.12798637,0.017445344,0.0,0.0,-0.5213953
721222597,-0.015395282,-0.14313479,0.025173064,0.0,0.0,-0.52259487
721242466,-0.020720663,-0.12929355,0.028938133,0.0,0.0,-0.52259487
721262317,-0.021280354,-0.15554893,0.03399733,0.0,0.0,-0.52379435
721282076,-0.027059266,-0.16581455,0.03894645,0.0,0.0,-0.52259487
721301942,-0.03194285,-0.17436795,0.045461275,0.0,0.0,-0.52379435
721321931,-0.03240707,-0.16541295,0.048940822,0.0,0.0,-0.52379435
721341864,-0.045125592,-0.17458306,0.052631103,0.0,0.0,-0.52379435
721361658,-0.03129486,-0.156771,0.057780243,0.0,0.0,-0.52379435
721381518,-0.023982273,-0.14310567,0.06268317,0.0,0.0,-0.52379435
721401416,-0.0119215185,-0.12465812,0.06501427,0.0,0.0,-0.52379435
721421284,-0.005094437,-0.12952419,0.06808565,0.0,0.0,-0.5273929
721441224,0.0024219155,-0.11078811,0.074276224,0.0,0.0,-0.5273929
721460907,0.004912567,-0.1313069,0.07598051,0.0,0.0,-0.50842106
721480669,0.011735579,-0.15367444,0.07944031,0.0,0.0,-0.5117993
721500577,-0.003850271,-0.15237892,0.08206993,0.0,0.0,-0.51299876
721520430,-0.0023031095,-0.112324886,0.08724431,0.0,0.0,-0.5141983
721545198,-0.016892983,-0.074924774,0.08795483,0.0,0.0,-0.5153978
721560149,-0.012627967,-0.05309203,0.08954504,0.0,0.0,-0.5153978
721580101,-0.015231537,-0.036795415,0.09034536,0.0,0.0,-0.5153978
721605029,-0.013087861,-0.020388026,0.09231342,0.0,0.0,-0.5165973
721619816,-0.013940736,-0.009752135,0.09275994,0.0,0.0,-0.5165973
721639749,-0.009189968,0.0027587193,0.09468333,0.0,0.0,-0.51779675
721664496,-0.010082592,0.04049765,0.095300734,0.0,0.0,-0.51779675
721684397,-0.005436894,0.04131072,0.09544713,0.0,0.0,-0.5213953
721699308,-0.004083975,0.048810888,0.096661404,0.0,0.0,-0.5333904
721724021,0.0052589145,0.04126788,0.09766404,0.0,0.0,-0.54178697
721743800,0.013061129,0.029579835,0.09779839,0.0,0.0,-0.54898405
721758677,0.031615257,-0.0020202051,0.09762383,0.0,0.0,-0.5633782
721783585,0.040037032,-0.053963464,0.096389405,0.0,0.0,-0.56817627
721803445,0.04262399,-0.08903065,0.096945,0.0,0.0,-0.5705753
721823278,0.04285216,-0.09323996,0.097504415,0.0,0.0,-0.5705753
721843156,0.040563833,-0.09550928,0.09665962,0.0,0.0,-0.5705753
721863153,0.038426835,-0.14094327,0.09548234,0.0,0.0,-0.5777723
