timestamp,timestamp_sample,accel_device_id,gyro_device_id,delta_angle[0],delta_angle[1],delta_angle[2],delta_velocity[0],delta_velocity[1],delta_velocity[2],delta_angle_dt,delta_velocity_dt,delta_velocity_clipping
703917770,703917521,3932170,3932170,8.148147e-05,-0.00012919599,-0.00025691377,-0.0014372043,-0.0013254433,-0.048564777,4971,4971,0
703922740,703922484,3932170,3932170,-2.3499948e-05,0.00013222838,-0.00020970502,-0.0031562888,-0.0013021398,-0.04862134,4963,4963,0
704422131,704421366,3932170,3932170,0.00033924295,0.0001028472,0.0002238726,-0.0021696573,-0.0025510618,-0.045743022,4984,4984,0
704925242,704924971,3932170,3932170,-0.00020730188,-5.280134e-05,-0.00023124888,-0.004138417,0.0001927111,-0.05027226,4987,4987,0
705424021,705423756,3932170,3932170,-0.0006922664,0.0010479229,-0.0009351473,-0.007469808,-0.0035686947,-0.04792931,4992,4992,0
705922780,705922534,3932170,3932170,0.00067809277,-3.749834e-05,-0.0003791914,-0.00017024399,0.00043108177,-0.041495282,4987,4987,0
706421562,706421317,3932170,3932170,-0.0018066083,4.1709733e-05,0.00025168678,0.0070896214,0.0007662764,-0.051611498,4976,4976,0
706920346,706920100,3932170,3932170,0.0003080595,-0.0011577229,-0.000659052,0.011738888,-9.591523e-06,-0.052389428,4987,4987,0
707419280,707418893,3932170,3932170,-0.00011572786,-0.0004350506,-0.000311652,0.012739985,-0.0048870286,-0.054327372,4997,4997,0
707923084,707922784,3932170,3932170,0.00032156592,0.00071429677,0.00028325076,0.0028840452,-0.0016225297,-0.054065153,4971,4971,0
708421705,708421436,3932170,3932170,0.0005345106,-0.0010096965,-0.00025971056,0.010320069,-0.0031715664,-0.045394037,4985,4985,0
708925507,708925209,3932170,3932170,-0.00074240926,3.3279826e-05,0.0001980342,0.009375861,0.007414798,-0.04600023,4981,4981,0
709424238,709423988,3932170,3932170,-0.0003427264,-0.00041815735,-0.00014152416,0.011450687,-0.004230725,-0.047303207,4988,4988,0
709923021,709922772,3932170,3932170,0.00085033634,-0.001544853,0.00010538545,0.00071656145,-0.0037856037,-0.047149934,4985,4985,0
710421927,710421554,3932170,3932170,0.00048181645,0.0010341462,2.414368e-05,-0.009819562,-0.0014617012,-0.056119382,4988,4988,0
710921163,710920346,3932170,3932170,-0.0011215148,0.0010084535,0.0003828477,0.001221998,0.00392792,-0.052288737,4996,4996,0
711419559,711419268,3932170,3932170,1.6913633e-05,-9.2960174e-05,-0.0005904355,0.0076375427,0.0043084743,-0.044500686,4980,4980,0
711923146,711922887,3932170,3932170,-0.00028416567,0.00044572097,-0.00018944198,-0.0025548108,-0.019181013,-0.04779273,4980,4980,0
712421937,712421671,3932170,3932170,0.00064558,0.0005516949,5.244522e-05,0.0018609457,-0.00796586,-0.047795486,4987,4987,0
712920698,712920454,3932170,3932170,0.0014983072,-0.0016301093,-0.00047051033,-0.0028751285,0.0054905247,-0.048943926,4983,4983,0
713424475,713424225,3932170,3932170,-9.32278e-05,1.4931067e-05,0.0009115733,8.426156e-05,0.013858224,-0.044641566,4981,4981,0
713923310,713923007,3932170,3932170,0.00019083847,-0.0005848533,-0.00035431414,0.0026335497,0.005702831,-0.047227528,4986,4986,0
714422066,714421819,3932170,3932170,0.00013757376,-0.00038453017,-0.00021198693,-0.00050787395,-0.010661399,-0.04907092,4982,4982,0
714920997,714920744,3932170,3932170,0.0005175561,-0.0010726722,-0.00048882206,0.0032629408,-0.00675031,-0.044487987,4964,4964,0
715424614,715424350,3932170,3932170,0.00035715883,0.00071675394,-9.10631e-05,-0.001860742,0.017267438,-0.04984921,4995,4995,0
715923391,715923125,3932170,3932170,-0.00029688422,0.00078802434,-0.0007560099,-0.0049964124,0.013177735,-0.05007429,4988,4988,0
716422160,716421913,3932170,3932170,0.0007360413,-0.00050224137,-0.0011120407,0.0053358465,0.0059121656,-0.04706436,4990,4990,0
716920978,716920731,3932170,3932170,-0.00020167195,-0.0012937195,-0.0007185821,-0.002501108,-0.016001005,-0.050812148,5028,5028,0
717425030,717424462,3932170,3932170,4.215607e-05,-0.001070349,-0.00011675781,0.0021482126,-0.0113240285,-0.04482614,4987,4987,0
717918501,717918257,3932170,3932170,0.00012904721,-0.0005295947,-0.00054419367,0.005596702,-0.015676284,-0.03917643,4988,4988,0
718422484,718422129,3932170,3932170,-0.0006541506,-4.91702e-05,0.00092407985,-0.004105408,-0.0012644988,-0.051855296,4957,4957,0
718921076,718920812,3932170,3932170,-0.00059071893,0.00027691585,0.00045959017,-0.0058073765,0.0038353733,-0.056515586,4992,4992,0
719419848,719419590,3932170,3932170,0.0004032133,-0.0023502724,-0.00022306436,-0.00026923703,-0.012024389,-0.047332063,4975,4975,0
719923666,719923413,3932170,3932170,2.104491e-05,0.0013688591,0.00032116642,-0.0019069553,-0.0125752585,-0.053389285,5029,5029,0
720422392,720422143,3932170,3932170,-0.00023243959,0.00057531317,-0.0005704741,0.0010805546,-0.005436059,-0.04777713,4988,4988,0
720921216,720920926,3932170,3932170,-0.00017790221,-0.00024202993,-0.00012496366,0.0016279125,-0.017392593,-0.04406396,4985,4985,0
721420050,721419708,3932170,3932170,-0.0003374758,-0.00051980687,0.00033637224,-0.0029597639,-0.004931343,-0.05085429,4986,4986,0
721918913,721918613,3932170,3932170,0.00033270795,-0.0009798892,-0.00037715674,0.0035760505,-0.0015741428,-0.048933297,4969,4969,0
722422556,722422303,3932170,3932170,-0.00063024845,0.00018057805,0.0011525989,-0.00622761,0.0014694605,-0.05912769,4993,4993,0
722921315,722921055,3932170,3932170,-0.00037787392,0.000207841,0.00055000826,-0.0059243264,0.004984559,-0.052954502,4998,4998,0
723420080,723419825,3932170,3932170,-0.0008229209,0.00022219395,-6.499046e-05,0.0014971987,-0.017776582,-0.045462515,4987,4987,0
723923925,723923600,3932170,3932170,-0.00039074698,-0.00052935,-0.00050309085,0.0023484938,-0.016452169,-0.041630976,4990,4990,0
724422630,724422381,3932170,3932170,0.0008270825,0.00027671043,-0.0010658688,0.0025321255,-0.0134253735,-0.043177113,4990,4990,0
724921479,724921162,3932170,3932170,0.0001551535,-0.0007335602,0.00020075565,-0.006352011,0.0017177695,-0.047750488,4976,4976,0
725420345,725420051,3932170,3932170,0.0012492304,-0.00069325353,-6.633551e-06,-0.0007855671,-0.0087632025,-0.04866126,4965,4965,0
725924857,725923990,3932170,3932170,0.000110431036,0.00011675904,0.00032765663,-0.0022675241,-0.004716201,-0.051674772,5265,5265,0
726422754,726422496,3932170,3932170,-0.0010080803,0.00063259376,0.00038412958,-0.0050594225,0.006142785,-0.05381308,4975,4975,0
726921575,726921280,3932170,3932170,0.0005007054,0.00073470897,-0.00093393674,-0.0010882801,-0.015433268,-0.0446331,4989,4989,0
727425357,727425048,3932170,3932170,0.001074104,-0.0009900037,-0.0005043814,0.0014429205,-0.02301846,-0.047087014,4982,4982,0
727924087,727923844,3932170,3932170,0.00033659182,0.00012405332,-0.0011263901,-9.586352e-05,-0.012363143,-0.044816535,4974,4974,0
728422863,728422614,3932170,3932170,-0.0006677715,0.0008558525,3.1465617e-05,-0.004187891,-0.0034672937,-0.05476657,4940,4940,0
728921812,728921557,3932170,3932170,-0.00041700725,-0.00041659854,-8.543412e-05,-0.0054597612,-0.009048257,-0.04128502,4984,4984,0
729420827,729420468,3932170,3932170,9.3878065e-05,-4.6924753e-05,-0.00074244017,0.003769629,-0.004539244,-0.045433454,5273,5273,0
729924207,729923948,3932170,3932170,-0.00036658166,-0.0005913728,-7.311694e-05,-0.0075316834,-0.0038461876,-0.052539986,4988,4988,0
730423231,730422732,3932170,3932170,0.001200267,-0.00024235164,-0.0009262676,0.00010626975,0.0096430285,-0.054674864,4987,4987,0
730921761,730921513,3932170,3932170,-0.00014689582,0.0004964827,-0.00021162808,0.0007984634,-0.005352813,-0.051527184,4988,4988,0
731420600,731420305,3932170,3932170,0.00025462083,-9.724031e-06,0.00025268344,0.0028350498,-0.012728844,-0.046634678,4993,4993,0
731919332,731919078,3932170,3932170,0.00028208646,0.0002045043,0.00063087133,0.0009865991,0.011464105,-0.05128114,4989,4989,0
732423664,732422932,3932170,3932170,-0.00017464679,0.0007718891,0.0010510626,-0.0027753406,-0.0036100696,-0.05052165,4968,4968,0
732922149,732921897,3932170,3932170,-0.00027201953,-2.8425671e-05,4.6165724e-06,-0.004659086,-0.0016232128,-0.055894163,5252,5252,0
733420668,733420412,3932170,3932170,-0.00012954563,-0.0009442874,0.0003192478,0.012814779,-0.0029563403,-0.034584403,4986,4986,0
733924473,733924182,3932170,3932170,0.0006613549,0.0002054668,-0.00030405106,-0.0012467261,0.003060749,-0.041306306,4983,4983,0
734423242,734422965,3932170,3932170,0.00045829904,5.4300595e-05,0.00073308253,-0.0049948073,0.015982596,-0.05883963,4986,4986,0
734922080,734921754,3932170,3932170,0.0015432376,-0.0019806807,-0.001438088,0.006331843,-0.025954116,-0.046791926,4995,4995,0
735420820,735420530,3932170,3932170,-0.00085167924,0.0022978913,0.0011848095,-0.006506043,0.0027374167,-0.057141192,4988,4988,0
735919690,735919446,3932170,3932170,0.0010268766,0.0012250791,0.00049336936,-0.00078903604,0.030084118,-0.056510814,4922,4922,0
736423639,736423326,3932170,3932170,-0.0007582258,0.0015008267,0.00030715746,-0.003308341,0.0029380608,-0.050766215,4960,4960,0
736922165,736921866,3932170,3932170,0.00010079994,0.000835627,-0.0023437876,-0.007902614,0.008287982,-0.04702575,4990,4990,0
737420946,737420700,3932170,3932170,5.3081385e-05,0.00033746957,0.00027656907,-0.0023587614,0.01034571,-0.048478834,5041,5041,0
737924732,737924420,3932170,3932170,0.00017979195,0.0017648294,0.0010156,-0.004539223,0.007533995,-0.053821735,4977,4977,0
738423461,738423210,3932170,3932170,-9.435879e-06,0.0012901264,0.00061945355,-0.00568813,0.019245043,-0.052340787,4999,4999,0
738922275,738921982,3932170,3932170,0.0006186232,-0.000725093,0.00049058686,-0.0012089193,0.010802671,-0.048872616,4989,4989,0
739421184,739420893,3932170,3932170,0.00038172095,-2.9914105e-05,-0.00017953363,-0.00093403267,-0.006698103,-0.04845214,4974,4974,0
739920222,739919795,3932170,3932170,-8.424606e-05,-0.0005268167,-0.0007057203,-0.0040389393,0.001783472,-0.049250267,5235,5235,0
740423573,740423315,3932170,3932170,-0.0010480452,-0.00019241362,-0.0006328898,-0.0013973169,-0.0036054682,-0.05223227,4988,4988,0
740922346,740922098,3932170,3932170,0.00024110687,-0.0007259484,8.1810984e-05,-0.0046270983,-0.013219512,-0.05159427,4989,4989,0
741421125,741420879,3932170,3932170,0.0009404743,-0.0007831576,-0.00054341473,0.0027188065,-0.014600507,-0.048289277,4987,4987,0
741924939,741924693,3932170,3932170,-0.00032084607,0.000230849,-2.169933e-05,-0.0011981543,-0.0132581955,-0.047423184,5027,5027,0
742418704,742418456,3932170,3932170,-3.3185665e-05,0.00010807807,-0.00030138597,0.0014383427,-0.0068600983,-0.04862055,4962,4962,0
742922527,742922277,3932170,3932170,0.00050487544,0.0005465496,-0.00032808154,0.0020167148,-0.0047411667,-0.046930157,4970,4970,0
743421499,743421248,3932170,3932170,5.0540526e-05,-0.00040244835,0.00030479292,-0.0013741675,0.01050598,-0.043602794,4954,4954,0
743920033,743919779,3932170,3932170,-0.00028164015,-0.000576828,0.00020470955,0.0016419769,-0.0035572324,-0.046378814,4986,4986,0
744423840,744423552,3932170,3932170,0.00052605424,0.00019392806,-0.00039868976,-0.0039095473,0.010580556,-0.047797274,4992,4992,0
744922576,744922330,3932170,3932170,-0.0003617849,2.5533504e-06,0.00042352953,-0.0035112218,0.009813885,-0.05000021,4978,4978,0
745426414,745426102,3932170,3932170,4.3693476e-06,0.0010132315,-0.00015097692,0.0016777803,0.005478523,-0.04990695,4988,4988,0
745920147,745919895,3932170,3932170,0.0003676175,0.00054009765,0.00010757257,-0.0011143679,0.0052908263,-0.049754307,4986,4986,0
746419645,746418755,3932170,3932170,-0.0005289599,0.00030873012,0.0002304041,0.0017067929,0.004419771,-0.047741767,4974,4974,0
746922961,746922671,3932170,3932170,0.00033662876,-0.0005060343,-0.00029519733,0.001163709,0.005326017,-0.049846187,4962,4962,0
747421531,747421228,3932170,3932170,0.00012686638,-0.00022154451,-0.00034321815,0.0012388704,-0.0044492404,-0.044522136,4987,4987,0
747920262,747920011,3932170,3932170,0.0005146683,-0.00030554272,-0.0006764945,-0.00013987163,-0.021282613,-0.043894447,4988,4988,0
748424070,748423780,3932170,3932170,-0.00045311105,0.0014222697,0.00033742687,-0.009111555,0.00064174755,-0.05250555,4988,4988,0
748917834,748917588,3932170,3932170,0.00013242292,-0.00014894668,2.5592537e-05,-0.0021299815,-0.0010586709,-0.050798133,5001,5001,0
749421641,749421345,3932170,3932170,0.0006473314,0.00011888075,-0.0007275474,0.003782544,0.010850571,-0.04943519,4987,4987,0
749920445,749920194,3932170,3932170,0.0041430425,-0.0006641328,-0.0012909739,0.0010209762,-0.0069344747,-0.046770535,4959,4959,0
750419408,750419142,3932170,3932170,-0.0002689931,0.0004911525,-0.00017839219,0.003206999,-0.002588478,-0.046430223,4958,4958,0
750922961,750922693,3932170,3932170,-0.00039745713,5.577453e-05,0.0005345786,-0.0063955546,0.015867494,-0.053586442,5002,5002,0
751421785,751421461,3932170,3932170,-0.00044948142,0.0005906659,0.00018540163,-0.0017076987,-0.0035168785,-0.044965673,4988,4988,0
751925785,751925234,3932170,3932170,0.00035012234,-0.0009109513,-0.00051179685,-0.0071893684,0.0017833675,-0.042922087,4991,4991,0
752419331,752419025,3932170,3932170,0.0002387593,0.00076777994,0.00039856567,-0.0007607909,0.027490256,-0.05513798,4988,4988,0
752923050,752922797,3932170,3932170,0.00088773546,-2.8170894e-05,0.000121975456,-0.0019375066,0.013157151,-0.06071214,4988,4988,0
753421928,753421676,3932170,3932170,-0.00018162497,-0.00019823767,-0.00032684204,-0.006646494,0.004611835,-0.05436424,4954,4954,0
753921420,753920586,3932170,3932170,0.0011536258,-0.0005775,-0.0005894452,0.00087646703,-0.0062478953,-0.04802385,4968,4968,0
754424393,754424130,3932170,3932170,0.00020581113,-0.0010771296,-0.000411456,-0.0045731566,-0.023750585,-0.04690989,4989,4989,0
754923152,754922908,3932170,3932170,-0.0012673839,-0.00023459592,-0.00012277647,0.004261226,-0.017399168,-0.043631487,4983,4983,0
755421958,755421693,3932170,3932170,-0.0004940383,-2.7253647e-05,0.00033325108,-0.003617551,0.0063218614,-0.04708852,4988,4988,0
755925793,755925470,3932170,3932170,0.00034426048,0.0004838317,-0.00052442524,0.003336988,-0.011473175,-0.043000396,4992,4992,0
756419567,756419259,3932170,3932170,-5.2120544e-05,-0.00087069056,0.00013026083,-0.007550508,-0.00031780385,-0.0452892,4982,4982,0
756923402,756923105,3932170,3932170,-0.00041833543,-0.0006041802,-2.5058442e-05,-0.005172123,-0.012770556,-0.04030147,4957,4957,0
757422381,757422091,3932170,3932170,-0.0005286574,0.0012904376,0.00077982247,-0.0033409467,0.015641289,-0.05871589,4981,4981,0
757920848,757920591,3932170,3932170,0.00022969088,7.0247086e-05,0.00016931897,0.0012493066,0.015460032,-0.04984724,4940,4940,0
758424629,758424363,3932170,3932170,0.00021422545,0.0006487985,-1.8716284e-05,-0.0043459297,0.01033936,-0.04812791,4989,4989,0
758923413,758923168,3932170,3932170,-0.00032345354,0.00071847317,-0.0021021187,0.00056015886,-0.0073224115,-0.04216187,5014,5014,0
759422380,759421927,3932170,3932170,0.00038696022,-0.0003665404,-0.0007214458,0.0040331306,-0.0025465281,-0.05231246,4985,4985,0
759920954,759920707,3932170,3932170,0.00013503368,5.9235386e-05,0.00088113395,-0.0057884604,0.016901845,-0.05658436,4979,4979,0
760421563,760419632,3932170,3932170,0.0003750949,-0.0010595227,-0.0012380214,-0.00088741205,0.0056976243,-0.048955042,4969,4969,0
760923821,760923474,3932170,3932170,-0.0010072232,-0.0003762073,-0.0031679384,0.001387022,0.00037698715,-0.039842546,4985,4985,0
761422300,761422040,3932170,3932170,-0.00024234595,-7.678613e-05,-0.0016200019,-0.0008625704,0.0026748243,-0.049876373,4988,4988,0
761921170,761920823,3932170,3932170,0.00079828093,-0.00013422064,-0.0012521839,0.0011424612,0.007828085,-0.051687,4989,4989,0
762424938,762424591,3932170,3932170,-0.00060941395,-0.00010050099,0.0017551004,-0.006115174,0.01305123,-0.055847622,4987,4987,0
762923631,762923377,3932170,3932170,0.0009636125,0.0010800622,-0.0018314738,-0.013253249,0.007265028,-0.041853894,4991,4991,0
763422410,763422157,3932170,3932170,0.00069477165,0.00026689522,-0.0016067575,0.003390453,-0.005946717,-0.04804161,4976,4976,0
763921286,763920967,3932170,3932170,-0.00010036876,1.160385e-06,-0.0005723193,-0.003112418,-0.016012378,-0.05177636,4937,4937,0
764420329,764419925,3932170,3932170,0.0007167563,-0.00050102395,-0.0006022838,0.0026948906,-0.023045016,-0.043637417,4962,4962,0
764923764,764923490,3932170,3932170,0.000570163,0.0007626274,-0.00057905965,-0.0026102914,0.017154917,-0.049428195,4989,4989,0
765422591,765422319,3932170,3932170,0.00063553354,-0.0013480964,-0.00065711886,0.0013871593,-0.007832362,-0.044067185,4985,4985,0
765922447,765921055,3932170,3932170,-0.00020836998,-2.793497e-05,4.6217185e-05,-0.002450676,0.007378133,-0.052665472,4990,4990,0
766420112,766419866,3932170,3932170,-0.00026249085,-2.6258935e-05,-7.803361e-05,-0.0022513506,-0.010885744,-0.05269227,5019,5019,0
766918993,766918618,3932170,3932170,0.0009998099,-0.0009245129,0.00048564214,1.1990223e-05,0.014259891,-0.046879277,4988,4988,0
767422690,767422401,3932170,3932170,0.0006451866,0.00017906773,1.5393654e-05,-0.0023137913,0.020298865,-0.055239264,4965,4965,0
767921789,767921371,3932170,3932170,-0.00024408974,-0.0009473454,-0.000655354,0.00014254326,-0.00834031,-0.047252912,4978,4978,0
768420256,768419950,3932170,3932170,0.0005601637,-0.0007224098,-0.0007175094,-0.0018635179,-0.026885256,-0.047084454,4986,4986,0
768923965,768923719,3932170,3932170,-0.00082258147,0.00023301861,0.00021203008,-0.0050542625,-0.01646983,-0.044285536,4988,4988,0
769422792,769422501,3932170,3932170,0.0009741047,-0.00018880506,0.00023897446,-0.0013614054,0.027726728,-0.059382692,4988,4988,0
769921532,769921283,3932170,3932170,-0.00028324188,-0.00033363522,0.0012544197,-0.0019963726,0.010756393,-0.046158202,4988,4988,0
770420309,770420065,3932170,3932170,-0.00046737146,0.00058119185,0.0010012492,-0.007043877,0.020553261,-0.055028636,4988,4988,0
770919217,770918920,3932170,3932170,-0.00034823365,0.0006104877,0.0009054565,-0.0055534304,0.013087711,-0.051776886,5018,5018,0
771423208,771422855,3932170,3932170,-0.00010461949,-0.0002395486,-0.00044387992,-0.0020044537,0.012724974,-0.051058277,5011,5011,0
771921667,771921399,3932170,3932170,-0.00040788512,-1.920799e-05,0.00024043098,-0.0021212897,-0.0069783987,-0.04215734,4989,4989,0
772420596,772420183,3932170,3932170,-0.0007481965,-0.0009062513,0.00021611775,-0.0029042603,0.0015468226,-0.045598574,4986,4986,0
772924241,772923949,3932170,3932170,-0.00047844744,6.767783e-05,0.0008015166,0.0017380146,-0.011620945,-0.046231482,4988,4988,0
773423175,773422734,3932170,3932170,-0.0005101924,0.0008939732,0.0010505134,-0.005029293,0.009334097,-0.049387384,4991,4991,0
773921823,773921532,3932170,3932170,-7.353378e-05,0.0011452751,-0.00077155995,0.00043227887,-0.007138105,-0.04346872,4931,4931,0
774420746,774420361,3932170,3932170,0.00024120283,-0.00044341787,-0.0003364825,0.0011668558,-0.011959502,-0.046151247,4970,4970,0
774919559,774919272,3932170,3932170,0.00035172686,0.0005198536,-0.0010659934,-0.0012891756,-0.0023426882,-0.046592005,4960,4960,0
775423098,775422845,3932170,3932170,0.00011507366,-0.0008506889,-0.0002867971,-0.0041863434,-0.022624306,-0.042100057,4986,4986,0
775921955,775921627,3932170,3932170,-0.0013650634,-0.00016662433,0.0007863331,-0.0010723401,-0.0058235517,-0.04398261,4988,4988,0
776420707,776420462,3932170,3932170,-0.0013680976,0.000957269,0.0005184044,-0.010387974,0.00022206917,-0.049199607,5029,5029,0
776924431,776924179,3932170,3932170,0.00039529556,-0.00019753775,-0.001019054,0.0012952446,-0.011568394,-0.046897225,4982,4982,0
777418283,777418028,3932170,3932170,-0.0012053853,0.00066705525,0.00093271234,-0.0017632907,-0.007007846,-0.051293816,5043,5043,0
777922064,777921768,3932170,3932170,0.0006244557,0.00066498265,0.00028079678,0.0010428098,0.015535218,-0.05372861,4995,4995,0
778421007,778420757,3932170,3932170,-3.480524e-05,-0.00013305097,-0.0013808726,0.004556632,-0.010032045,-0.05033286,5017,5017,0
778924556,778924296,3932170,3932170,0.000777638,-0.00021018928,-0.0014528586,-0.0005504031,0.0027051468,-0.046322756,4987,4987,0
779423347,779423075,3932170,3932170,7.503612e-05,1.2338148e-05,-0.00037014167,-0.003915687,0.007910106,-0.05550281,4988,4988,0
779923091,779921911,3932170,3932170,0.0003041629,-0.0012630768,0.0005049284,-0.002131301,-0.0011611896,-0.049720958,5042,5042,0
780425972,780425627,3932170,3932170,0.0006618438,-0.0008820218,-0.0006202886,0.0004874395,-0.016425695,-0.045782663,4989,4989,0
780919749,780919456,3932170,3932170,-7.863472e-05,7.1465816e-05,0.00032131412,-0.0037182674,0.0068341186,-0.050112944,5022,5022,0
781423487,781423194,3932170,3932170,-0.00028940602,0.0010586176,0.0005336691,-0.002672707,-3.983353e-05,-0.05370391,4925,4925,0
781922884,781922200,3932170,3932170,-8.9198875e-05,-0.00022461705,0.0004438831,0.0008633063,-0.009379933,-0.042362887,4971,4971,0
782421012,782420754,3932170,3932170,-0.0007155684,-0.0002887737,-0.00073977496,-0.0060293186,-0.011248666,-0.042755492,4988,4988,0
782924850,782924522,3932170,3932170,-4.791683e-05,0.00024378303,-0.00013266776,-0.0026841054,-0.0067363507,-0.04412251,4988,4988,0
783423571,783423303,3932170,3932170,0.00038104306,-0.0002243583,5.2776122e-05,-0.00977802,0.008694726,-0.060195316,4985,4985,0
783922389,783922086,3932170,3932170,0.00052131887,-0.00041535188,-0.00070144684,0.0011161993,-0.011812282,-0.046357017,4989,4989,0
784421165,784420873,3932170,3932170,0.00040568202,-0.00069000816,-0.00021009972,-0.0068414016,-0.006033532,-0.050718375,4992,4992,0
784919955,784919652,3932170,3932170,-0.0002643443,0.00046617523,0.001016943,-0.007330763,0.016111948,-0.055619013,4978,4978,0
785423917,785423576,3932170,3932170,-2.3858556e-05,0.0003254777,0.0007570924,-0.005510296,0.011112971,-0.05057683,4970,4970,0
785922474,785922217,3932170,3932170,0.00034885135,0.0006851605,0.0003972397,-0.0060324995,0.027765363,-0.060016215,5006,5006,0
786421345,786420980,3932170,3932170,-0.0006568344,0.0005692994,-0.00011555692,-0.00067882554,0.010869384,-0.04774005,4986,4986,0
786920051,786919761,3932170,3932170,1.9073197e-05,-0.00053075474,-0.00022497584,-0.0017221967,-0.006572441,-0.047098637,4985,4985,0
787423804,787423555,3932170,3932170,0.00010235751,-0.0004434889,0.00025720094,-0.0031921496,0.0008385336,-0.045611545,4977,4977,0
787922563,787922313,3932170,3932170,0.00029557044,0.00041918323,-0.00042520178,-0.0003072021,-0.013345474,-0.046568844,4983,4983,0
788421922,788421119,3932170,3932170,-6.08094e-05,-0.00021471854,-0.0008163977,-0.0027785944,-0.0064094965,-0.044970382,4958,4958,0
788920343,788920042,3932170,3932170,-9.1941336e-05,-0.000561819,-0.00021053336,0.00028493642,-0.017773615,-0.043175843,4967,4967,0
789423898,789423644,3932170,3932170,-0.00051955145,-0.00026736438,-9.909722e-05,0.0025445216,-0.012850313,-0.03972505,4987,4987,0
789922702,789922426,3932170,3932170,0.000105982945,0.0002760964,-0.000597762,0.00016192986,0.0048852335,-0.049871463,4988,4988,0
790421453,790421208,3932170,3932170,-0.0006279771,1.6532967e-05,-3.5007288e-06,-0.008323844,-0.0086108325,-0.051131237,4988,4988,0
790920242,790919990,3932170,3932170,0.0002796632,-0.00012865692,-0.00019290004,-0.0032797589,-0.014484171,-0.046998248,4982,4982,0
791419080,791418770,3932170,3932170,0.0014209197,0.00037877922,8.54251e-05,-0.0066446825,0.024788184,-0.058349606,4992,4992,0
791922832,791922541,3932170,3932170,-0.00096635806,0.00019665092,0.0013124794,-0.0051204627,0.020921217,-0.05433266,4979,4979,0
792421727,792421476,3932170,3932170,5.9928145e-05,0.0015054576,0.00016964063,-0.006259827,0.009267906,-0.055517595,4974,4974,0
792925361,792925094,3932170,3932170,-0.00019959232,-0.00026746403,-0.0006127204,-0.0019628985,-0.005778776,-0.04183937,4991,4991,0
793424142,793423871,3932170,3932170,-0.00016766031,0.00056073256,0.00042870254,-0.0019964774,0.014868284,-0.046371225,4988,4988,0
793923399,793922658,3932170,3932170,-0.00026693058,0.0004570073,-0.00020138973,-0.0033703602,0.0010310067,-0.05337485,4993,4993,0
794421677,794421434,3932170,3932170,0.001119237,-0.0019987973,-0.0006508222,-0.0016128672,-0.0043230494,-0.04692831,4988,4988,0
794920528,794920216,3932170,3932170,-0.00017894366,-0.00080447394,0.00012669605,0.00043135026,-0.022174217,-0.042003002,4987,4987,0
795419318,795419020,3932170,3932170,-0.00047451712,0.0016147982,0.0004817836,-0.003911923,-0.0120765,-0.05395922,4952,4952,0
795923799,795923005,3932170,3932170,-0.000338531,-0.00017973025,0.00014332609,-0.00324587,-0.0006140749,-0.047064275,4990,4990,0
796421809,796421547,3932170,3932170,-0.00026506337,-0.00052265887,-0.00040453993,0.0011825657,-0.015113093,-0.042116337,4988,4988,0
796920643,796920328,3932170,3932170,-0.0006543604,0.0012040457,0.0011102041,-0.0033628566,0.009946764,-0.050033152,4988,4988,0
797424389,797424097,3932170,3932170,-9.7499025e-05,0.0003672498,0.0002648113,-0.001385466,0.0059751603,-0.049672913,4986,4986,0
797918287,797917933,3932170,3932170,-0.000115925934,2.9379968e-05,-0.0004297514,0.0010355457,-0.015823549,-0.04592188,4983,4983,0
798421930,798421660,3932170,3932170,0.00038213545,3.116745e-05,-0.00085432903,0.0035953415,-0.0083280895,-0.044872545,4987,4987,0
798920760,798920456,3932170,3932170,-0.00028188754,0.0001423806,0.00078533194,-0.007645095,0.0045933034,-0.05118794,4972,4972,0
799419711,799419373,3932170,3932170,-2.4423456e-05,-0.00036156425,-0.0005468997,-0.0017949208,-0.0029000968,-0.046530984,4970,4970,0
799923256,799922991,3932170,3932170,-0.00036954027,0.0020074123,-0.0001822128,-0.0025541643,-0.019988477,-0.049236346,4972,4972,0
800422137,800421775,3932170,3932170,0.00058055285,0.00044983925,-2.487123e-05,-0.0023703277,0.0034708742,-0.045226514,4990,4990,0
800925834,800925586,3932170,3932170,-3.689293e-05,-0.002188247,-0.00022086878,0.00043476725,-0.0036494841,-0.046789493,4998,4998,0
801424917,801424325,3932170,3932170,-0.0003706157,0.0009147889,-1.1595867e-05,-4.1869844e-06,-0.010878796,-0.044116836,4989,4989,0
801923354,801923107,3932170,3932170,0.0004888815,1.6556182e-06,-0.0010359986,-0.00045986296,-0.012473526,-0.04305179,4986,4986,0
802422158,802421897,3932170,3932170,-0.00055466173,-0.00069489377,0.0010771801,-0.0042673373,0.006482001,-0.045613438,4973,4973,0
802921050,802920803,3932170,3932170,0.00091478205,0.00016542271,-2.6335558e-05,-0.0026342412,0.008850572,-0.057317607,4969,4969,0
803419705,803419447,3932170,3932170,-0.0002946464,0.000114342336,0.0002376665,-0.0065515833,0.0072935065,-0.056658998,4988,4988,0
803923494,803923216,3932170,3932170,-0.00073570193,-0.00026917906,-0.00034723518,-0.0011131308,-0.005573913,-0.04728201,4988,4988,0
804422252,804421997,3932170,3932170,0.00093113753,-0.0013511733,-0.00031876596,0.0017867222,-0.008068292,-0.047674935,4988,4988,0
804921069,804920778,3932170,3932170,0.00096663454,0.001058746,0.00050697936,-0.0012712771,0.03443474,-0.057917535,4988,4988,0
805419850,805419559,3932170,3932170,-0.00063096953,0.00016696905,6.942112e-06,9.4310686e-05,-0.0037024284,-0.04440281,4987,4987,0
805923634,805923334,3932170,3932170,0.0007424261,-0.0013950265,-0.00022866367,-0.00078873744,-0.010042216,-0.043677974,4988,4988,0
806422576,806422280,3932170,3932170,-0.0012196297,-0.0010655383,0.00056163286,0.00048741055,-0.013722115,-0.038730588,4961,4961,0
806921157,806920896,3932170,3932170,-0.0004513614,0.00042096418,-0.00092103245,-0.0044045234,-0.0061684325,-0.04364301,4983,4983,0
807419971,807419671,3932170,3932170,-0.0005118727,0.00059070904,0.0008169398,-0.0035327836,-0.0015543451,-0.05313225,4988,4988,0
807923699,807923444,3932170,3932170,-0.0004912777,0.001183712,0.00105544,-0.0032279068,0.01779561,-0.059924204,4990,4990,0
808422476,808422221,3932170,3932170,-0.00064819935,0.00034878496,0.00032774496,-0.008352887,-0.00053951336,-0.053935878,4987,4987,0
808921837,808921009,3932170,3932170,-0.00024090293,-0.00071317615,-0.00027547864,-0.0013271136,-0.0063328687,-0.04501768,4980,4980,0
809420033,809419784,3932170,3932170,-0.00048271997,0.00024686215,0.0011604854,-0.0034649002,0.00031351813,-0.044610947,4987,4987,0
809924431,809923651,3932170,3932170,0.0008185031,-0.00023910208,8.3326944e-05,-0.008069022,0.021742128,-0.053535633,4957,4957,0
810422599,810422335,3932170,3932170,-0.0009781483,0.0010962115,0.0001247603,-0.0022272102,-0.015002895,-0.044356007,4983,4983,0
810921417,810921113,3932170,3932170,-0.000999722,-0.001019085,-0.00023987245,-0.0060186787,-0.016366405,-0.049537137,4988,4988,0
811425179,811424928,3932170,3932170,0.0001055559,-0.0005805542,-0.00059046404,0.0013107609,-0.018757464,-0.04289949,4985,4985,0
811923909,811923663,3932170,3932170,0.0005530614,-0.00045793518,-0.0008364311,-0.0005825965,-0.0009555375,-0.049378205,4988,4988,0
812422696,812422445,3932170,3932170,-0.0006115624,0.00015722854,-0.00064147887,-0.0039936583,-0.01212743,-0.04945293,4989,4989,0
812921474,812921226,3932170,3932170,0.0014638879,0.0005826534,0.0002486607,-0.0046815807,0.026385846,-0.05578874,4969,4969,0
813420369,813420116,3932170,3932170,0.00039698955,0.0007001956,-0.001225683,0.00269049,-0.0197833,-0.046766404,4949,4949,0
813924431,813924050,3932170,3932170,0.00028205462,0.00010779342,-0.00022197503,0.001450046,-0.00392759,-0.04932118,5264,5264,0
814422830,814422563,3932170,3932170,0.00019732538,0.00018433254,-0.00016938303,-0.0057620057,0.0002464776,-0.04700179,4994,4994,0
814921581,814921336,3932170,3932170,-0.00037926107,0.001969506,0.00022305519,0.0011294618,-0.004918146,-0.048344072,4981,4981,0
815425493,815425108,3932170,3932170,0.002255274,-0.001088683,-0.0003340383,0.0022644047,-0.0127486,-0.042133115,4991,4991,0
815919199,815918897,3932170,3932170,-2.5068384e-05,-0.0008565964,-0.00010693082,-0.0020428651,-0.015168599,-0.03706035,4984,4984,0
816422994,816422668,3932170,3932170,-0.0012205114,0.000750112,-0.0005148832,-0.0021998377,-0.011962486,-0.04415835,4989,4989,0
816921849,816921605,3932170,3932170,0.0007581912,0.0009990786,-0.00026523817,-0.0017633677,0.01196101,-0.05617092,4974,4974,0
817420486,817420232,3932170,3932170,-0.00382823,0.0007213041,0.00092810154,-0.010327812,-0.019950496,-0.054840617,4992,4992,0
817924273,817923998,3932170,3932170,0.00019696636,-0.0008696003,-0.0005648985,-0.003346652,-0.01106517,-0.047170304,4990,4990,0
818423063,818422776,3932170,3932170,-0.00041173946,0.0007225778,-0.00041221507,-0.005265376,0.00060274696,-0.04264477,4988,4988,0
818921816,818921557,3932170,3932170,0.00039432858,0.00016612126,-0.0003909797,-0.0024225945,0.010443192,-0.045065083,4982,4982,0
819420624,819420338,3932170,3932170,-2.4378754e-05,-0.0008376605,-0.00037610697,-0.001416408,-0.004279161,-0.04528718,4988,4988,0
819919473,819919119,3932170,3932170,-0.0008437262,-9.7398704e-05,0.00014935713,-0.0010744608,-0.0015936831,-0.05135949,4986,4986,0
820423326,820423036,3932170,3932170,6.29406e-05,0.00014990129,-0.0003593473,0.0028165122,-0.015614369,-0.045564584,4975,4975,0
820922282,820921944,3932170,3932170,-0.0002770084,-0.0007226523,0.0005398033,-0.00722074,0.024884697,-0.058663752,5264,5264,0
821420706,821420448,3932170,3932170,-0.0024231372,0.00032261107,-0.00029918106,-0.008278205,-0.004256831,-0.051696755,4987,4987,0
821924472,821924220,3932170,3932170,-0.0003396505,-0.0005180338,-0.00023364647,-0.0011228763,-0.014649559,-0.043593224,4989,4989,0
822423250,822422997,3932170,3932170,-0.00039677258,0.00037424974,0.00072385155,0.0026830414,-0.019347854,-0.043127388,4987,4987,0
822922029,822921780,3932170,3932170,0.00040820698,0.00016762594,-0.0007588585,0.0023307905,-0.0038902457,-0.045009013,4988,4988,0
823420804,823420559,3932170,3932170,0.0006057774,0.0004552167,-4.8159956e-05,-0.0066007054,0.0010441961,-0.052231565,4987,4987,0
823919857,823919430,3932170,3932170,-0.00023343269,0.0009359431,0.000961171,-0.004822082,-0.015140039,-0.057333026,4956,4956,0
824423659,824423370,3932170,3932170,-0.0002253165,-0.001756354,-0.0002557699,0.0028336497,-0.013203049,-0.04846952,5247,5247,0
824922244,824921888,3932170,3932170,0.000134237,-0.00047662292,7.483913e-05,0.0012516073,0.0017060537,-0.04596197,4988,4988,0
825420973,825420668,3932170,3932170,6.910339e-05,0.0008815001,0.00023358468,-0.006753624,-0.00027637027,-0.055100236,4988,4988,0
825919701,825919449,3932170,3932170,-0.00015720082,0.00013403903,-0.00066741003,0.000303091,-0.022855075,-0.045266386,4988,4988,0
826418478,826418231,3932170,3932170,-0.0004335124,-3.4823275e-05,0.00021432166,-0.0020619987,-0.011292368,-0.049566284,4989,4989,0
826922258,826922001,3932170,3932170,0.0008782872,-0.000403841,-0.0017993031,-0.0009859554,0.0068198205,-0.051604006,4957,4957,0
827421476,827420876,3932170,3932170,-0.000491802,-0.0003648261,-0.00033191257,-0.0025713854,-0.022180261,-0.04724158,4975,4975,0
827920206,827919826,3932170,3932170,0.00094034383,-0.00061663764,-0.0033168474,0.007689688,-0.0013308547,-0.046707645,5252,5252,0
828423591,828423327,3932170,3932170,-0.0011134237,0.00035907933,-0.0015813188,-0.0011605466,0.0071357284,-0.0521838,4985,4985,0
828922470,828922107,3932170,3932170,0.001617965,-0.0016004747,-0.003280603,0.0022165363,0.009169966,-0.045481708,4988,4988,0
829427202,829425879,3932170,3932170,8.85821e-05,0.0014492117,-0.0016931646,0.001193295,-0.0026472057,-0.04489549,4991,4991,0
829919969,829919668,3932170,3932170,-0.0009906208,2.2522713e-06,-0.0012579297,-0.0033213845,-0.0004191073,-0.04951243,4988,4988,0
830424088,830423438,3932170,3932170,6.237789e-05,0.0011090494,0.0010136232,-0.0013515182,0.001986809,-0.055122513,4989,4989,0
830922606,830922295,3932170,3932170,0.0005100877,-0.0010520094,-0.00019995503,0.004571939,0.0009663498,-0.04674465,4975,4975,0
831423186,831421302,3932170,3932170,0.0018628951,0.00091751845,-0.00090097234,0.0006509687,-0.021080963,-0.042566836,5008,5008,0
831925075,831924768,3932170,3932170,-0.00050605903,0.0003454402,0.00064497127,-0.005244056,0.014396895,-0.05587782,4991,4991,0
832423833,832423545,3932170,3932170,0.0050591207,-0.001271395,-0.001286963,-0.0025313962,-0.024343807,-0.0402855,4987,4987,0
832922671,832922339,3932170,3932170,-0.002073879,0.00042026423,0.00031746982,0.0009278159,0.020865828,-0.05405419,5001,5001,0
833421358,833421114,3932170,3932170,0.0005816484,-0.0005536173,-0.0007845973,0.0070633763,-0.002981909,-0.049267553,4991,4991,0
833920137,833919887,3932170,3932170,-0.0003520935,-0.00042853435,-0.0004907407,0.0010994768,-0.010145959,-0.049921993,4988,4988,0
834418999,834418750,3932170,3932170,-0.0005491876,5.77356e-05,-0.00075834733,-0.008351493,-0.0014526964,-0.049791224,4972,4972,0
834923013,834922679,3932170,3932170,-0.00020863206,0.00070271944,-0.00022119565,-0.008155138,0.0073405546,-0.043337528,4952,4952,0
835421523,835421216,3932170,3932170,-0.0006681827,-0.00074822607,0.00010506454,0.0016733923,-0.01577328,-0.028742505,4987,4987,0
835925312,835925029,3932170,3932170,-0.0030227017,0.00049678783,-2.4547036e-05,-0.0013795859,-0.016409278,-0.045077883,4986,4986,0
836424054,836423763,3932170,3932170,-0.001679532,-0.0004709274,0.0008194128,-0.005863462,0.009442692,-0.05468708,4986,4986,0
836923248,836922545,3932170,3932170,0.0005132315,-0.002478652,-0.0012238078,0.003404135,-0.018551808,-0.043667614,4988,4988,0
837421567,837421324,3932170,3932170,0.00027336908,0.0012429443,0.00013162065,0.0021066715,-0.0072347764,-0.04493662,4978,4978,0
837920567,837920174,3932170,3932170,-0.00033390746,0.0008314439,0.0010153414,-0.0059571,0.0016699864,-0.047538184,4958,4958,0
838424345,838424095,3932170,3932170,0.00011199591,0.0004898253,0.00040663313,-0.007714826,0.0077841002,-0.04898081,4960,4960,0
838922909,838922652,3932170,3932170,0.001046295,-1.2365889e-05,-0.0014710786,0.0034293204,-0.009874353,-0.049066972,4988,4988,0
839421737,839421434,3932170,3932170,-0.00075148774,0.0010350292,-0.00048418314,-0.0014297197,-0.0066652414,-0.047426526,4990,4990,0
839920463,839920215,3932170,3932170,-0.0012145279,0.0006897928,0.0005027491,-0.0011046203,-0.0020121834,-0.050382115,4990,4990,0
840419304,840418992,3932170,3932170,0.0011059488,0.00016619763,0.00063793286,-0.0033097866,0.004416453,-0.05906402,4986,4986,0
840923096,840922761,3932170,3932170,-0.00031223378,6.1888255e-05,0.0004276062,-0.008161013,-0.01204592,-0.055477906,4987,4987,0
841421856,841421595,3932170,3932170,-0.00014344054,0.00026412628,-0.00018739287,0.00050389394,-0.0012026199,-0.03846406,4961,4961,0
841920827,841920549,3932170,3932170,-0.00020256243,0.00041478613,0.00011950333,-0.006033675,-0.014618438,-0.047443986,4960,4960,0
842424399,842424090,3932170,3932170,0.0013186535,0.0003912126,-0.00042827433,-9.9935285e-05,0.011136719,-0.047229256,4968,4968,0
842923203,842922869,3932170,3932170,-0.00094015995,-0.00028745318,0.00010101554,-0.005792809,-0.009589385,-0.0505795,4989,4989,0
843422024,843421650,3932170,3932170,0.00066636753,0.0008791301,0.00020794838,-5.5224788e-05,0.015756905,-0.061055493,4944,4944,0
843920761,843920428,3932170,3932170,-0.00021665246,-0.0007646106,0.00020552524,-0.008603869,0.005919728,-0.04729458,4986,4986,0
844419646,844419213,3932170,3932170,-0.0010717363,0.0023686513,0.00082516414,-0.0046698516,-0.00930554,-0.052599363,4992,4992,0
844923319,844923071,3932170,3932170,-0.00013949041,-0.002006096,0.00012595364,-0.0061141457,0.0023018485,-0.055286493,4970,4970,0
845422985,845421981,3932170,3932170,-0.0033057106,0.00056519755,0.000706223,-0.007104533,-0.00999682,-0.042871412,4973,4973,0
845920791,845920536,3932170,3932170,0.0002453292,9.853805e-05,-0.001673306,0.003991823,0.0076874536,-0.048177674,4988,4988,0
846424624,846424304,3932170,3932170,-0.00017192094,0.00040991255,0.0012538563,-0.0035030819,0.0066853208,-0.050315585,4988,4988,0
846918342,846918096,3932170,3932170,-0.00037375028,0.0004315426,0.00092925417,0.0036822231,0.0019023974,-0.05244548,4988,4988,0
847422167,847421864,3932170,3932170,0.0011197316,-8.384255e-05,-0.0011667123,-0.0063003944,-0.0015551784,-0.057702634,4986,4986,0
847920894,847920644,3932170,3932170,0.0019933074,0.00011969359,-0.0010732955,-0.008576007,-0.0013869482,-0.04430186,4988,4988,0
848419741,848419492,3932170,3932170,0.00015485588,-0.00018531638,-0.001126342,-0.0068324856,-0.0016565319,-0.041491345,4932,4932,0
848923662,848923400,3932170,3932170,-0.00029663226,0.0008130343,0.0002746539,-0.0052633947,0.019535158,-0.055176526,4951,4951,0
849422235,849421973,3932170,3932170,0.00022216554,0.0019587157,0.0005496309,0.0003689003,0.005092499,-0.050002575,4989,4989,0
849926070,849925746,3932170,3932170,0.0015755752,0.00051306584,-0.000552226,-0.006169562,0.010946113,-0.045080636,4995,4995,0
850424765,850424518,3932170,3932170,0.00022235326,0.0004762035,-1.11876225e-05,0.0029621301,0.012817539,-0.055304628,4987,4987,0
850924093,850923299,3932170,3932170,0.0010162047,-0.00019284118,-0.0015180672,-0.0009091085,-0.014545744,-0.045650695,4987,4987,0
851422326,851422079,3932170,3932170,-0.00012289648,-0.00058067776,-0.00016124731,-0.0011049886,-0.023281753,-0.046824366,4988,4988,0
851921761,851920914,3932170,3932170,-0.0006853927,0.0018306418,0.00042493717,-0.0063248025,0.019202385,-0.05464902,4932,4932,0
852420101,852419852,3932170,3932170,0.000773962,-0.0011443404,-0.0009875213,0.004009203,-0.009927417,-0.04520451,4915,4915,0
852924115,852923780,3932170,3932170,-4.2812077e-05,0.00013867953,0.00011687405,-0.0021776254,-0.008416239,-0.051915377,5234,5234,0
853422569,853422311,3932170,3932170,-0.0035414896,0.0010145215,0.0016112523,-0.0030020487,0.0102042835,-0.050128616,4984,4984,0
853921397,853921090,3932170,3932170,-0.00012963859,0.0002925841,0.00018072622,-0.00010824045,-0.0006452222,-0.046550687,4989,4989,0
854420116,854419870,3932170,3932170,0.00032529258,0.0006458536,0.00025122007,-0.0048442883,0.018262736,-0.055562593,4989,4989,0
854918947,854918657,3932170,3932170,-0.0008795869,0.0007281383,0.0010342009,-0.0049020103,0.014123013,-0.055174213,4994,4994,0
855422713,855422416,3932170,3932170,-0.00032188,0.00055135845,0.0003252384,-0.0031284797,-0.005678989,-0.049997102,4987,4987,0
855921541,855921279,3932170,3932170,0.0008372274,-0.00052118575,0.0009063208,-0.0013914345,0.019082278,-0.055816524,4948,4948,0
856420543,856420250,3932170,3932170,6.748367e-05,0.001505339,-0.00041335248,0.0054766275,0.006909085,-0.047870982,5243,5243,0
856924036,856923742,3932170,3932170,0.00034033845,-0.0013123936,-0.0012334748,0.00222274,-0.0009797467,-0.042388912,4983,4983,0
857422887,857422523,3932170,3932170,-0.00014943314,0.00048255012,0.00026855568,-0.0019433656,0.009902711,-0.05355484,4989,4989,0
857921544,857921301,3932170,3932170,0.0018906385,-0.0007553544,0.00024612778,-0.0053084698,-0.008905736,-0.04798961,4988,4988,0
858420340,858420083,3932170,3932170,-0.00082288997,0.0014191561,0.00036323516,-0.004922161,0.01639755,-0.050558385,4989,4989,0
858924096,858923846,3932170,3932170,-0.0018573492,-0.00027417886,-0.00022631825,-0.0010277915,-0.0009397777,-0.043964624,4954,4954,0
859423843,859422697,3932170,3932170,0.00025641848,-0.0003611697,-0.00027945384,-0.0013110236,-0.0014375877,-0.054140974,4967,4967,0
859921996,859921660,3932170,3932170,-0.00023449214,0.00034212295,0.00048050523,-0.0014050491,0.00038199933,-0.053911325,4962,4962,0
860425434,860425174,3932170,3932170,0.0003462388,-0.0005421228,-0.00083934364,0.0016594847,-0.0116862515,-0.045755178,4988,4988,0
860919218,860918966,3932170,3932170,0.00022940342,0.00018519402,-0.00049254525,-0.0021488862,-0.0064666895,-0.045371152,4988,4988,0
861423035,861422734,3932170,3932170,0.0004693736,0.00020968246,-0.00065833813,-0.00014351195,0.00018155534,-0.045472126,4989,4989,0
861921819,861921513,3932170,3932170,-0.0004789273,0.00044609036,-0.00013479182,-0.0025413728,0.0034167273,-0.044547938,4987,4987,0
862420588,862420294,3932170,3932170,0.00083201844,-0.0017400327,-0.00023293232,0.00014500487,-0.012995684,-0.043739285,4990,4990,0
862924474,862924171,3932170,3932170,-0.00023457319,0.00046729218,-0.0006836417,-0.0009608559,-0.022605052,-0.047124103,4960,4960,0
863423373,863423069,3932170,3932170,0.000105114654,-0.002455748,-0.0005962163,-0.0026364278,-0.013574678,-0.051411215,4946,4946,0
863921888,863921619,3932170,3932170,6.758654e-05,-0.00018371036,-0.0007942294,0.000605098,-0.004149625,-0.047655776,4988,4988,0
864420664,864420413,3932170,3932170,-0.00029442998,0.000110126275,0.00044110595,-0.0035491718,-0.009783631,-0.051408876,5004,5004,0
864919434,864919176,3932170,3932170,0.00032927358,0.0003050238,0.00091480504,-0.0036471535,0.0034584184,-0.04650585,4979,4979,0
865423233,865422943,3932170,3932170,0.00018495982,-0.00092232873,-0.0006497562,-0.0012347378,-0.0133231925,-0.04717642,4987,4987,0
865922094,865921724,3932170,3932170,0.0021055075,0.00022761646,0.0002861057,-0.007373647,0.004929968,-0.053806752,4988,4988,0
866420945,866420617,3932170,3932170,0.00018840232,8.759344e-05,-0.00044045984,-7.141213e-05,-0.0029084727,-0.045696843,4967,4967,0
866925530,866924547,3932170,3932170,-0.00086758134,0.00068144966,0.0009902244,-0.004377674,-0.009315684,-0.053870976,5019,5019,0
867423306,867423048,3932170,3932170,-0.0005180276,0.00015893385,0.00039243395,0.0030492807,0.0021917766,-0.04431836,4988,4988,0
867922198,867921837,3932170,3932170,-0.0006278616,-0.00020972839,0.0009529305,0.00019476115,-0.0013556207,-0.04793635,4998,4998,0
868420864,868420611,3932170,3932170,-0.00045833073,0.00018642552,-0.00012392523,-0.0020616606,-0.009108035,-0.043646976,4993,4993,0
868919677,868919386,3932170,3932170,0.00024707936,0.00023536278,0.00040676998,-0.008222838,0.006523976,-0.05582279,4987,4987,0
869423406,869423154,3932170,3932170,0.00020844283,-0.00031200133,-0.00010307109,-0.0023234473,-0.009827373,-0.050587956,4983,4983,0
869922260,869922035,3932170,3932170,0.00020295475,-0.00022117115,-0.00066015625,-0.0015265862,0.005270121,-0.04837905,4973,4973,0
870421238,870420939,3932170,3932170,0.000393687,-0.0006921057,-0.00034442986,-0.0028228755,0.0026582025,-0.047649052,4942,4942,0
870924737,870924477,3932170,3932170,-5.0694707e-05,-0.0013881641,0.00047677304,-0.0069924756,0.026315209,-0.061468273,4988,4988,0
871423601,871423259,3932170,3932170,0.00046783697,-0.00030827385,-0.00044766985,0.00063491205,-0.009772159,-0.043387193,4990,4990,0
871922388,871922075,3932170,3932170,0.0007046129,-0.001540238,-0.00077085814,-0.0020285198,-0.014230009,-0.04525399,5027,5027,0
872421163,872420816,3932170,3932170,-0.0007845447,0.00074078917,0.0007393373,-0.0068723727,0.0027225257,-0.054825902,4988,4988,0
872919884,872919594,3932170,3932170,0.00028719142,0.00028411,0.0003961453,0.0022539885,0.0072200177,-0.050873034,4987,4987,0
873423845,873423457,3932170,3932170,-0.0021336167,-5.2584015e-05,-0.00022171559,-0.0033549534,-0.006330144,-0.0460857,4969,4969,0
873922672,873922384,3932170,3932170,-0.00020196631,-0.0003987014,0.0004995632,0.002129987,-0.021140741,-0.040329576,4988,4988,0
874421188,874420924,3932170,3932170,-0.00062268693,-0.00050929474,0.00013520221,0.005225969,-0.013487739,-0.043552328,4993,4993,0
874920030,874919747,3932170,3932170,-0.00045055075,-0.0006857254,-4.812725e-06,0.006189575,-0.0095139835,-0.04063151,5037,5037,0
875418763,875418477,3932170,3932170,-0.00013496882,0.0014403732,0.0006419536,-0.007869507,-0.0021507565,-0.053581752,4988,4988,0
875922532,875922244,3932170,3932170,-0.0004305742,-0.0005988492,0.00019934212,-0.0008823736,-0.01614836,-0.044688877,4987,4987,0
876421290,876421041,3932170,3932170,-0.0024307985,3.0077736e-05,3.0272467e-05,-0.004571066,0.010728504,-0.054220438,4944,4944,0
876925127,876924877,3932170,3932170,-0.0008586826,0.0007278456,0.00066413183,-0.0024457255,0.0017396592,-0.053717032,4977,4977,0
877424011,877423765,3932170,3932170,-7.4173055e-05,-2.3124456e-05,-0.00040560839,-0.00024598956,-0.01497937,-0.041785624,4955,4955,0
877922614,877922351,3932170,3932170,0.0007388737,-0.0005913644,-0.0003217511,-0.004987956,0.008709661,-0.04984906,4991,4991,0
878421380,878421132,3932170,3932170,0.00013886149,-0.0008595904,-0.0005575663,0.0009856138,-0.018498648,-0.039877728,4993,4993,0
878920213,878919907,3932170,3932170,-0.00039406942,1.51577615e-05,0.00063101435,-0.0008084468,-0.0021624188,-0.051111486,4987,4987,0
879418997,879418684,3932170,3932170,-0.0005364196,0.00022095992,0.0001330608,-0.00019041816,-0.009042122,-0.04204663,4987,4987,0
879923213,879922453,3932170,3932170,0.0005195876,-0.0005771155,-0.00017081774,0.004826781,0.0047783265,-0.04822352,4988,4988,0
880421592,880421273,3932170,3932170,-0.0002132394,-0.00032871083,0.00011861538,-0.0076216436,-0.00061296794,-0.06024187,4973,4973,0
880920979,880920237,3932170,3932170,0.00024001076,-0.000217078,8.958162e-05,-0.003063993,-0.0023048369,-0.050356265,4969,4969,0
881424116,881423776,3932170,3932170,0.00044809576,-0.00017794812,-0.00062670826,0.0015973198,-0.009595213,-0.04625652,4989,4989,0
881922802,881922554,3932170,3932170,1.4179127e-05,-1.5016847e-05,-0.0003733485,-0.0023574384,-0.000795414,-0.04830791,4988,4988,0
882421645,882421333,3932170,3932170,0.0002878833,-0.00020780145,-0.0007600372,0.0062187877,-0.008217341,-0.042417303,4988,4988,0
882920360,882920113,3932170,3932170,0.000731173,-0.00064655475,-0.00040365607,0.0023834757,-0.023474408,-0.043324403,4989,4989,0
883419146,883418893,3932170,3932170,5.1929757e-05,0.00070727686,-0.0015938756,-0.001150499,0.007066272,-0.048319113,4994,4994,0
883922976,883922726,3932170,3932170,-0.0013520339,0.0009415893,-0.0010226527,-0.0040326184,-0.005805709,-0.049451087,4961,4961,0
884422000,884421640,3932170,3932170,-9.1055444e-05,-0.0003347276,-0.0026433456,-0.0017170968,-0.010963447,-0.047660884,4964,4964,0
884920473,884920214,3932170,3932170,0.0010844725,-0.0009239829,-0.0022063737,0.00044244187,-0.0065209037,-0.056842547,4983,4983,0
885424947,885423983,3932170,3932170,0.00077067054,-0.00069154723,-0.0019839457,-0.0044680703,0.004798971,-0.049973685,4990,4990,0
885923107,885922765,3932170,3932170,0.00081868574,-0.0009767318,-0.0011034242,0.0043069553,-0.015773876,-0.040387,4993,4993,0
886422011,886421542,3932170,3932170,0.000816949,-0.0007889113,-0.00094695063,0.0013726727,-0.010320148,-0.05185476,4990,4990,0
886920575,886920319,3932170,3932170,-0.0003571756,-0.0001240233,-0.0029212155,-0.006391703,-1.1441499e-05,-0.051804345,4990,4990,0
887425824,887424089,3932170,3932170,-0.00032765043,-0.0019652448,-0.0005462616,-0.004168618,0.011232318,-0.05988147,4959,4959,0
887923341,887923049,3932170,3932170,2.6886162e-05,0.0019462989,0.0002851854,-0.0033225603,0.011218695,-0.052852955,4955,4955,0
888421901,888421640,3932170,3932170,-8.3813866e-05,0.0012333571,0.00082878344,-0.0021509845,0.009653583,-0.0452822,4988,4988,0
888925709,888925407,3932170,3932170,-0.0006365589,3.4442535e-05,0.00036491852,-0.0021599527,-0.0121217435,-0.040718604,4983,4983,0
889419500,889419202,3932170,3932170,0.00027280676,9.8195276e-05,-0.00040660714,-7.0814516e-05,-0.007188255,-0.048305698,4992,4992,0
889923221,889922966,3932170,3932170,0.0013421092,-0.0006051945,-0.0008382869,3.7530215e-05,-0.00035144808,-0.044785384,4988,4988,0
890422102,890421742,3932170,3932170,0.00046250172,-9.450279e-05,-0.0011950557,-0.0036847328,-0.004702216,-0.04213985,4984,4984,0
890925772,890925514,3932170,3932170,0.00019127899,-0.0006021509,-0.0005373341,-0.0020606387,-0.0058399052,-0.04101069,4977,4977,0
891424817,891424519,3932170,3932170,-0.00024946782,0.00046502057,4.537518e-06,-0.007542773,0.0068336707,-0.058309376,5028,5028,0
891923330,891923069,3932170,3932170,-0.00089459284,-0.0005094777,-0.000994109,-0.0050373822,0.004926454,-0.056660734,4991,4991,0
892422156,892421844,3932170,3932170,0.0018140957,-0.0006266069,-0.0018110761,-2.819771e-05,-0.029121099,-0.047612946,4987,4987,0
892920936,892920633,3932170,3932170,-0.00075263553,0.00057312945,0.00084830815,-0.009063497,0.008477518,-0.057250455,4976,4976,0
893419684,893419407,3932170,3932170,-3.2330874e-05,-0.0029340833,0.0010265352,-0.0019027324,0.013557254,-0.05011175,4994,4994,0
893923907,893923169,3932170,3932170,0.0002633558,-0.0009928439,-9.79365e-05,0.0008694705,-0.002670286,-0.04428544,4987,4987,0
894422186,894421970,3932170,3932170,-0.00011125239,0.0004925084,-0.001334998,-0.0028305799,0.0013143404,-0.04395118,4984,4984,0
894921373,894920906,3932170,3932170,-0.00044410425,0.0008445393,-0.00040693025,-0.0016845242,-0.0021432503,-0.053373758,4964,4964,0
895424754,895424491,3932170,3932170,0.00034778126,-0.0003555326,-0.0004263395,-0.002022226,-0.004120889,-0.052684866,4989,4989,0
895918529,895918281,3932170,3932170,-0.00078086247,-0.0007971907,0.0002914279,-0.0033896354,0.0011949326,-0.049473908,4972,4972,0
896422335,896422047,3932170,3932170,-0.003808278,0.0033958014,1.8374552e-05,-0.012496323,0.0046995347,-0.052885942,4988,4988,0
896921203,896920828,3932170,3932170,0.00053963467,0.00031626737,-0.00033852135,-0.002370666,-0.013907455,-0.04970108,4990,4990,0
897419889,897419604,3932170,3932170,0.0011951484,-0.0007341769,-0.0010960111,0.002658424,-0.028223425,-0.04248076,4985,4985,0
897923664,897923370,3932170,3932170,-0.00015581808,-0.0006925861,-0.00070284423,0.0012179185,-0.019864246,-0.043774076,4977,4977,0
898422574,898422324,3932170,3932170,-0.0008066113,-0.0010284093,0.00037630473,-0.0021419807,-0.015071302,-0.045971528,4964,4964,0
898921212,898920926,3932170,3932170,8.608611e-06,0.000144898,0.00094808865,5.442565e-05,0.0008186275,-0.047179844,4986,4986,0
899425018,899424699,3932170,3932170,-0.00048377152,0.002039307,0.00045539738,-0.003755997,-0.0041744593,-0.054813053,4988,4988,0
899918813,899918483,3932170,3932170,-5.9554965e-05,-0.00021866924,7.401388e-05,-0.0011280822,-0.015009744,-0.040685058,4988,4988,0
900422588,900422251,3932170,3932170,-0.0007824072,6.5096916e-05,0.0010265614,-0.006282165,-0.009516721,-0.05155134,4987,4987,0
900921307,900921027,3932170,3932170,-3.01623e-06,-0.002226768,5.3371918e-05,-0.0028637745,-0.026543159,-0.04733612,4952,4952,0
901420704,901419812,3932170,3932170,-0.0006418017,0.0008306575,0.0005914918,-0.010213385,-0.002541179,-0.05958267,4958,4958,0
901923979,901923729,3932170,3932170,-0.0022595578,-0.00020840456,-0.00053830206,-0.004959926,0.001172857,-0.048573658,4937,4937,0
902422607,902422349,3932170,3932170,0.00071399426,-7.73385e-05,-0.00013229676,-0.0074372175,0.010521214,-0.05827509,4988,4988,0
902921399,902921127,3932170,3932170,0.00022089235,-0.0010502363,-0.0007300182,-0.0019642364,-0.016387379,-0.04709753,4988,4988,0
903420151,903419906,3932170,3932170,-0.00022398899,0.00088084454,1.8922323e-05,-0.0005583073,0.00965047,-0.046462823,4988,4988,0
903918936,903918688,3932170,3932170,-0.0030903611,0.00028030403,0.00069088466,-0.0031511167,-0.0023740402,-0.03902019,4993,4993,0
904422740,904422449,3932170,3932170,0.0015684087,-0.00067630556,-0.00025016806,-0.00043657617,0.026609411,-0.049295254,4988,4988,0
904921591,904921224,3932170,3932170,-0.0005224434,-0.00011703296,0.00074890215,-0.004735742,0.0047658165,-0.046847347,4972,4972,0
905420529,905420177,3932170,3932170,0.0023893116,-2.744284e-05,-0.0009944725,-0.0025974181,0.00055280153,-0.044142246,4963,4963,0
905924030,905923771,3932170,3932170,-0.0007795036,-4.2226104e-05,0.0001896632,-0.0030832118,-0.0037287488,-0.041225526,4988,4988,0
906417865,906417564,3932170,3932170,-0.0003353111,-0.00059504644,0.00056331605,0.0012338349,0.00015282044,-0.051380962,4988,4988,0
906921835,906921327,3932170,3932170,-0.00014948875,0.00027094522,0.00026947676,-0.0036984875,-0.0109030185,-0.043644227,4988,4988,0
907420393,907420105,3932170,3932170,-0.00039235258,0.0002533294,-0.0009524986,0.00050375646,-0.016399918,-0.045837767,4987,4987,0
907924576,907923872,3932170,3932170,0.00018396271,0.0013330489,0.00088761357,0.000118388394,0.022797221,-0.06024948,4987,4987,0
908422964,908422671,3932170,3932170,-0.00017568454,0.00031882653,0.00021912169,-0.0064172824,-0.010307561,-0.049231146,5013,5013,0
908922327,908921582,3932170,3932170,0.0010247801,-8.9568086e-05,-0.00086573255,0.001442721,-0.00931957,-0.04577296,4967,4967,0
909425459,909425196,3932170,3932170,-0.00025723295,-0.00050046,0.00044523377,-0.00956329,-0.020108325,-0.050931092,4992,4992,0
909924295,909923993,3932170,3932170,-0.00023939052,-0.00021478509,-0.00045456705,-0.0017347402,0.0027610369,-0.050541267,5011,5011,0
910418004,910417759,3932170,3932170,0.00018023093,0.0005288793,-0.00030942267,-0.00012980579,-0.014019818,-0.044391673,4988,4988,0
910921822,910921525,3932170,3932170,-0.00063884567,0.00043184427,0.0008007994,0.0006717435,-0.0056543746,-0.046885174,4988,4988,0
911420602,911420306,3932170,3932170,0.000537796,0.00029622423,-0.001046019,-0.0030760104,-0.0073740464,-0.04318036,4990,4990,0
911924414,911924076,3932170,3932170,0.00020471218,9.4388866e-05,-0.0008042224,-0.0017547691,-0.0029924738,-0.047713857,4995,4995,0
912423373,912423039,3932170,3932170,-0.0005762005,-0.00039289767,7.559571e-05,-0.0032288271,-0.011273976,-0.044167202,4960,4960,0
912921878,912921624,3932170,3932170,-0.00066955504,-0.00047009718,0.001081675,-0.0015677188,0.0054068086,-0.051143732,4988,4988,0
913425690,913425389,3932170,3932170,0.000967757,-0.0017221421,-0.00022613112,0.0012389824,-0.016413867,-0.041912638,4986,4986,0
913919442,913919179,3932170,3932170,0.000109366454,0.00011814141,-0.000755459,0.0036985022,0.0013159359,-0.041030295,4980,4980,0
914423334,914422948,3932170,3932170,0.0003534732,0.00034925446,-0.00020553208,-0.005768607,-0.00038220343,-0.0517037,4989,4989,0
914922037,914921739,3932170,3932170,-0.0007451506,0.0006469955,-0.0006025296,-0.0063292217,-0.007905053,-0.050996378,4973,4973,0
915420909,915420518,3932170,3932170,-0.00046278065,0.0016900481,9.400857e-05,-0.00476582,0.00070748397,-0.05817187,4970,4970,0
915924681,915924433,3932170,3932170,0.000664222,-0.00037557204,-0.0012284848,0.0040599774,-0.008371046,-0.043007866,4958,4958,0
916423348,916423097,3932170,3932170,0.00015513352,6.148655e-05,-0.0001002796,-0.0043517826,-0.020233816,-0.04593547,5042,5042,0
916922130,916921823,3932170,3932170,0.0008874507,-0.00018600913,0.0004000473,-0.0065939585,0.015718238,-0.058140498,4990,4990,0
917420844,917420598,3932170,3932170,-0.00020752013,0.00035332364,0.0003707324,-0.004362455,0.003934764,-0.05401082,4934,4934,0
917919667,917919376,3932170,3932170,0.0006621101,-0.00013157428,8.5810316e-05,-0.0064737345,0.017858926,-0.04866445,4988,4988,0
918423387,918423142,3932170,3932170,4.6442237e-05,0.00045040442,0.0010368894,-0.001507281,0.0044033523,-0.048457216,4989,4989,0
918922284,918921931,3932170,3932170,-0.00055366976,0.00054278155,0.00035939325,-0.0013209156,0.0064113135,-0.04961082,4945,4945,0
919421131,919420826,3932170,3932170,-0.0003568264,-0.00026725672,0.00033228463,-0.0021000584,-0.015637,-0.044004414,4960,4960,0
919924721,919924461,3932170,3932170,0.0002709924,0.0006283905,0.000350345,0.0019581402,0.0077940593,-0.051545657,4986,4986,0
920423517,920423260,3932170,3932170,-0.00015817364,-0.0014098466,-0.00024170011,-0.00082915224,-0.008673774,-0.04541715,4987,4987,0
920922269,920922016,3932170,3932170,0.0008127347,6.411615e-05,-0.00037573098,-0.005347419,0.011822317,-0.05010742,4987,4987,0
921421041,921420794,3932170,3932170,-0.00061613123,0.0016445774,0.0007358921,-0.007564586,0.012008792,-0.05750751,4988,4988,0
921919918,921919605,3932170,3932170,0.00055049226,-0.00036051133,0.00040041332,-0.00014500669,0.022408381,-0.050528076,5018,5018,0
922423675,922423340,3932170,3932170,0.00047215825,0.00028579423,-0.00083926244,-0.0027700132,-0.010423387,-0.047547907,4989,4989,0
922923091,922922278,3932170,3932170,0.0008040079,-0.0008062746,-0.00078012847,0.0023636636,-0.005190531,-0.04274612,4955,4955,0
923421203,923420891,3932170,3932170,0.0001886974,-0.00014130752,-0.00019662562,0.00045708843,-0.026134871,-0.04276271,4986,4986,0
923924916,923924656,3932170,3932170,0.0007681008,-0.00085027167,-0.00017307178,0.0032322838,-0.0070703765,-0.046303052,4987,4987,0
924418763,924418446,3932170,3932170,-0.00096470263,0.00013357049,-0.0002036964,-0.003152973,-0.014304601,-0.047889758,4981,4981,0
924922498,924922211,3932170,3932170,0.0005031808,-0.0007099039,-0.0012464554,-0.0016051751,0.0022252246,-0.045919366,4978,4978,0
925421282,925420989,3932170,3932170,-0.00026311763,-7.819927e-05,-0.00043813966,-0.002260617,-0.0024988712,-0.050719716,4987,4987,0
925920006,925919760,3932170,3932170,-0.0002665059,4.364538e-06,-0.0001016391,-0.0018742746,-0.0035748105,-0.047542762,4966,4966,0
926423895,926423642,3932170,3932170,-0.00049406814,-0.000112847054,-0.0007514814,-0.0005000512,-0.0065912763,-0.04319006,4972,4972,0
926922578,926922309,3932170,3932170,0.00036475403,-0.0009543114,1.1029059e-05,0.0022789964,-0.008506243,-0.043116927,4989,4989,0
927426346,927426077,3932170,3932170,-0.00020988708,0.00019992574,0.00025501355,-0.0036421914,-0.02236802,-0.04257948,4989,4989,0
927920203,927919862,3932170,3932170,0.00024050391,-5.866748e-08,-7.441104e-05,-0.0016436031,-0.0119838845,-0.041194033,4987,4987,0
928423992,928423631,3932170,3932170,0.0001641671,-1.3537353e-05,-0.0006055185,0.0023370022,-0.010592163,-0.043786626,4990,4990,0
928922686,928922404,3932170,3932170,-0.00033195273,1.3755481e-05,0.00087926624,-0.0016226418,0.008614021,-0.057886716,4987,4987,0
929422042,929421183,3932170,3932170,0.0003398213,-0.00010444605,-0.0005721221,2.4521756e-05,-0.021132363,-0.043225493,4983,4983,0
929920332,929920070,3932170,3932170,-0.0009445954,-0.0001001767,0.00028877365,0.0007984055,-0.012166233,-0.04512668,4956,4956,0
930424878,930423995,3932170,3932170,-0.0012375391,0.00087684864,-0.00031839847,-0.001670605,0.005520929,-0.051686034,5257,5257,0
930922810,930922503,3932170,3932170,3.4434073e-05,-9.228972e-05,-0.00037530367,-0.005807464,-0.008525992,-0.04351677,4990,4990,0
931421665,931421320,3932170,3932170,-0.00037492375,-0.00023771028,5.741704e-05,-0.007206943,-0.0084432345,-0.049624026,4986,4986,0
931920305,931920055,3932170,3932170,0.00016189982,0.0002264057,0.00037388163,-0.0034495012,0.0192163,-0.057862185,4988,4988,0
932419165,932418833,3932170,3932170,-0.00020019636,0.00020986446,0.0005865711,-0.0048077996,0.011097289,-0.051833957,4988,4988,0
932922911,932922598,3932170,3932170,0.0034696993,-0.0001364104,0.00014139123,-0.0018477534,-0.004823245,-0.051404417,4985,4985,0
