timestamp,timestamp_sample,accel_device_id,gyro_device_id,delta_angle[0],delta_angle[1],delta_angle[2],delta_velocity[0],delta_velocity[1],delta_velocity[2],delta_angle_dt,delta_velocity_dt,delta_velocity_clipping
703919975,703919614,3670026,3670026,5.8216638e-06,-9.831557e-05,-0.0002198439,-0.0036345953,-0.001050725,-0.049496986,4960,4960,0
703924946,703924577,3670026,3670026,-7.378172e-05,9.127435e-05,-0.00024918807,-0.0016530559,-0.0016944007,-0.048387356,4963,4963,0
704421436,704421089,3670026,3670026,0.0003069857,2.4512017e-05,0.00024455786,-0.001987541,-0.0024528129,-0.046120416,4988,4988,0
704923048,704922666,3670026,3670026,-0.00034766787,-9.686666e-05,-0.00010639929,-0.0067808586,-0.00030436725,-0.050198097,4987,4987,0
705424475,705423956,3670026,3670026,-0.0008075406,0.0009547375,-0.0008977425,-0.007803337,-0.0029092194,-0.05080797,4967,4967,0
705920756,705920436,3670026,3670026,-3.2371987e-05,0.00014411584,-4.747366e-05,-0.0013054421,-0.00044451407,-0.037264064,4965,4965,0
706422272,706421884,3670026,3670026,-0.0016750859,-0.000101344885,0.00021940684,0.0084616095,-0.0014565452,-0.047100045,4966,4966,0
706918833,706918365,3670026,3670026,-0.0013872284,-0.0005680876,-0.0007343792,0.02017157,-0.0030758323,-0.038932756,4964,4964,0
707420195,707419812,3670026,3670026,0.00094752706,-0.00081380387,-0.0001084377,0.011775457,-0.00016982546,-0.044533454,4965,4965,0
707921603,707921259,3670026,3670026,-0.00013348446,0.0008728791,8.0607955e-05,-0.0019600184,-0.0012895563,-0.051070075,4959,4959,0
708423232,708422880,3670026,3670026,0.00041449667,-0.00055783545,-0.0003952061,-0.0014990658,0.0006045091,-0.052084748,4946,4946,0
708924477,708924150,3670026,3670026,-0.0009926952,0.00033110086,0.0003947369,0.0058417204,0.011639623,-0.043489557,4961,4961,0
709421008,709420635,3670026,3670026,-0.0014234746,-2.0312029e-05,-0.0003690804,0.0140190525,-0.0034740095,-0.035669733,4964,4964,0
709922500,709922083,3670026,3670026,0.00082797935,-0.001699402,0.00012971683,0.0042168633,-0.010450986,-0.045305625,4965,4965,0
710423947,710423529,3670026,3670026,-4.1771782e-05,0.0019444771,3.509789e-05,-0.012035669,0.010045729,-0.060641985,4964,4964,0
710920406,710920011,3670026,3670026,-0.0011345863,0.0009833428,0.0003247549,-0.0022772958,0.0050594774,-0.05343858,4963,4963,0
711421810,711421458,3670026,3670026,8.617302e-05,-0.00019313872,-0.0008541488,0.00030330935,-0.0016081291,-0.047705784,4963,4963,0
711923453,711923084,3670026,3670026,-0.00032367418,0.0003716423,-0.00015119526,-0.0045687803,-0.016972588,-0.05073707,4927,4927,0
712419709,712419388,3670026,3670026,-2.622016e-05,0.0014174269,0.0009496118,0.0012173591,0.0009154722,-0.05091287,4965,4965,0
712921277,712920835,3670026,3670026,0.0015099362,-0.0018302532,-0.00033550482,-0.0053090346,0.009254291,-0.043845072,4960,4960,0
713422606,713422282,3670026,3670026,-0.0006943096,0.00061399007,0.0017373813,-0.0063317674,0.003922274,-0.047903694,4965,4965,0
713924056,713923729,3670026,3670026,0.00015344433,-0.0007310585,-0.00059101614,0.0059521347,2.1193766e-05,-0.043866433,4962,4962,0
714420533,714420211,3670026,3670026,0.00034413574,-0.00025368258,-0.00056636304,0.003506773,-0.012748365,-0.0450569,4943,4943,0
714922010,714921658,3670026,3670026,0.0004099135,-0.0015431049,-0.0007643771,0.005429233,-0.013523942,-0.04173258,4965,4965,0
715423697,715423289,3670026,3670026,3.5586676e-05,0.00046622587,0.00029994125,0.0010983483,0.011535543,-0.049557168,4992,4992,0
715919999,715919587,3670026,3670026,-0.00039451636,0.000116529336,-0.00096818624,-0.0020693084,-0.015452311,-0.047102794,4965,4965,0
716421373,716421037,3670026,3670026,0.00046499242,-0.00023704172,-0.00078066,0.009481685,0.0077677164,-0.040384546,4968,4968,0
716922847,716922481,3670026,3670026,-0.00060386583,-0.00050960685,0.0002384688,-0.01744458,0.00473,-0.06309711,4965,4965,0
717424313,717423935,3670026,3670026,1.238915e-05,-0.0011525014,-0.00010057888,0.003258873,-0.010579862,-0.042204943,4965,4965,0
717920846,717920410,3670026,3670026,-0.00014677286,-0.000139254,8.472282e-05,0.002063555,-0.01115665,-0.045004025,4965,4965,0
718422204,718421858,3670026,3670026,-0.00066887937,-0.00014355383,0.000937574,-0.006783327,0.00032509692,-0.05459525,4966,4966,0
718923876,718923499,3670026,3670026,-0.00022192686,4.4889603e-06,0.00050850015,-0.00022266597,0.003940885,-0.04878991,4964,4964,0
719420110,719419786,3670026,3670026,0.0002860506,-0.0024585829,-0.0001943756,-0.0005178524,-0.013066379,-0.046408113,4967,4967,0
719921657,719921234,3670026,3670026,0.0006310391,0.0004957845,-0.00065849506,-0.0044438737,-0.00083586405,-0.05238032,4966,4966,0
720423147,720422680,3670026,3670026,-0.00024180874,0.00033357297,-0.00039451,-0.0018386091,-0.0004905307,-0.04493639,4965,4965,0
720919577,720919162,3670026,3670026,0.00021637563,-0.0005809009,-0.00081689644,0.0018955241,-0.009456991,-0.043902725,4958,4958,0
721421047,721420609,3670026,3670026,-0.00030138998,-0.00065112987,0.0008463763,-0.009105856,0.0031050458,-0.048993744,4965,4965,0
721922415,721922056,3670026,3670026,-0.00035580367,-0.0010411383,-8.601504e-05,-0.008644102,-0.011612813,-0.057003617,4965,4965,0
722423851,722423506,3670026,3670026,-0.00046687943,4.4708835e-05,0.0016086258,-0.006757066,0.011312259,-0.05135048,4747,4747,0
722920404,722920040,3670026,3670026,-0.0004934994,0.0004010256,0.00084171456,-0.005238078,0.0057057627,-0.053206407,4991,4991,0
723421878,723421436,3670026,3670026,-0.0011958834,0.0003972801,0.00015213547,-0.0046403175,-0.0014463371,-0.051881872,4969,4969,0
723923206,723922878,3670026,3670026,-0.0001682072,-0.0007575376,-0.0006821017,-6.2438274e-05,-0.014759032,-0.045025937,4961,4961,0
724424647,724424325,3670026,3670026,0.00059841253,0.00012927032,-0.0005000338,-0.007232694,-0.0012712398,-0.04918137,4965,4965,0
724921214,724920807,3670026,3670026,0.0001935762,-0.0006467135,0.0002201773,-0.008029156,0.004555944,-0.047232505,4954,4954,0
725422686,725422254,3670026,3670026,0.0009074443,-2.776717e-05,0.00044691534,-0.003325357,-0.0009565497,-0.055513747,4965,4965,0
725924064,725923701,3670026,3670026,-0.00011492804,0.00013288613,0.00014532876,-0.0032241268,-0.006633084,-0.050244585,4779,4779,0
726420626,726420259,3670026,3670026,-0.00044282412,-0.0008936467,-0.00032242815,-0.012327983,-0.007924969,-0.055200677,5044,5044,0
726922005,726921634,3670026,3670026,0.00036878788,0.00071079907,-0.0009570238,0.0008591134,-0.021121223,-0.046959512,4968,4968,0
727423455,727423077,3670026,3670026,0.0014383027,-0.00086209684,-0.00048402225,0.0071986527,-0.0021445232,-0.0462692,4963,4963,0
727924935,727924523,3670026,3670026,0.00030201324,-5.2063042e-05,-0.00093536783,-0.0030896545,-0.013894379,-0.044792514,4964,4964,0
728421415,728421005,3670026,3670026,-0.00038012647,2.8945477e-05,-0.00032912326,-0.00366832,-0.009768866,-0.05659737,4964,4964,0
728922822,728922452,3670026,3670026,-0.00039738842,-0.0004421257,-4.667371e-05,-0.0064347065,-0.00094918924,-0.042342454,4965,4965,0
729419485,729419118,3670026,3670026,0.00027524625,-0.00028065228,-0.0003974591,0.0041918494,0.0054508285,-0.041288957,4978,4978,0
729920825,729920453,3670026,3670026,-8.961225e-05,-0.0010677038,-0.0006517144,0.004132533,-0.008719442,-0.04562436,4989,4989,0
730422210,730421830,3670026,3670026,0.0005431749,-0.00010079852,-0.00082225894,0.002325864,0.0054877824,-0.04459541,4966,4966,0
730923651,730923274,3670026,3670026,-0.0003119516,0.00053350406,0.00042395838,-0.0049644294,0.0034631444,-0.05593431,4957,4957,0
731420083,731419758,3670026,3670026,0.0002355963,-1.0707246e-05,4.4734163e-05,-0.0015422895,-0.011645979,-0.046880182,4967,4967,0
731921601,731921203,3670026,3670026,-8.420299e-05,7.847934e-05,-0.0007049154,0.004064461,-0.004611927,-0.049254216,4965,4965,0
732423000,732422649,3670026,3670026,-7.948338e-05,0.0006576074,0.001138819,-0.006864175,0.0006116983,-0.05294668,4965,4965,0
732919501,732919134,3670026,3670026,-0.00015928085,-0.00064261944,-0.0007700704,-0.004015009,-0.0006537222,-0.046832986,4791,4791,0
733421025,733420608,3670026,3670026,-0.00011265777,-0.0010351272,0.00035216656,0.01130629,-0.0012661706,-0.028421337,4977,4977,0
733922358,733922026,3670026,3670026,0.00044519154,-3.9909987e-06,0.0009415677,-0.001152135,0.013376394,-0.044531904,4966,4966,0
734423844,734423473,3670026,3670026,0.00075115066,-6.051383e-05,0.0007669873,-0.004978726,0.020378195,-0.04998013,4953,4953,0
734925286,734924955,3670026,3670026,-0.0010294976,-0.001053503,0.000771974,-0.010679273,-0.004375918,-0.06371522,4984,4984,0
735421807,735421401,3670026,3670026,-0.00084623223,0.0023350685,0.001365893,-0.005977713,0.0094286315,-0.056768715,4966,4966,0
735923233,735922847,3670026,3670026,0.00075970474,-1.2799766e-05,-0.0011602971,0.004555129,-0.029789442,-0.044633083,4966,4966,0
736419679,736419328,3670026,3670026,-0.00037679702,0.001077036,-0.00055899634,0.001027846,-0.010559781,-0.047930185,4783,4783,0
736921253,736920924,3670026,3670026,-8.0502214e-05,0.0010409212,-0.0020290709,-0.008344464,0.007827744,-0.045873586,4994,4994,0
737422595,737422221,3670026,3670026,-5.27592e-05,0.00034506817,-0.0004535553,0.0035114367,-0.0011452452,-0.04520526,4964,4964,0
737923995,737923669,3670026,3670026,0.00012241755,0.0015599172,0.00092309713,-0.008350599,0.0076941694,-0.058227595,4953,4953,0
738425447,738425117,3670026,3670026,0.00026730652,0.00080780423,-0.0003911101,6.1275614e-06,0.010311365,-0.046598684,4967,4967,0
738921968,738921596,3670026,3670026,0.00053336116,-0.000734229,0.0005841707,-0.0017863876,0.011331123,-0.044866662,4964,4964,0
739423432,739423043,3670026,3670026,-0.0002031427,-0.00046800182,0.00057465845,-0.009870927,0.004396536,-0.049335435,4965,4965,0
739919863,739919525,3670026,3670026,-0.00036055333,-0.00042666675,-0.0008848687,0.0019899663,-0.0075363866,-0.04225939,4771,4771,0
740421464,740421084,3670026,3670026,-0.0009766779,-3.2892127e-05,-0.0008725825,0.005194608,-0.0083480235,-0.047198743,5003,5003,0
740922834,740922418,3670026,3670026,3.931662e-05,-0.00058790494,0.00021713645,-0.009079957,-0.009687166,-0.061097313,4964,4964,0
741424187,741423866,3670026,3670026,0.00022830546,-0.00038182075,0.0010998499,-0.0069704964,-7.2640585e-05,-0.054089658,4961,4961,0
741925701,741925311,3670026,3670026,-0.0005161299,7.572948e-05,3.0875262e-07,-0.0014447093,-0.010979005,-0.048035465,4965,4965,0
742422125,742421794,3670026,3670026,-0.00019439051,7.9358106e-05,0.000456466,-0.009598516,0.009175381,-0.05352203,4966,4966,0
742923598,742923239,3670026,3670026,0.00050029095,0.00037712793,-0.00040534398,0.002532839,-0.004468064,-0.046520654,4964,4964,0
743420111,743419721,3670026,3670026,-0.00034824375,-0.00027440063,0.00016769023,-0.0017090418,0.0050173937,-0.041343294,4962,4962,0
743921585,743921220,3670026,3670026,-4.0639676e-05,-0.0005154977,0.00040382842,0.0005979842,0.0030396944,-0.048152614,4990,4990,0
744422974,744422615,3670026,3670026,5.5219945e-05,0.00028742797,-6.954972e-05,-0.0010219198,0.008449055,-0.04377231,4965,4965,0
744924427,744924061,3670026,3670026,0.00022916714,-0.00036710588,-9.7079625e-05,0.0068110796,-0.0010528637,-0.042252276,4964,4964,0
745425900,745425507,3670026,3670026,1.2557417e-05,0.0010220289,0.00021709276,0.0037112972,0.006063827,-0.05163148,4964,4964,0
745922362,745921989,3670026,3670026,0.0003183383,0.00047578744,-0.0004959997,0.005799525,-0.012644478,-0.04364382,4962,4962,0
746418825,746418475,3670026,3670026,-0.0006364245,0.00028971268,0.00031321647,0.0046805674,0.00111982,-0.045870084,4969,4969,0
746920320,746919918,3670026,3670026,-0.00043865372,-9.711533e-05,0.00030105657,0.0044359234,-0.0047949087,-0.044583187,4916,4916,0
747421853,747421478,3670026,3670026,8.125628e-05,-0.0002280449,-0.00026201003,-0.00086918933,-0.0034345735,-0.048401535,4985,4985,0
747923176,747922854,3670026,3670026,-0.0008367257,0.00022245903,0.00049184356,-0.0025121635,-0.008626166,-0.052595817,5001,5001,0
748424624,748424257,3670026,3670026,-0.00054067565,0.0013535761,0.00042890862,-0.010552225,0.0038262813,-0.05459298,4963,4963,0
748921061,748920739,3670026,3670026,0.00039718638,-0.00081358576,-0.00034048985,0.0020968092,-0.008592529,-0.04723584,4965,4965,0
749422511,749422186,3670026,3670026,0.00073587004,-0.00028616798,-0.001248236,0.0099248355,-0.0033751777,-0.042571057,4965,4965,0
749919029,749918683,3670026,3670026,0.0039578783,-0.00043775342,-0.0009427838,0.0064904047,0.006167622,-0.039602507,4980,4980,0
750420462,750420116,3670026,3670026,-0.00021713431,0.00018363567,-0.0003750318,0.0050942544,-0.0057680104,-0.04218969,4967,4967,0
750922051,750921631,3670026,3670026,-0.00079864234,3.209055e-05,0.0005540598,-0.0063778902,0.006125185,-0.05170109,4997,4997,0
751423383,751423006,3670026,3670026,-0.00013837487,0.0004814851,0.0004568944,-0.0074384008,0.011783007,-0.047646277,4963,4963,0
751924870,751924453,3670026,3670026,0.00046154033,-0.000945497,-0.0002839025,-0.0043663676,0.006971124,-0.0446681,4964,4964,0
752421310,752420935,3670026,3670026,0.0003207344,0.00026697252,-0.0006895531,0.0060305744,0.0016711155,-0.04543508,4965,4965,0
752922703,752922381,3670026,3670026,0.00076432934,-6.346828e-05,0.00020714424,-0.0024202813,0.018903056,-0.056803983,4965,4965,0
753419213,753418863,3670026,3670026,-0.00047857306,-0.00031666714,-0.00016617969,0.0035365052,-0.0034192167,-0.04453788,4965,4965,0
753920657,753920311,3670026,3670026,0.0009919715,-0.0005565264,-0.00068784424,-0.00076028064,-0.0043356223,-0.042280946,4967,4967,0
754422262,754421884,3670026,3670026,0.00066635467,-0.00081537594,-0.0010895175,0.004941803,-0.015161538,-0.044771437,4992,4992,0
754923570,754923204,3670026,3670026,-0.001339398,-0.00033760525,-4.879034e-05,0.0022109468,-0.013595199,-0.04477551,4966,4966,0
755424970,755424649,3670026,3670026,0.00076814566,-0.00054250413,-0.00065064617,0.005088688,0.0048448774,-0.040359005,4965,4965,0
755921453,755921130,3670026,3670026,-0.0001244966,0.00069333083,8.3374376e-05,-0.0003387317,0.0026145068,-0.044127245,4964,4964,0
756422967,756422578,3670026,3670026,-0.00033921056,-0.0010369205,0.00045439156,0.0058053876,-0.0055552186,-0.036491636,4957,4957,0
756919494,756919061,3670026,3670026,0.00035101763,-0.0002743738,-0.00034715567,-0.0075577963,0.006218082,-0.049926046,4938,4938,0
757420882,757420539,3670026,3670026,-0.00086158206,0.0011926187,0.00075167185,-0.01096658,0.010492024,-0.06475237,4998,4998,0
757922352,757922028,3670026,3670026,0.0006121476,-0.00053693034,-0.0009971202,0.01074197,-0.0073876525,-0.040458087,4991,4991,0
758423717,758423397,3670026,3670026,0.00011276491,0.0006497086,0.000109548586,-0.0032028977,0.010774065,-0.050096087,4959,4959,0
758925277,758924898,3670026,3670026,-0.0009256951,0.00061331183,-0.0020290217,0.0072248783,-0.011106554,-0.0420976,4986,4986,0
759421698,759421325,3670026,3670026,0.000120966135,-0.00019555479,-0.0002099189,0.009946232,-0.00018252424,-0.04607703,4964,4964,0
759923104,759922775,3670026,3670026,0.00051412656,-9.4758034e-05,-0.00028170887,0.008148614,-0.0030653437,-0.046547063,4968,4968,0
760419690,760419253,3670026,3670026,0.00018464962,-0.0010907635,-0.0011374884,0.0038387005,0.0035884304,-0.042851448,4965,4965,0
760921044,760920701,3670026,3670026,-0.00058388716,0.0005048494,-0.0029597017,-0.0074724643,0.006760121,-0.0430757,4965,4965,0
761422642,761422235,3670026,3670026,-0.00019698984,-9.129982e-05,-0.0015720304,-0.002036563,0.005074527,-0.049955826,4981,4981,0
761924022,761923592,3670026,3670026,0.00024944887,-0.0008561328,-0.0023688495,0.0032888823,-0.024743024,-0.04777961,4964,4964,0
762425368,762425039,3670026,3670026,-0.0005983982,-0.00016355808,0.001566497,-0.0027526254,0.013207034,-0.05440007,4965,4965,0
762921921,762921520,3670026,3670026,0.0012713585,0.00037028632,-0.002132473,-0.00684827,3.3143035e-05,-0.048947312,4965,4965,0
763418383,763418002,3670026,3670026,-0.0006579042,0.0012494929,-0.00022724022,0.0030358566,0.0032390424,-0.046791874,4964,4964,0
763919847,763919448,3670026,3670026,0.000553663,-0.00036344733,-0.0006374074,0.0037189296,-0.006897912,-0.048862796,4965,4965,0
764421303,764420898,3670026,3670026,0.0001518374,-0.00045719926,-1.7170218e-05,-0.0040857065,-0.017266061,-0.047738686,4919,4919,0
764922796,764922426,3670026,3670026,0.00036662072,0.00102085,7.233058e-05,-0.00018046844,0.0280165,-0.046249222,4917,4917,0
765424111,765423787,3670026,3670026,0.00022601437,-0.0012343117,-0.0008583215,0.00017503592,-0.01051934,-0.046310797,4967,4967,0
765920652,765920322,3670026,3670026,-0.0006548317,-0.00012296376,-0.00026112306,-0.0061213546,0.0018559754,-0.05016885,5018,5018,0
766422084,766421714,3670026,3670026,0.00042062323,-9.133439e-05,0.0007126179,-0.006529547,0.012628883,-0.052379083,4965,4965,0
766918575,766918201,3670026,3670026,0.00093606964,-0.0009616022,0.00084163214,0.0043030586,0.015465925,-0.04499857,4970,4970,0
767419997,767419644,3670026,3670026,-0.0009029346,0.0010221541,0.00013776054,-0.004022912,0.0082945125,-0.05513758,4967,4967,0
767921441,767921091,3670026,3670026,-0.00032273907,-0.0009840037,-0.00065383356,0.002385846,-0.010252462,-0.0448844,4968,4968,0
768423004,768422636,3670026,3670026,-0.0011570122,-0.0002910496,0.00037742488,-0.008912175,-0.011560779,-0.055867404,4984,4984,0
768924359,768923986,3670026,3670026,-0.0009891314,0.00026589594,0.00028075936,-0.008415665,-0.011827483,-0.049175534,4968,4968,0
769420838,769420462,3670026,3670026,-0.0009512244,0.00025431445,0.00044805877,-0.0004212463,-0.0023098907,-0.05255512,4965,4965,0
769922290,769921910,3670026,3670026,-0.00047117256,-0.00050079427,0.0008605304,0.0035849616,0.00309643,-0.044628263,4966,4966,0
770418885,770418391,3670026,3670026,-0.0010364997,0.00037714845,0.00065456046,-0.006496645,0.0002526344,-0.05343345,4966,4966,0
770920184,770919838,3670026,3670026,-4.9641083e-05,0.00037446962,0.00031839075,0.0005079573,0.013660116,-0.045821834,4967,4967,0
771421628,771421283,3670026,3670026,-0.00015732687,-0.00045792534,-0.00018406757,8.035478e-05,0.014035377,-0.0462204,4966,4966,0
771923276,771922942,3670026,3670026,-0.00039506628,-7.426138e-05,-0.00031924323,0.00408152,-0.011408152,-0.04191694,4991,4991,0
772424542,772424175,3670026,3670026,0.0011719483,-0.0020278466,-0.0006835569,-0.00045842884,0.005734236,-0.04389586,4965,4965,0
772921023,772920656,3670026,3670026,0.00027401783,-0.00043996584,-2.774347e-05,-0.005565651,-0.0012268253,-0.046281155,4965,4965,0
773422482,773422103,3670026,3670026,-0.00046972133,0.0009178407,0.001256358,-0.0057462514,0.006335201,-0.051152606,4966,4966,0
773918913,773918583,3670026,3670026,-0.0001457159,0.0020511397,0.0009252599,-0.0057904543,0.02360972,-0.05111256,4962,4962,0
774420423,774420034,3670026,3670026,0.000261092,-0.00034824153,-0.00030713886,0.002025674,-0.010628546,-0.044269647,4969,4969,0
774921824,774921476,3670026,3670026,0.00075895427,-0.00038875118,-0.000630146,-0.002402773,-0.009417679,-0.043474015,4965,4965,0
775423404,775423038,3670026,3670026,3.2621756e-05,-0.00091975555,-0.00021725628,-0.008037158,-0.019067382,-0.045478497,4983,4983,0
775924770,775924374,3670026,3670026,0.00041482394,-1.49386315e-05,0.0007980783,-0.0021296209,0.027719645,-0.046606738,4971,4971,0
776421174,776420849,3670026,3670026,-0.001233684,0.0011680592,0.0005134561,-0.010103526,0.0058534164,-0.05573942,4964,4964,0
776922632,776922299,3670026,3670026,0.00055348274,0.00038917048,-0.00036088415,0.009086969,-0.0037731172,-0.04639017,4968,4968,0
777419183,777418801,3670026,3670026,-0.0012485466,0.00067547365,0.0011793143,-0.004807747,0.0058400165,-0.055666614,4989,4989,0
777920609,777920223,3670026,3670026,0.000100744444,0.000980301,0.0007276507,-0.0046291687,0.0148592545,-0.054213036,4964,4964,0
778422014,778421668,3670026,3670026,0.00019621148,6.159176e-05,-0.0010358026,0.001871158,-0.0030968552,-0.05260307,4964,4964,0
778923562,778923235,3670026,3670026,0.00084576785,-0.00026136107,-0.0009638526,-0.00048332315,0.016031941,-0.047674283,4988,4988,0
779424950,779424574,3670026,3670026,0.00030964368,7.908942e-05,-0.0002681142,-0.005352298,0.0038667668,-0.053957134,4977,4977,0
779921407,779921042,3670026,3670026,0.00034696996,-0.0010791242,0.00043414847,-0.0051349592,0.0074164798,-0.049143597,4964,4964,0
780422814,780422488,3670026,3670026,0.000843623,-0.0004110201,-4.521652e-05,-0.0017434874,0.016969938,-0.045784555,4965,4965,0
780919309,780918971,3670026,3670026,-0.00023829193,-8.024867e-05,0.0005915625,-0.0013441268,0.005114771,-0.050348707,4967,4967,0
781420763,781420415,3670026,3670026,-0.00029862684,-0.0004870419,0.00012151569,-0.0052469163,-0.013898484,-0.047309272,4964,4964,0
781922262,781921863,3670026,3670026,-0.00013856853,-0.00035423914,0.00043182497,-0.0010044093,-0.008180308,-0.04618316,4967,4967,0
782423846,782423435,3670026,3670026,-0.0016886323,-0.00062333804,-5.6229128e-05,-0.0029649828,-0.016301062,-0.044105254,4978,4978,0
782925178,782924800,3670026,3670026,-0.00011737698,0.0001290758,-0.00023181505,0.0031785327,-0.013176466,-0.045004517,5007,5007,0
783421556,783421234,3670026,3670026,-0.0004372065,-7.2109884e-05,0.0006908812,-0.004473583,-0.0003701582,-0.058425743,4964,4964,0
783918112,783917720,3670026,3670026,-4.2401487e-05,-0.00035815497,0.00085804064,-0.011111797,0.014183556,-0.05721085,4939,4939,0
784419585,784419161,3670026,3670026,0.0007953682,-0.0007658538,-0.0008941357,-0.0057016015,-0.0068183155,-0.048846073,4959,4959,0
784921026,784920611,3670026,3670026,-0.00015385449,-1.3771907e-05,0.0007848143,-0.0041435305,0.019049117,-0.0471778,4969,4969,0
785422393,785422053,3670026,3670026,-0.0003891294,0.00014329783,0.0008768316,-0.010651047,0.010877879,-0.05345354,4964,4964,0
785923963,785923640,3670026,3670026,0.0011350586,0.00014904501,0.0001272333,-0.0012226893,0.028562875,-0.047285777,4992,4992,0
786420409,786419983,3670026,3670026,-0.0009916716,0.0007178161,0.00059875293,0.003326144,0.0056720753,-0.04679847,4968,4968,0
786921763,786921426,3670026,3670026,-0.00044942298,-0.00042451438,0.00019235909,-0.0045031337,-0.009754361,-0.050027713,4965,4965,0
787423262,787422872,3670026,3670026,0.00027953903,-0.0005872733,0.00028053572,-0.0044688624,0.0038707792,-0.046786703,4962,4962,0
787919683,787919355,3670026,3670026,0.0004846144,0.0005468618,-0.0009496648,0.0013951673,-0.0018110506,-0.040183224,4964,4964,0
788421183,788420799,3670026,3670026,9.697009e-05,-0.00039333166,-0.0007524554,-0.0011557551,-0.004803456,-0.049021345,4965,4965,0
788922590,788922246,3670026,3670026,-0.0013842644,0.00022670957,0.00036444236,-0.007891905,-0.014475784,-0.054241855,4966,4966,0
789424282,789423836,3670026,3670026,-0.0005512297,-0.0003402131,-5.7871992e-05,0.0020068258,-0.011828548,-0.040366907,4981,4981,0
789920520,789920189,3670026,3670026,-0.00029574937,-0.0001113734,-0.00012013167,0.0048981993,0.0063259224,-0.043186877,4951,4951,0
790421971,790421636,3670026,3670026,-0.0007530313,0.00020841903,0.000112959686,-0.011538363,-0.003099249,-0.060622294,4981,4981,0
790918463,790918098,3670026,3670026,0.0005256674,-0.00011048861,-0.00091728044,-0.0010687746,-0.013297786,-0.050348096,4963,4963,0
791419924,791419544,3670026,3670026,0.0018360585,8.6608634e-05,-0.00037832666,0.0018842455,0.012481588,-0.046534315,4965,4965,0
791921381,791920990,3670026,3670026,-0.0012705285,0.00049907825,0.0016749026,-0.010276762,0.010103657,-0.05636174,4965,4965,0
792422806,792422437,3670026,3670026,0.00048623094,0.0012228555,0.00058040157,-0.00801226,0.015640046,-0.04885073,4966,4966,0
792924401,792924072,3670026,3670026,2.5543748e-05,-0.00077225815,-0.00013646107,0.0020625074,-0.0034520982,-0.04231626,4970,4970,0
793420750,793420380,3670026,3670026,-0.0014918111,-0.0003284238,0.00018451955,-0.004998169,-0.0070319884,-0.049185354,4979,4979,0
793922189,793921809,3670026,3670026,-0.00039658367,0.00014556994,-4.9804275e-05,-0.00010565276,-0.0011476594,-0.052790035,4966,4966,0
794423610,794423254,3670026,3670026,-0.0001331489,-0.00086628937,-0.00022230344,-0.0064325957,-0.01420898,-0.05724326,4965,4965,0
794920159,794919736,3670026,3670026,1.6207136e-05,-0.0008265046,-1.680457e-05,-0.0027644085,-0.01855147,-0.042741664,4908,4908,0
795421577,795421232,3670026,3670026,-0.00041384695,0.0014827176,0.0014902621,-0.0055377292,0.007525376,-0.04944556,5016,5016,0
795923075,795922731,3670026,3670026,-0.00037496412,-0.00021395143,0.00024025056,0.00074729446,-0.0031170156,-0.046458136,5042,5042,0
796419656,796419245,3670026,3670026,0.00019283021,-0.0006146236,0.0007238187,-0.004141044,0.0067904387,-0.046378363,4988,4988,0
796920956,796920585,3670026,3670026,-0.00070759706,0.0010525793,0.0009906609,0.0002065167,0.007845108,-0.047438942,4994,4994,0
797422387,797421999,3670026,3670026,-8.453405e-05,0.00054716074,0.00051465695,-0.0058255577,0.002273874,-0.05647249,4966,4966,0
797918811,797918479,3670026,3670026,-0.0003320433,-0.00013889304,-0.00025936725,-0.0022665507,-0.013643577,-0.04613678,4965,4965,0
798420299,798419925,3670026,3670026,0.00030509668,0.00015685913,-0.00027119208,0.0065307156,-0.0014433066,-0.043655653,4965,4965,0
798921762,798921370,3670026,3670026,-0.00054712297,-0.00016970717,0.0004925711,-0.002354334,-0.0026431354,-0.046505496,4953,4953,0
799423156,799422816,3670026,3670026,-0.00047297386,0.00083669974,0.00050801906,-0.012146426,0.013926603,-0.056061428,4964,4964,0
799919761,799919440,3670026,3670026,0.0010782637,0.0017647179,-0.0012391129,0.0054582884,0.001033866,-0.040348142,4986,4986,0
800421151,800420742,3670026,3670026,0.00033791453,0.00030144444,0.00043502296,-0.0011459885,0.0047412077,-0.046231665,4965,4965,0
800922613,800922188,3670026,3670026,0.00024700997,-0.001549121,0.00053866644,-0.00022527896,-0.0073644333,-0.041616526,4965,4965,0
801424010,801423633,3670026,3670026,-0.00039953104,0.0010405548,-0.00025895378,-0.0033994452,-0.008817437,-0.0428062,4965,4965,0
801920436,801920114,3670026,3670026,0.0003510848,0.00031965153,-0.00017873773,0.0038749848,0.005253487,-0.038548533,4959,4959,0
802421959,802421559,3670026,3670026,-0.0004651779,-0.0007820307,0.0013050655,-0.0029908167,0.007207596,-0.049631573,4961,4961,0
802923398,802923006,3670026,3670026,0.00055113697,-3.7033635e-05,-0.00018103635,-0.002923336,-0.0056227692,-0.051486887,4965,4965,0
803420062,803419641,3670026,3670026,-0.00031500976,7.744556e-05,0.0002709792,-0.00951587,0.010272207,-0.059044734,4985,4985,0
803921303,803920968,3670026,3670026,-4.4544548e-05,-0.00056449644,-8.410492e-05,-0.0020844624,0.004343015,-0.044487387,4998,4998,0
804422750,804422425,3670026,3670026,0.0008773261,-0.0016475482,-0.00020046314,-0.00060702465,-0.0062104645,-0.042839903,5013,5013,0
804924201,804923822,3670026,3670026,0.00056521816,0.00028941015,-0.001143431,0.0014218376,-0.024809023,-0.044441797,4965,4965,0
805420631,805420303,3670026,3670026,-0.00046747,8.876696e-05,-0.00010765547,0.0018482311,-0.00029203203,-0.043979898,4965,4965,0
805922139,805921755,3670026,3670026,0.0005402361,-0.00094744656,-0.00011023602,-0.0010678894,-0.0023612762,-0.04504546,4972,4972,0
806423574,806423193,3670026,3670026,-0.0007639233,-0.0007940514,0.00080008025,-0.00085582153,0.0016066505,-0.04242572,4964,4964,0
806920296,806919834,3670026,3670026,-0.00047656646,0.00081525877,-0.0006141016,0.0005953243,-0.004236485,-0.04102761,4987,4987,0
807421503,807421127,3670026,3670026,-0.0009083494,0.00024173698,0.00039333536,0.0018206494,-0.0017745709,-0.047588646,4972,4972,0
807922940,807922566,3670026,3670026,-0.0010135954,0.0009800483,0.0010037628,-0.010581366,0.012090427,-0.06216115,4966,4966,0
808424345,808424010,3670026,3670026,-0.00014994253,0.00075154525,0.0008189905,-0.009596281,0.009114795,-0.057881806,4958,4958,0
808920882,808920515,3670026,3670026,-0.000457411,-0.0008201798,-0.00011734262,0.0002815746,-0.011005699,-0.045318276,4988,4988,0
809422373,809421936,3670026,3670026,6.8342604e-05,0.00029470024,0.00018740486,0.00042338393,0.00875334,-0.040880285,4965,4965,0
809923728,809923381,3670026,3670026,0.0007438051,-0.00026805163,0.0001226699,-0.007956585,0.023005124,-0.048636753,4965,4965,0
810420359,810420033,3670026,3670026,0.00034397974,0.0008368786,-0.0011846102,-0.003922655,-0.02040856,-0.04583283,4994,4994,0
810921755,810921364,3670026,3670026,-0.0011634729,-0.0010551605,-0.00010756817,-0.010575509,-0.012425228,-0.052962754,4984,4984,0
811423134,811422759,3670026,3670026,0.0003379292,-0.000107214524,0.00032885917,0.0037154937,0.00042277048,-0.04235762,4964,4964,0
811924551,811924202,3670026,3670026,0.00050731713,-0.0006253096,-0.00073906715,-0.0005732829,-0.0012444657,-0.046468407,4925,4925,0
812421000,812420678,3670026,3670026,0.0003052656,-0.0005945111,-0.00071975385,0.00049119245,0.005046713,-0.047183268,4955,4955,0
812922443,812922123,3670026,3670026,0.0016481327,0.0002474969,-5.9797447e-05,0.0006069103,0.013131143,-0.04510602,4965,4965,0
813424000,813423568,3670026,3670026,-0.0015065147,0.0009780285,0.00030264107,-0.008623623,-0.010608477,-0.056454103,4965,4965,0
813920594,813920227,3670026,3670026,0.00017196599,-7.1556664e-05,0.0010658324,-0.009126967,0.010280677,-0.050981045,4990,4990,0
814421834,814421504,3670026,3670026,0.00017044954,-1.4986099e-05,0.00036921757,-0.0044255652,0.0013436028,-0.049379837,4980,4980,0
814923313,814922939,3670026,3670026,7.029584e-05,0.0021510003,0.0004834069,-0.0021208134,0.014234563,-0.04901865,4963,4963,0
815424786,815424423,3670026,3670026,0.0023617314,-0.0011449304,-0.0003790992,0.0014587448,-0.012527714,-0.044575777,4993,4993,0
815921245,815920864,3670026,3670026,-0.0008638562,0.00023385788,6.995054e-05,-0.004098173,-0.014018553,-0.050467283,4963,4963,0
816422633,816422309,3670026,3670026,-0.0011511137,0.00057696056,-0.00062341616,-0.0033373903,-0.008646661,-0.048999235,4964,4964,0
816924106,816923757,3670026,3670026,0.0012859004,-0.00047011612,-0.0017101327,0.0059070303,-0.019801771,-0.04484327,4968,4968,0
817420800,817420426,3670026,3670026,-0.0038661403,0.0006748491,0.0009462443,-0.019117584,-0.012663413,-0.065854825,4985,4985,0
817922058,817921690,3670026,3670026,0.001218851,-0.0012664405,-0.00016390026,-0.0023213343,0.007623061,-0.053938292,4931,4931,0
818423446,818423125,3670026,3670026,-0.0005709236,0.000537209,-0.00045096193,-0.0031030017,-0.0011737804,-0.04182538,4964,4964,0
818919933,818919607,3670026,3670026,-0.00051503634,0.0004967919,0.00016222658,0.0023126628,0.00086652493,-0.0431902,4967,4967,0
819421372,819421050,3670026,3670026,0.0001415328,-0.00076159876,-0.000281687,-0.002025784,-0.0041329456,-0.045731656,4965,4965,0
819922895,819922496,3670026,3670026,5.7724148e-05,5.7735506e-05,0.00052007986,0.0019674487,0.0020025529,-0.048702918,4966,4966,0
820419322,820418975,3670026,3670026,-5.6914745e-05,0.00030616028,0.00031045428,-0.0066466206,0.008047215,-0.053166393,4965,4965,0
820920772,820920423,3670026,3670026,-0.000567573,-0.00042867978,0.0011964268,-0.0063634734,0.020757223,-0.05100309,4800,4800,0
821422307,821421888,3670026,3670026,-0.0022849846,0.0013115812,0.00016384381,-0.011604548,0.0073504304,-0.060643684,4980,4980,0
821923631,821923310,3670026,3670026,0.00021000092,-0.00075197313,-0.00028200986,-0.0018241919,-0.010971268,-0.045983355,4956,4956,0
822425076,822424755,3670026,3670026,-0.00038530608,0.000451627,0.001024679,-0.0038048392,0.0025749167,-0.048259582,4965,4965,0
822921556,822921236,3670026,3670026,0.0004293389,-0.00015246468,-0.00062102656,0.006654562,-0.003975346,-0.045902427,4965,4965,0
823423110,823422681,3670026,3670026,4.4172226e-05,-0.0003757805,-0.00015591523,-0.0017980637,-0.009568255,-0.046582922,4966,4966,0
823919499,823919160,3670026,3670026,-0.00023272274,0.0008509107,0.0009708137,-0.011015021,-0.010581228,-0.059994686,4959,4959,0
824420954,824420608,3670026,3670026,0.00048280528,-0.0019818132,-0.00026971573,0.0019969882,-0.0038618606,-0.045339976,4789,4789,0
824922522,824922198,3670026,3670026,4.8232865e-05,-0.000556259,5.8035166e-05,0.00211797,0.0007729966,-0.04615107,4983,4983,0
825423922,825423495,3670026,3670026,-0.0007024444,0.00079719373,0.00069985783,-0.0010055117,-0.008798294,-0.047756657,4963,4963,0
825920362,825919976,3670026,3670026,-0.00048430858,0.00015310201,-0.0003305632,-0.0063769077,-0.018277816,-0.049728584,4969,4969,0
826421756,826421420,3670026,3670026,-0.0005828532,0.00047047454,0.00069849635,-0.0040186415,0.012994312,-0.05048405,4965,4965,0
826923189,826922866,3670026,3670026,0.00092465867,-0.00020828577,-0.0019928166,-0.0012504606,0.0039040272,-0.04771233,4932,4932,0
827419694,827419346,3670026,3670026,0.00068216264,-0.00085442374,-0.0012403612,-0.0007426295,-0.030056285,-0.05181497,4965,4965,0
827921201,827920836,3670026,3670026,0.00069227844,-0.0007311982,-0.002928509,0.009071649,-0.011565461,-0.042669848,4827,4827,0
828422593,828422269,3670026,3670026,-0.0011303199,-4.947662e-06,-0.001505532,-0.00016057158,0.0042719836,-0.051371846,4982,4982,0
828924009,828923681,3670026,3670026,0.0017538823,-0.0022052475,-0.0036002658,0.003674372,-0.009473115,-0.03874926,4966,4966,0
829425492,829425127,3670026,3670026,-0.00012326948,0.0014903477,-0.0014451514,0.006952227,-0.0027263365,-0.03764284,4967,4967,0
829921980,829921604,3670026,3670026,-0.00022738459,0.0003967531,-0.0010777264,-0.0062206443,0.018209493,-0.052891802,4964,4964,0
830423379,830423049,3670026,3670026,-5.9192926e-06,0.0010071347,0.0010363172,-0.0032679134,0.0034446819,-0.055625636,4965,4965,0
830919972,830919529,3670026,3670026,-0.00039952245,0.00018508568,0.00086995424,-0.00032777956,0.0094015775,-0.052814823,4964,4964,0
831421375,831421026,3670026,3670026,0.0020654898,0.0008147374,-0.0009576039,-0.0011097902,-0.016948633,-0.045000963,5013,5013,0
831922785,831922461,3670026,3670026,-0.0009820408,0.0009360122,-1.616286e-05,-0.006992848,-0.005273246,-0.0590275,4985,4985,0
832424186,832423865,3670026,3670026,0.0047095343,-0.001073411,-0.0011631174,-0.006723307,-0.023069317,-0.0571476,4965,4965,0
832920745,832920373,3670026,3670026,-0.0030984462,0.00076710456,0.0012560927,-0.004561258,0.011444598,-0.055042468,4991,4991,0
833422182,833421818,3670026,3670026,0.00089698174,-0.0010289663,-0.0011036174,0.01045993,-0.011957793,-0.039181218,4995,4995,0
833923590,833923260,3670026,3670026,-0.0009817596,0.00032663593,0.0012628286,-0.012172944,0.009439118,-0.058973104,4991,4991,0
834420059,834419712,3670026,3670026,-0.000507259,-7.435473e-05,-0.00073587033,-0.006760652,-0.00042295604,-0.047902748,4965,4965,0
834921502,834921157,3670026,3670026,-3.691188e-05,0.0007426225,0.00013182513,-0.0036949315,0.004808308,-0.045986615,4957,4957,0
835423030,835422705,3670026,3670026,-0.0007052249,-0.00061516673,0.0002919278,-0.0009186344,-0.015925134,-0.033371482,4996,4996,0
835924369,835924042,3670026,3670026,-0.0029565508,0.00042354804,0.00011177383,-0.0006101309,-0.018465715,-0.04581341,4942,4942,0
836425930,836425491,3670026,3670026,-0.0013524031,-0.00033349023,0.00033788293,0.0010734624,0.0034438625,-0.049343746,4964,4964,0
836922300,836921970,3670026,3670026,0.00059344474,-0.0023360732,-0.0012657647,0.005247271,-0.014718986,-0.039982773,4964,4964,0
837418775,837418452,3670026,3670026,0.00034971407,0.001267587,-0.00021979053,0.002759539,9.4858304e-05,-0.039661273,4966,4966,0
837920256,837919896,3670026,3670026,-0.00039168927,0.00081207254,0.0010340185,-0.0069733523,0.0032310905,-0.043545324,4958,4958,0
838421685,838421340,3670026,3670026,0.00017227724,-0.0010112138,-0.00032654268,-0.0019411023,-0.007246195,-0.049972817,4964,4964,0
838923265,838922846,3670026,3670026,0.0010375663,-6.208671e-05,-0.0014288452,0.0021530944,-0.008502348,-0.047071744,4984,4984,0
839424618,839424230,3670026,3670026,-0.0006542319,0.00054278405,-0.0006651185,0.0011866963,0.0037881578,-0.044639964,4965,4965,0
839921038,839920710,3670026,3670026,-0.0011608044,0.00051455677,0.0006525669,-0.0041591623,0.007983369,-0.049937766,4964,4964,0
840422533,840422207,3670026,3670026,0.00059968885,0.0001803339,0.0002554226,-0.001946488,-0.009313526,-0.053504992,4990,4990,0
840919097,840918634,3670026,3670026,0.0010709022,-0.00035448035,-0.000493294,0.0035286509,0.0023557611,-0.043774165,4966,4966,0
841420516,841420129,3670026,3670026,-9.471503e-05,0.0001210009,0.0003817386,0.0017159384,0.0030493224,-0.03961626,5016,5016,0
841921868,841921522,3670026,3670026,-0.00038275914,0.00021224473,0.0005141828,-0.0076129553,-0.010557427,-0.045069374,4964,4964,0
842423462,842423029,3670026,3670026,0.0010117795,0.0005201968,-0.0001099914,0.0013265419,0.008819221,-0.044825178,4984,4984,0
842924778,842924411,3670026,3670026,-0.00092007924,0.00024237437,0.0002454217,-0.007509689,0.0055635194,-0.06057036,4964,4964,0
843421222,843420891,3670026,3670026,0.0003197328,0.0010277007,0.00041561082,-0.001822581,0.022079539,-0.05905764,4964,4964,0
843922755,843922335,3670026,3670026,-7.434281e-05,-0.0009983693,2.868473e-05,-0.0059942976,0.009817009,-0.044973932,4964,4964,0
844419276,844418815,3670026,3670026,-0.0010105507,0.0020961424,0.00061035634,-0.009689526,-0.008737492,-0.05913205,4965,4965,0
844920620,844920265,3670026,3670026,0.00034496136,-0.0023595628,-0.00020414601,0.00064003683,-0.005837573,-0.04846174,4970,4970,0
845422056,845421704,3670026,3670026,-0.0031815758,0.0004134513,0.00072476844,-0.008682646,-0.009064739,-0.052703407,4965,4965,0
845923649,845923277,3670026,3670026,0.00016167373,3.217676e-06,-0.0013355382,-0.0027721424,0.0004927072,-0.05296423,4991,4991,0
846424966,846424594,3670026,3670026,-0.00013605753,0.00034733015,0.0011657756,-0.0017770153,0.00727009,-0.04818106,4915,4915,0
846921399,846921072,3670026,3670026,-0.00084590545,9.395529e-05,0.00015870166,0.0033611818,-0.00019070426,-0.046771664,4965,4965,0
847422845,847422516,3670026,3670026,0.0008585983,-0.0002583907,-0.0011382871,-0.0073557515,-0.00237694,-0.058656167,4965,4965,0
847919373,847918995,3670026,3670026,0.0022414653,0.00035139933,-0.00049539295,-0.00096744247,0.0031626015,-0.044373613,4963,4963,0
848420785,848420440,3670026,3670026,0.00021113938,-0.00024316326,-0.0012135423,-0.006803229,0.0057927086,-0.043373633,4965,4965,0
848922258,848921905,3670026,3670026,-0.000951796,0.00033433936,0.00035762557,-0.0041002813,0.0064914227,-0.05515455,4979,4979,0
849423814,849423408,3670026,3670026,0.00014929843,0.0016305601,0.0002753586,0.0017218431,0.004585404,-0.045759775,4984,4984,0
849925140,849924773,3670026,3670026,0.0012518204,0.0003247809,2.2997869e-05,0.0019280602,0.010169527,-0.042851243,4964,4964,0
850421575,850421252,3670026,3670026,-0.00083232165,0.00015043968,0.00042955228,-0.002254505,-0.006863717,-0.057687517,4963,4963,0
850923125,850922696,3670026,3670026,0.0011697274,-9.6581745e-05,-0.0015705554,0.0007864596,-0.011456283,-0.044455744,4965,4965,0
851419502,851419176,3670026,3670026,0.0013441494,-0.0011274965,-0.0014710553,0.0025484897,-0.0076096947,-0.04217335,4966,4966,0
851920982,851920636,3670026,3670026,-0.0008021152,0.0018371454,0.00045630228,-0.0066054817,0.019092755,-0.053090416,4981,4981,0
852422481,852422064,3670026,3670026,-0.00014229333,-0.001027131,9.107907e-05,-0.009079566,-0.008086145,-0.05634798,4966,4966,0
852923848,852923507,3670026,3670026,-3.3189768e-05,2.281539e-05,0.0002213661,-0.0063976315,-0.0036298193,-0.05102361,4767,4767,0
853425429,853425050,3670026,3670026,-0.0019917786,-0.0006444666,-0.0004096269,0.009407372,0.00037149465,-0.034813076,4989,4989,0
853921810,853921431,3670026,3670026,-0.00014881957,0.00015894175,0.00013102978,0.0019033203,-0.002205598,-0.044691082,4968,4968,0
854418237,854417911,3670026,3670026,-0.00023074672,0.00031230925,0.0004502737,-0.0044580842,0.0063540745,-0.05201584,4959,4959,0
854919772,854919354,3670026,3670026,-0.00022917122,0.00059116073,0.0009724979,-0.002446136,0.024318423,-0.04847228,4965,4965,0
855421121,855420798,3670026,3670026,-0.00028395274,0.00094475196,0.00043525526,-0.0061487737,0.005347611,-0.052925695,4965,4965,0
855922629,855922242,3670026,3670026,0.0009521376,-0.0006580148,0.000510283,0.0034670578,0.008807658,-0.0457948,4963,4963,0
856424030,856423685,3670026,3670026,-0.00017975527,0.0013087,-0.0003648831,-0.0038678336,-0.011086003,-0.053172268,4961,4961,0
856925548,856925179,3670026,3670026,0.00045642117,-0.0018358193,-0.0010997065,-0.004688046,-0.0045863097,-0.040579457,4984,4984,0
857421987,857421609,3670026,3670026,-0.0003794422,0.0006123273,0.00048001853,-0.0034623223,0.009314345,-0.05456264,4965,4965,0
857918497,857918131,3670026,3670026,0.0023515325,-0.0001128645,-0.0007701155,0.0016872702,-0.011436483,-0.045361057,5008,5008,0
858419977,858419532,3670026,3670026,-0.0009938158,0.0014002683,0.0006814504,0.00038096396,0.012159111,-0.048331276,4965,4965,0
858921312,858920980,3670026,3670026,-0.0024678628,0.00016150056,0.00078875665,-0.0018092132,0.0016358782,-0.04906665,4969,4969,0
859422768,859422419,3670026,3670026,0.00023256958,-0.0004284401,-0.00030179895,-0.003175777,0.000603425,-0.05474942,4965,4965,0
859924265,859923867,3670026,3670026,0.00033291156,0.00081861415,0.0003276978,0.0020838876,0.004929035,-0.05147842,4931,4931,0
860420754,860420386,3670026,3670026,-0.00026616897,0.0006867118,0.000393724,-0.0058604865,0.014144316,-0.050853144,4987,4987,0
860922110,860921787,3670026,3670026,-0.00041061488,-0.00089179084,2.8998088e-06,0.001318935,-0.00994988,-0.04024362,4966,4966,0
861418639,861418267,3670026,3670026,-0.00013362768,4.457786e-06,0.0008314506,1.1709903e-05,0.009241809,-0.04740398,4966,4966,0
861920089,861919709,3670026,3670026,-0.00041825202,0.0005755099,0.0005203989,-0.001416528,0.0047963816,-0.048839178,4965,4965,0
862421565,862421154,3670026,3670026,0.00037412668,-0.0011538384,4.780094e-05,-0.004298107,-0.01329588,-0.05555392,4966,4966,0
862922948,862922596,3670026,3670026,0.0007138208,-0.0002789165,-0.0011741393,-0.0011196376,-0.0064034173,-0.047675967,4965,4965,0
863424396,863424053,3670026,3670026,-0.00010532034,-0.0023670392,0.00036805047,-0.012211292,0.00077017007,-0.05836634,4975,4975,0
863920997,863920665,3670026,3670026,0.00012449411,-0.00033152255,-0.0007877411,0.00381385,-0.0005337252,-0.045987822,5044,5044,0
864422402,864421963,3670026,3670026,-0.00014672083,0.0007178477,0.0010400955,-0.007169122,0.006108882,-0.057576653,4966,4966,0
864918868,864918441,3670026,3670026,0.00033822146,0.00014888347,0.0013168507,-0.0007118231,0.0031417655,-0.04860353,4965,4965,0
865420264,865419885,3670026,3670026,0.00031545333,-0.00044360355,-0.00081033696,0.0026312775,-0.007940853,-0.043516714,4953,4953,0
865921654,865921329,3670026,3670026,0.0020905538,0.00018475004,0.00029929096,-0.009497623,0.007059788,-0.05397,4965,4965,0
866423174,866422775,3670026,3670026,-0.00014304165,-0.0006649045,-0.00053862046,0.0008288355,-0.015135212,-0.04268355,4930,4930,0
866924613,866924216,3670026,3670026,-0.00083926774,0.0005689411,0.00091547257,-0.01042358,-0.005287899,-0.058576185,4965,4965,0
867421114,867420792,3670026,3670026,-0.00071216124,-0.00020816893,0.0003941588,-0.002143953,-0.014903186,-0.044503912,5032,5032,0
867922466,867922139,3670026,3670026,-0.00055366935,-0.00014645334,0.00096930953,-0.0016539025,0.0040900046,-0.049025346,4966,4966,0
868418969,868418646,3670026,3670026,-0.00013417857,0.00016021286,0.00026679607,-0.0001305147,-0.010926354,-0.04573473,4994,4994,0
868920397,868920062,3670026,3670026,0.00018091274,1.7197612e-05,0.00036397524,-0.0058228653,0.0031720253,-0.051331896,4965,4965,0
869421865,869421506,3670026,3670026,0.000273104,-0.0008444774,-0.0004794634,-0.0013801055,-0.0062897415,-0.04592359,4966,4966,0
869923305,869922955,3670026,3670026,0.0005964711,-0.00028611685,-0.0007509347,-0.001970679,0.0044759805,-0.046674352,4970,4970,0
870424742,870424391,3670026,3670026,0.0006782215,-0.00014160719,0.00026540132,-0.0025182443,0.0024474761,-0.05243777,4965,4965,0
870921305,870920928,3670026,3670026,-0.0006956575,-0.002816266,0.00040984564,-0.008613526,-0.020381873,-0.04991017,4927,4927,0
871422752,871422316,3670026,3670026,0.00069030543,-0.0002740558,-0.00058489316,-0.000859403,-0.007161564,-0.045581095,4968,4968,0
871919168,871918793,3670026,3670026,0.0005240467,-0.000623878,-0.000115714894,0.010172508,-0.009050494,-0.039237007,4964,4964,0
872420560,872420235,3670026,3670026,-0.00076244544,0.00057342777,0.0006049243,-0.009825245,0.0028055704,-0.05709837,4965,4965,0
872922052,872921682,3670026,3670026,0.0007847791,-0.0008362638,-0.00030407123,0.005699876,-0.004227559,-0.04009187,4917,4917,0
873423520,873423123,3670026,3670026,-0.0021336398,-0.000104862964,-0.0003242554,-0.0057706037,-0.0058123805,-0.052754965,4966,4966,0
873924916,873924566,3670026,3670026,-0.0008739113,-2.0847143e-05,0.0009122364,0.0010290768,-0.010143992,-0.045520473,4965,4965,0
874421446,874421122,3670026,3670026,-0.0007331405,-0.0005613793,0.0002547162,0.0020688968,-0.009877112,-0.046895664,4998,4998,0
874917888,874917523,3670026,3670026,-0.0007116218,-0.0006900616,-0.00015262268,-0.0015704095,-0.01021883,-0.041971497,4965,4965,0
875419348,875418966,3670026,3670026,-0.00024727022,0.0012983775,0.00071822025,-0.00868394,0.001724646,-0.051294755,4962,4962,0
875920731,875920410,3670026,3670026,0.00024441152,-0.0008044949,-0.00025941973,-0.0018545879,-0.0154467095,-0.04803173,4965,4965,0
876422304,876421853,3670026,3670026,-0.0022705607,0.000106207044,9.9525685e-05,-0.004158611,0.012520751,-0.056650132,4965,4965,0
876923712,876923302,3670026,3670026,-0.00087909476,-6.733712e-06,-8.7162254e-05,-0.0057852496,-0.0116995545,-0.0567624,4970,4970,0
877420118,877419775,3670026,3670026,0.0006342559,0.00091875374,-0.00019976338,-0.001254808,0.013132195,-0.051013935,4959,4959,0
877921611,877921285,3670026,3670026,0.00063649943,-0.0005679497,6.0727016e-05,-0.005422639,0.016550051,-0.049268454,4975,4975,0
878423034,878422662,3670026,3670026,-0.0005510868,-0.00039960086,0.0001297861,-0.003026639,-0.0153602855,-0.048548028,4962,4962,0
878919519,878919140,3670026,3670026,-0.0005659904,-1.8106124e-05,0.0002446938,-0.006160257,-0.0019183159,-0.049871232,4965,4965,0
879420980,879420583,3670026,3670026,7.052993e-05,-0.00023650528,-0.0004892157,0.003651069,0.00011655393,-0.040982746,4964,4964,0
879922348,879922027,3670026,3670026,0.00037590612,-0.0004769199,6.506746e-05,0.0106783165,0.0026614405,-0.04035043,4963,4963,0
880423851,880423506,3670026,3670026,-0.00020392568,0.0004922078,0.0006671003,-0.0077479607,0.00881737,-0.060193665,4982,4982,0
880920308,880919950,3670026,3670026,0.00022606138,-0.000367294,3.466789e-05,-0.0075003006,0.001831168,-0.053052217,4966,4966,0
881421805,881421467,3670026,3670026,0.00038234936,0.00011006778,-0.00038031684,0.00095771695,0.010358406,-0.048591346,4927,4927,0
881923261,881922835,3670026,3670026,-4.8954564e-05,-6.0811544e-05,-0.00027790686,-0.0041345116,0.0012232576,-0.04985195,4965,4965,0
882419674,882419315,3670026,3670026,0.00016465512,-0.00019707192,-9.796781e-06,0.004958831,0.003480569,-0.04231674,4965,4965,0
882921123,882920757,3670026,3670026,0.0001898465,-0.0007201417,-5.6216057e-05,-0.0025392815,-0.021547355,-0.047291987,4966,4966,0
883422678,883422204,3670026,3670026,0.000114848066,-0.0007770574,-0.002328622,0.0023943943,-0.0007041409,-0.04171932,4969,4969,0
883923989,883923642,3670026,3670026,-0.0015845043,0.0012206298,-0.00096796674,-0.0061203944,0.0022081386,-0.05310218,4964,4964,0
884420463,884420121,3670026,3670026,0.0003123562,-0.00048217378,-0.003461906,-0.004459704,-0.008053712,-0.04813192,4965,4965,0
884922034,884921663,3670026,3670026,0.00070448784,-0.00040768905,-0.001625091,-0.012535703,-0.0018081423,-0.06638943,4934,4934,0
885423443,885423007,3670026,3670026,0.00065862894,-0.00054327794,-0.0017829356,-0.004249129,0.008212747,-0.046923667,4963,4963,0
885919811,885919486,3670026,3670026,0.00065715436,-0.00033708077,-0.00052976445,0.0011892109,0.009126544,-0.04138745,4965,4965,0
886421260,886420928,3670026,3670026,0.00066614314,-0.0006991154,-0.00070834806,0.008216477,-0.013127501,-0.046170805,4965,4965,0
886922694,886922371,3670026,3670026,-0.00066892273,-9.006914e-05,-0.0023889777,-0.00460019,0.0029430827,-0.04772505,4965,4965,0
887424157,887423814,3670026,3670026,-0.0004098343,-0.0020457671,-0.000492007,-0.0065339603,0.011986375,-0.05878296,4964,4964,0
887920636,887920296,3670026,3670026,8.428813e-05,0.00081425224,-0.00044745533,-0.0018054914,-0.0119104395,-0.04528883,4968,4968,0
888422252,888421835,3670026,3670026,-0.00013453959,0.0011450099,0.000738344,-0.000163867,0.00729972,-0.044554222,4989,4989,0
888923656,888923179,3670026,3670026,-0.00017230277,7.100876e-05,0.00029723736,-0.006577722,-0.010153974,-0.044426553,4965,4965,0
889420025,889419657,3670026,3670026,0.00023726941,-0.00016826257,-0.00024090603,-0.0033014764,-0.0013138679,-0.04519709,4965,4965,0
889921423,889921099,3670026,3670026,0.0009123924,2.1189499e-05,0.00026794238,0.0045161415,0.017999345,-0.04107694,4964,4964,0
890422870,890422543,3670026,3670026,7.11081e-05,-4.872026e-05,-0.0011587546,-0.0053140693,-0.0100908615,-0.0475329,4965,4965,0
890924345,890923990,3670026,3670026,0.00048970204,-0.00039573334,0.00011267631,6.682527e-05,0.0034120316,-0.043822795,4946,4946,0
891420859,891420464,3670026,3670026,0.00026453155,0.00033761072,-0.00027675033,0.0074745053,-0.0124015855,-0.043113407,4965,4965,0
891922432,891922010,3670026,3670026,-0.0005992476,-0.00096577546,-0.0010830065,-0.0004253593,0.008159005,-0.05465936,4991,4991,0
892423680,892423356,3670026,3670026,1.8136681e-05,1.599478e-05,-0.00035422156,-0.017604599,-0.0192793,-0.06638396,4972,4972,0
892920152,892919827,3670026,3670026,-0.00082300697,0.00013680916,0.00068134745,-0.015655234,0.009622444,-0.06056993,4965,4965,0
893421644,893421312,3670026,3670026,-9.03617e-05,-0.0024395674,0.00018157849,0.0024001293,0.0025433223,-0.047606654,4982,4982,0
893923085,893922713,3670026,3670026,0.00019842951,-0.0010753402,-3.2139023e-06,0.002099463,-0.002089175,-0.04056517,4965,4965,0
894424549,894424155,3670026,3670026,-0.00025643883,0.0002795848,-0.0013115885,-0.0017399923,0.0036152385,-0.043273017,4959,4959,0
894920977,894920633,3670026,3670026,-0.0004800839,0.0007582623,-0.0004808407,-0.007791276,0.0017308985,-0.054940842,4965,4965,0
895422580,895422257,3670026,3670026,0.00046309608,-0.00026750177,-0.0009780258,0.0047786725,-0.016139012,-0.047560144,5000,5000,0
895918972,895918554,3670026,3670026,-0.00085501,-0.0007460259,0.00019644361,-0.0021463549,-0.00076503016,-0.05441032,4965,4965,0
896420433,896419996,3670026,3670026,-0.0032979688,0.0027313037,-0.00011018657,-0.0071862997,-0.0052941516,-0.04913404,4959,4959,0
896921770,896921440,3670026,3670026,0.0003748044,0.0005584084,0.0002508963,-0.010374179,-0.0060421145,-0.056541905,4965,4965,0
897423210,897422882,3670026,3670026,-0.0010915312,-0.0007012167,0.000544109,-0.013753217,-0.010212316,-0.057689212,4961,4961,0
897919741,897919359,3670026,3670026,-0.00054339203,-0.00039667427,0.00035754708,-0.012407988,0.019516528,-0.05269137,4964,4964,0
898421196,898420853,3670026,3670026,0.00020307214,-0.0012995267,-0.00047194882,-0.004820738,-0.015444853,-0.049200825,5016,5016,0
898922784,898922370,3670026,3670026,-0.00066332356,8.279464e-06,0.00060636044,0.004941104,-0.016963728,-0.04325203,4991,4991,0
899424086,899423692,3670026,3670026,-0.00064689893,0.0017724088,0.0001220327,-0.008121355,-0.011799878,-0.05998545,4960,4960,0
899920492,899920166,3670026,3670026,-0.0003463562,0.00047077888,0.0003256898,-0.0036899406,-0.008812354,-0.048217785,4963,4963,0
900421933,900421607,3670026,3670026,-0.00056139444,-0.00016780541,0.0008732986,-0.011697016,-0.0097967405,-0.059297517,4964,4964,0
900923376,900923050,3670026,3670026,-0.0019869928,-0.0012424258,0.0010392844,-0.011912569,-0.0071487,-0.061843317,4965,4965,0
901419879,901419527,3670026,3670026,-0.00064763793,0.0007271938,0.00051998685,-0.01796425,0.0039871056,-0.06212655,4950,4950,0
901921327,901920972,3670026,3670026,-0.0028977923,0.0004185662,-0.0003083077,0.0050778505,0.0018441183,-0.040728882,4967,4967,0
902422917,902422542,3670026,3670026,0.00075667066,-0.00020807605,-4.3433003e-05,-0.00897578,0.013825162,-0.052950237,4932,4932,0
902924254,902923923,3670026,3670026,-0.00052883214,-0.00067952764,0.0006468102,-0.009450847,-0.0051831426,-0.053606134,4994,4994,0
903420702,903420332,3670026,3670026,-4.813854e-05,0.0006623759,-0.00051152136,0.008609237,0.00067121774,-0.040582962,4958,4958,0
903922100,903921775,3670026,3670026,-0.0012195316,-0.0005608863,-0.00046140337,0.0041716653,0.014100473,-0.03841153,4963,4963,0
904423631,904423218,3670026,3670026,0.0015336529,-0.0009561267,-0.00093475805,0.007293978,0.0026238342,-0.042767752,4965,4965,0
904920047,904919694,3670026,3670026,-8.552765e-05,4.859963e-06,0.0010589211,-0.008906058,0.0017058316,-0.05354579,4964,4964,0
905421527,905421137,3670026,3670026,0.0018124164,-0.00016033534,-0.001231508,-0.002341976,-0.018690627,-0.046992052,4965,4965,0
905923079,905922712,3670026,3670026,-0.0004181603,-0.00020206707,0.0003940541,-0.002780258,-0.0061227125,-0.04262084,4987,4987,0
906419432,906419058,3670026,3670026,0.0006877953,-0.00065677013,0.00073818763,-0.0010695171,0.020917324,-0.046206705,4966,4966,0
906920869,906920499,3670026,3670026,3.4074357e-05,0.0001359997,0.00019302701,-0.007119096,-0.0057608094,-0.048318934,4965,4965,0
907422357,907421985,3670026,3670026,-0.00022212735,-8.5667074e-05,5.2026313e-05,-0.004291539,0.006508773,-0.048115194,4990,4990,0
907923765,907923387,3670026,3670026,-0.00012311421,0.0013999097,0.0009981868,-0.0018532996,0.022652337,-0.053057045,4968,4968,0
908420214,908419857,3670026,3670026,0.000602187,-0.00025880386,-0.00066507363,0.00060374785,-0.00018805267,-0.045186404,4961,4961,0
908921649,908921305,3670026,3670026,0.0010922002,-7.1351926e-05,-0.00071589596,0.009047694,-0.012106941,-0.045103148,4967,4967,0
909423319,909422942,3670026,3670026,0.00097531726,-0.0005660657,-0.0006563396,0.005028196,-0.026142117,-0.047958996,4978,4978,0
909924540,909924188,3670026,3670026,-0.00011747766,-0.00032782042,-0.00036976856,-0.0033317218,0.008149971,-0.04696537,4949,4949,0
910420990,910420664,3670026,3670026,-0.00035569136,0.00027820913,0.00026160092,0.003604653,-0.014274845,-0.04245046,4965,4965,0
910922476,910922107,3670026,3670026,-0.00051234785,0.00028265757,0.00092490297,-0.00033228708,0.0023076052,-0.044961423,4965,4965,0
911423932,911423548,3670026,3670026,-0.0007293807,0.00012974403,-8.799322e-05,-0.0032071345,-0.011900981,-0.04781118,4964,4964,0
911920409,911920026,3670026,3670026,0.00021537323,0.0001407004,-0.00056946935,0.0006744721,-0.0077703134,-0.04660445,4965,4965,0
912421822,912421469,3670026,3670026,-0.00011023969,-0.0010056916,-0.00030798285,-0.0018010736,-0.015170514,-0.046424046,4966,4966,0
912923391,912923061,3670026,3670026,-0.0005320755,-0.00016968761,0.00089640956,-0.003918515,0.010605387,-0.05576989,4985,4985,0
913424753,913424389,3670026,3670026,0.0010004665,-0.0015763874,-0.0001223599,0.0021076126,-0.012923264,-0.041082952,4987,4987,0
913921206,913920829,3670026,3670026,-0.00021617657,0.00014846527,-0.00052008015,0.0026367041,-0.013630089,-0.042762358,4960,4960,0
914422682,914422271,3670026,3670026,0.00031027908,0.0002848859,-0.00018950945,-0.0038365233,0.0014537815,-0.051964995,4965,4965,0
914924130,914923754,3670026,3670026,-0.000200756,0.00055732497,0.001046241,-0.01162643,0.01612303,-0.051917277,5003,5003,0
915420581,915420195,3670026,3670026,-0.0005470437,0.0016126537,3.5918605e-05,-0.0072314134,0.00014949098,-0.060974,4970,4970,0
915921985,915921632,3670026,3670026,5.240405e-05,0.0003556653,0.00074730004,-0.00062978786,0.02986886,-0.04688278,4962,4962,0
916423657,916423292,3670026,3670026,-5.8755436e-06,9.7566386e-05,2.8658857e-05,-0.010481487,-0.015398008,-0.057845034,5030,5030,0
916919964,916919596,3670026,3670026,0.00021555151,-0.00021879989,-2.846226e-05,-0.010043808,0.009787414,-0.060231883,5009,5009,0
917421365,917420993,3670026,3670026,-0.0002769051,0.00033003037,0.0004918713,-0.006264924,0.006670797,-0.056967888,4965,4965,0
917922766,917922445,3670026,3670026,0.00020613996,-0.00014343309,-0.0005025607,0.0016312117,-0.01922689,-0.043770045,4975,4975,0
918419330,918418954,3670026,3670026,8.4621635e-05,-0.000965354,-0.00037251954,-0.007131092,-0.0133230975,-0.05277471,5007,5007,0
918920721,918920357,3670026,3670026,-0.0007466195,0.0002142555,0.0002879978,-0.00046241764,-0.0033310226,-0.049938746,4968,4968,0
919422186,919421799,3670026,3670026,-0.0009640585,-0.00018274822,0.00048033052,-0.002180619,-0.011409484,-0.05003323,4967,4967,0
919923766,919923399,3670026,3670026,-6.798552e-05,0.00076258794,0.0005490786,-0.00030286968,0.007647779,-0.053028345,4908,4908,0
920425046,920424724,3670026,3670026,-0.0003187367,-0.0014052875,-0.00021243385,-0.005298183,0.0011507105,-0.050613098,4980,4980,0
920921482,920921157,3670026,3670026,0.00043000787,0.00015750916,0.00016049389,0.0006316483,0.013713785,-0.045369335,4961,4961,0
921422968,921422642,3670026,3670026,7.504868e-05,0.0017401611,0.0006469383,0.001938584,0.016421566,-0.050857704,4951,4951,0
921919408,921919080,3670026,3670026,0.00034206203,-0.00031058677,0.00071179174,0.002455585,0.02446742,-0.042501304,4970,4970,0
922420914,922420565,3670026,3670026,0.00044252488,0.0004295439,-0.0005954802,0.0045649377,0.0049049407,-0.046131544,5013,5013,0
922922347,922921998,3670026,3670026,0.0006559455,-0.00076326897,-0.0007620932,0.004479786,-0.0059052673,-0.037045315,5004,5004,0
923423987,923423617,3670026,3670026,-0.0010946176,-0.0001272001,0.000611477,-0.0017110595,-0.011876807,-0.046691556,4970,4970,0
923925222,923924853,3670026,3670026,0.0007581212,-0.0009602715,-0.00016751686,0.0022708215,-0.005619367,-0.04094295,4973,4973,0
924421641,924421318,3670026,3670026,-0.00019645649,0.0004324834,0.0008853825,-0.004370564,0.021168537,-0.049668882,4959,4959,0
924923146,924922760,3670026,3670026,0.00048128318,-0.0008585943,-0.001205756,-0.001811571,-0.0015627579,-0.04368631,4965,4965,0
925419566,925419241,3670026,3670026,0.00024280373,-0.00070788176,-0.0002910309,0.0024047515,0.00088980916,-0.048396476,4969,4969,0
925921048,925920678,3670026,3670026,-0.0008360616,-1.035912e-05,7.308143e-05,-0.005439764,8.9456385e-05,-0.053137615,4965,4965,0
926422460,926422120,3670026,3670026,6.28954e-05,-0.00044730303,-0.00043019565,0.004396187,-0.0038078749,-0.042861406,4963,4963,0
926924162,926923748,3670026,3670026,7.361653e-05,-0.0011815114,-5.0788818e-05,0.0014848433,-0.0071765636,-0.04345835,4990,4990,0
927425438,927425071,3670026,3670026,0.00046913387,-4.6600733e-05,-0.00011026343,-0.0068981554,-0.021295227,-0.047591835,4979,4979,0
927921810,927921481,3670026,3670026,-0.00033472647,0.0010024022,0.00039545062,-0.0053008553,-0.005849992,-0.05506706,4966,4966,0
928423315,928422921,3670026,3670026,8.2614955e-05,-0.000106217805,-0.0005577984,0.003689574,-0.011963611,-0.046445258,4963,4963,0
928919792,928919399,3670026,3670026,-0.0010022494,-0.0004167714,1.8438193e-05,-0.0066718347,-0.008471517,-0.054198142,4966,4966,0
929421166,929420840,3670026,3670026,0.00037438874,-0.00012523145,-0.00060132344,0.0016356853,-0.021511957,-0.047048945,4965,4965,0
929922632,929922286,3670026,3670026,-0.0008981996,0.000566391,0.0006306586,-0.00219086,0.01053999,-0.053407103,4970,4970,0
930424064,930423725,3670026,3670026,-0.001089647,0.0007877261,-0.0002581191,0.0004843398,0.0050273673,-0.043588012,4783,4783,0
930925560,930925235,3670026,3670026,0.00025987814,-0.0003224268,-0.00053767185,0.0020009947,-0.0016926065,-0.04058951,4975,4975,0
931421968,931421642,3670026,3670026,-0.00057924364,-0.00022425874,0.00024233974,-0.010777295,-0.00423693,-0.0557989,4947,4947,0
931923477,931923082,3670026,3670026,0.0015215315,-0.0005226652,-0.0005116183,0.0023869998,-0.004862175,-0.047652494,4964,4964,0
932419955,932419560,3670026,3670026,-5.4911812e-05,-0.00014349788,0.00012467158,0.0039535626,0.00017173123,-0.044401947,4966,4966,0
932921408,932921000,3670026,3670026,0.0035266862,-0.000856326,-0.0005448155,-0.0033809568,-0.0043784142,-0.049183305,4963,4963,0
