timestamp,timestamp_sample,control[0],control[1],control[2],control[3],control[4],control[5],control[6],control[7]
21874779,21874532,0.0161265,-0.0096711,0.00221942,0.0,0.0,0.0,0.0,-1.0
21876025,21875775,0.0105465,-0.00500926,0.00131308,0.0,0.0,0.0,0.0,-1.0
21977837,21977591,0.0310081,0.0120577,-0.000717335,0.0,0.0,0.0,0.0,-1.0
22075937,22075676,-0.0037687,-0.00247094,-0.00328773,0.0,0.0,0.0,0.0,-1.0
22176474,22176224,-0.0291213,-0.0309309,0.00510929,0.0,0.0,0.0,0.0,-1.0
22274554,22274305,0.011702,0.0178833,-0.00886662,0.0,0.0,0.0,0.0,-1.0
22376512,22376271,-0.0279036,-0.0379278,0.00887179,0.0,0.0,0.0,0.0,-1.0
22474442,22474197,0.018661,0.0205106,-0.00552845,0.0,0.0,0.0,0.0,-1.0
22576249,22575998,0.0705498,0.00137038,-0.00606015,0.0,0.0,0.0,0.0,-1.0
22676808,22676562,0.0275686,-0.0643231,-0.000162821,0.0,0.0,0.0,0.0,-1.0
22774902,22774661,-0.0548404,0.0303771,-0.00109147,0.0,0.0,0.0,0.0,-1.0
22876696,22876446,-0.0301269,0.116927,-0.00207947,0.0,0.0,0.0,0.0,-1.0
22974791,22974546,0.0498797,0.0463078,0.00546469,0.0,0.0,0.0,0.0,-1.0
23076578,23076338,0.0330155,-0.0378418,0.00525458,0.0,0.0,0.0,0.0,-1.0
23174729,23174483,-0.0201705,-0.120298,-0.0125611,0.0,0.0,0.0,0.0,-1.0
23275232,23274984,-0.0182135,-0.0450531,-0.0145455,0.0,0.0,0.0,0.0,-1.0
23377037,23376790,0.0403132,-0.00945022,-0.00280837,0.0,0.0,0.0,0.0,-1.0
23475151,23474909,0.0366118,0.0610729,0.0127273,0.0,0.0,0.0,0.0,-1.0
23576935,23576683,0.0033054,0.0611217,0.000918739,0.0,0.0,0.0,0.0,-1.0
23675015,23674759,-0.00453364,0.0184472,-0.0176647,0.0,0.0,0.0,0.0,-1.0
23776810,23776565,-0.00756066,-0.0101679,-0.00726849,0.0,0.0,0.0,0.0,-1.0
23874919,23874657,-0.0431795,-0.00337133,0.0128669,0.0,0.0,0.0,0.0,-1.0
23975482,23975242,-0.0344746,0.0735476,0.00331607,0.0,0.0,0.0,0.0,-1.0
24077265,24077017,0.0210569,0.0877017,-0.00386827,0.0299633,0.0,0.0,0.0,-1.0
24175349,24175100,0.0585331,-0.037261,-2.56479e-05,0.114859,0.0,0.0,0.0,-1.0
24277343,24277092,0.146382,0.088583,-0.00321606,0.22,0.0,0.0,0.0,-1.0
24375240,24374986,0.00621286,0.0186759,-0.00206635,0.218947,0.0,0.0,0.0,-1.0
24475797,24475551,0.0650599,-0.0515076,-0.00140826,0.218947,0.0,0.0,0.0,-1.0
24577603,24577357,-0.130266,0.102597,-0.00754061,0.214737,0.0,0.0,0.0,-1.0
24675681,24675439,0.114754,-0.0522635,-0.00572229,0.214737,0.0,0.0,0.0,-1.0
24777553,24777308,0.0121976,-0.0765197,-0.00284227,0.214737,0.0,0.0,0.0,-1.0
24875567,24875326,-0.0202575,0.0465342,-0.0131079,0.214737,0.0,0.0,0.0,-1.0
24977412,24977154,0.0262004,-0.0352456,-0.000878486,0.214737,0.0,0.0,0.0,-1.0
25074412,25074165,-0.0654631,0.031399,-0.00233629,0.214737,0.0,0.0,0.0,-1.0
25176022,25175779,0.070202,-0.0824913,-0.0102443,0.215789,0.0,0.0,0.0,-1.0
25274116,25273863,-0.118,0.0976922,-0.00788957,0.217895,0.0,0.0,0.0,-1.0
25375913,25375667,0.0943324,-0.0139706,-0.00819653,0.229474,0.0,0.0,0.0,-1.0
25477720,25477473,0.0745363,0.00547445,-0.00852348,0.235789,0.0,0.0,0.0,-1.0
25575803,25575554,-0.00122068,-0.00153132,-0.00448106,0.235789,0.0,0.0,0.0,-1.0
25676387,25676127,0.0525091,-0.0885114,-0.00885959,0.234737,0.0,0.0,0.0,-1.0
25774447,25774204,-0.0992948,0.146261,-0.00900172,0.241053,0.0,0.0,0.0,-1.0
25876374,25876126,-0.0749955,0.0923321,-0.0131451,0.254737,0.0,0.0,0.0,-1.0
25978091,25977845,-0.0478777,0.0709484,-0.00636007,0.272632,0.0,0.0,0.0,-1.0
26076141,26075894,0.0193802,-0.0335493,-0.00701896,0.272632,0.0,0.0,0.0,-1.0
26177954,26177701,0.122954,-0.0718455,-0.00504183,0.272632,0.0,0.0,0.0,-1.0
26274784,26274540,0.0337792,-0.00254386,0.00112055,0.277895,0.0,0.0,0.0,-1.0
26376597,26376348,-0.0212825,-0.0121687,-0.00587912,0.311579,0.0,0.0,0.0,-1.0
26474673,26474428,-0.0140201,-0.00733337,-0.00744577,0.313684,0.0,0.0,0.0,-1.0
26576483,26576236,0.0167507,-0.0234276,-0.0104162,0.313684,0.0,0.0,0.0,-1.0
26674693,26674445,0.0617764,-0.0146735,-0.00586427,0.345263,0.0,0.0,0.0,-1.0
26776366,26776122,-0.0168811,-0.0054206,-0.00861068,0.382105,0.0,0.0,0.0,-1.0
26876940,26876687,0.0429708,-0.00864774,-0.00668388,0.388421,0.0,0.0,0.0,-1.0
26975015,26974769,0.0261192,0.0145917,-0.00926617,0.422105,0.0,0.0,0.0,-1.0
27076823,27076576,0.02644,-0.00740566,-0.0082921,0.427368,0.0,0.0,0.0,-1.0
27174937,27174692,0.0179318,0.0184946,-0.0112368,0.425263,0.0,0.0,0.0,-1.0
27276711,27276464,0.0118627,0.00494208,-0.0163682,0.418947,0.0,0.0,0.0,-1.0
27374790,27374544,0.0196489,0.00136812,-0.0308128,0.418947,0.0,0.0,0.0,-1.0
27475402,27475155,-0.0282079,-0.0133764,-0.0235376,0.429474,0.0,0.0,0.0,-1.0
27577161,27576915,0.0297183,0.000974178,-0.0324865,0.432632,0.0,0.0,0.0,-1.0
27675257,27675005,0.0503234,-0.012962,-0.0347815,0.434737,0.0,0.0,0.0,-1.0
27777053,27776806,-0.0714041,-0.00983348,-0.0237524,0.441053,0.0,0.0,0.0,-1.0
27875142,27874895,0.0186415,-0.0268913,-0.0364646,0.462105,0.0,0.0,0.0,-1.0
27976951,27976691,-0.0585516,-0.0100008,-0.0365303,0.471579,0.0,0.0,0.0,-1.0
28077521,28077281,-0.0660419,-0.0102798,-0.0479523,0.474737,0.0,0.0,0.0,-1.0
28175583,28175338,0.0237323,-0.0432705,-0.0388407,0.48,0.0,0.0,0.0,-1.0
28277411,28277169,-0.00870552,-0.053336,-0.0338176,0.482105,0.0,0.0,0.0,-1.0
28375471,28375226,-0.0630999,-0.0453101,-0.0269835,0.497895,0.0,0.0,0.0,-1.0
28477285,28477033,-0.0525947,-0.0459937,-0.0250922,0.511799,0.0,0.0,0.0,-1.0
28574286,28574041,0.00191431,-0.092428,-0.0244995,0.514198,0.0,0.0,0.0,-1.0
28675929,28675678,-0.0781739,-0.0175661,-0.0261386,0.515398,0.0,0.0,0.0,-1.0
28777726,28777484,-0.026329,-0.0301232,-0.0186627,0.515398,0.0,0.0,0.0,-1.0
28875816,28875566,0.0148009,-0.0325995,-0.0160211,0.515398,0.0,0.0,0.0,-1.0
28973897,28973648,0.0025489,-0.0140455,-0.0182291,0.514198,0.0,0.0,0.0,-1.0
29075704,29075455,-0.0289411,-0.000532583,-0.0141377,0.512999,0.0,0.0,0.0,-1.0
29176277,29176023,0.0201817,-0.0105261,-0.0170501,0.511799,0.0,0.0,0.0,-1.0
29274347,29274100,-0.0605304,-0.0402232,-0.0278347,0.514198,0.0,0.0,0.0,-1.0
29376284,29376034,0.00611916,-0.0222732,-0.0237475,0.515398,0.0,0.0,0.0,-1.0
29477960,29477713,-0.0928134,-0.0135174,-0.027783,0.511799,0.0,0.0,0.0,-1.0
29576090,29575844,-0.0394584,0.00481114,-0.0240989,0.509474,0.0,0.0,0.0,-1.0
29677855,29677601,0.0103039,-0.0697352,-0.0208767,0.509474,0.0,0.0,0.0,-1.0
29775936,29775683,-0.0108268,-0.0479751,-0.028092,0.515398,0.0,0.0,0.0,-1.0
29876499,29876248,-0.0892041,0.0312132,-0.0237694,0.509474,0.0,0.0,0.0,-1.0
29974576,29974329,-0.0093075,-0.0338449,-0.0165835,0.511799,0.0,0.0,0.0,-1.0
30076388,30076136,-0.0428939,0.00491587,-0.0180322,0.511799,0.0,0.0,0.0,-1.0
30178290,30178047,-0.00255091,-0.0368615,-0.0187781,0.508421,0.0,0.0,0.0,-1.0
30276272,30276024,-0.0733323,-0.00582936,-0.0198991,0.511799,0.0,0.0,0.0,-1.0
30376832,30376588,-0.0157455,0.00557757,-0.00779407,0.507368,0.0,0.0,0.0,-1.0
30474915,30474670,0.0447436,-0.0295923,-0.0126458,0.506316,0.0,0.0,0.0,-1.0
30576720,30576476,-0.105903,0.0171295,-0.0138762,0.48,0.0,0.0,0.0,-1.0
30674801,30674558,-0.0476099,-0.0179474,-0.0138215,0.425263,0.0,0.0,0.0,-1.0
30776618,30776365,-0.0317771,0.00444163,-0.0162625,0.418947,0.0,0.0,0.0,-1.0
30878423,30878171,-0.0788477,0.00068334,-0.020241,0.42,0.0,0.0,0.0,-1.0
30975374,30975120,-0.0537226,-0.0170007,-0.013327,0.42,0.0,0.0,0.0,-1.0
31077065,31076817,-0.0118228,-0.0354429,-0.0213945,0.473684,0.0,0.0,0.0,-1.0
31175150,31174899,0.0146495,-0.0232213,-0.0075768,0.474737,0.0,0.0,0.0,-1.0
31276956,31276706,0.00766236,-0.0503404,-0.0158635,0.471579,0.0,0.0,0.0,-1.0
31375033,31374787,0.0705447,-0.0419298,-0.0109606,0.470526,0.0,0.0,0.0,-1.0
31476847,31476593,0.0507594,-0.0774153,-0.022059,0.472632,0.0,0.0,0.0,-1.0
31574925,31574675,0.0308589,-0.0761523,-0.0162282,0.481053,0.0,0.0,0.0,-1.0
31675487,31675240,-0.00758074,-0.0620471,-0.0156136,0.483158,0.0,0.0,0.0,-1.0
31777319,31777079,-0.0337886,-0.0253831,-0.00833043,0.485263,0.0,0.0,0.0,-1.0
31875374,31875128,-0.0792367,-0.024783,-0.00891047,0.508421,0.0,0.0,0.0,-1.0
31977178,31976934,0.0851654,-0.0617056,-0.00761708,0.517797,0.0,0.0,0.0,-1.0
32074215,32073959,-0.0341383,-0.0870644,-0.0169889,0.502105,0.0,0.0,0.0,-1.0
32175822,32175581,-0.0144492,-0.0186153,-0.0135481,0.503158,0.0,0.0,0.0,-1.0
32273912,32273663,0.00152714,-0.0574807,-0.0142535,0.504211,0.0,0.0,0.0,-1.0
32375723,32375472,-0.0126071,-0.0403073,-0.0269634,0.504211,0.0,0.0,0.0,-1.0
32477521,32477276,-0.0874085,-0.0313911,-0.0257139,0.504211,0.0,0.0,0.0,-1.0
32575618,32575367,-0.0683775,-0.0128606,-0.0308285,0.504211,0.0,0.0,0.0,-1.0
32677416,32677164,-0.0362096,0.0381214,-0.0217145,0.504211,0.0,0.0,0.0,-1.0
32774269,32774009,-0.109457,0.0207421,-0.0287211,0.504211,0.0,0.0,0.0,-1.0
32876188,32875945,0.0753149,-0.0717501,-0.03373,0.503158,0.0,0.0,0.0,-1.0
32974150,32973901,0.0376364,-0.0686988,-0.0331108,0.503158,0.0,0.0,0.0,-1.0
33075948,33075699,-0.0322167,-0.0429134,-0.0378286,0.504211,0.0,0.0,0.0,-1.0
33177757,33177508,-0.0779708,0.0258515,-0.0223705,0.514198,0.0,0.0,0.0,-1.0
33275831,33275587,0.0371256,-0.0216557,-0.0179255,0.515398,0.0,0.0,0.0,-1.0
33376438,33376189,-0.0417776,-0.0296669,-0.028452,0.527393,0.0,0.0,0.0,-1.0
33474482,33474234,-0.0738247,0.0167635,-0.025505,0.527393,0.0,0.0,0.0,-1.0
33576285,33576040,-0.0601167,-0.0246966,-0.0272151,0.523794,0.0,0.0,0.0,-1.0
33678216,33677963,-0.0298559,-0.0581451,-0.025779,0.526193,0.0,0.0,0.0,-1.0
33776176,33775929,0.00447965,-0.028623,-0.0286054,0.517797,0.0,0.0,0.0,-1.0
33876738,33876493,-0.0333217,-0.0284801,-0.023151,0.508421,0.0,0.0,0.0,-1.0
33974823,33974575,-0.0182973,0.00601831,-0.0210516,0.468421,0.0,0.0,0.0,-1.0
34076624,34076381,-0.0261714,0.00151865,-0.0198536,0.468421,0.0,0.0,0.0,-1.0
34174710,34174463,-0.0759558,0.00676563,-0.0247492,0.469474,0.0,0.0,0.0,-1.0
34276514,34276270,-0.0721592,-0.0115631,-0.0275089,0.469474,0.0,0.0,0.0,-1.0
34378390,34378137,-0.104237,-0.0130456,-0.0263906,0.487368,0.0,0.0,0.0,-1.0
34475289,34475035,0.00389032,-0.0492532,-0.0366083,0.511799,0.0,0.0,0.0,-1.0
34576971,34576723,-0.0860815,0.0284731,-0.04174,0.517797,0.0,0.0,0.0,-1.0
34675051,34674804,-0.0784673,0.0235389,-0.039848,0.517797,0.0,0.0,0.0,-1.0
34776854,34776611,-0.0193451,-0.0485399,-0.0324752,0.515398,0.0,0.0,0.0,-1.0
34874947,34874694,-0.0128912,-0.0275605,-0.037236,0.511799,0.0,0.0,0.0,-1.0
34976740,34976499,-0.00753262,-0.0339122,-0.0427155,0.516597,0.0,0.0,0.0,-1.0
35077316,35077070,-0.0805923,0.000426083,-0.0390737,0.485263,0.0,0.0,0.0,-1.0
35175387,35175147,-0.0504496,-0.00900972,-0.0451372,0.487368,0.0,0.0,0.0,-1.0
35277299,35277054,-0.123242,0.00320428,-0.0443802,0.524994,0.0,0.0,0.0,-1.0
35375330,35375083,-0.022626,-0.0129945,-0.0391396,0.502105,0.0,0.0,0.0,-1.0
35477084,35476841,-0.0535611,-0.0273755,-0.0301456,0.472632,0.0,0.0,0.0,-1.0
35575351,35575106,-0.0601505,-0.0141343,-0.0341019,0.474737,0.0,0.0,0.0,-1.0
35675732,35675488,0.00778073,-0.0350699,-0.0325226,0.472632,0.0,0.0,0.0,-1.0
35777539,35777294,-0.0502085,-0.006445,-0.0303455,0.473684,0.0,0.0,0.0,-1.0
35875626,35875381,0.000423412,-0.013855,-0.0273024,0.476842,0.0,0.0,0.0,-1.0
35977433,35977182,-0.0187345,-0.00731843,-0.0224858,0.495789,0.0,0.0,0.0,-1.0
36075521,36075274,-0.103352,-0.00233984,-0.0247852,0.495789,0.0,0.0,0.0,-1.0
36177311,36177071,0.0344359,-0.0138898,-0.0215987,0.495789,0.0,0.0,0.0,-1.0
36275411,36275154,-0.067179,0.00571095,-0.01755,0.520196,0.0,0.0,0.0,-1.0
36376111,36375865,0.0298137,-0.0595673,-0.0258977,0.526193,0.0,0.0,0.0,-1.0
36477770,36477524,-0.0732077,0.00891345,-0.0183751,0.524994,0.0,0.0,0.0,-1.0
36575868,36575626,0.0292502,-0.0312646,-0.0197882,0.522595,0.0,0.0,0.0,-1.0
36677664,36677413,-0.0418523,-0.0263055,-0.0167338,0.523794,0.0,0.0,0.0,-1.0
36775761,36775507,0.0150865,-0.0304754,-0.0129008,0.523794,0.0,0.0,0.0,-1.0
36876342,36876092,-0.0291624,-0.01033,-0.0216476,0.523794,0.0,0.0,0.0,-1.0
36974386,36974138,-0.12486,-0.00771934,-0.0186988,0.524994,0.0,0.0,0.0,-1.0
37076201,37075948,0.0131886,-0.0673832,-0.0202887,0.522595,0.0,0.0,0.0,-1.0
37178126,37177880,-0.0641684,-0.0337275,-0.0147429,0.517797,0.0,0.0,0.0,-1.0
37276083,37275836,0.0608704,-0.0394611,-0.0179573,0.463158,0.0,0.0,0.0,-1.0
37377897,37377643,0.121518,-0.0516826,-0.0275413,0.422105,0.0,0.0,0.0,-1.0
37474725,37474482,-0.0103694,-0.0224305,-0.0320229,0.425263,0.0,0.0,0.0,-1.0
37576539,37576290,-0.0460675,0.0134044,-0.0282977,0.448421,0.0,0.0,0.0,-1.0
37674634,37674385,0.0362391,-0.0289181,-0.0220393,0.463158,0.0,0.0,0.0,-1.0
37776426,37776180,0.0228223,-0.0341382,-0.0268787,0.481053,0.0,0.0,0.0,-1.0
37874514,37874263,0.00911622,-0.0031081,-0.0205903,0.509474,0.0,0.0,0.0,-1.0
37976408,37976157,0.0465022,-0.0535592,-0.0220485,0.526193,0.0,0.0,0.0,-1.0
38076880,38076631,-0.000324159,-0.0833366,-0.0301275,0.526193,0.0,0.0,0.0,-1.0
38174958,38174713,-0.017198,-0.0170445,-0.0253846,0.524994,0.0,0.0,0.0,-1.0
38276775,38276523,-0.142721,0.00785834,-0.0285459,0.526193,0.0,0.0,0.0,-1.0
38374884,38374637,-0.0469417,-0.000655431,-0.0265608,0.526193,0.0,0.0,0.0,-1.0
38476671,38476429,0.103035,-0.0575543,-0.0263596,0.524994,0.0,0.0,0.0,-1.0
38577221,38576976,-0.09782,-0.0230932,-0.0338764,0.522595,0.0,0.0,0.0,-1.0
38675299,38675055,-0.0970124,0.0262195,-0.0409233,0.526193,0.0,0.0,0.0,-1.0
38777165,38776919,0.0753521,-0.0185948,-0.0342003,0.523794,0.0,0.0,0.0,-1.0
38875185,38874943,0.0433947,-0.0321376,-0.0331124,0.524994,0.0,0.0,0.0,-1.0
38977004,38976750,-0.0207149,-0.0222064,-0.0548093,0.521395,0.0,0.0,0.0,-1.0
39075268,39075022,-0.00818469,-0.0635022,-0.0550703,0.491579,0.0,0.0,0.0,-1.0
39176888,39176638,-0.0064207,-0.0189449,-0.0626428,0.474737,0.0,0.0,0.0,-1.0
39277447,39277204,-0.0654213,0.0178585,-0.0531966,0.466316,0.0,0.0,0.0,-1.0
39375529,39375285,0.100524,-0.0333136,-0.0587653,0.465263,0.0,0.0,0.0,-1.0
39477342,39477092,-0.0751183,-0.0236891,-0.0555119,0.461053,0.0,0.0,0.0,-1.0
39575532,39575289,-0.0595009,-0.012146,-0.0588335,0.462105,0.0,0.0,0.0,-1.0
39677230,39676980,0.0157262,-0.014485,-0.0616117,0.477895,0.0,0.0,0.0,-1.0
39775315,39775067,0.0153823,-0.040556,-0.0615715,0.474737,0.0,0.0,0.0,-1.0
39876035,39875785,-0.0241187,0.00426352,-0.0609301,0.475789,0.0,0.0,0.0,-1.0
39973958,39973709,-0.0137846,-0.0116904,-0.0557449,0.477895,0.0,0.0,0.0,-1.0
40075760,40075516,0.00043817,0.00799338,-0.0517739,0.517797,0.0,0.0,0.0,-1.0
40177578,40177323,0.0515135,-0.00735812,-0.0454849,0.512999,0.0,0.0,0.0,-1.0
40275647,40275404,-0.0756417,-0.0143373,-0.046013,0.514198,0.0,0.0,0.0,-1.0
40376225,40375972,-0.117915,0.00971483,-0.0450943,0.517797,0.0,0.0,0.0,-1.0
40474298,40474052,-0.106159,0.0233011,-0.0522625,0.518996,0.0,0.0,0.0,-1.0
40576110,40575858,-0.091132,0.0292183,-0.0333081,0.515398,0.0,0.0,0.0,-1.0
40678039,40677798,0.0420454,-0.0326091,-0.0365987,0.512999,0.0,0.0,0.0,-1.0
40775988,40775746,0.0271598,-0.0191217,-0.0314698,0.516597,0.0,0.0,0.0,-1.0
40877800,40877553,-0.0313962,-0.0113307,-0.0311634,0.512999,0.0,0.0,0.0,-1.0
40975893,40975642,-0.051764,0.00511295,-0.0299725,0.512999,0.0,0.0,0.0,-1.0
41076450,41076204,-0.00418206,0.00369552,-0.022992,0.511799,0.0,0.0,0.0,-1.0
41174532,41174285,0.0434939,-0.0127344,-0.0196068,0.515398,0.0,0.0,0.0,-1.0
41276384,41276138,0.0147223,-0.0548658,-0.0269809,0.507368,0.0,0.0,0.0,-1.0
41378136,41377895,-0.112231,0.0212773,-0.0220486,0.506316,0.0,0.0,0.0,-1.0
41476320,41476075,-0.100668,-0.00157772,-0.0213422,0.5,0.0,0.0,0.0,-1.0
41576791,41576546,0.00151173,-0.00980902,-0.0102088,0.469474,0.0,0.0,0.0,-1.0
41674871,41674625,-0.085851,-0.00940099,-0.00766071,0.466316,0.0,0.0,0.0,-1.0
41776681,41776431,-0.0696563,0.0273306,-0.0100232,0.464211,0.0,0.0,0.0,-1.0
41874757,41874515,-0.0628671,-0.0105108,-0.017312,0.468421,0.0,0.0,0.0,-1.0
41976581,41976320,-0.10336,0.0289829,-0.0177631,0.468421,0.0,0.0,0.0,-1.0
42074647,42074402,-0.0273701,-0.0539673,-0.0146861,0.501053,0.0,0.0,0.0,-1.0
42175219,42174968,-0.0236271,0.0116784,-0.00940049,0.520196,0.0,0.0,0.0,-1.0
42277086,42276841,-0.0109449,-0.0412381,0.0317241,0.520196,0.0,0.0,0.0,-1.0
42375098,42374855,0.061575,-0.0435155,0.0520869,0.515398,0.0,0.0,0.0,-1.0
42476911,42476662,0.00924678,-0.0423253,0.0529975,0.520196,0.0,0.0,0.0,-1.0
42574990,42574749,-0.0137093,-0.0465853,0.0157721,0.518996,0.0,0.0,0.0,-1.0
42676799,42676551,-0.0256581,-0.0216253,-0.0326766,0.509474,0.0,0.0,0.0,-1.0
42774883,42774630,-0.0522509,-0.0120416,-0.0141235,0.516597,0.0,0.0,0.0,-1.0
42875450,42875203,0.0606982,-0.0247901,-0.00411567,0.474737,0.0,0.0,0.0,-1.0
42977257,42977005,-0.00514442,-0.0409563,-0.00596283,0.475789,0.0,0.0,0.0,-1.0
43075415,43075171,0.00452328,-0.0374627,0.00474594,0.484211,0.0,0.0,0.0,-1.0
43177143,43176893,-0.049516,-0.0168495,0.000668325,0.5,0.0,0.0,0.0,-1.0
43275227,43274975,-0.109024,0.0244799,0.00296396,0.505263,0.0,0.0,0.0,-1.0
43375975,43375721,0.0457901,-0.0617452,0.0127552,0.516597,0.0,0.0,0.0,-1.0
43477590,43477347,0.0345723,-0.00842423,0.0182728,0.517797,0.0,0.0,0.0,-1.0
43575678,43575432,-0.118954,0.0212863,0.00927365,0.512999,0.0,0.0,0.0,-1.0
43677481,43677237,-0.0697849,-0.00661701,0.00838414,0.514198,0.0,0.0,0.0,-1.0
43775567,43775318,0.0181072,-0.0269446,0.0116027,0.514198,0.0,0.0,0.0,-1.0
43877447,43877186,-0.0282954,-0.00525881,0.00843663,0.517797,0.0,0.0,0.0,-1.0
43975460,43975207,-0.0161494,-0.0254077,0.00501942,0.520196,0.0,0.0,0.0,-1.0
44076021,44075772,-0.0529161,-0.00143518,-0.00324512,0.521395,0.0,0.0,0.0,-1.0
44177974,44177733,0.00840023,-0.0397487,-0.00285827,0.520196,0.0,0.0,0.0,-1.0
44275905,44275660,-0.114398,-0.0028521,-0.0051115,0.516597,0.0,0.0,0.0,-1.0
44377715,44377473,0.0177408,-0.0284091,-0.0123814,0.5,0.0,0.0,0.0,-1.0
44475791,44475549,-0.154929,-0.0163235,-0.0170712,0.498947,0.0,0.0,0.0,-1.0
44576363,44576115,0.00371224,-0.0052237,-0.0102107,0.485263,0.0,0.0,0.0,-1.0
44674466,44674219,-0.0484108,-0.0168528,-0.0143353,0.462105,0.0,0.0,0.0,-1.0
44776262,44776004,-0.000465526,-0.0506427,-0.0188663,0.434737,0.0,0.0,0.0,-1.0
44878054,44877809,-0.0500019,-0.00778325,-0.0214356,0.437895,0.0,0.0,0.0,-1.0
44976256,44976004,-0.0389574,-0.00847079,-0.0101118,0.48,0.0,0.0,0.0,-1.0
45077956,45077698,-0.128903,0.0179222,-0.017473,0.495789,0.0,0.0,0.0,-1.0
45174784,45174539,0.0113415,-0.075281,-0.0225226,0.505263,0.0,0.0,0.0,-1.0
45276629,45276384,-0.0722847,0.00276878,-0.00683357,0.522595,0.0,0.0,0.0,-1.0
45374673,45374427,0.0321858,-0.0531487,-0.000398331,0.521395,0.0,0.0,0.0,-1.0
45476497,45476240,-0.0776695,-0.0219359,-0.00853373,0.517797,0.0,0.0,0.0,-1.0
45574561,45574316,0.0490624,-0.0222558,0.00328784,0.520196,0.0,0.0,0.0,-1.0
45676391,45676129,-0.0565946,-0.00382965,0.00272011,0.520196,0.0,0.0,0.0,-1.0
45777012,45776765,-0.0248194,-0.0269517,0.00447477,0.520196,0.0,0.0,0.0,-1.0
45875031,45874774,-0.0552488,-0.00162017,0.0101675,0.520196,0.0,0.0,0.0,-1.0
45976869,45976627,-0.0694287,0.00900327,0.00525527,0.517797,0.0,0.0,0.0,-1.0
46074901,46074659,0.0337481,-0.0261172,0.0124231,0.520196,0.0,0.0,0.0,-1.0
46176716,46176466,-0.0199473,-0.0213906,-0.00098066,0.520196,0.0,0.0,0.0,-1.0
46274802,46274560,-0.0415373,-0.0119569,0.0029064,0.520196,0.0,0.0,0.0,-1.0
46375371,46375127,-0.0836815,-0.00428716,-0.00643449,0.520196,0.0,0.0,0.0,-1.0
46477168,46476922,-0.116036,0.000648839,-0.00846135,0.485263,0.0,0.0,0.0,-1.0
46575281,46575036,-0.0827459,-0.00244791,-0.0157462,0.471579,0.0,0.0,0.0,-1.0
46677054,46676808,-0.0383497,-0.0322152,-0.0161223,0.466316,0.0,0.0,0.0,-1.0
46775136,46774891,0.0360575,-0.00660888,-0.0231024,0.467368,0.0,0.0,0.0,-1.0
46875882,46875638,-0.0938807,-0.0361827,-0.0197549,0.467368,0.0,0.0,0.0,-1.0
46977510,46977262,-0.096059,0.0163683,-0.0285539,0.475789,0.0,0.0,0.0,-1.0
47075644,47075395,-0.0343793,-0.0314623,-0.0366727,0.483158,0.0,0.0,0.0,-1.0
47177431,47177181,-0.0727145,-0.0246278,-0.032193,0.520196,0.0,0.0,0.0,-1.0
47275479,47275233,-0.0359648,-0.012036,-0.0280142,0.512999,0.0,0.0,0.0,-1.0
47377361,47377115,-0.0118616,-0.0130873,-0.00841891,0.511799,0.0,0.0,0.0,-1.0
47475382,47475123,-0.0143261,5.97433e-05,-0.00833162,0.517797,0.0,0.0,0.0,-1.0
47575933,47575688,0.00279075,-0.0175874,-0.00793668,0.515398,0.0,0.0,0.0,-1.0
47674159,47673914,-0.00249561,-0.0673104,-0.0078762,0.516597,0.0,0.0,0.0,-1.0
47775823,47775576,-0.021668,-0.015612,0.000845825,0.516597,0.0,0.0,0.0,-1.0
47877622,47877382,-0.0661518,-0.00974384,-0.00750331,0.516597,0.0,0.0,0.0,-1.0
47975714,47975466,0.0236,-0.015404,-0.00491455,0.518996,0.0,0.0,0.0,-1.0
48076288,48076046,-0.00725932,-0.0165757,-0.000671216,0.517797,0.0,0.0,0.0,-1.0
48174367,48174114,-0.104492,0.00991686,-0.00961195,0.518996,0.0,0.0,0.0,-1.0
48276163,48275919,0.027826,-0.0326612,-0.000402594,0.517797,0.0,0.0,0.0,-1.0
48377983,48377726,0.0287033,-0.0319353,0.00468815,0.512999,0.0,0.0,0.0,-1.0
48476168,48475924,0.00343998,-0.029624,-0.000485158,0.515398,0.0,0.0,0.0,-1.0
48577892,48577639,0.0046094,-0.00665062,-0.00332591,0.511799,0.0,0.0,0.0,-1.0
48675955,48675697,-0.0510139,-0.00871839,0.00418773,0.517797,0.0,0.0,0.0,-1.0
48776507,48776262,-0.0502911,0.0205793,-0.00238035,0.515398,0.0,0.0,0.0,-1.0
48874607,48874348,0.010419,-0.0187197,0.00778311,0.514198,0.0,0.0,0.0,-1.0
48976400,48976155,-0.0659067,0.025225,0.00450524,0.512999,0.0,0.0,0.0,-1.0
49078211,49077958,-0.0999019,-0.0118006,0.00136894,0.509474,0.0,0.0,0.0,-1.0
49176288,49176040,-0.0378274,-0.00448744,0.00988768,0.509474,0.0,0.0,0.0,-1.0
49276945,49276698,-0.100466,-0.0148418,0.00482849,0.508421,0.0,0.0,0.0,-1.0
49374935,49374688,-0.0196096,0.00854783,0.0120147,0.511799,0.0,0.0,0.0,-1.0
49476738,49476497,-0.015171,-0.0258579,0.0165998,0.509474,0.0,0.0,0.0,-1.0
49574870,49574624,-0.0586831,-0.00302192,0.0160919,0.509474,0.0,0.0,0.0,-1.0
49676625,49676384,-0.00263937,-0.0191739,0.02307,0.511799,0.0,0.0,0.0,-1.0
49774711,49774465,-0.0343266,-0.0163072,0.0274312,0.508421,0.0,0.0,0.0,-1.0
49875274,49875031,-0.0417475,-0.0310223,0.0270087,0.511799,0.0,0.0,0.0,-1.0
49977088,49976838,0.0306301,-0.0741397,0.0304208,0.509474,0.0,0.0,0.0,-1.0
50075274,50075025,-0.105785,-0.0113618,0.0342568,0.526193,0.0,0.0,0.0,-1.0
50176971,50176726,-0.015075,-0.0197704,0.0288523,0.521395,0.0,0.0,0.0,-1.0
50275054,50274809,-0.0559351,-0.00675139,0.0254922,0.524994,0.0,0.0,0.0,-1.0
50376868,50376618,-0.0524838,-0.0155719,0.0249076,0.517797,0.0,0.0,0.0,-1.0
50477428,50477180,0.0149958,-0.0249492,0.0210475,0.521395,0.0,0.0,0.0,-1.0
50575505,50575264,-0.0919383,0.00746729,0.0038294,0.520196,0.0,0.0,0.0,-1.0
50677316,50677069,-0.0295482,-0.0207676,0.00710424,0.517797,0.0,0.0,0.0,-1.0
50775404,50775155,0.00942395,-0.0695202,0.00235856,0.515398,0.0,0.0,0.0,-1.0
50877231,50876982,-0.00522646,-0.0277208,0.000787373,0.493684,0.0,0.0,0.0,-1.0
50975285,50975040,-0.121662,0.0166483,0.00232918,0.481053,0.0,0.0,0.0,-1.0
51075851,51075609,0.00140942,-0.0252766,-0.00844827,0.482105,0.0,0.0,0.0,-1.0
51174090,51173842,-0.070025,-0.0198326,-0.0134026,0.483158,0.0,0.0,0.0,-1.0
51275737,51275495,-0.0655563,0.0152043,-0.0033108,0.484211,0.0,0.0,0.0,-1.0
51377548,51377302,-0.0572268,-0.0110624,-0.014544,0.482105,0.0,0.0,0.0,-1.0
51475644,51475396,-0.0415949,-0.0113132,-0.0263213,0.482105,0.0,0.0,0.0,-1.0
51576217,51575950,-0.0644894,0.00451145,-0.0181018,0.471579,0.0,0.0,0.0,-1.0
51674319,51674069,-0.0670186,0.00459982,-0.0167626,0.473684,0.0,0.0,0.0,-1.0
51776099,51775838,0.0036991,-0.0212897,-0.0194431,0.495789,0.0,0.0,0.0,-1.0
51877895,51877645,0.0178084,-0.0539678,-0.026084,0.526193,0.0,0.0,0.0,-1.0
51976105,51975858,-0.063848,-0.0179854,-0.0188506,0.526193,0.0,0.0,0.0,-1.0
52077784,52077536,-0.0107378,-0.0152656,-0.0208552,0.506316,0.0,0.0,0.0,-1.0
52175897,52175643,-0.0419153,0.0213352,-0.0206493,0.516597,0.0,0.0,0.0,-1.0
52276438,52276183,-0.00040398,-0.0124736,-0.00758523,0.511799,0.0,0.0,0.0,-1.0
52374514,52374268,0.0265152,-0.0352885,-0.00461035,0.514198,0.0,0.0,0.0,-1.0
52476341,52476094,-0.0632342,-0.0170291,-0.0118144,0.511799,0.0,0.0,0.0,-1.0
52578129,52577877,-0.000658536,-0.055018,-0.00133736,0.511799,0.0,0.0,0.0,-1.0
52676210,52675960,-0.0402773,-0.0045919,0.00208045,0.517797,0.0,0.0,0.0,-1.0
52776874,52776621,-0.0466462,-0.0283979,0.00623779,0.532191,0.0,0.0,0.0,-1.0
52874854,52874608,0.0134681,-0.0236081,0.00819177,0.530991,0.0,0.0,0.0,-1.0
52976660,52976415,0.0221883,-0.0372256,0.0183312,0.535789,0.0,0.0,0.0,-1.0
53074742,53074496,-0.00731291,-0.0117126,0.00291478,0.544186,0.0,0.0,0.0,-1.0
53176584,53176342,-0.00923234,-0.0349359,0.0072883,0.540587,0.0,0.0,0.0,-1.0
53274631,53274385,-0.0844036,0.00417594,0.0100397,0.538188,0.0,0.0,0.0,-1.0
53376448,53376197,-0.0227903,0.0286934,0.00831309,0.538188,0.0,0.0,0.0,-1.0
53477003,53476758,-0.0746977,0.00896771,0.00317701,0.535789,0.0,0.0,0.0,-1.0
53575144,53574897,-0.015293,-0.0216386,0.0117777,0.541787,0.0,0.0,0.0,-1.0
53676895,53676647,0.00297779,-0.0143083,0.0114661,0.538188,0.0,0.0,0.0,-1.0
53774975,53774729,0.0650867,-0.0498598,0.0045964,0.535789,0.0,0.0,0.0,-1.0
53876777,53876536,0.0492692,-0.0658744,0.0042456,0.535789,0.0,0.0,0.0,-1.0
53974865,53974618,-0.0939185,0.00154398,0.000331107,0.509474,0.0,0.0,0.0,-1.0
54075426,54075179,-0.01531,-0.0324758,-0.00510571,0.502105,0.0,0.0,0.0,-1.0
54177241,54176990,-0.0122953,-0.0222034,0.0081682,0.514198,0.0,0.0,0.0,-1.0
54275322,54275077,0.00356427,-0.0393171,-0.019967,0.475789,0.0,0.0,0.0,-1.0
54377217,54376967,-0.0513176,-0.0147596,-0.0188044,0.458947,0.0,0.0,0.0,-1.0
54475212,54474962,-0.0316752,-0.0503789,-0.011435,0.430526,0.0,0.0,0.0,-1.0
54575779,54575528,-0.0149007,-0.0199312,-0.0955669,0.42,0.0,0.0,0.0,-1.0
54677820,54677571,-0.043048,-0.0289843,0.0174323,0.469474,0.0,0.0,0.0,-1.0
54775659,54775416,0.0223083,-0.0229848,0.00721626,0.491579,0.0,0.0,0.0,-1.0
54877470,54877224,0.017961,-0.0798365,0.00278794,0.502105,0.0,0.0,0.0,-1.0
54975548,54975306,-0.0233393,0.00608685,7.45401e-05,0.506316,0.0,0.0,0.0,-1.0
55077360,55077113,0.0115394,-0.03948,0.00529056,0.512999,0.0,0.0,0.0,-1.0
55174208,55173960,0.039517,-0.0307105,0.00758506,0.514198,0.0,0.0,0.0,-1.0
55276004,55275760,-0.0701779,0.0101145,0.00534312,0.526193,0.0,0.0,0.0,-1.0
55377814,55377567,-0.0787961,-0.00582344,-0.00342902,0.539388,0.0,0.0,0.0,-1.0
55476033,55475791,-0.0333078,-0.0187965,0.00379062,0.540587,0.0,0.0,0.0,-1.0
55577730,55577485,-0.0814777,-0.0122565,0.00124148,0.548984,0.0,0.0,0.0,-1.0
55675779,55675539,0.0331335,-0.0186071,0.00156072,0.55858,0.0,0.0,0.0,-1.0
55776350,55776104,0.00268616,-0.0555623,0.00110031,0.556181,0.0,0.0,0.0,-1.0
55874436,55874186,0.0398693,-0.0181234,0.00548576,0.562179,0.0,0.0,0.0,-1.0
55976261,55976003,0.0286142,-0.0417034,-0.000422701,0.55978,0.0,0.0,0.0,-1.0
56074330,56074082,-0.00234859,-0.0505396,0.0022717,0.566977,0.0,0.0,0.0,-1.0
56176132,56175882,0.0112702,-0.0129044,-0.00231901,0.562179,0.0,0.0,0.0,-1.0
56276831,56276586,0.0214027,-0.0119691,-0.00212947,0.507368,0.0,0.0,0.0,-1.0
56374775,56374531,-0.0140694,-0.0549241,-0.0164189,0.506316,0.0,0.0,0.0,-1.0
56476586,56476337,-0.0333228,-0.0130392,-0.00969644,0.504211,0.0,0.0,0.0,-1.0
56574660,56574419,-0.0844978,-0.0282867,-0.0159077,0.466316,0.0,0.0,0.0,-1.0
56676479,56676228,-0.0542233,0.00895485,-0.0193196,0.464211,0.0,0.0,0.0,-1.0
56774554,56774308,-0.0320243,-0.0329328,-0.0300021,0.466316,0.0,0.0,0.0,-1.0
56876363,56876115,-0.0399825,-0.0592559,-0.0238121,0.466316,0.0,0.0,0.0,-1.0
56976936,56976694,0.0477929,-0.0123145,-0.0177658,0.463158,0.0,0.0,0.0,-1.0
57075078,57074835,-0.00633278,-0.0267771,-0.0190933,0.451579,0.0,0.0,0.0,-1.0
57176817,57176570,-0.0265023,-0.0262971,-0.0131269,0.452632,0.0,0.0,0.0,-1.0
57274899,57274652,-0.0357766,-0.0410144,-0.0131816,0.462105,0.0,0.0,0.0,-1.0
57376708,57376459,0.0274238,-0.033862,-0.0140114,0.529792,0.0,0.0,0.0,-1.0
57474790,57474542,0.04392,-0.0472039,-0.0117248,0.532191,0.0,0.0,0.0,-1.0
57575394,57575151,-0.111084,-0.00936314,-0.0183386,0.535789,0.0,0.0,0.0,-1.0
57674681,57674432,0.0247787,-0.0660133,-0.0116735,0.53459,0.0,0.0,0.0,-1.0
57775252,57774998,-0.0161006,-0.0119826,-0.0217678,0.535789,0.0,0.0,0.0,-1.0
57877099,57876849,-0.0253782,-0.0533,-0.0135386,0.532191,0.0,0.0,0.0,-1.0
57975126,57974885,0.0440502,-0.0698972,-0.0115935,0.53339,0.0,0.0,0.0,-1.0
58076954,58076693,-0.074743,-0.000898252,-0.0224937,0.53339,0.0,0.0,0.0,-1.0
58177510,58177262,-0.0234795,-0.0489849,-0.0113503,0.53339,0.0,0.0,0.0,-1.0
58275585,58275340,0.0118696,-0.0359873,-0.0135539,0.53339,0.0,0.0,0.0,-1.0
58377391,58377148,-0.116652,0.010004,-0.0163313,0.53339,0.0,0.0,0.0,-1.0
58475476,58475230,-0.0181829,-0.0211521,-0.0092151,0.53339,0.0,0.0,0.0,-1.0
58577286,58577036,-0.0557808,-0.00392212,-0.0297025,0.502105,0.0,0.0,0.0,-1.0
58675365,58675125,-0.0649132,-0.0238264,-0.0251373,0.503158,0.0,0.0,0.0,-1.0
58775950,58775698,-0.000323002,-0.036572,-0.0279722,0.493684,0.0,0.0,0.0,-1.0
58877739,58877497,-0.0789641,-0.0336397,-0.0249932,0.472632,0.0,0.0,0.0,-1.0
58975975,58975728,0.0344371,-0.0665421,-0.0167941,0.471579,0.0,0.0,0.0,-1.0
59077626,59077380,0.0365651,-0.0609994,-0.00983681,0.514198,0.0,0.0,0.0,-1.0
59175708,59175463,0.0256769,-0.0328357,-0.00638387,0.521395,0.0,0.0,0.0,-1.0
59276311,59276068,0.0021137,-0.083711,-0.016053,0.524994,0.0,0.0,0.0,-1.0
59374362,59374111,-0.0327857,-0.00972928,-0.0154322,0.526193,0.0,0.0,0.0,-1.0
59476166,59475919,-0.0359602,-0.0262402,-0.0103262,0.526193,0.0,0.0,0.0,-1.0
59577969,59577726,-0.0260866,-0.0289827,-0.00680662,0.526193,0.0,0.0,0.0,-1.0
59676072,59675807,-0.057245,0.0121539,-0.00854638,0.524994,0.0,0.0,0.0,-1.0
59776748,59776496,0.042974,-0.0893493,-0.014552,0.524994,0.0,0.0,0.0,-1.0
59875955,59875697,-0.11254,-0.00520194,-0.0208235,0.524994,0.0,0.0,0.0,-1.0
59976503,59976262,0.000793937,-0.040449,-0.00956281,0.523794,0.0,0.0,0.0,-1.0
60074590,60074344,-0.040531,-0.0818429,-0.012689,0.503158,0.0,0.0,0.0,-1.0
60176397,60176151,0.0138381,-0.0282431,-0.0190929,0.485263,0.0,0.0,0.0,-1.0
60278209,60277959,-0.00685192,-0.037226,-0.0130422,0.490526,0.0,0.0,0.0,-1.0
60376290,60376041,0.0130666,-0.0816786,-0.0161751,0.485263,0.0,0.0,0.0,-1.0
60476852,60476606,0.0302875,-0.0449673,-0.0184016,0.467368,0.0,0.0,0.0,-1.0
60575080,60574828,0.0354645,-0.00479734,-0.00517299,0.468421,0.0,0.0,0.0,-1.0
60676740,60676496,-0.023626,-0.0428497,-0.000334576,0.468421,0.0,0.0,0.0,-1.0
60774822,60774578,-0.10516,-0.00022815,-0.00267233,0.470526,0.0,0.0,0.0,-1.0
60876641,60876396,-0.0277843,-0.0111919,0.00286309,0.468421,0.0,0.0,0.0,-1.0
60974712,60974468,0.0352659,-0.0400341,-0.00364661,0.472632,0.0,0.0,0.0,-1.0
61075290,61075034,0.071245,-0.0966299,-0.00057723,0.527393,0.0,0.0,0.0,-1.0
61177087,61176844,0.00694892,-0.0290982,-0.00411053,0.503158,0.0,0.0,0.0,-1.0
61275175,61274926,0.0046534,-0.0587906,-0.0100558,0.501053,0.0,0.0,0.0,-1.0
61377095,61376840,-0.0454959,-0.0329688,-0.00622544,0.501053,0.0,0.0,0.0,-1.0
61475058,61474812,-0.0209351,-0.0652229,-0.0159539,0.501053,0.0,0.0,0.0,-1.0
61576866,61576618,-0.0670395,-0.0036575,-0.0193324,0.501053,0.0,0.0,0.0,-1.0
61673894,61673648,-0.0219895,-0.0513145,-0.0222494,0.502105,0.0,0.0,0.0,-1.0
61775516,61775267,0.0297879,-0.0512179,-0.02789,0.503158,0.0,0.0,0.0,-1.0
61877320,61877074,-0.111106,0.000965197,-0.0321689,0.5106,0.0,0.0,0.0,-1.0
61975462,61975217,-0.0689245,-0.00422577,-0.0370253,0.526193,0.0,0.0,0.0,-1.0
62077215,62076965,0.0242365,-0.0104222,-0.0262266,0.538188,0.0,0.0,0.0,-1.0
62175350,62175107,0.00630551,-0.0573415,-0.0309296,0.535789,0.0,0.0,0.0,-1.0
62275849,62275611,-0.00489567,-0.0285041,-0.028742,0.535789,0.0,0.0,0.0,-1.0
62377665,62377418,-0.0399273,-0.0884917,-0.0415469,0.535789,0.0,0.0,0.0,-1.0
62475910,62475660,-0.0239227,-0.0317497,-0.0370653,0.539388,0.0,0.0,0.0,-1.0
62577552,62577307,-0.00232097,-0.00657193,-0.0219248,0.539388,0.0,0.0,0.0,-1.0
62675656,62675410,-0.0103663,-0.0656455,-0.0239773,0.538188,0.0,0.0,0.0,-1.0
62777451,62777201,0.00486522,-0.040797,-0.0237372,0.535789,0.0,0.0,0.0,-1.0
62874295,62874041,0.0154645,-0.0387515,-0.0229568,0.539388,0.0,0.0,0.0,-1.0
62976147,62975898,0.0137573,0.0116787,-0.0203948,0.538188,0.0,0.0,0.0,-1.0
63074176,63073928,0.00969851,-0.0794726,-0.0162919,0.539388,0.0,0.0,0.0,-1.0
63176021,63175773,-0.0335003,-0.0622531,-0.0122309,0.539388,0.0,0.0,0.0,-1.0
63277928,63277675,-0.0726918,-0.0236188,-0.017396,0.539388,0.0,0.0,0.0,-1.0
63375876,63375624,-0.00594467,-0.0112139,-0.00838037,0.508421,0.0,0.0,0.0,-1.0
63476438,63476189,-0.0670625,0.02203,-0.00417152,0.506316,0.0,0.0,0.0,-1.0
63574517,63574272,0.0322904,-0.0152399,-0.00466807,0.527393,0.0,0.0,0.0,-1.0
63676327,63676079,-0.0217055,-0.0434602,-0.0167261,0.527393,0.0,0.0,0.0,-1.0
63778166,63777912,0.00944936,-0.0353717,-0.0231137,0.509474,0.0,0.0,0.0,-1.0
63876221,63875968,-0.0356763,-0.0408758,-0.0334549,0.492632,0.0,0.0,0.0,-1.0
63976786,63976534,-0.0688672,-0.0360611,-0.0380126,0.497895,0.0,0.0,0.0,-1.0
64074956,64074707,0.017192,-0.0501659,-0.0360752,0.492632,0.0,0.0,0.0,-1.0
64176686,64176443,0.0274306,-0.0895239,-0.0335211,0.492632,0.0,0.0,0.0,-1.0
64274753,64274506,-0.0117748,-0.0324021,-0.0262866,0.493684,0.0,0.0,0.0,-1.0
64376563,64376313,-0.00616973,-0.0225651,-0.0217554,0.495789,0.0,0.0,0.0,-1.0
64478369,64478120,0.13121,-0.0445436,-0.0187862,0.493684,0.0,0.0,0.0,-1.0
64575209,64574961,-0.0410709,0.00584321,-0.0163789,0.491579,0.0,0.0,0.0,-1.0
64677019,64676768,-0.0534344,-0.0403162,-0.0212938,0.494737,0.0,0.0,0.0,-1.0
64775097,64774850,0.0394164,-0.0818513,-0.0191232,0.492632,0.0,0.0,0.0,-1.0
64876964,64876721,-0.0501105,-0.0306239,-0.0153948,0.497895,0.0,0.0,0.0,-1.0
64974987,64974740,-0.0107382,-0.0383469,-0.0104895,0.493684,0.0,0.0,0.0,-1.0
65076799,65076550,0.0326428,-0.0644563,-0.0103257,0.491579,0.0,0.0,0.0,-1.0
65174885,65174630,0.0164193,-0.0391091,-0.00921597,0.491579,0.0,0.0,0.0,-1.0
65275442,65275200,0.0366843,-0.0337125,-0.0190415,0.491579,0.0,0.0,0.0,-1.0
65377257,65377002,-0.0534249,-0.0209669,-0.0264863,0.495789,0.0,0.0,0.0,-1.0
65475336,65475086,-0.0487301,0.00471553,-0.0256689,0.497895,0.0,0.0,0.0,-1.0
65577139,65576893,-0.0497635,-0.00692521,-0.0208579,0.523794,0.0,0.0,0.0,-1.0
65675248,65674999,-0.0373902,-0.0728512,-0.022474,0.526193,0.0,0.0,0.0,-1.0
65775782,65775540,0.0205165,-0.0626722,-0.0213707,0.523794,0.0,0.0,0.0,-1.0
65873885,65873628,0.0595153,-0.0815702,-0.024802,0.524994,0.0,0.0,0.0,-1.0
65975863,65975612,-0.0187321,-0.0516728,-0.0332006,0.526193,0.0,0.0,0.0,-1.0
66077483,66077237,0.00829846,-0.0799523,-0.0320227,0.526193,0.0,0.0,0.0,-1.0
66175599,66175351,-0.0203044,-0.0564604,-0.041686,0.527393,0.0,0.0,0.0,-1.0
66277383,66277127,0.0467847,-0.0548405,-0.0326032,0.524994,0.0,0.0,0.0,-1.0
66375464,66375210,0.0425365,-0.107645,-0.0355466,0.526193,0.0,0.0,0.0,-1.0
66476016,66475773,-0.066124,-0.0615524,-0.0253268,0.509474,0.0,0.0,0.0,-1.0
66577825,66577581,-0.0135815,-0.0317107,-0.0271905,0.474737,0.0,0.0,0.0,-1.0
66675915,66675664,-0.00683658,-0.0587395,-0.0216499,0.46,0.0,0.0,0.0,-1.0
66777908,66777653,-0.0834524,0.0183899,-0.024702,0.434737,0.0,0.0,0.0,-1.0
66875804,66875553,-0.0630666,-0.0646065,-0.0281726,0.413684,0.0,0.0,0.0,-1.0
66976370,66976120,-0.0107578,-0.0376758,-0.0274827,0.416842,0.0,0.0,0.0,-1.0
67074453,67074204,-0.0688282,-0.0176834,-0.0224885,0.477895,0.0,0.0,0.0,-1.0
67176258,67176008,0.0381257,-0.078664,-0.0290159,0.526193,0.0,0.0,0.0,-1.0
67274361,67274112,-0.0430928,-0.0286,-0.0179517,0.542987,0.0,0.0,0.0,-1.0
67376153,67375898,-0.0185909,-0.038846,-0.0238383,0.539388,0.0,0.0,0.0,-1.0
67477960,67477707,-0.0401196,-0.031023,-0.0372343,0.541787,0.0,0.0,0.0,-1.0
67574889,67574646,0.0320487,-0.0373141,-0.0276245,0.512999,0.0,0.0,0.0,-1.0
67676599,67676354,0.0239633,-0.0762955,-0.0311634,0.503158,0.0,0.0,0.0,-1.0
67774684,67774436,-0.0634574,0.00360276,-0.0370241,0.523794,0.0,0.0,0.0,-1.0
67876486,67876243,-0.0517509,-0.067938,-0.0278822,0.523794,0.0,0.0,0.0,-1.0
67974593,67974342,-0.00389874,-0.0462389,-0.0398784,0.526193,0.0,0.0,0.0,-1.0
68076387,68076135,-0.0398794,-0.0475377,-0.0264887,0.524994,0.0,0.0,0.0,-1.0
68176951,68176699,-0.0622504,-0.00111019,-0.0319048,0.524994,0.0,0.0,0.0,-1.0
68275022,68274781,-0.0732772,0.00426659,-0.0301989,0.524994,0.0,0.0,0.0,-1.0
68376913,68376664,0.00500187,-0.0686052,-0.0153269,0.524994,0.0,0.0,0.0,-1.0
68474928,68474670,-0.0602046,-0.0709495,-0.0133827,0.526193,0.0,0.0,0.0,-1.0
68576724,68576478,0.0425695,-0.0372339,-0.0183046,0.524994,0.0,0.0,0.0,-1.0
68674816,68674564,0.0700257,-0.0931673,-0.0128665,0.524994,0.0,0.0,0.0,-1.0
68775425,68775178,-0.0460262,-0.0343538,-0.0108426,0.523794,0.0,0.0,0.0,-1.0
68877195,68876938,0.019218,-0.033987,-0.00305441,0.483158,0.0,0.0,0.0,-1.0
68975260,68975016,-0.0055432,-0.0487905,-0.00408847,0.471579,0.0,0.0,0.0,-1.0
69077073,69076822,0.0291232,-0.077317,-0.0108933,0.462105,0.0,0.0,0.0,-1.0
69175196,69174938,0.0258961,-0.0826091,-0.0199425,0.449474,0.0,0.0,0.0,-1.0
69276960,69276712,0.0854883,-0.0179538,-0.0126268,0.476842,0.0,0.0,0.0,-1.0
69377520,69377278,-0.0516502,-0.0457695,-0.0128127,0.483158,0.0,0.0,0.0,-1.0
69475785,69475544,-0.0219247,-0.00893816,-0.0165863,0.481053,0.0,0.0,0.0,-1.0
69577417,69577169,0.0296429,-0.00976351,-0.0156078,0.483158,0.0,0.0,0.0,-1.0
69675492,69675250,0.0346433,-0.0711683,-0.0225958,0.502105,0.0,0.0,0.0,-1.0
69777304,69777058,-0.0517964,-0.0125441,-0.0355452,0.501053,0.0,0.0,0.0,-1.0
69875394,69875140,-0.0304691,-0.0380198,-0.023725,0.501053,0.0,0.0,0.0,-1.0
69976015,69975770,0.0286488,-0.0321381,-0.0195351,0.527393,0.0,0.0,0.0,-1.0
70077753,70077513,-0.0147371,-0.0126727,-0.0134514,0.502105,0.0,0.0,0.0,-1.0
70175840,70175595,-0.0583376,-0.0485891,-0.023514,0.501053,0.0,0.0,0.0,-1.0
70277901,70277648,-0.0663598,-0.0411085,-0.0277015,0.504211,0.0,0.0,0.0,-1.0
70375727,70375485,0.0779339,-0.112008,-0.0287951,0.504211,0.0,0.0,0.0,-1.0
70476303,70476052,-0.0311531,-0.073738,-0.0317734,0.504211,0.0,0.0,0.0,-1.0
70574376,70574133,-0.0257452,-0.0295462,-0.0253516,0.504211,0.0,0.0,0.0,-1.0
70676200,70675943,0.0111349,-0.0435639,-0.033144,0.520196,0.0,0.0,0.0,-1.0
70777995,70777748,0.0145033,-0.0675808,-0.03288,0.53339,0.0,0.0,0.0,-1.0
70876080,70875831,0.0276798,-0.0606799,-0.0313444,0.542987,0.0,0.0,0.0,-1.0
70977898,70977638,-0.0569612,-0.0151355,-0.0443986,0.541787,0.0,0.0,0.0,-1.0
71074883,71074636,-0.0277854,-0.0467404,-0.0340085,0.541787,0.0,0.0,0.0,-1.0
71176529,71176286,-0.0646648,-0.0303634,-0.029012,0.544186,0.0,0.0,0.0,-1.0
71274613,71274369,-0.00965769,-0.0350429,-0.0201639,0.55858,0.0,0.0,0.0,-1.0
71376427,71376177,-0.0845541,-0.0217229,-0.0256711,0.568176,0.0,0.0,0.0,-1.0
71474504,71474258,0.0825103,-0.0389703,-0.012952,0.568176,0.0,0.0,0.0,-1.0
71576314,71576067,-0.0286866,-0.0385047,-0.00291556,0.568176,0.0,0.0,0.0,-1.0
71676875,71676631,-0.0298891,-0.0372257,-0.0078262,0.568176,0.0,0.0,0.0,-1.0
71774965,71774718,-0.0434322,-0.0330422,-0.0146834,0.568176,0.0,0.0,0.0,-1.0
71876875,71876630,-0.0449439,-0.0201664,-0.0171508,0.516597,0.0,0.0,0.0,-1.0
71974851,71974604,0.0523014,-0.0622299,-0.0173533,0.526193,0.0,0.0,0.0,-1.0
72076656,72076411,-0.0504914,-0.00786668,-0.0326777,0.491579,0.0,0.0,0.0,-1.0
72174743,72174493,-0.0205792,-0.0181103,-0.0250664,0.457895,0.0,0.0,0.0,-1.0
72275308,72275059,-0.0280813,-0.0351798,-0.0158264,0.430526,0.0,0.0,0.0,-1.0
72377116,72376867,-0.0106172,-0.0264458,-0.0222231,0.443158,0.0,0.0,0.0,-1.0
72475201,72474954,-0.00413917,-0.0325073,-0.0218336,0.475789,0.0,0.0,0.0,-1.0
72577002,72576756,-0.00543285,-0.0275692,-0.0214472,0.501053,0.0,0.0,0.0,-1.0
72675122,72674882,0.00312716,-0.051977,-0.012724,0.526193,0.0,0.0,0.0,-1.0
72776914,72776649,0.0211155,-0.0612782,-0.0163943,0.526193,0.0,0.0,0.0,-1.0
72877462,72877217,-0.114245,0.022483,-0.0174918,0.530991,0.0,0.0,0.0,-1.0
72975551,72975300,0.0208387,-0.0457803,-0.00441931,0.538188,0.0,0.0,0.0,-1.0
73077352,73077102,0.0530431,-0.0546381,-0.0114221,0.538188,0.0,0.0,0.0,-1.0
73175450,73175207,-0.0168797,-0.0566165,-0.0201132,0.563378,0.0,0.0,0.0,-1.0
73277244,73276993,-0.0588666,-0.00768328,-0.0180116,0.557381,0.0,0.0,0.0,-1.0
73375321,73375074,-0.0687147,0.00610163,-0.0279313,0.562179,0.0,0.0,0.0,-1.0
73475913,73475663,-0.0249487,-0.0385745,-0.0314229,0.55978,0.0,0.0,0.0,-1.0
73577689,73577447,-0.116926,-0.0200764,-0.045549,0.541787,0.0,0.0,0.0,-1.0
73675783,73675531,-0.023001,-0.0472532,-0.0383704,0.53339,0.0,0.0,0.0,-1.0
73777746,73777505,-0.119202,-0.00276965,-0.0347348,0.515398,0.0,0.0,0.0,-1.0
73875664,73875420,-0.0934252,0.0112135,-0.0344613,0.504211,0.0,0.0,0.0,-1.0
73976231,73975985,-0.0924137,-0.0110834,-0.0280124,0.462105,0.0,0.0,0.0,-1.0
74074318,74074068,-0.0178076,-0.042044,-0.0184467,0.463158,0.0,0.0,0.0,-1.0
74176124,74175875,-0.0196182,-0.0385291,-0.0298966,0.464211,0.0,0.0,0.0,-1.0
74274259,74273996,-0.0389901,0.0166728,-0.022177,0.463158,0.0,0.0,0.0,-1.0
74376024,74375772,-0.0283477,-0.0356046,-0.0250345,0.464211,0.0,0.0,0.0,-1.0
74474099,74473848,-0.0791688,-0.00980864,-0.0284226,0.506316,0.0,0.0,0.0,-1.0
74574841,74574593,-0.0220226,-0.0599236,-0.0329494,0.502105,0.0,0.0,0.0,-1.0
74676472,74676221,0.0352583,-0.0523985,-0.034874,0.521395,0.0,0.0,0.0,-1.0
74774550,74774304,0.0521517,-0.032313,-0.0341786,0.544186,0.0,0.0,0.0,-1.0
74876368,74876115,-0.00887293,-0.0607911,-0.0475929,0.542987,0.0,0.0,0.0,-1.0
74974454,74974210,-0.0481677,0.00495489,-0.0503003,0.542987,0.0,0.0,0.0,-1.0
75076309,75076063,0.0249286,-0.053287,-0.0532708,0.538188,0.0,0.0,0.0,-1.0
75176814,75176567,-0.00966988,-0.0418884,-0.0542882,0.509474,0.0,0.0,0.0,-1.0
75274893,75274649,0.0193948,-0.0668679,-0.0660295,0.5106,0.0,0.0,0.0,-1.0
75376792,75376552,0.0294531,-0.0683847,-0.0630317,0.520196,0.0,0.0,0.0,-1.0
75474824,75474577,-0.0796401,-0.00745306,-0.0582518,0.474737,0.0,0.0,0.0,-1.0
75576594,75576347,-0.00342753,-0.0198383,-0.0592021,0.475789,0.0,0.0,0.0,-1.0
75674700,75674448,-0.0238321,-0.0408517,-0.0549866,0.483158,0.0,0.0,0.0,-1.0
75775256,75774995,0.00957884,-0.0392614,-0.0616501,0.483158,0.0,0.0,0.0,-1.0
75877050,75876802,0.00768608,-0.00198036,-0.0483602,0.483158,0.0,0.0,0.0,-1.0
75975140,75974885,-0.0392855,-0.0326714,-0.049636,0.494737,0.0,0.0,0.0,-1.0
76076950,76076697,0.00423015,-0.0358078,-0.0438506,0.492632,0.0,0.0,0.0,-1.0
76175073,76174831,-0.0177077,-0.0468248,-0.0484313,0.497895,0.0,0.0,0.0,-1.0
76276837,76276582,-0.0637898,-0.0140123,-0.0339533,0.515398,0.0,0.0,0.0,-1.0
76374953,76374706,-0.0771889,-0.050899,-0.0427167,0.503158,0.0,0.0,0.0,-1.0
76475492,76475243,-0.0588085,-0.043644,-0.0390828,0.518996,0.0,0.0,0.0,-1.0
76577282,76577038,-0.124951,0.0203794,-0.0364586,0.53339,0.0,0.0,0.0,-1.0
76675376,76675122,-0.145188,0.0294913,-0.0306244,0.501053,0.0,0.0,0.0,-1.0
76777170,76776928,0.0227114,-0.0385392,-0.0150994,0.5,0.0,0.0,0.0,-1.0
76875264,76875012,0.00125191,-0.0439798,-0.00752739,0.501053,0.0,0.0,0.0,-1.0
76975845,76975602,0.0308893,-0.058494,-0.00710332,0.502105,0.0,0.0,0.0,-1.0
77077629,77077384,-0.000409991,-0.0261534,-0.0106037,0.504211,0.0,0.0,0.0,-1.0
77175713,77175466,-0.0382019,-0.0179143,-0.00231613,0.508421,0.0,0.0,0.0,-1.0
77277697,77277456,0.0695556,-0.0754477,0.0121004,0.508421,0.0,0.0,0.0,-1.0
77375607,77375357,-0.0523695,-0.0636409,0.00468293,0.508421,0.0,0.0,0.0,-1.0
77477416,77477164,-0.0650178,-0.0154414,0.00544262,0.508421,0.0,0.0,0.0,-1.0
77574277,77574016,-0.0707872,-0.018933,0.0094968,0.508421,0.0,0.0,0.0,-1.0
77676074,77675812,0.0539924,-0.0664202,0.00561696,0.526193,0.0,0.0,0.0,-1.0
77777921,77777676,0.0221641,-0.0529295,0.0151858,0.526193,0.0,0.0,0.0,-1.0
77875961,77875707,-0.0253507,-0.022808,0.00759317,0.524994,0.0,0.0,0.0,-1.0
77977755,77977510,0.00115041,-0.0252576,0.0167712,0.523794,0.0,0.0,0.0,-1.0
78074743,78074493,0.0444296,-0.0704897,0.0136031,0.521395,0.0,0.0,0.0,-1.0
78176401,78176158,0.0348676,-0.0350351,0.0234742,0.521395,0.0,0.0,0.0,-1.0
78274498,78274241,-0.0245345,-0.0139108,0.00662169,0.521395,0.0,0.0,0.0,-1.0
78376291,78376048,-0.0409579,-0.000879062,0.0110842,0.524994,0.0,0.0,0.0,-1.0
78478111,78477856,-0.124453,-0.0175208,0.00544343,0.521395,0.0,0.0,0.0,-1.0
78576184,78575938,0.0414305,-0.0218731,0.00829963,0.521395,0.0,0.0,0.0,-1.0
78676751,78676504,-0.134119,0.0188094,-0.000278742,0.522595,0.0,0.0,0.0,-1.0
78774835,78774587,0.0543971,-0.0399223,0.000185852,0.521395,0.0,0.0,0.0,-1.0
78876743,78876502,-0.103404,0.0228533,-0.00756148,0.523794,0.0,0.0,0.0,-1.0
78974734,78974481,0.00379858,-0.00926908,-0.0018705,0.523794,0.0,0.0,0.0,-1.0
79076526,79076284,-0.051321,0.027594,-0.0138173,0.508421,0.0,0.0,0.0,-1.0
79178337,79178092,0.0534569,-0.0329666,-0.0113391,0.504211,0.0,0.0,0.0,-1.0
79276426,79276175,-0.0559677,0.00127262,-0.0173381,0.504211,0.0,0.0,0.0,-1.0
79377005,79376757,-0.0349618,-0.0143101,-0.0167368,0.504211,0.0,0.0,0.0,-1.0
79475073,79474823,-0.0750976,-0.0480539,-0.0194972,0.504211,0.0,0.0,0.0,-1.0
79576874,79576631,0.0201366,-0.0302338,-0.0175676,0.503158,0.0,0.0,0.0,-1.0
79675027,79674779,-0.0871001,-0.00734252,-0.0297215,0.503158,0.0,0.0,0.0,-1.0
79776767,79776521,-0.0160227,0.00982773,-0.0277137,0.503158,0.0,0.0,0.0,-1.0
79877343,79877087,-0.0198402,-0.0166817,-0.0363524,0.503158,0.0,0.0,0.0,-1.0
79975410,79975169,0.00233504,-0.0122643,-0.0298332,0.503158,0.0,0.0,0.0,-1.0
80077232,80076978,-0.0199564,-0.0339547,-0.0314113,0.504211,0.0,0.0,0.0,-1.0
80175317,80175060,-0.081119,-0.0308896,-0.0446699,0.504211,0.0,0.0,0.0,-1.0
80277118,80276867,-0.00221248,-0.0294301,-0.0383477,0.504211,0.0,0.0,0.0,-1.0
80375205,80374951,0.0235298,-0.0380662,-0.0249017,0.504211,0.0,0.0,0.0,-1.0
80475848,80475603,-0.0566901,-0.00686246,-0.0201901,0.504211,0.0,0.0,0.0,-1.0
80577573,80577323,-0.0135996,-0.0303629,-0.0122472,0.505263,0.0,0.0,0.0,-1.0
80675649,80675406,-0.0254064,-0.0469523,-0.00193834,0.524994,0.0,0.0,0.0,-1.0
80777652,80777407,0.0180355,-0.0538612,0.00512065,0.529792,0.0,0.0,0.0,-1.0
80875544,80875296,-0.0359659,-0.0493485,0.00236227,0.527393,0.0,0.0,0.0,-1.0
80977349,80977103,0.0320218,-0.0556614,0.00943634,0.526193,0.0,0.0,0.0,-1.0
81075449,81075187,0.00376694,-0.0788417,0.0068226,0.532191,0.0,0.0,0.0,-1.0
81175998,81175753,0.0018167,-0.0372459,0.0113389,0.532191,0.0,0.0,0.0,-1.0
81277876,81277627,-0.068154,-0.0162615,0.00794438,0.532191,0.0,0.0,0.0,-1.0
81375888,81375642,0.0297418,-0.0239309,0.0140762,0.532191,0.0,0.0,0.0,-1.0
81477715,81477470,-0.0431512,-0.0118872,0.00869602,0.532191,0.0,0.0,0.0,-1.0
81575937,81575680,-0.00824001,-0.0262968,0.00240822,0.529792,0.0,0.0,0.0,-1.0
81676344,81676098,-0.0716014,-0.00195152,-0.000535133,0.532191,0.0,0.0,0.0,-1.0
81774439,81774182,-0.0202646,-0.0329536,-0.00312067,0.532191,0.0,0.0,0.0,-1.0
81876236,81875988,-0.000415445,-0.0373953,0.00106601,0.529792,0.0,0.0,0.0,-1.0
81978051,81977801,-0.0421619,0.00461721,-0.000656176,0.532191,0.0,0.0,0.0,-1.0
82076146,82075901,-0.00097126,-0.0586699,-0.00154763,0.529792,0.0,0.0,0.0,-1.0
82176696,82176444,-0.0827324,-0.00598898,-0.00573987,0.527393,0.0,0.0,0.0,-1.0
82274777,82274534,0.00228924,-0.0307182,-0.00561463,0.526193,0.0,0.0,0.0,-1.0
82376747,82376501,-0.0596309,0.0222374,-0.018775,0.526193,0.0,0.0,0.0,-1.0
82474669,82474418,-0.0480599,-0.033131,-0.0132791,0.526193,0.0,0.0,0.0,-1.0
82576469,82576225,0.0302116,-0.0806042,-0.0179236,0.503158,0.0,0.0,0.0,-1.0
82674569,82674313,0.00372864,-0.0474811,-0.0167863,0.515398,0.0,0.0,0.0,-1.0
82776355,82776115,-0.0859142,-0.0112983,-0.0216597,0.511799,0.0,0.0,0.0,-1.0
82876933,82876682,-0.0570102,0.00268906,-0.0203831,0.509474,0.0,0.0,0.0,-1.0
82975009,82974765,-0.078865,0.0163692,-0.0191557,0.506316,0.0,0.0,0.0,-1.0
83076814,83076571,0.00704994,-0.0276417,-0.00873048,0.502105,0.0,0.0,0.0,-1.0
83174978,83174730,-0.0329326,-0.00307812,-0.0127973,0.507368,0.0,0.0,0.0,-1.0
83276704,83276460,-0.0151548,-0.0341853,-0.0126712,0.508421,0.0,0.0,0.0,-1.0
83374793,83374544,0.0174789,-0.0521031,-0.00777467,0.504211,0.0,0.0,0.0,-1.0
83475358,83475110,0.0470014,-0.0764903,-0.0127655,0.502105,0.0,0.0,0.0,-1.0
83577170,83576919,-0.0763437,-0.0753413,-0.0138732,0.505263,0.0,0.0,0.0,-1.0
83675252,83675000,-0.052471,-0.000998748,-0.0196931,0.508421,0.0,0.0,0.0,-1.0
83777051,83776808,-0.059881,-0.00575113,0.00360784,0.501053,0.0,0.0,0.0,-1.0
83875140,83874890,-0.00404952,0.0101172,-0.00435914,0.494737,0.0,0.0,0.0,-1.0
83975748,83975504,0.0508862,-0.0596648,-0.0047423,0.495789,0.0,0.0,0.0,-1.0
84077518,84077264,0.0163008,-0.0276449,-0.0160851,0.5,0.0,0.0,0.0,-1.0
84175595,84175347,0.0422729,-0.0878514,-0.0109785,0.501053,0.0,0.0,0.0,-1.0
84277429,84277176,-0.112804,0.0416134,-0.0142416,0.527393,0.0,0.0,0.0,-1.0
84375484,84375243,-0.00782565,-0.0180579,-0.00301842,0.5,0.0,0.0,0.0,-1.0
84477294,84477045,-0.0100127,-0.0779449,-0.0125191,0.501053,0.0,0.0,0.0,-1.0
84575382,84575127,0.066713,-0.0642019,-0.0122322,0.501053,0.0,0.0,0.0,-1.0
84675942,84675693,-0.105074,-0.0180761,-0.00999999,0.501053,0.0,0.0,0.0,-1.0
84777766,84777525,0.051847,-0.035434,0.00675336,0.501053,0.0,0.0,0.0,-1.0
84875830,84875583,0.0325354,-0.070312,0.00802317,0.527393,0.0,0.0,0.0,-1.0
84977640,84977391,-0.0658759,-0.0156058,-0.00708608,0.527393,0.0,0.0,0.0,-1.0
85075937,85075678,-0.0421042,-0.0126848,0.00128922,0.501053,0.0,0.0,0.0,-1.0
85177548,85177298,-0.0423998,-0.0221303,0.00671735,0.53339,0.0,0.0,0.0,-1.0
85274367,85274123,-0.0182297,0.0058296,-0.0002856,0.539388,0.0,0.0,0.0,-1.0
85376187,85375931,-0.0202405,-0.0448681,0.00888413,0.539388,0.0,0.0,0.0,-1.0
85474264,85474013,-0.00898531,-0.0145176,0.00815325,0.541787,0.0,0.0,0.0,-1.0
85576071,85575823,-0.004963,-0.0360104,0.00425795,0.540587,0.0,0.0,0.0,-1.0
85677891,85677628,0.0454395,-0.0387401,0.00655505,0.539388,0.0,0.0,0.0,-1.0
85775961,85775713,-0.0813653,0.012854,0.0127008,0.540587,0.0,0.0,0.0,-1.0
85876650,85876403,-0.120265,-0.00291634,-0.00561057,0.541787,0.0,0.0,0.0,-1.0
85974603,85974360,0.00823973,-0.0276747,0.000924344,0.541787,0.0,0.0,0.0,-1.0
86076414,86076167,0.00662894,-0.0139109,0.0055722,0.528592,0.0,0.0,0.0,-1.0
86174503,86174251,0.0668753,-0.048978,-0.00405794,0.501053,0.0,0.0,0.0,-1.0
86276303,86276058,-0.0233134,-0.0168717,-0.00196112,0.511799,0.0,0.0,0.0,-1.0
86376880,86376637,0.00373072,-0.0475968,-0.00674794,0.48,0.0,0.0,0.0,-1.0
86474960,86474707,0.0274837,-0.0238906,-0.01039,0.437895,0.0,0.0,0.0,-1.0
86576769,86576517,0.00527626,-0.0367421,-0.0202398,0.437895,0.0,0.0,0.0,-1.0
86674948,86674703,-0.0172563,-0.0483722,-0.027395,0.437895,0.0,0.0,0.0,-1.0
86776651,86776404,-0.0215783,-0.0475929,-0.00971905,0.472632,0.0,0.0,0.0,-1.0
86874740,86874488,0.0326404,-0.0396776,-0.0223943,0.503158,0.0,0.0,0.0,-1.0
86975307,86975056,-0.0151195,-0.0302174,-0.0194629,0.521395,0.0,0.0,0.0,-1.0
87077114,87076862,0.0104671,-0.0447339,-0.024486,0.553782,0.0,0.0,0.0,-1.0
87175203,87174945,-0.0323417,-0.0127175,-0.0255849,0.564578,0.0,0.0,0.0,-1.0
87277014,87276751,-0.0102679,-0.0235749,-0.0243351,0.562179,0.0,0.0,0.0,-1.0
87375080,87374834,-0.0139469,-0.0326638,-0.0245524,0.563378,0.0,0.0,0.0,-1.0
87475713,87475463,0.0641091,-0.0776663,-0.0200373,0.563378,0.0,0.0,0.0,-1.0
87577492,87577251,-0.026688,-0.0127527,-0.0178745,0.563378,0.0,0.0,0.0,-1.0
87675551,87675308,-0.00487867,-0.0365748,-0.0239773,0.562179,0.0,0.0,0.0,-1.0
87777340,87777098,-0.0882722,-0.000814007,-0.018041,0.562179,0.0,0.0,0.0,-1.0
87875427,87875181,0.0551318,-0.0692856,-0.0125769,0.562179,0.0,0.0,0.0,-1.0
87977247,87976988,-0.00786845,-0.0536761,-0.0109814,0.556181,0.0,0.0,0.0,-1.0
88075311,88075071,0.00529428,-0.00420197,-0.0175582,0.535789,0.0,0.0,0.0,-1.0
88175882,88175637,-0.0580515,-0.0305159,-0.0123539,0.521395,0.0,0.0,0.0,-1.0
88277726,88277482,0.0450012,-0.0580012,-0.00597874,0.515398,0.0,0.0,0.0,-1.0
88375775,88375528,0.0532841,-0.0484707,-0.00455411,0.508421,0.0,0.0,0.0,-1.0
88473864,88473612,-0.00959472,-0.0157593,-0.0078402,0.505263,0.0,0.0,0.0,-1.0
88575833,88575590,0.0593585,-0.0524919,-0.00520434,0.505263,0.0,0.0,0.0,-1.0
88676243,88675986,0.0252076,-0.0341716,-0.0170047,0.503158,0.0,0.0,0.0,-1.0
88774316,88774070,-0.055953,-0.041294,-0.0162308,0.503158,0.0,0.0,0.0,-1.0
88877373,88877121,0.0541862,-0.0214513,-0.0207223,0.526193,0.0,0.0,0.0,-1.0
88977931,88977682,0.0231449,-0.0720986,-0.0208092,0.526193,0.0,0.0,0.0,-1.0
89076079,89075829,-0.0619754,-0.0121149,-0.0247201,0.524994,0.0,0.0,0.0,-1.0
89177815,89177573,0.0035508,-0.032222,-0.0182655,0.509474,0.0,0.0,0.0,-1.0
89275912,89275656,-0.0100481,-0.0336731,-0.0363636,0.476842,0.0,0.0,0.0,-1.0
89376685,89376429,-0.0331851,-0.039117,-0.0301375,0.476842,0.0,0.0,0.0,-1.0
89474588,89474345,0.0498795,-0.0735365,-0.0298102,0.476842,0.0,0.0,0.0,-1.0
89576360,89576114,0.0573452,-0.0753568,-0.0296269,0.476842,0.0,0.0,0.0,-1.0
89678170,89677922,-0.0347677,-0.0437905,-0.030134,0.476842,0.0,0.0,0.0,-1.0
89776251,89776003,0.0430943,-0.0356364,-0.0212624,0.476842,0.0,0.0,0.0,-1.0
89876870,89876628,-0.0324624,-0.0569265,-0.0269362,0.5,0.0,0.0,0.0,-1.0
89974909,89974655,-0.00117301,-0.0969759,-0.0203287,0.530991,0.0,0.0,0.0,-1.0
90076726,90076486,0.0285609,-0.0567574,-0.0258897,0.528592,0.0,0.0,0.0,-1.0
90174884,90174640,0.0187972,-0.0872179,-0.023308,0.526193,0.0,0.0,0.0,-1.0
90276598,90276351,0.0801928,-0.0788892,-0.0279654,0.523794,0.0,0.0,0.0,-1.0
90378421,90378164,-0.0283708,-0.0415044,-0.0294429,0.523794,0.0,0.0,0.0,-1.0
90475268,90475016,0.0463501,-0.0273744,-0.0262278,0.527393,0.0,0.0,0.0,-1.0
90577047,90576806,-0.0187232,-0.0996782,-0.0291615,0.530991,0.0,0.0,0.0,-1.0
90675136,90674889,0.00300588,-0.0120029,-0.0224976,0.527393,0.0,0.0,0.0,-1.0
90776944,90776697,0.0550199,-0.0675862,-0.0348188,0.524994,0.0,0.0,0.0,-1.0
90875025,90874780,0.00320525,-0.059407,-0.0279193,0.524994,0.0,0.0,0.0,-1.0
90976922,90976665,-0.00262613,-0.0241967,-0.0303229,0.527393,0.0,0.0,0.0,-1.0
91074925,91074673,0.0496823,-0.0198219,-0.0217301,0.526193,0.0,0.0,0.0,-1.0
91175488,91175243,-0.00535573,-0.0381926,-0.028449,0.526193,0.0,0.0,0.0,-1.0
91277291,91277045,-0.0210339,-0.0124622,-0.0295098,0.526193,0.0,0.0,0.0,-1.0
91375376,91375127,-0.0155221,-0.0242709,-0.0265908,0.526193,0.0,0.0,0.0,-1.0
91477184,91476936,-0.0430143,-0.0160292,-0.0179424,0.529792,0.0,0.0,0.0,-1.0
91575263,91575018,-0.107804,0.00830308,-0.0230845,0.522595,0.0,0.0,0.0,-1.0
91675828,91675585,0.0161573,-0.0192371,-0.00877171,0.509474,0.0,0.0,0.0,-1.0
91777733,91777487,0.000429797,-0.0254763,-0.0161661,0.5106,0.0,0.0,0.0,-1.0
91875738,91875490,0.00853864,-0.0438325,-0.011126,0.5106,0.0,0.0,0.0,-1.0
91977527,91977287,0.0256359,-0.0387798,-0.00784611,0.509474,0.0,0.0,0.0,-1.0
92075789,92075545,-0.0495707,-0.043492,-0.00317951,0.5106,0.0,0.0,0.0,-1.0
92177420,92177172,0.0206674,-0.00904682,0.00621878,0.5106,0.0,0.0,0.0,-1.0
92274266,92274016,0.0103877,-0.0468705,0.00982379,0.511799,0.0,0.0,0.0,-1.0
92376069,92375823,0.048797,-0.0673373,0.00423307,0.511799,0.0,0.0,0.0,-1.0
92477894,92477649,-0.0880264,0.0608304,-0.00161988,0.5106,0.0,0.0,0.0,-1.0
92575975,92575725,-0.0373392,-0.0114324,0.00534512,0.5106,0.0,0.0,0.0,-1.0
92677781,92677537,-0.00466413,-0.0172603,-0.00746536,0.512999,0.0,0.0,0.0,-1.0
92775855,92775603,0.0274416,-0.0771978,-0.00644986,0.512999,0.0,0.0,0.0,-1.0
92876558,92876315,-0.0324771,-0.00289005,-0.0167318,0.514198,0.0,0.0,0.0,-1.0
92974497,92974252,-0.0693351,-0.0142856,-0.0157645,0.511799,0.0,0.0,0.0,-1.0
93076304,93076059,-0.0062304,-0.0276202,-0.00810934,0.511799,0.0,0.0,0.0,-1.0
93178112,93177867,-0.0359701,-0.00449756,-0.020994,0.5106,0.0,0.0,0.0,-1.0
93276201,93275950,-0.0383446,-0.0359054,-0.018618,0.5106,0.0,0.0,0.0,-1.0
93376763,93376517,-0.0136859,-6.15134e-05,-0.0142499,0.509474,0.0,0.0,0.0,-1.0
93474847,93474599,0.0461373,-0.0729884,-0.0111993,0.5106,0.0,0.0,0.0,-1.0
93576649,93576406,-0.0807027,0.0282522,-0.0153757,0.514198,0.0,0.0,0.0,-1.0
93674840,93674595,-0.0637498,-0.00782253,-0.0126655,0.514198,0.0,0.0,0.0,-1.0
93776544,93776299,0.0338106,-0.0244823,-0.017174,0.515398,0.0,0.0,0.0,-1.0
93878352,93878105,0.0404751,-0.036175,-0.0239063,0.540587,0.0,0.0,0.0,-1.0
93976451,93976188,0.0372117,-0.0866953,-0.0312003,0.535789,0.0,0.0,0.0,-1.0
94077008,94076755,-0.0959894,0.033174,-0.0335281,0.539388,0.0,0.0,0.0,-1.0
94175094,94174844,-0.0151459,-0.0297256,-0.0292255,0.540587,0.0,0.0,0.0,-1.0
94276911,94276665,-0.0122293,0.0120323,-0.0232675,0.541787,0.0,0.0,0.0,-1.0
94374987,94374731,0.0175594,-0.0312592,-0.024659,0.551383,0.0,0.0,0.0,-1.0
94476865,94476621,-0.0499027,-0.0132022,-0.0428692,0.545386,0.0,0.0,0.0,-1.0
94574863,94574618,-0.0262808,0.0142014,-0.0399354,0.552583,0.0,0.0,0.0,-1.0
94675434,94675185,0.0563745,-0.0123054,-0.0291914,0.545386,0.0,0.0,0.0,-1.0
94777251,94776993,-0.0659418,0.0373268,-0.0425208,0.544186,0.0,0.0,0.0,-1.0
94875325,94875076,-0.0750732,-0.0339142,-0.031705,0.544186,0.0,0.0,0.0,-1.0
94977126,94976883,0.0325331,-0.0168529,-0.0346358,0.545386,0.0,0.0,0.0,-1.0
95075218,95074968,0.0696514,-0.103382,-0.0356517,0.545386,0.0,0.0,0.0,-1.0
95175780,95175532,0.0080466,0.00290932,-0.0537352,0.544186,0.0,0.0,0.0,-1.0
95273957,95273705,0.066896,-0.0880702,-0.0538771,0.524994,0.0,0.0,0.0,-1.0
95375666,95375423,0.0349646,-0.0418429,-0.0772761,0.520196,0.0,0.0,0.0,-1.0
95477488,95477233,0.0400424,-0.0268842,-0.0901605,0.520196,0.0,0.0,0.0,-1.0
95575754,95575504,0.0422328,-0.0237852,-0.0983733,0.506316,0.0,0.0,0.0,-1.0
95677367,95677122,-0.0338981,-0.0499569,-0.114455,0.492632,0.0,0.0,0.0,-1.0
95775451,95775205,-0.0395221,0.000167497,-0.116325,0.472632,0.0,0.0,0.0,-1.0
95876020,95875770,-0.0481095,-0.0269984,-0.125309,0.471579,0.0,0.0,0.0,-1.0
95977829,95977578,0.0134307,-0.00650531,-0.135622,0.474737,0.0,0.0,0.0,-1.0
96076030,96075785,0.0157003,-0.0848187,-0.145866,0.493684,0.0,0.0,0.0,-1.0
96177718,96177470,-0.0835243,-0.0067853,-0.163725,0.487368,0.0,0.0,0.0,-1.0
96275808,96275561,-0.0461354,-0.00433279,-0.171326,0.471579,0.0,0.0,0.0,-1.0
96376536,96376287,-0.0807969,-0.138888,-0.174439,0.471579,0.0,0.0,0.0,-1.0
96474450,96474204,-0.0116704,-0.0706853,-0.169404,0.491579,0.0,0.0,0.0,-1.0
96576256,96576009,-0.0951447,-0.0562597,-0.148009,0.526193,0.0,0.0,0.0,-1.0
96678067,96677817,-0.0594041,0.0164492,-0.145503,0.526193,0.0,0.0,0.0,-1.0
96776143,96775900,0.082252,-0.105958,-0.126553,0.526193,0.0,0.0,0.0,-1.0
96877958,96877708,-0.0935167,-0.0521893,-0.10676,0.501053,0.0,0.0,0.0,-1.0
96974799,96974549,-0.0772985,-0.0106916,-0.101603,0.508421,0.0,0.0,0.0,-1.0
97076606,97076357,0.0290244,-0.0637062,-0.0777011,0.521395,0.0,0.0,0.0,-1.0
97174798,97174553,0.00297269,-0.0855449,-0.0757094,0.535789,0.0,0.0,0.0,-1.0
97276495,97276248,0.0385409,-0.0452783,-0.0563663,0.535789,0.0,0.0,0.0,-1.0
97378303,97378056,-0.0245592,-0.0417443,-0.0557896,0.556181,0.0,0.0,0.0,-1.0
97476395,97476141,-0.131999,-0.00876751,-0.0588197,0.556181,0.0,0.0,0.0,-1.0
97576951,97576705,-0.0640255,-0.0576659,-0.0498777,0.557381,0.0,0.0,0.0,-1.0
97675036,97674790,-0.0329523,-0.0403724,-0.0430412,0.556181,0.0,0.0,0.0,-1.0
97776845,97776596,-0.00969145,-0.0637052,-0.0377495,0.553782,0.0,0.0,0.0,-1.0
97874926,97874676,-0.0436547,-0.0376331,-0.025572,0.551383,0.0,0.0,0.0,-1.0
97976825,97976580,0.000284775,-0.0191084,-0.0185281,0.551383,0.0,0.0,0.0,-1.0
98074816,98074570,-0.104584,-0.0547524,-0.0109109,0.553782,0.0,0.0,0.0,-1.0
98175378,98175135,-0.0708447,-0.0173849,-0.00762898,0.540587,0.0,0.0,0.0,-1.0
98277197,98276943,-0.0430842,-0.0465264,-0.00723011,0.501053,0.0,0.0,0.0,-1.0
98375274,98375027,-0.115373,-0.0284739,0.00439177,0.516597,0.0,0.0,0.0,-1.0
98477086,98476834,-0.054787,-0.0273704,0.0154637,0.511799,0.0,0.0,0.0,-1.0
98575174,98574922,-0.0046927,-0.0490008,0.0242691,0.516597,0.0,0.0,0.0,-1.0
98675730,98675483,-0.0469784,0.00872695,0.0242548,0.526193,0.0,0.0,0.0,-1.0
98773863,98773616,-0.0616868,-0.0476893,0.0216637,0.550184,0.0,0.0,0.0,-1.0
98875617,98875374,-0.0766659,-0.0175917,0.0212267,0.568176,0.0,0.0,0.0,-1.0
98977440,98977184,0.0348534,-0.0273299,0.0150982,0.568176,0.0,0.0,0.0,-1.0
99075516,99075268,-0.0414128,-0.0115288,-0.0023107,0.566977,0.0,0.0,0.0,-1.0
99177323,99177073,-0.0108751,-0.0114665,-0.00715905,0.55978,0.0,0.0,0.0,-1.0
