timestamp,timestamp_sample,accel_device_id,gyro_device_id,delta_angle[0],delta_angle[1],delta_angle[2],delta_velocity[0],delta_velocity[1],delta_velocity[2],delta_angle_dt,delta_velocity_dt,delta_velocity_clipping
21875218,21875000,4259850,4325386,-9.48477e-05,0.000112465,6.45421e-05,-0.00087331,0.00172406,-0.0571808,4968,5911,0
21880126,21879958,4259850,4325386,0.000153219,-0.000100088,2.3759e-05,0.00066783,0.000267615,-0.0478153,4958,4938,0
22373847,22373719,4259850,4325386,0.000391827,0.000438646,-0.000271625,0.00351668,0.000399181,-0.0481801,4989,4926,0
22877519,22877345,4259850,4325386,0.000551903,-0.00128953,0.000138438,0.00350227,0.00114209,-0.0477749,4985,4961,0
23376215,23376098,4259850,4325386,-0.000417675,-0.000119041,0.000418766,-0.00150983,0.00120131,-0.0505389,4982,4926,0
23875086,23874952,4259850,4325386,0.000626398,2.80397e-05,-0.000339202,0.00219632,-0.00182978,-0.0495702,4994,4929,0
24373252,24373135,4259850,4325386,-0.000145553,-0.000267903,-0.00019313,0.00280859,0.00180972,-0.0401469,4996,4680,0
24872742,24872358,4259850,4325386,-0.000725921,0.000596626,0.000830773,0.00892721,0.00669675,-0.0487517,4992,4970,0
25376295,25376137,4259850,4325386,-0.0011515,-0.000238113,0.000167686,0.0135034,-0.00803159,-0.0452977,5006,4933,0
25875311,25875151,4259850,4325386,0.000813977,-0.00121824,0.000238407,0.0221494,0.00132559,-0.0386011,4989,4926,0
26373727,26373599,4259850,4325386,0.000376061,-0.000399054,-0.000279889,0.00476615,-0.00844903,-0.048569,4988,4991,0
26877446,26877336,4259850,4325386,-0.000339817,-1.85221e-05,4.435e-05,-0.00268667,-0.00688191,-0.0497023,4987,4973,0
27376225,27376088,4259850,4325386,0.000182751,-0.000128561,0.000669758,0.00880281,0.00210341,-0.050047,4976,4987,0
27874966,27874841,4259850,4325386,-0.000286575,9.91771e-05,0.000443803,0.00281182,-0.00701255,-0.0522623,4988,4939,0
28373701,28373592,4259850,4325386,0.000364822,-0.000229794,-0.000923471,-0.000235609,-0.00394962,-0.0383197,4985,4135,0
28872491,28872381,4259850,4325386,-0.000520212,-0.000517917,-0.000629092,-0.00397727,-0.00127494,-0.0529162,5025,4918,0
29376498,29376309,4259850,4325386,-0.000970785,0.000731115,0.000403881,-0.00725843,0.0116256,-0.054832,4996,4995,0
29875072,29874950,4259850,4325386,0.00128432,-0.000641684,-0.000187567,0.0119625,-0.0048489,-0.0391825,4982,4925,0
30373733,30373588,4259850,4325386,0.000693004,-0.000890303,-0.000422329,0.0101499,-0.0115393,-0.0407246,4987,4963,0
30877504,30877331,4259850,4325386,0.000264969,0.000428111,-3.1852e-05,0.00297703,0.0147969,-0.0420915,4984,5805,0
31371457,31371335,4259850,4325386,0.00134033,1.92047e-05,-0.00140568,0.00393997,-0.0238774,-0.0441705,4956,4926,0
31875055,31874838,4259850,4325386,0.000345486,0.000832823,-0.000804696,0.00076368,-0.00126244,-0.0444761,4992,4947,0
32373727,32373592,4259850,4325386,-0.000564061,-0.000265893,0.000546482,-0.00738318,-0.00317202,-0.0540355,4958,4927,0
32872674,32872485,4259850,4325386,0.000773443,-0.000736339,-0.000965381,-0.00826788,-0.0344412,-0.0534649,4981,4920,0
33376297,33376133,4259850,4325386,0.00046257,0.000180616,0.000724021,0.000960607,0.026182,-0.0508742,5005,4927,0
33874456,33874337,4259850,4325386,-6.14907e-05,-0.00101178,-0.000101022,0.00438189,-0.00586364,-0.0458877,4989,4984,0
34378208,34378076,4259850,4325386,0.0017736,0.000112624,-0.000507197,-0.000100701,-0.0113372,-0.0442651,4990,4981,0
34871965,34871838,4259850,4325386,0.00171243,-0.000757275,-0.000753316,0.00370383,-0.0192689,-0.0455729,4988,4967,0
35375757,35375579,4259850,4325386,-0.000276486,0.000145921,-0.000354189,0.00543811,-0.00341905,-0.0439853,4980,4678,0
35874747,35874598,4259850,4325386,-1.43646e-05,-0.000251914,-0.000288699,-0.00247731,-0.00534316,-0.04468,4954,4944,0
36373233,36373083,4259850,4325386,-0.00175662,8.441e-05,-0.000271598,-0.0109936,-0.0039318,-0.0576923,4987,4927,0
36876509,36876374,4259850,4325386,0.00020024,-8.21959e-05,-4.82576e-05,0.0104067,0.00469016,-0.042835,4969,4989,0
37375221,37375078,4259850,4325386,-0.00175013,-0.000274947,-0.000487091,-0.00660013,-0.0248438,-0.047447,4986,4929,0
37874309,37873888,4259850,4325386,0.000384685,-0.000912195,-0.000735172,-0.00844711,-0.0215803,-0.0629792,5005,5900,0
38372715,38372584,4259850,4325386,0.000544257,0.000171941,8.49982e-05,0.0101667,0.00315711,-0.0421979,4986,4924,0
38871661,38871494,4259850,4325386,0.00251575,-0.000776987,-0.00165716,0.00785951,-0.0223135,-0.0443942,4963,4928,0
39374720,39374611,4259850,4325386,-0.00139504,0.000133434,0.000358375,-0.000453402,-0.0116114,-0.0466407,5018,4905,0
39873740,39873624,4259850,4325386,-0.000627301,-0.000468121,0.000339493,-0.00274308,0.00473433,-0.044674,5001,4725,0
40377333,40377209,4259850,4325386,0.0019569,-0.000424716,-0.0016647,-0.00105417,-0.0352145,-0.0500644,4984,4923,0
40876704,40876584,4259850,4325386,0.000510609,6.94979e-05,-0.000452569,0.00426014,-0.00420567,-0.0464104,5244,4952,0
41375196,41375074,4259850,4325386,-0.000457522,0.000478188,0.000927176,0.0021829,0.021914,-0.0472745,4983,4926,0
41874069,41873960,4259850,4325386,4.58143e-05,0.000379331,0.000620916,0.00577247,0.0178704,-0.0401301,4990,4924,0
42372864,42372708,4259850,4325386,-0.000753257,0.000818584,0.00150621,-0.00105997,-0.0151835,-0.0519732,5022,4918,0
42872449,42872335,4259850,4325386,0.000521124,-0.000337394,-0.000580456,0.000810998,-0.017259,-0.0422381,4988,4786,0
43376203,43376076,4259850,4325386,-0.00158734,0.000912841,0.000997023,-0.00570984,0.0321703,-0.0523164,4987,4756,0
43875062,43874908,4259850,4325386,0.000167771,-0.000144735,-1.02541e-05,-0.000983701,-0.0084308,-0.0501929,4956,4920,0
44373710,44373599,4259850,4325386,-0.000159184,-0.000309479,-0.000449453,-0.00928529,-0.012483,-0.0581315,4953,4961,0
44877570,44877461,4259850,4325386,-9.21751e-05,-0.000107436,0.000238328,0.00482412,0.0043262,-0.0371501,4983,4926,0
45371243,45371091,4259850,4325386,0.00135986,-0.000436208,-0.00103242,0.00649692,-0.0277244,-0.0447741,4985,4872,0
45875230,45875062,4259850,4325386,0.000507822,-0.000240679,-0.00104152,0.00219798,-0.0135873,-0.047303,4972,4933,0
46373298,46373158,4259850,4325386,-0.00019105,0.00037111,0.000818065,0.00553139,0.0127426,-0.0463785,5026,4921,0
46877376,46877177,4259850,4325386,-0.000274055,0.00102199,0.000577571,-0.00666336,-0.0125354,-0.0526562,5005,5012,0
47375705,47375579,4259850,4325386,0.00140604,-0.000332334,-0.0013933,-0.000190949,-0.0277862,-0.0485505,4983,4925,0
47874450,47874332,4259850,4325386,0.000425767,0.000771304,0.000299653,0.00412774,0.0137058,-0.0432816,4987,4925,0
48378200,48378070,4259850,4325386,-0.00105551,0.00039703,0.000332732,-0.0112379,0.00576645,-0.0553408,4968,4965,0
48871983,48871839,4259850,4325386,3.34353e-05,-0.000433559,-0.000600094,0.00360799,-0.0171948,-0.0417154,4987,4781,0
49375711,49375601,4259850,4325386,-1.21918e-05,-0.000561081,-0.000164753,-0.00291464,-0.00704062,-0.0522346,5004,4900,0
49874444,49874336,4259850,4325386,-0.000432477,0.000367904,0.000338352,-0.00412817,0.0152584,-0.0534918,4989,4977,0
50373549,50373354,4259850,4325386,0.000982913,-0.000421088,-0.000266009,0.00713045,-0.00329047,-0.0387266,4997,4288,0
50877457,50877329,4259850,4325386,-0.00113656,9.9885e-05,0.000871885,-0.00459998,0.00551318,-0.0512455,4988,4926,0
51375778,51375584,4259850,4325386,-0.000144328,0.00051278,0.000513404,-0.00331074,0.0125041,-0.0574149,4987,5913,0
51878720,51878329,4259850,4325386,-0.000813828,0.000365363,0.00105507,0.00962767,0.0291016,-0.0410512,4990,4936,0
52372220,52372094,4259850,4325386,0.000804574,-0.000531605,-0.00115138,0.00333961,-0.0204396,-0.0449481,4993,4926,0
52875978,52875840,4259850,4325386,-0.00145058,0.000163503,8.42848e-05,-0.00647212,0.00749056,-0.0526333,4943,4922,0
53374697,53374588,4259850,4325386,0.000901804,-0.000445799,2.67961e-05,0.00992959,-0.0135665,-0.0450341,4966,4925,0
53873500,53873365,4259850,4325386,0.000181605,-0.000263694,-0.000654445,-0.00642813,-0.0296832,-0.0544599,5007,5021,0
54377391,54377249,4259850,4325386,0.000676878,-0.000114307,-8.08558e-05,0.00673396,0.0016864,-0.0350512,4970,4688,0
54875953,54875836,4259850,4325386,-0.00222228,0.000482824,0.000667279,-0.0104297,0.0159087,-0.0573623,4989,4927,0
55374882,55374763,4259850,4325386,-0.00100994,0.000880223,0.00107286,-0.00733903,0.025769,-0.0576539,4982,4966,0
55873453,55873345,4259850,4325386,0.000200061,0.000291343,-0.000790401,-0.0101043,-0.0321169,-0.0602067,4987,4968,0
56372514,56372331,4259850,4325386,-0.00180328,0.00117102,0.000696893,-0.0121781,0.00224176,-0.0538347,4977,4927,0
56875961,56875842,4259850,4325386,-0.000812351,7.21035e-05,0.000457605,-0.00416318,0.00898294,-0.0444968,4989,4927,0
57374766,57374595,4259850,4325386,-0.000180928,0.000263275,-0.000291946,-0.00909048,-0.0188979,-0.0497378,4987,4927,0
57873036,57872899,4259850,4325386,-0.000110419,0.000777359,-5.92138e-05,0.00471943,0.00706073,-0.0467373,4986,4929,0
58376752,58376640,4259850,4325386,0.00122492,-0.000658264,-0.000528925,0.0147417,0.000741266,-0.0381287,4988,4648,0
58875580,58875396,4259850,4325386,0.000155982,0.000489815,0.000868659,0.0035077,0.016283,-0.051063,4988,5776,0
59373823,59373674,4259850,4325386,-8.34064e-05,-0.00103641,0.000419813,0.00818567,-0.0125884,-0.0420337,5039,4933,0
59872658,59872545,4259850,4325386,-0.00160559,0.00130599,0.00134393,-0.00880985,0.034914,-0.0552798,4994,4957,0
60376522,60376320,4259850,4325386,-0.000528082,0.000667633,0.00061781,0.003086,0.00978836,-0.0434177,4952,4953,0
60875777,60875663,4259850,4325386,0.000613188,-0.000714465,-0.0012424,-0.00775698,-0.0229157,-0.0464378,4960,4967,0
61374736,61374605,4259850,4325386,0.000916364,-0.000163963,-8.5641e-05,0.0018902,-0.00870723,-0.0433319,4987,4929,0
61873791,61873621,4259850,4325386,-0.0015955,0.000264103,0.00132177,-0.00617485,0.0213369,-0.0659624,5251,6087,0
62377306,62377196,4259850,4325386,0.000806141,0.00118612,0.00113852,0.000475791,0.0199744,-0.0531529,4993,4995,0
62875666,62875553,4259850,4325386,7.11217e-05,0.000291042,9.78355e-05,0.00384235,0.00622869,-0.0428861,4973,4928,0
63374270,63374157,4259850,4325386,-0.000455823,-0.000560049,-0.000338256,0.00307696,-0.0162436,-0.0424526,4987,4927,0
63873026,63872914,4259850,4325386,-0.000841752,0.000628102,0.00132012,-0.0120392,0.00665072,-0.0526471,4989,4781,0
64376950,64376833,4259850,4325386,-0.00061058,-7.47272e-05,-0.000332682,-0.00922232,-0.0105986,-0.05401,4963,4971,0
64875597,64875476,4259850,4325386,0.000353523,0.000947706,0.000561883,-0.00142196,0.0176551,-0.0484545,4976,4924,0
65374324,65374196,4259850,4325386,-0.000503571,-0.00171792,8.20898e-05,-0.00266736,0.00260218,-0.0464015,5021,4905,0
65877824,65877625,4259850,4325386,0.000727615,0.000750386,0.00112729,0.00403925,0.0212635,-0.0606481,5254,5905,0
66371238,66371125,4259850,4325386,0.000101197,0.00121646,-0.000635472,-0.0135858,-0.0185256,-0.0570889,4987,4995,0
66875068,66874913,4259850,4325386,0.000719644,0.000214488,1.16557e-05,0.00185825,-0.000468266,-0.0374007,4990,4934,0
67373912,67373704,4259850,4325386,0.000977837,-0.000934401,-0.000226048,0.0115067,-0.00406287,-0.0572891,4961,6028,0
67872486,67872377,4259850,4325386,0.000269129,-0.000127391,0.000410793,0.0013048,0.000300774,-0.0472896,4988,4927,0
68376257,68376123,4259850,4325386,0.000374996,0.000537528,-0.00110439,-0.00400498,-0.0148238,-0.0540006,4988,4985,0
68874984,68874874,4259850,4325386,0.00219438,-0.000860407,-0.000839636,0.00135005,-0.0213048,-0.0458032,4988,4968,0
69378451,69378257,4259850,4325386,6.87743e-05,2.73257e-05,-0.000338685,-0.00600918,-0.00712346,-0.0448906,4990,4989,0
69872082,69871892,4259850,4325386,0.00094773,-0.000614693,0.000289638,0.00141577,0.00466727,-0.0420963,4995,4651,0
70376324,70376159,4259850,4325386,-0.00167667,0.00207787,0.00103799,-0.00183061,0.0199402,-0.0434223,4984,4769,0
70875281,70875084,4259850,4325386,-0.000294424,-6.34492e-05,-0.000960125,-0.0113231,-0.0147992,-0.0620741,4966,5549,0
71373810,71373635,4259850,4325386,-0.00142986,0.000226361,0.000862095,-0.00743683,0.0378867,-0.0611949,4987,4966,0
71877501,71877385,4259850,4325386,0.000723687,-0.000914245,-0.000240788,0.00169997,-0.0163143,-0.0541356,4987,4978,0
72376249,72376132,4259850,4325386,0.00159501,-3.30721e-05,0.000422083,-0.00376951,0.00843388,-0.0416978,4979,4933,0
72875152,72875003,4259850,4325386,-0.000283277,0.00159019,0.00104067,0.0067849,0.0297856,-0.0455053,4959,4927,0
73373809,73373645,4259850,4325386,0.00138885,-0.000662966,0.000169122,0.0121145,-0.0048367,-0.0471324,4990,4973,0
73872080,73871968,4259850,4325386,0.000235183,0.000281443,0.000989498,0.00104781,0.030115,-0.0458141,4970,4927,0
74375753,74375643,4259850,4325386,-0.000394993,5.60653e-05,-0.000464563,-0.00366909,-0.0074329,-0.0419612,4989,4931,0
74874514,74874397,4259850,4325386,-0.00122145,0.000230363,0.000389618,-0.0056107,0.00570092,-0.0568728,4989,4978,0
75373330,75373156,4259850,4325386,-0.000400648,-0.000573159,-0.000320349,-0.00679078,-0.0174823,-0.0571916,4992,4998,0
75877197,75877074,4259850,4325386,-0.000205352,-0.000722086,-0.000562442,-0.00123947,-0.0213578,-0.0475195,4969,4992,0
76375766,76375652,4259850,4325386,0.000937535,-0.000795577,-0.000833192,0.0100187,-0.00194285,-0.0423526,4992,4928,0
76874238,76874100,4259850,4325386,-0.000316397,-0.000264182,-0.00129057,-0.00662675,-0.0204253,-0.0471863,4960,4681,0
77372803,77372669,4259850,4325386,-0.000352752,0.00122505,-0.000543803,-0.00223691,0.003871,-0.0493625,4997,4963,0
77876618,77876405,4259850,4325386,-0.000104965,-0.000282663,0.000170952,-0.003629,-0.00712967,-0.049769,4986,4936,0
78375351,78375241,4259850,4325386,0.00144708,-0.000524907,-0.000260149,0.00389009,-0.0100834,-0.0460535,4952,4927,0
78874440,78874286,4259850,4325386,0.000530812,-0.000393071,0.00112612,0.00986581,0.0180289,-0.0426851,5269,4927,0
79377804,79377657,4259850,4325386,0.000232592,-0.000313923,-0.000531694,-0.00469968,-0.0142775,-0.0494657,4988,4961,0
79876535,79876423,4259850,4325386,-0.000718823,0.000415027,0.000789932,0.00426802,0.0133682,-0.0423204,4995,4876,0
80370896,80370784,4259850,4325386,0.00111483,0.0001909,-0.000532451,0.00406869,-0.000985079,-0.0379225,4931,4737,0
80874570,80874428,4259850,4325386,0.000267418,0.000392077,0.000820136,-0.000848887,0.00597964,-0.0488894,4995,4969,0
81373020,81372682,4259850,4325386,0.00156058,-0.00112338,-0.00057343,0.00502884,-0.0297399,-0.0428311,4991,4956,0
81876600,81876455,4259850,4325386,2.36994e-05,-4.10627e-05,0.000619601,-0.00416456,0.00868252,-0.0538719,4996,4926,0
82375692,82375499,4259850,4325386,-0.00103703,-5.08679e-07,0.000367565,0.00548665,0.00341335,-0.0420658,4986,4984,0
82874073,82873935,4259850,4325386,-2.87995e-05,-0.000601248,0.000526544,-9.55404e-05,-0.00149915,-0.0471747,4989,4927,0
83377787,83377674,4259850,4325386,-0.00156836,0.00165915,0.0010274,-0.0055227,0.0224443,-0.050075,4987,4927,0
83875614,83875482,4259850,4325386,-0.000777305,-0.000548656,-0.000719184,-0.0069106,-0.0163673,-0.0544078,4988,4962,0
84374392,84374278,4259850,4325386,0.000648638,-5.71379e-05,-0.00082751,0.000181159,-0.0238941,-0.0445922,4969,4927,0
84873137,84872991,4259850,4325386,0.00270745,-0.00056915,-0.00159609,0.000206884,-0.0352015,-0.0445612,4988,4933,0
85376901,85376734,4259850,4325386,-9.54114e-05,0.00105234,0.00033766,-0.00376574,-0.00319576,-0.053659,4987,4970,0
85875608,85875492,4259850,4325386,5.55812e-05,0.000372803,0.0011502,0.00612373,0.0291678,-0.0474448,4984,4772,0
86374626,86374429,4259850,4325386,0.000763606,-0.000485047,-0.00102352,-0.00659,-0.0127793,-0.0480332,4974,4927,0
86878164,86877999,4259850,4325386,0.000669114,-0.000561907,-0.000117963,0.00626614,0.00738708,-0.0482382,4992,5780,0
87370878,87370712,4259850,4325386,6.03411e-05,0.000204764,-0.000162298,-0.00786323,-0.00846208,-0.0591383,4988,4955,0
87874716,87874603,4259850,4325386,0.000142399,-0.000124413,-0.000470613,-0.0158717,-0.00333243,-0.0614742,4968,4928,0
88373454,88373320,4259850,4325386,0.000185124,-0.000649565,-0.00153655,-0.00270943,-0.0259293,-0.0489428,4971,4931,0
88877282,88876956,4259850,4325386,-0.00161096,-8.49462e-05,-0.000490819,-0.00804847,-0.0215408,-0.0509859,4990,4928,0
89375823,89375709,4259850,4325386,-0.000535894,0.000600678,0.000226556,-0.000442392,0.011672,-0.0462094,4987,5005,0
89874583,89874472,4259850,4325386,-0.000385646,0.000382894,0.000500215,0.000167584,0.00102299,-0.0473288,4988,4878,0
90378609,90378446,4259850,4325386,0.0004063,-6.14548e-05,-0.000134842,0.00145633,-0.015407,-0.0458097,4973,4974,0
90872090,90871978,4259850,4325386,-0.000290994,-0.0002005,-0.00104983,-0.00476308,-0.0142624,-0.0498921,4988,4771,0
91371440,91371232,4259850,4325386,-0.000886295,0.000347647,1.21432e-05,-0.00877667,0.00439785,-0.0604637,4987,5771,0
91874684,91874557,4259850,4325386,-0.00049138,0.000496697,0.000396736,-0.00667298,0.00345685,-0.0506561,5012,4905,0
92373385,92373233,4259850,4325386,0.00013537,-0.000625387,-0.00129689,-0.0094941,-0.0275873,-0.0520249,4975,4924,0
92877138,92876981,4259850,4325386,0.00238463,-2.26452e-05,-0.000154812,0.0141846,-0.00168356,-0.0383724,4993,4927,0
93375965,93375734,4259850,4325386,-0.001978,-0.000294648,0.000223522,0.00762912,-0.00398344,-0.041379,4977,4928,0
93874760,93874649,4259850,4325386,0.000791109,-0.000242313,-0.000285763,0.00242014,-0.00849256,-0.0511014,4967,4990,0
94373352,94373243,4259850,4325386,0.00096013,-0.00119041,-0.000806557,0.00266878,-0.0254808,-0.048817,4984,4873,0
94872637,94872499,4259850,4325386,0.000611606,0.00116033,0.00018401,0.00806276,0.0154051,-0.0418957,4987,4787,0
95376352,95376242,4259850,4325386,0.00114093,0.000318963,0.00146183,0.00372383,0.0170122,-0.0452528,4986,4931,0
95875215,95875059,4259850,4325386,0.000227717,0.000276212,0.000272799,0.00583977,-0.0069356,-0.0398455,4957,4765,0
96373414,96373259,4259850,4325386,0.00111647,0.000637653,0.000695572,-0.0155338,0.00906216,-0.0490412,4990,4977,0
96877112,96877003,4259850,4325386,0.00011396,0.000299052,-0.00145279,0.0127239,-0.000845536,-0.0328493,4988,4032,0
97375960,97375844,4259850,4325386,0.00041573,0.000194566,-0.00115979,-0.00043386,0.00169877,-0.0490767,4964,4927,0
97874749,97874513,4259850,4325386,-0.000166677,0.000213561,-0.000610822,0.00415992,0.00609883,-0.0526616,4988,5818,0
98373433,98373269,4259850,4325386,0.000874413,0.000190126,-0.000220704,0.0123718,0.00233256,-0.037671,4974,4977,0
98872275,98872151,4259850,4325386,-0.000833718,0.000423678,0.000227795,-0.00691094,0.0232175,-0.0591948,4982,4926,0
99376158,99376004,4259850,4325386,-0.000709114,0.000294183,0.00107972,-0.00668489,0.00294472,-0.0539762,4962,4927,0
99874639,99874526,4259850,4325386,-0.000455904,0.000630324,0.00075106,0.00120042,0.0196759,-0.0485951,4988,4999,0
100378445,100378308,4259850,4325386,-5.58937e-05,-2.31639e-05,0.000188083,-0.00269134,0.00153377,-0.048558,5022,4901,0
100877208,100877094,4259850,4325386,-0.000179734,-0.000200395,0.00012197,0.00151271,0.000516932,-0.0429536,4963,4964,0
101375420,101375284,4259850,4325386,-0.0013998,0.000409647,0.000184154,-0.00855845,0.0227086,-0.0583371,4988,4926,0
101874172,101874040,4259850,4325386,-0.000156182,0.000157794,-4.07074e-05,0.00599174,-0.000301196,-0.0413384,4978,4925,0
102372939,102372797,4259850,4325386,-0.000502282,0.000144775,0.000975275,0.00147484,0.00532183,-0.0391924,4988,4771,0
102876648,102876541,4259850,4325386,-0.000789398,0.000119014,0.000956612,-0.00676747,0.00146343,-0.0514321,4948,4927,0
103375425,103375294,4259850,4325386,0.000353386,0.000669045,0.00090991,-0.00162482,0.0129998,-0.0468085,4983,4995,0
103874388,103874163,4259850,4325386,0.000143089,-0.000791593,-7.66189e-05,0.00487539,-0.00178103,-0.0528735,4961,5914,0
104378020,104377802,4259850,4325386,-0.00040665,-0.0002363,8.25503e-05,0.00642869,0.0174495,-0.0460542,4989,4924,0
104871915,104871736,4259850,4325386,-0.000374583,0.000623006,0.000223795,-0.00920914,0.00929618,-0.0583746,4992,4968,0
105375444,105375312,4259850,4325386,-0.000422597,-0.000343282,2.49485e-05,0.00660972,0.000705127,-0.0438492,4987,4921,0
105874733,105874584,4259850,4325386,0.000506185,-0.000553228,-0.000556649,-0.00625406,-0.0176726,-0.050882,4955,4939,0
106373488,106372828,4259850,4325386,0.000741209,-0.000569715,-0.000421113,-0.00129302,-0.0199209,-0.0565299,4990,5567,0
106876724,106876569,4259850,4325386,-0.000289888,0.000202661,0.00115482,-0.0053903,0.00517689,-0.052408,4986,4973,0
107375564,107375426,4259850,4325386,0.000883162,-3.43579e-05,0.000348475,0.0169714,0.00952876,-0.0325225,4977,4976,0
107874233,107874085,4259850,4325386,-0.000521422,9.60047e-06,0.000701095,-0.00420462,0.0133644,-0.0522753,4991,4984,0
108373061,108372950,4259850,4325386,-0.000445273,8.92603e-05,-0.000266567,-0.00770044,-0.00616457,-0.0548393,4988,4972,0
108871747,108871596,4259850,4325386,0.000318373,0.000335873,-8.82434e-05,-0.00294647,-0.00817732,-0.0525712,4987,4929,0
109376455,109376339,4259850,4325386,-0.000799021,-0.000605518,0.000760079,-0.00357174,0.00677083,-0.0492924,4984,4928,0
109875210,109875095,4259850,4325386,-0.00338152,0.00183392,0.00148896,-0.00874838,0.0241374,-0.0573373,4983,4970,0
110373540,110373354,4259850,4325386,0.00264676,-0.000647206,-0.00113415,0.00461477,-0.0295682,-0.0507773,4989,5695,0
110877214,110877097,4259850,4325386,0.00101365,0.000615456,-0.00121864,0.00495304,-0.0275123,-0.0433972,4983,4984,0
111375968,111375854,4259850,4325386,-0.00119196,0.00140514,0.00065948,-0.00820589,0.00673568,-0.0516476,4985,4927,0
111874982,111874772,4259850,4325386,-0.00162377,0.000871459,0.00137163,-0.00506436,0.0258409,-0.0498427,4961,4759,0
112373486,112373373,4259850,4325386,-0.00104558,0.000432867,0.000254611,-0.00496094,0.00380723,-0.0504125,4992,4996,0
112872766,112872624,4259850,4325386,-0.000170339,-0.000360965,0.000831161,0.00189817,0.0124848,-0.0453359,4987,4929,0
113376178,113376067,4259850,4325386,-0.000997544,0.000113721,-0.000819786,-0.00944588,-0.00553406,-0.0555112,4950,4963,0
113874751,113874627,4259850,4325386,-0.000269605,0.000503718,-0.00010643,-0.00329695,0.00659241,-0.054746,4988,4928,0
114378078,114377929,4259850,4325386,0.0013735,1.84733e-05,-6.34873e-06,0.0149912,-0.0112417,-0.0407907,4954,4925,0
114876984,114876863,4259850,4325386,-0.00114918,-0.000427844,0.000752463,-0.00598934,0.0149335,-0.0529578,4960,4928,0
115375616,115375503,4259850,4325386,0.00197437,-0.000431394,-0.00128783,0.000878633,-0.0302571,-0.0463553,4937,4924,0
115874088,115873861,4259850,4325386,0.000635807,-0.0008771,-0.000856937,-0.00308593,-0.0205123,-0.048065,4969,4922,0
116372308,116372113,4259850,4325386,0.000272319,2.72413e-05,-0.00100038,-0.00125512,-0.0131779,-0.0442961,4990,4949,0
116876007,116875791,4259850,4325386,-0.000956353,0.000221489,0.000576906,0.000900707,0.0102803,-0.0533935,4976,5939,0
117374567,117374454,4259850,4325386,-0.000131181,-0.000104911,-0.000409609,-0.00845303,-0.00832677,-0.0528192,4988,5085,0
117878325,117878212,4259850,4325386,5.9838e-05,-0.000425828,-0.000152976,0.00688242,0.00201452,-0.0437644,4998,5000,0
118377071,118376956,4259850,4325386,0.00130263,-0.000516879,-0.00119304,0.00512555,-0.0296817,-0.043668,4987,4930,0
118871135,118870971,4259850,4325386,-0.000105896,0.000488104,0.000867251,0.0104029,0.0150112,-0.0411409,4963,4968,0
119375231,119375050,4259850,4325386,-0.00112604,0.00106983,0.000527695,-0.0148813,0.0116199,-0.0550081,4945,4938,0
119873860,119873683,4259850,4325386,-0.000685955,0.00101099,-0.000696054,-0.00795538,-0.0190778,-0.0511228,4992,4974,0
120377547,120377428,4259850,4325386,0.00078585,-0.000419255,0.000388971,0.000456827,0.000854763,-0.0500584,4984,4980,0
120876410,120876301,4259850,4325386,0.00176696,-0.000512251,-0.00116829,-0.00253654,-0.0245858,-0.0463946,4916,4923,0
121375535,121375378,4259850,4325386,-0.000389239,0.000217613,0.000231553,-0.0033277,-0.0117109,-0.0496437,5255,4922,0
121873817,121873696,4259850,4325386,-0.00025894,-0.000417633,0.000146277,0.00470454,0.0082972,-0.0462522,4987,5019,0
122372562,122372453,4259850,4325386,0.00101842,-0.00152207,-0.000783058,0.00136848,-0.0326421,-0.0441377,4987,4927,0
122876457,122876329,4259850,4325386,-0.0010064,0.0003558,0.000346638,-0.00132288,0.00918761,-0.0478306,4978,4980,0
123375113,123374961,4259850,4325386,-0.000393016,2.40198e-05,-0.000988547,-0.00266622,-0.00825863,-0.0470393,4993,4928,0
123873455,123873290,4259850,4325386,0.000713214,-0.000503724,-9.46102e-05,0.0100411,-0.0045799,-0.0397439,4973,4972,0
124376578,124376461,4259850,4325386,0.000179163,0.00149119,0.00149959,0.00590823,0.0209065,-0.0434594,4987,4931,0
124875518,124875407,4259850,4325386,-0.00143556,0.00104611,0.00115745,-0.00568227,0.0379567,-0.0544794,5002,5003,0
125379159,125378998,4259850,4325386,-0.00119196,0.00108239,0.000780792,-0.00451691,0.0204384,-0.0504952,4994,4932,0
125872862,125872737,4259850,4325386,-0.000586222,0.000556128,0.000654727,0.000150199,0.0211841,-0.0468318,4987,4918,0
126372285,126371495,4259850,4325386,-0.000242695,0.000474847,-0.000288448,0.00403354,0.00253349,-0.0399977,4988,4968,0
126874904,126874739,4259850,4325386,0.000885536,0.000205847,-0.00126037,-0.0103521,-0.0190417,-0.0450415,4988,4963,0
127374107,127373995,4259850,4325386,-0.00199976,0.00134923,-0.000203656,-0.0113755,0.0149989,-0.0540418,4988,4928,0
127877855,127877743,4259850,4325386,-0.00111585,0.000356869,0.000844432,-0.00476164,0.00475668,-0.0527185,4986,4930,0
128376810,128376672,4259850,4325386,-0.0007349,0.00129668,-0.000259253,-0.0116602,0.00890941,-0.0592262,5014,5011,0
128875704,128875570,4259850,4325386,-0.000842196,0.000401245,0.00108982,-0.0130042,0.023947,-0.0595402,4984,4986,0
129374384,129374159,4259850,4325386,0.000352223,-0.000212517,0.000807461,0.0121497,0.0200676,-0.0522784,4989,5902,0
129873278,129872773,4259850,4325386,-0.000847427,0.00147642,0.00150487,-0.00489699,0.0280678,-0.0528529,4987,4928,0
130372204,130372078,4259850,4325386,-0.000120908,0.000100759,0.000546455,-0.00590728,0.00476292,-0.0467732,4994,4741,0
130876238,130875938,4259850,4325386,0.00110526,-0.000871984,-0.00115687,-0.00257585,-0.0192716,-0.0453688,4993,4990,0
131375208,131375031,4259850,4325386,-0.000704695,0.000466519,-0.00055618,-0.0196565,-0.0137298,-0.0674825,4985,5909,0
131873500,131873342,4259850,4325386,0.00111315,-0.000211832,-0.00116198,-0.00659179,-0.0288613,-0.0556545,4991,5474,0
132377202,132377087,4259850,4325386,-0.00132351,5.62717e-05,0.000484628,0.00413429,0.00762557,-0.0430121,4968,4928,0
132875517,132875396,4259850,4325386,-5.28347e-05,0.000383867,-0.000263447,-0.00389121,0.00230602,-0.0514178,5001,4927,0
133374203,133374054,4259850,4325386,0.000860884,7.85168e-05,0.000255684,0.013992,0.0110764,-0.0424672,4987,4972,0
133872431,133872312,4259850,4325386,0.000158817,0.00104034,0.00171938,-0.0119806,0.0199777,-0.0591608,4988,4929,0
134376171,134376059,4259850,4325386,-0.00132157,-0.000472958,-0.000523099,-0.0060526,-0.0269411,-0.0531357,4988,4927,0
134875094,134874934,4259850,4325386,-0.000847184,0.000499733,0.000686456,0.00200889,0.00827298,-0.0427536,4936,4932,0
135374219,135374046,4259850,4325386,-0.00105572,0.00125413,-0.000685644,-0.00785979,-0.0189657,-0.070051,5457,6262,0
135877432,135877322,4259850,4325386,0.000410298,0.00050056,-0.000176266,-0.00566058,0.000578847,-0.0412912,4986,3771,0
136370928,136370813,4259850,4325386,-0.00173336,0.000344892,0.00077183,-0.00416144,-0.00451978,-0.0471369,4967,4928,0
136874448,136874338,4259850,4325386,0.000760971,-0.000116649,-0.00107551,-0.0103663,-0.0154498,-0.0594895,4987,4990,0
137373339,137373227,4259850,4325386,-2.76197e-05,-0.000997814,0.00128548,0.00103379,0.00486402,-0.0540488,4992,4974,0
137877018,137876838,4259850,4325386,-0.000671628,-0.000513937,0.000704374,-0.00602542,0.019742,-0.0422894,4964,4969,0
138376724,138376599,4259850,4325386,2.35058e-05,0.0018996,-0.000798465,-0.0110313,-0.015972,-0.0566251,4944,4927,0
138875414,138875254,4259850,4325386,-0.000761004,-0.000225129,-0.000282176,-0.00508486,0.00442228,-0.0539717,4937,4941,0
139379013,139378606,4259850,4325386,0.000694495,-0.000385908,-0.00118041,-0.000786318,-0.0166395,-0.0447255,4990,4993,0
139872991,139872882,4259850,4325386,0.00200626,-0.000612603,-0.00200994,0.00790774,-0.0117738,-0.0403249,4961,4774,0
140371894,140371784,4259850,4325386,-0.00122537,0.000611662,0.000691043,-0.0173521,0.000251081,-0.0564869,4976,4928,0
140875568,140875377,4259850,4325386,0.000927827,-0.00234712,0.000124791,0.0115854,-0.0243216,-0.0429811,4986,4969,0
141374545,141374368,4259850,4325386,0.00198989,-0.00132323,-0.000674735,0.0106297,-0.00582824,-0.0330327,4954,4673,0
141877575,141877432,4259850,4325386,-4.13645e-05,0.000258771,0.000478964,-0.00331078,0.00574293,-0.0475153,4965,4964,0
142376750,142376640,4259850,4325386,0.0012408,-0.000557966,-0.00115365,0.0037423,-0.0189005,-0.0464231,4985,4969,0
142875649,142875517,4259850,4325386,-0.00153918,0.000868249,0.000492035,-0.0117677,0.0292338,-0.0585784,5000,4997,0
143374335,143374162,4259850,4325386,0.000442196,-0.000587319,-0.000738544,-0.00595722,-0.0184394,-0.0539903,4991,4990,0
143873415,143873027,4259850,4325386,-0.000793056,-0.000562591,0.000509896,-0.00309688,0.00143753,-0.04912,4994,4922,0
144371814,144371674,4259850,4325386,-0.00157271,0.00110527,0.00128689,-0.00818815,0.0312756,-0.0546867,4978,4927,0
144875039,144874923,4259850,4325386,-0.000202201,0.000513574,-0.000146392,-0.00569498,0.00255497,-0.045745,4986,4969,0
145373828,145373687,4259850,4325386,0.000270352,-0.000472667,-0.000232389,-0.00582136,-0.0118839,-0.0514403,4972,4978,0
145878108,145877935,4259850,4325386,0.000410277,-0.00129481,0.000293715,0.00211997,-0.00448334,-0.0566274,4997,5915,0
146376848,146376713,4259850,4325386,-0.000111101,-0.00136374,-6.25251e-05,-0.00939925,-0.0136346,-0.0587155,4951,4758,0
146875911,146875726,4259850,4325386,0.00152762,-0.000490794,-0.00126813,-0.000844387,-0.0219206,-0.0573522,5271,5914,0
147374406,147374264,4259850,4325386,-0.000316647,0.00197417,-0.000345115,-0.0045619,-0.00250686,-0.0476293,4995,4969,0
147873106,147872963,4259850,4325386,0.000223711,-0.000558409,0.000413365,0.0121202,0.018111,-0.0392755,4989,4928,0
148377004,148376769,4259850,4325386,-0.00112714,0.00038586,-3.39983e-05,-0.00716997,0.00682923,-0.0464997,4959,4923,0
148875581,148875467,4259850,4325386,0.000991955,-0.000601388,-0.000717721,0.011974,-0.0234195,-0.0428655,4981,4927,0
149375994,149373945,4259850,4325386,-0.000383327,-0.000429914,-0.00024903,0.000897245,-0.00346917,-0.0464346,4964,4927,0
149877085,149876973,4259850,4325386,0.00143416,-0.000334089,-0.000193318,0.0139585,-0.00984701,-0.0349055,4986,4938,0
150370886,150370775,4259850,4325386,0.00087961,-0.0010463,-0.000806764,0.000137386,-0.0197906,-0.0499033,4967,4965,0
150874624,150874491,4259850,4325386,-0.00113567,0.000969939,0.000953414,-0.00338386,0.0212496,-0.0498871,4988,4980,0
151373361,151373250,4259850,4325386,-0.000519788,-0.000774827,-0.000778528,0.00300547,-0.0168462,-0.04211,4988,4964,0
151877219,151877097,4259850,4325386,0.001662,-0.000757069,-0.000611192,0.00681888,-0.0202706,-0.0406895,4983,4963,0
152376066,152375921,4259850,4325386,0.00210992,-0.00145304,-0.00162689,0.00266716,-0.0285633,-0.0437751,4958,4960,0
152878123,152878009,4259850,4325386,-6.19748e-05,-0.000403098,-0.000403094,-0.00146443,-0.00457899,-0.0508917,4991,4923,0
153376878,153376765,4259850,4325386,-0.00107656,0.00114372,0.000813704,-0.0112214,0.00664618,-0.0533447,4986,4973,0
153875872,153875692,4259850,4325386,-0.00194181,0.000666932,0.00112698,-0.00876124,0.0216221,-0.0524101,4965,4964,0
154374406,154374290,4259850,4325386,0.00218511,-0.000132642,-0.000926066,0.00115524,-0.0174714,-0.0502279,4995,4882,0
154873281,154873169,4259850,4325386,0.00103831,-0.000769076,-0.00134099,0.00633527,-0.0274935,-0.0474153,4986,4967,0
155376939,155376788,4259850,4325386,-0.000391519,-0.00116216,-0.00138696,-0.00307086,-0.0218068,-0.0462156,4987,4929,0
155875677,155875547,4259850,4325386,0.000974351,0.000475407,-0.00124741,0.0011291,-0.0264046,-0.0435771,4987,4945,0
156374460,156374307,4259850,4325386,0.00108242,-0.000791075,-0.00105455,-0.000286972,-0.0205661,-0.0456722,4988,4995,0
156878085,156877948,4259850,4325386,0.00144263,0.000191066,0.000803592,0.00778789,0.0099595,-0.0485713,5006,4994,0
157372111,157371954,4259850,4325386,0.000296915,4.25573e-05,0.000601672,0.00456604,-0.00115217,-0.0467251,4980,4928,0
157875682,157875572,4259850,4325386,0.000195522,-0.000369017,-0.00294121,-0.0022904,-0.0254378,-0.0505229,4988,4964,0
158374521,158374410,4259850,4325386,-0.000355545,0.000205588,-0.00734216,-0.0015344,0.00693511,-0.0525334,4987,4966,0
158873225,158873090,4259850,4325386,4.17178e-05,0.00136611,-0.00359483,-0.00815319,0.0309603,-0.0466219,4986,4927,0
159377233,159377068,4259850,4325386,0.000116052,0.000342238,0.00152944,0.0102309,0.0181942,-0.0352902,4961,4928,0
159875704,159875597,4259850,4325386,0.00146816,-0.00275576,-0.000130565,0.00140505,-0.0275495,-0.0440422,4988,4926,0
160374476,160374356,4259850,4325386,0.00416601,0.000254162,0.00100604,-0.0011922,0.013117,-0.0465309,4987,4974,0
160873325,160873216,4259850,4325386,-0.000863503,0.000841067,-0.00136949,-0.00412615,-0.0197263,-0.0459482,4952,4949,0
161372030,161371875,4259850,4325386,0.000499927,-0.000875934,-0.00156844,-0.00638991,-0.0241073,-0.054136,4988,4992,0
161876213,161875656,4259850,4325386,-0.000842898,-0.000203591,-0.000492079,-0.0112697,-0.0185628,-0.0717532,4995,5912,0
162374513,162374385,4259850,4325386,9.33502e-05,-0.00052508,-0.000870342,-0.00175014,-0.0152189,-0.0411464,4988,4932,0
162873494,162873333,4259850,4325386,-0.000717527,0.000237468,0.000387729,-0.00649934,-0.0101665,-0.0518872,4964,4928,0
163377773,163377660,4259850,4325386,-0.000305212,0.000332392,0.000681117,-0.000988608,-0.0118234,-0.0487333,4955,4956,0
163876480,163876358,4259850,4325386,-0.00246793,-0.000155865,0.0013405,-0.00861974,0.00883616,-0.0545434,4973,4928,0
164374220,164374057,4259850,4325386,-0.00104237,0.000990451,0.000359156,-0.00622184,-0.00139298,-0.0391417,5000,4931,0
164872508,164872272,4259850,4325386,0.00155097,-0.000143536,-0.000733512,0.0023773,-0.00911932,-0.0633744,4972,5918,0
165375263,165375103,4259850,4325386,0.000716583,0.000126412,-0.000597268,-0.00639065,-0.0248083,-0.0571819,4963,4959,0
165873965,165873730,4259850,4325386,0.000461887,0.000732473,0.000320372,0.00145245,0.0134479,-0.0334937,4992,4989,0
166377589,166377475,4259850,4325386,0.000294112,-0.000653287,-0.000471353,-0.00534302,-0.00455241,-0.0558651,4993,4927,0
166876614,166876407,4259850,4325386,0.000232394,-0.000804881,-1.13095e-05,-0.00954816,-0.0222774,-0.0599103,4951,4952,0
167375245,167375114,4259850,4325386,0.00209184,-0.000602902,-1.25607e-05,0.0110257,-0.00536908,-0.043488,4992,4928,0
167873900,167873759,4259850,4325386,-0.000177169,0.000979513,0.00115102,-0.00527071,0.0236441,-0.0534854,4994,4927,0
168372637,168372512,4259850,4325386,0.00142935,-0.000722688,-0.000957624,0.00404763,-0.0106443,-0.0383325,4985,4985,0
168876452,168876331,4259850,4325386,-0.000411432,0.000183411,-0.000638123,-0.00739461,-0.0124741,-0.0477125,4964,4923,0
169375136,169375019,4259850,4325386,-0.000250736,0.000139764,0.000681047,-3.23442e-06,0.0177483,-0.0503595,4981,4988,0
169873900,169873780,4259850,4325386,-0.000306854,6.16122e-05,0.000919519,-0.0017029,0.0203039,-0.0487682,4988,4964,0
170377849,170377591,4259850,4325386,-0.000989142,0.000313697,-0.000121392,-0.00178917,-0.00946758,-0.0471461,4967,4925,0
170876778,170876637,4259850,4325386,-0.00196164,-4.05601e-05,-0.000170831,-0.000895361,-0.00197797,-0.0474869,4988,4928,0
171374611,171374500,4259850,4325386,-0.00129994,1.33567e-05,-0.000524923,-0.00585832,-0.00486677,-0.0547272,4987,4928,0
171873647,171873493,4259850,4325386,-0.00016199,-0.00124138,0.000682242,-0.0119607,0.0310879,-0.0585115,4971,4963,0
172372150,172372027,4259850,4325386,-9.4409e-05,-4.07425e-05,-0.000469414,-0.00399664,-0.0198812,-0.0450422,4991,4885,0
172876097,172875838,4259850,4325386,0.000860546,0.000379669,-0.000510744,-0.00129821,-0.0145939,-0.0511878,4969,4927,0
173374719,173374563,4259850,4325386,0.000997767,-0.000868582,-0.000118219,0.00133742,0.00565993,-0.046589,4975,4927,0
173873474,173873288,4259850,4325386,-0.000854143,0.00057329,0.000279282,0.00105917,0.0132441,-0.0534472,4988,5667,0
174377150,174377035,4259850,4325386,0.00123182,-0.00059469,-4.34164e-05,0.016879,-0.00969518,-0.0390608,4983,4927,0
174870922,174870808,4259850,4325386,0.00199914,-8.0467e-06,0.000392393,-0.00624518,0.00632638,-0.0483721,4987,4964,0
175374874,175374723,4259850,4325386,-0.00290366,-0.000442317,-0.0011933,-0.0117621,-0.0184159,-0.0529514,4955,4941,0
175873423,175873316,4259850,4325386,-0.00136937,6.88256e-05,0.00133267,-0.00604292,0.0217564,-0.0527132,4962,4927,0
176377207,176377088,4259850,4325386,-0.000104534,-0.000729479,-0.00052404,-0.00407709,-0.0179878,-0.0462503,4988,4926,0
176876179,176876030,4259850,4325386,-0.000834287,0.000815116,0.000978458,-0.0114537,0.020446,-0.0574388,5001,4926,0
177374708,177374584,4259850,4325386,-0.000270673,0.000404468,-0.000784215,-0.0106034,0.00231982,-0.0558167,4988,4928,0
177878450,177878331,4259850,4325386,0.00062559,0.000211624,-0.000480746,5.72411e-05,-0.0194872,-0.0474346,4987,4924,0
178371730,178371609,4259850,4325386,-0.00175632,0.000209089,0.000930631,-0.00661224,0.028815,-0.0532978,4991,4927,0
178875592,178875482,4259850,4325386,-0.000534885,0.000152434,-0.000348482,-0.00361312,-0.00537475,-0.0401698,4981,4921,0
179374261,179374114,4259850,4325386,0.000511848,0.000301457,0.000632601,-0.00928156,-0.000265465,-0.0541798,4988,4990,0
179872492,179872377,4259850,4325386,-0.00141222,0.000164586,0.000475151,-0.0130581,0.00331443,-0.0581125,4955,4932,0
180376246,180376123,4259850,4325386,0.000564881,0.000255001,-0.000727986,0.000702601,0.00214388,-0.049343,4986,4755,0
180875219,180875097,4259850,4325386,0.000249384,0.00110536,0.000669357,-0.00031081,0.000435279,-0.0495027,4973,4926,0
181378782,181378634,4259850,4325386,-0.000650907,0.000394956,0.000756511,0.000225986,0.0175679,-0.0498945,4990,4930,0
181872516,181872404,4259850,4325386,5.02282e-06,0.000476679,-9.51301e-06,0.00423567,0.00726198,-0.0417427,4987,4931,0
182376370,182376164,4259850,4325386,-0.00121335,0.000420854,-0.00628261,-0.0048314,0.000104843,-0.0447499,4998,3951,0
182875226,182875078,4259850,4325386,-0.00128841,-1.97933e-06,-0.00677527,0.00389936,0.00704567,-0.0368638,4957,4926,0
183373797,183373673,4259850,4325386,0.000994959,0.000333758,0.000539358,-0.00182735,0.0041455,-0.04021,4987,4773,0
183877535,183877424,4259850,4325386,-0.000734891,-0.000364309,0.00110721,-0.0190576,-0.0052222,-0.0547209,4988,4924,0
184376526,184376332,4259850,4325386,-0.00182894,0.000959542,0.00185909,0.00287383,0.0184782,-0.0462426,4952,4952,0
184875084,184874951,4259850,4325386,-0.000315186,0.000496878,0.000359258,0.00261545,0.0118146,-0.0605774,4987,5707,0
185373819,185373703,4259850,4325386,0.000298583,6.73389e-05,-0.000386448,0.00354581,-0.0181786,-0.0615038,4988,4927,0
185872457,185872250,4259850,4325386,0.000691383,-0.000117195,-0.000559719,-0.00871898,-0.00437319,-0.0626711,5271,6032,0
186375870,186375713,4259850,4325386,-0.00150287,0.000281176,0.000892705,4.70415e-05,0.00893661,-0.038655,4986,4942,0
186874770,186874663,4259850,4325386,0.00136301,6.42128e-05,0.00066906,0.00292907,6.10699e-05,-0.0410205,5043,4938,0
187373494,187373364,4259850,4325386,-0.000437634,0.00070788,0.000703982,-0.0176824,0.00631642,-0.0551959,4966,4969,0
187877128,187876982,4259850,4325386,0.00125687,-0.000526358,-0.00116187,-0.00414454,-0.0295249,-0.0489083,4987,4961,0
188375867,188375745,4259850,4325386,-0.000282776,-7.76548e-05,-0.000858009,-0.00413859,-0.00101061,-0.0484268,4988,4991,0
188874616,188874508,4259850,4325386,-0.00186962,9.9032e-05,0.000469131,-0.0152473,0.0197505,-0.0548708,4945,4928,0
189372947,189372817,4259850,4325386,0.000585067,-0.000103423,5.63397e-05,0.00246299,-0.00495689,-0.0472375,4988,4957,0
189876692,189876566,4259850,4325386,0.000531307,-0.000110311,-0.000380132,-0.00318322,0.000692155,-0.0484538,4991,4976,0
190375545,190375432,4259850,4325386,-0.000333542,-0.00166621,-0.00072671,-0.00376998,-0.00885933,-0.0496955,4949,4923,0
190874447,190874084,4259850,4325386,0.000802,-0.000520994,-0.000113677,0.00153509,-0.00688857,-0.045032,4964,4927,0
191377951,191377832,4259850,4325386,0.000530721,0.000407206,0.000472468,0.00968568,0.00081757,-0.0434235,4988,4944,0
191876882,191876682,4259850,4325386,-0.00109697,0.000970949,0.000444834,-0.00390252,0.0158717,-0.0542091,4988,4994,0
192370564,192370414,4259850,4325386,-0.000775141,0.0016017,0.00081516,-0.0058243,0.0171403,-0.049858,4984,4971,0
192874476,192874275,4259850,4325386,-0.000313743,0.000271747,-0.00333273,-0.0110098,0.00386817,-0.0447731,4994,5830,0
193373139,193372890,4259850,4325386,0.000959017,0.000484542,0.000198338,0.00425104,0.0195314,-0.0423548,4999,4971,0
193876200,193876083,4259850,4325386,0.00169712,0.000253092,0.000606766,0.00689954,-0.008226,-0.0441228,4993,4929,0
194375371,194374880,4259850,4325386,-0.00080439,0.000770959,0.000980655,-0.000248841,0.0108577,-0.0514995,4997,4990,0
194874103,194873912,4259850,4325386,-0.000773844,0.000777874,0.000997611,-0.00692125,0.0231685,-0.0520581,4962,4666,0
195377461,195377349,4259850,4325386,0.000318607,0.000322345,0.000804025,-0.00764974,0.00991925,-0.0563543,4987,4988,0
195871322,195871122,4259850,4325386,-0.00189125,0.00088284,0.00116385,0.00366522,0.0264635,-0.0530092,4988,5811,0
196374985,196374871,4259850,4325386,0.000658835,-0.000462616,7.99969e-05,0.00467812,-0.00232433,-0.0410093,4977,4928,0
196872830,196872688,4259850,4325386,0.00101703,0.000343963,-0.000253849,0.0100517,0.00174711,-0.0401548,4989,4983,0
197376506,197376383,4259850,4325386,0.000860528,-0.000713552,-0.00120828,0.000706289,-0.0226303,-0.0445338,4988,4923,0
197875260,197875144,4259850,4325386,-0.000828774,0.000750281,-0.000280764,-0.0131927,0.00904387,-0.059386,4988,4982,0
198374039,198373907,4259850,4325386,0.000653103,-6.04252e-05,-0.0010553,0.00341203,-0.0338695,-0.0443598,4960,4927,0
198878100,198877948,4259850,4325386,-0.00109144,5.96444e-05,0.000443531,-0.00448348,0.011572,-0.0541773,4951,4928,0
199371563,199371430,4259850,4325386,0.000885519,0.000353916,-0.000200571,0.00336077,-0.018301,-0.043858,4984,4924,0
199875335,199875176,4259850,4325386,-0.00212124,-1.53193e-05,-0.000664783,0.000375484,-0.0249776,-0.0493146,4988,4957,0
200374092,200373939,4259850,4325386,0.00110179,-0.0003768,-0.000437832,0.00175807,0.0101058,-0.0376043,4986,4919,0
200873166,200872976,4259850,4325386,0.00226118,-0.000580414,-0.00109369,0.00828022,-0.0152553,-0.0481832,5265,5859,0
201376558,201376448,4259850,4325386,-0.00051031,-0.00018524,-0.000259368,-0.00922707,-0.0195314,-0.0549502,4988,4962,0
201875326,201875209,4259850,4325386,0.000956895,-0.000710296,-0.000323236,0.00722598,-0.00295983,-0.0421114,4992,4980,0
202374358,202374237,4259850,4325386,0.000804722,-0.00010971,0.000323096,-0.00747354,-0.00442173,-0.0558368,4971,4927,0
202873099,202872734,4259850,4325386,0.00129598,-0.000126039,-0.00179556,-0.00542985,-0.0343445,-0.0471407,4990,4929,0
203371628,203371493,4259850,4325386,-0.000760142,0.000362161,-0.000171969,-0.00852485,0.000653618,-0.0546754,4988,4928,0
203875982,203875870,4259850,4325386,-0.000524637,0.00106137,0.00176777,-0.0116948,0.0166497,-0.0542364,4981,4927,0
204374651,204374503,4259850,4325386,-0.000181017,0.000619063,0.00127495,-0.0100471,0.0249823,-0.0496846,4989,4977,0
204873525,204873389,4259850,4325386,-0.00154691,0.00072056,0.00163905,-0.00368365,0.0291671,-0.0552418,4963,4965,0
205377126,205377013,4259850,4325386,-0.000150929,-0.000749804,0.000433607,0.00899682,0.0156727,-0.0429818,4988,4924,0
205875984,205875775,4259850,4325386,0.000452602,0.000389532,-1.81353e-05,-0.00197544,0.00532399,-0.0552426,4988,5915,0
206374712,206374560,4259850,4325386,-0.000534107,0.000415991,-3.58018e-05,-0.00786289,-0.00342746,-0.0534621,4973,4970,0
206873673,206873558,4259850,4325386,9.29695e-05,0.000100857,-0.000110052,0.00132233,0.00276546,-0.045339,4965,4967,0
207372470,207372157,4259850,4325386,0.00129516,-0.000886413,-0.000529213,0.00246949,-0.0120965,-0.045004,4994,5855,0
207875952,207875808,4259850,4325386,6.88556e-05,-0.00114119,-0.000756593,0.00345438,-0.0214702,-0.0436968,4988,4968,0
208374741,208374594,4259850,4325386,0.000209189,0.000703268,-0.000136599,-0.00191071,0.00661636,-0.0534649,4969,4928,0
208873466,208873330,4259850,4325386,0.00124405,-6.12991e-05,-0.000470861,0.00154785,-0.0109508,-0.0468528,4987,4962,0
209377241,209377080,4259850,4325386,-0.000981348,0.000111031,0.000438507,-0.00883664,0.00655619,-0.0568093,4988,4934,0
209871011,209870898,4259850,4325386,0.000121918,-0.000487956,-0.000482798,-0.00361068,-0.017649,-0.0502508,5025,4911,0
210374885,210374773,4259850,4325386,-0.00104734,0.000323114,-0.000194571,-0.00515545,-0.00151568,-0.0487415,4966,4927,0
210874005,210873891,4259850,4325386,0.00108542,4.60685e-05,-0.00110674,0.00218529,-0.0205683,-0.0400098,4960,4925,0
211372799,211372625,4259850,4325386,0.000473389,0.000149023,-0.000626771,-0.000241974,-0.00352401,-0.0440053,4987,4958,0
211876488,211876374,4259850,4325386,-0.00161627,0.000203573,0.000395552,-0.0168926,-0.00372645,-0.0620523,4984,4962,0
212375322,212375211,4259850,4325386,0.000508379,-0.000706382,-0.000422112,0.00250115,-0.0150325,-0.0469919,4983,4929,0
212874246,212874075,4259850,4325386,-0.00116977,0.000353663,-0.000148957,0.00576562,0.00135201,-0.0415364,4963,4927,0
213372777,213372659,4259850,4325386,-0.00163668,0.000786161,0.00089749,-0.00818942,0.00492281,-0.0490318,4988,4935,0
213871562,213871453,4259850,4325386,7.76278e-05,-0.000553196,-0.000713419,-0.00437684,-0.0149329,-0.0460335,5019,4906,0
214374800,214374687,4259850,4325386,-0.00130124,-2.51717e-05,0.000145481,-0.0119316,-0.0152583,-0.0598203,4983,4932,0
214873836,214873623,4259850,4325386,0.00130324,0.0008024,0.000739967,-0.000225584,0.0100158,-0.0609149,4995,5922,0
215377296,215377183,4259850,4325386,-0.0013615,0.000468265,0.00141809,-0.0080551,0.0220923,-0.0527957,4982,4927,0
215876632,215876519,4259850,4325386,0.00177621,-0.000397517,-0.00121173,-4.22396e-05,-0.0242857,-0.0442253,5035,4934,0
216375496,216375329,4259850,4325386,-0.000284291,-0.000105392,-0.000424101,-0.00531929,-0.0191548,-0.0447655,4972,4927,0
216874187,216873967,4259850,4325386,-0.00155808,-0.000687001,0.0016518,-0.00906637,0.0196888,-0.0524702,4988,5624,0
217372841,217372728,4259850,4325386,7.92785e-05,8.83514e-05,0.000501348,0.00258244,0.00201358,-0.0483717,4988,4962,0
217876595,217876480,4259850,4325386,0.000271762,-0.000589132,-0.00079591,-0.00950422,-0.0199163,-0.0466236,4989,4762,0
218375627,218375513,4259850,4325386,0.00243778,-0.00019983,-0.00171546,-0.000860014,-0.0208552,-0.0418574,5261,4949,0
218873716,218873529,4259850,4325386,-0.00057456,0.0013606,0.000272288,0.00525656,-0.00541492,-0.0471856,5013,4903,0
219377637,219377471,4259850,4325386,0.000789134,-0.000259339,-0.000746527,-0.00596378,-0.0140444,-0.0477089,4971,4927,0
219876131,219876019,4259850,4325386,-0.00137974,0.000619755,0.000263326,-0.00168529,-0.000835963,-0.0475607,4993,4984,0
220374946,220374776,4259850,4325386,0.00152161,-0.00072685,-0.00104604,0.0010048,-0.0183471,-0.0429913,4987,4945,0
220873183,220873041,4259850,4325386,0.000214898,-0.000919255,0.00115874,-0.00736731,0.00715051,-0.0522794,4989,4932,0
221372481,221372309,4259850,4325386,-0.000633957,0.000855622,0.0011244,0.00274533,0.00807125,-0.0504588,4996,5003,0
221876926,221876762,4259850,4325386,0.00110113,0.000379382,-0.000437322,0.00216574,-0.00614244,-0.0485135,4959,4957,0
222375418,222375310,4259850,4325386,7.02727e-05,-0.000283311,-7.03007e-05,-0.00848866,-0.00283776,-0.04843,4985,4788,0
222874753,222874619,4259850,4325386,-0.000131851,-0.00038523,2.87619e-05,-0.00139966,0.000771388,-0.043843,4956,4930,0
223378913,223378381,4259850,4325386,-0.000643434,0.00013149,0.000323557,0.00317223,-0.000497787,-0.0485527,4998,5722,0
223872422,223872182,4259850,4325386,-0.00038192,2.68825e-05,-0.000719735,-0.00788471,-0.0198865,-0.0669428,5003,5914,0
224375522,224375346,4259850,4325386,-0.000300017,-0.00166651,-0.000590635,-0.00559378,-0.0145278,-0.0672518,4988,5842,0
224874226,224874108,4259850,4325386,0.00170688,0.00128147,-0.000237075,0.00149955,3.09167e-05,-0.0461878,4986,4683,0
225373167,225373053,4259850,4325386,8.14351e-05,0.000555844,0.000861071,0.00107336,0.0162905,-0.0518388,4968,4989,0
225876747,225876619,4259850,4325386,0.00100419,-0.0011222,-0.000700422,-0.0020125,-0.016408,-0.0411268,4983,4926,0
226375495,226375381,4259850,4325386,-0.000409701,-0.000444817,0.00111507,-0.00511793,0.0260828,-0.0540042,4987,4929,0
226874532,226874325,4259850,4325386,0.000904879,-0.000518696,-0.00158475,-0.00643704,-0.0267862,-0.035122,4953,3940,0
227373100,227372908,4259850,4325386,-0.000340297,0.000555906,0.000594366,-0.000210376,0.0107912,-0.0471456,4990,5447,0
227871778,227871668,4259850,4325386,0.00119267,-0.000451422,0.00114725,0.00282723,-0.00110418,-0.0502818,4988,4955,0
228374539,228374422,4259850,4325386,0.000423843,-0.000488986,-0.00164686,0.00114151,-0.0249414,-0.045379,4987,4970,0
228874429,228874316,4259850,4325386,-0.00083765,-0.000412721,-0.000169971,-0.00155678,0.00170165,-0.0505775,4968,4929,0
229377950,229377433,4259850,4325386,-0.000487308,0.000213087,-0.000838887,-0.0119755,-0.0154622,-0.0625568,4985,6070,0
229875832,229875694,4259850,4325386,-0.0003133,-0.000421761,-0.000569096,-0.00618316,-0.0144704,-0.0522406,4988,4988,0
230374565,230374456,4259850,4325386,0.00220683,0.000148843,3.32427e-05,0.0104765,-0.0174246,-0.0422536,4957,4927,0
230873658,230873523,4259850,4325386,0.000239316,5.43152e-05,-0.000409301,-0.00236503,-0.0193244,-0.0530406,4986,4796,0
231372250,231372124,4259850,4325386,-3.74246e-05,-4.03047e-05,-0.000464202,-0.00415619,0.00881954,-0.0539718,4984,4993,0
231875901,231875742,4259850,4325386,-0.00124582,0.000699396,0.00052459,0.0086588,0.00793159,-0.0395147,4991,4878,0
232377683,232377551,4259850,4325386,-0.00103156,-0.000413626,0.000280286,0.000666174,-0.00521669,-0.0502037,5009,5005,0
232876522,232876410,4259850,4325386,0.00247675,0.00137162,0.000102211,0.00158434,-0.0122336,-0.0509383,4990,4929,0
233375301,233375062,4259850,4325386,0.000777979,0.000731825,-3.26287e-05,-0.00230882,0.0187564,-0.0556676,4970,5914,0
233873919,233873773,4259850,4325386,0.000133602,-0.000459091,0.000525486,0.00707755,0.00308823,-0.0427761,4988,4924,0
234372664,234372535,4259850,4325386,0.000969575,-0.000253342,-0.000551563,0.000646986,-0.0131285,-0.043494,4987,4984,0
234876401,234876288,4259850,4325386,-0.00156331,0.000766016,0.000820834,-0.00132078,0.0267057,-0.0535856,4991,4990,0
235375357,235375243,4259850,4325386,-0.000192916,7.14154e-05,-0.00102487,-0.00564554,-0.026771,-0.0516319,4964,4986,0
235873924,235873811,4259850,4325386,0.000471434,9.9998e-05,0.000317103,-0.00926275,-0.0128867,-0.0566257,4986,4923,0
236373220,236373071,4259850,4325386,-0.000913291,-7.96179e-05,-0.000661747,-0.00675719,-0.0150087,-0.0532297,4988,4985,0
236876958,236876822,4259850,4325386,-0.000579076,-0.000761753,-0.000512635,-0.00733029,-0.0225276,-0.0486299,4985,4968,0
237375787,237375675,4259850,4325386,-0.000653915,0.000527943,0.00132431,-0.000354931,0.00747978,-0.0480229,4977,4976,0
237875293,237874734,4259850,4325386,-0.000328057,0.00127666,-0.000856602,-0.0017571,-0.00784505,-0.0557801,4950,5915,0
238373226,238373109,4259850,4325386,-0.00177348,0.00146122,0.000396677,-0.00571598,0.0167123,-0.0532515,4987,5015,0
238872048,238871871,4259850,4325386,0.00057117,-0.000571941,2.95919e-05,-0.00523025,0.00176014,-0.0590513,4988,5828,0
239375240,239375122,4259850,4325386,-0.000671243,2.0451e-05,-0.000449687,-0.0112439,-0.0194275,-0.0516224,4986,4929,0
239874099,239873985,4259850,4325386,0.00126131,-0.00065664,-0.00125808,0.00375058,-0.0332056,-0.046486,4956,4927,0
240377811,240377635,4259850,4325386,-0.00111268,-0.000653956,-0.000817043,-0.008984,0.013402,-0.0574221,4969,4679,0
240877076,240876891,4259850,4325386,0.00376789,0.000565165,-0.000359218,0.00907228,-0.00831518,-0.0346519,4968,4961,0
241371334,241371091,4259850,4325386,-0.000235774,0.000197684,0.000174721,0.000708908,-0.00432706,-0.0453462,4990,4876,0
241874574,241874422,4259850,4325386,-0.000501209,-0.000517276,-0.00130224,-0.00512769,-0.020956,-0.0509386,4988,4990,0
242373362,242373184,4259850,4325386,-5.41225e-05,0.00010609,-0.001051,-0.00609793,-0.0376622,-0.0529908,4982,4987,0
242877096,242876948,4259850,4325386,5.09547e-05,0.000801188,-0.000223219,-0.00458482,-0.00344431,-0.0541289,4997,4884,0
243375441,243375270,4259850,4325386,-0.000260371,-0.000228003,-0.000234791,0.0078958,-0.0197385,-0.0393919,4952,4755,0
243874121,243873961,4259850,4325386,0.0035099,-0.000306695,-0.000336202,0.00118067,0.0136467,-0.0417569,4987,4926,0
244378125,244377966,4259850,4325386,-0.000339022,0.000374536,0.000893595,-0.00302428,0.00162806,-0.0506152,4979,4927,0
244871597,244871487,4259850,4325386,0.000393355,-2.92907e-05,-0.000194489,0.00146022,0.0100213,-0.0453413,4989,4930,0
245375355,245375237,4259850,4325386,-0.0013644,-0.000798009,-0.00045942,-0.00652489,-0.0090682,-0.0481818,4987,4930,0
245874239,245874061,4259850,4325386,0.000114391,0.000277674,0.00035613,0.000191682,-0.00179771,-0.0550506,4972,5915,0
246377370,246377252,4259850,4325386,-0.000115121,-0.00100574,6.34982e-05,0.00984854,-0.0170793,-0.0472144,4987,4976,0
246875629,246875514,4259850,4325386,0.000192211,-0.00111156,-0.000280654,0.00749535,-0.0104602,-0.0437116,4986,4921,0
247374089,247373897,4259850,4325386,0.00164595,-0.000228277,-0.00107182,-0.00137657,-0.00772901,-0.0542465,4974,4977,0
247877720,247877575,4259850,4325386,-0.00110617,0.000976741,0.00108421,-0.00878598,0.00392046,-0.0543136,4986,4969,0
248375420,248375294,4259850,4325386,-0.00108759,0.000860653,-0.000135453,0.00103713,-0.00122131,-0.0473307,4989,5023,0
248874171,248874056,4259850,4325386,0.000245371,-4.31883e-05,-0.000653998,-0.00184628,-0.0218194,-0.0465996,4988,4993,0
249373024,249372912,4259850,4325386,-0.000428892,-0.000114317,0.000845334,-0.012832,0.0276216,-0.0578928,4984,4970,0
249876218,249876069,4259850,4325386,0.00178034,-0.000431777,-6.41273e-05,0.0018986,0.0119536,-0.0434857,4988,4927,0
250374204,250374080,4259850,4325386,9.51354e-05,0.00105944,-0.00108736,-0.0061784,0.00318945,-0.0469164,4997,4971,0
250877762,250877649,4259850,4325386,-0.00241885,8.07087e-05,0.00123389,-0.00840003,0.020818,-0.0518552,4959,4932,0
251376537,251376396,4259850,4325386,-1.51407e-05,-0.000567927,-0.00121148,-0.00109951,-0.0118452,-0.0447253,4986,4927,0
251875401,251874822,4259850,4325386,0.000476906,0.00148974,0.000370049,-0.013619,0.0118856,-0.0533026,4995,4995,0
252373685,252373567,4259850,4325386,-0.00149867,-0.000109458,-0.000410124,-0.000168153,-0.0104555,-0.0395795,4990,4696,0
252872252,252872137,4259850,4325386,-0.000161804,0.000208981,9.76611e-05,-0.0127857,0.0129213,-0.0661847,4987,4967,0
253376005,253375888,4259850,4325386,0.000739543,1.64698e-05,0.000313671,-0.000909802,0.0136585,-0.0432404,4988,4950,0
253874934,253874819,4259850,4325386,-0.000530828,0.000327181,0.000793259,-0.00345583,0.00283091,-0.0491322,4969,4928,0
254373741,254373417,4259850,4325386,6.78032e-05,0.000202262,-0.000178702,-0.00224396,-0.000325179,-0.0448129,4985,4738,0
254876277,254876166,4259850,4325386,-0.000521259,3.41509e-05,-0.00133844,0.00151846,-0.0168467,-0.0402165,4987,4925,0
255375058,255374930,4259850,4325386,0.00224061,-0.00103821,7.57583e-05,0.00911972,-0.0159851,-0.0396985,4988,4985,0
255874019,255873909,4259850,4325386,0.000882103,-0.000389868,-0.000841687,-0.00879086,-0.0348445,-0.0579975,4960,4972,0
256372708,256372526,4259850,4325386,-0.000782191,0.000144137,4.29239e-05,-0.00585699,-0.0119786,-0.047447,4999,4936,0
256876351,256876216,4259850,4325386,0.000884563,-0.000957645,-0.00156486,0.00748345,-0.0155212,-0.0364385,4994,4921,0
257375125,257374969,4259850,4325386,0.000178794,-0.00133706,0.000783438,-0.0034465,0.0119541,-0.0544393,4988,4943,0
257874107,257873961,4259850,4325386,-0.000239407,0.000312111,-0.000737299,-0.00149028,-0.00319054,-0.052703,4938,4927,0
258377591,258377482,4259850,4325386,-0.000853734,0.00166192,0.000641177,-0.00371255,0.0098232,-0.0420956,4988,4923,0
258871376,258871265,4259850,4325386,0.00149322,-0.000697973,-0.000234511,-0.00241011,-0.0279004,-0.045421,4995,4991,0
259375302,259375188,4259850,4325386,-0.00143722,0.00121392,0.00105433,-0.0109487,0.0145323,-0.0600379,4972,4969,0
259873938,259873795,4259850,4325386,0.00116434,0.000464286,0.000798828,0.000805683,0.00349192,-0.0566662,4987,4927,0
260372826,260372543,4259850,4325386,-0.000787772,0.000112128,0.000307917,-0.00659483,-0.00941959,-0.0543863,4993,4909,0
260876396,260876285,4259850,4325386,0.00187748,0.00062843,-0.000272124,0.00383926,-0.00747019,-0.0368173,4988,4927,0
261375713,261375599,4259850,4325386,-0.000599143,-0.000571518,-0.00148626,-0.0069729,-0.0382802,-0.051961,4990,4975,0
261874594,261874407,4259850,4325386,-0.00205122,0.000815073,-0.000843504,-0.0121846,-0.00923673,-0.0531572,5018,4917,0
262373227,262373072,4259850,4325386,0.000354405,0.000804358,-0.000379062,-0.000893318,0.00219755,-0.0528818,4987,4926,0
262871985,262871837,4259850,4325386,-0.000686077,0.000743927,0.00160479,-0.00251077,0.00589739,-0.0536241,4989,4978,0
263375702,263375586,4259850,4325386,-0.000115714,0.000208103,-0.00060734,0.00297914,0.00858745,-0.042699,4947,4929,0
263874663,263874547,4259850,4325386,-0.000712837,-0.000287937,-0.00147673,-0.0109733,-0.0268614,-0.0556363,4970,4930,0
264373230,264373113,4259850,4325386,-0.00077653,0.000612787,0.000697899,-0.00011728,0.0246509,-0.0463557,4987,4991,0
264877527,264876885,4259850,4325386,-0.000586909,-0.000161364,0.000286375,-0.00272824,-0.00256324,-0.0483442,4990,4961,0
265375921,265375809,4259850,4325386,0.000736156,-0.00180288,-0.000999992,0.00888164,-0.0327993,-0.0417892,4962,4927,0
265874521,265874389,4259850,4325386,0.000248507,0.000733063,0.000209743,-0.000873728,0.0154471,-0.0414653,4987,4927,0
266374143,266373959,4259850,4325386,-0.000705116,-0.000905088,0.00205489,-0.00204915,0.0236558,-0.0512669,4981,4985,0
266872550,266872415,4259850,4325386,-0.000784808,-0.000646495,-0.000117978,-0.0102426,-0.0255934,-0.0553514,4989,4989,0
267376277,267376165,4259850,4325386,-0.000962899,0.000987639,0.00106745,-0.00520599,0.0329483,-0.0507504,4986,4950,0
267875042,267874926,4259850,4325386,0.000500496,0.00102479,-0.000885218,-0.000175198,0.000698056,-0.0449298,4971,4927,0
268378036,268377770,4259850,4325386,-6.44302e-05,9.68927e-05,-0.000148851,-0.000940667,0.00515145,-0.0525779,4972,4927,0
268876631,268876496,4259850,4325386,0.00144798,-9.78452e-05,-0.000964347,0.00823378,-0.0157735,-0.0436806,5036,4918,0
269375316,269375209,4259850,4325386,0.000476379,-4.43839e-06,0.000526619,0.00848841,-0.00802381,-0.0434908,4981,4918,0
269874116,269874003,4259850,4325386,-0.000679284,-6.60685e-05,0.000511594,-0.00802821,0.0239367,-0.054176,4984,4927,0
270373164,270372999,4259850,4325386,0.000268254,6.47721e-05,0.000609532,-0.0111199,-0.0159905,-0.0665176,5249,6209,0
270876731,270876587,4259850,4325386,0.000579244,0.000463284,-0.000301746,0.00142106,-0.00886858,-0.0460331,4988,4973,0
271375475,271375248,4259850,4325386,-0.00139075,0.000745818,0.00116417,0.00431597,0.0174464,-0.0497088,4988,4927,0
271873626,271873513,4259850,4325386,-0.000456699,6.49463e-05,0.00117366,-0.00865769,0.00545813,-0.0514206,4988,4990,0
272377376,272377263,4259850,4325386,-0.000602993,0.00045831,0.000482746,0.00740218,0.0287862,-0.0431357,4985,4958,0
272871407,272871297,4259850,4325386,-0.00052697,0.000639191,0.00081865,-0.0054897,0.0145427,-0.0507649,4925,4962,0
273374931,273374789,4259850,4325386,0.000320404,-0.000250268,-0.000563752,0.000988426,-0.0249507,-0.0461401,4984,4923,0
