timestamp,lat,lon,alt,alt_ellipsoid,delta_alt,eph,epv,terrain_alt,lat_lon_reset_counter,alt_reset_counter,terrain_alt_valid,dead_reckoning
26182667,34.0356189541,108.757415287,422.73,394.82,-0.0,1.1336,1.4935,422.626,2,0,1,0
26192599,34.0356189565,108.757415288,422.729,394.819,-0.0,1.1337,1.49357,422.626,2,0,1,0
26381317,34.0356189639,108.757415268,422.715,394.804,-0.0,1.07588,1.48665,422.626,2,0,1,0
26584925,34.0356189251,108.757415217,422.699,394.785,-0.0,1.04027,1.48114,422.617,2,0,1,0
26783630,34.0356188724,108.757415156,422.69,394.772,-0.0,1.01621,1.47659,422.612,2,0,1,0
26982221,34.0356188386,108.757415074,422.684,394.761,-0.0,0.999093,1.47418,422.606,2,0,1,0
27180864,34.035618833,108.757414957,422.68,394.752,-0.0,0.986393,1.47083,422.604,2,0,1,0
27379511,34.0356188431,108.757414798,422.681,394.745,-0.0,0.97668,1.46795,422.603,2,0,1,0
27578157,34.0356188573,108.757414638,422.677,394.734,-0.0,0.969068,1.4666,422.597,2,0,1,0
27786736,34.0356188904,108.75741449,422.678,394.725,-0.0,0.963237,1.46452,422.597,2,0,1,0
27985382,34.0356189502,108.757414373,422.681,394.718,-0.0,0.958258,1.46254,422.597,2,0,1,0
28179062,34.0356190351,108.757414263,422.684,394.71,-0.0,0.953837,1.46064,422.597,2,0,1,0
28377708,34.0356191801,108.757414187,422.692,394.706,-0.0,0.950463,1.46004,422.597,2,0,1,0
28576518,34.035619401,108.757414129,422.709,394.71,-0.0,0.947625,1.45863,422.597,2,0,1,0
28779967,34.0356196391,108.757413968,422.754,394.74,-0.0,0.945159,1.45736,422.597,2,0,1,0
28983581,34.0356198361,108.757413621,422.826,394.797,-0.0,0.94305,1.45708,422.597,2,0,1,0
29182243,34.0356200119,108.757413019,422.915,394.868,-0.0,0.941278,1.45602,0.0,2,0,0,0
29381022,34.0356201256,108.757412244,423.019,394.954,-0.0,0.939741,1.45506,0.0,2,0,0,0
29579521,34.0356202456,108.757411329,423.138,395.055,-0.0,0.938397,1.45419,0.0,2,0,0,0
29778182,34.0356203561,108.757410383,423.273,395.17,-0.0,0.937175,1.45419,0.0,2,0,0,0
29981782,34.0356203259,108.757409697,423.431,395.311,-0.0,0.936131,1.45345,0.0,2,0,0,0
30180535,34.035620194,108.757409062,423.591,395.452,-0.0,0.935211,1.45354,0.0,2,0,0,0
30379071,34.0356200567,108.757408324,423.746,395.586,-0.0,0.934355,1.45289,0.0,2,0,0,0
30587650,34.0356199297,108.757407499,423.915,395.735,-0.0,0.933865,1.45247,0.0,2,0,0,0
30781330,34.0356198804,108.757406604,424.058,395.857,-0.0,0.932815,1.45174,0.0,2,0,0,0
30980120,34.0356199787,108.757405499,424.144,395.924,-0.0,0.932146,1.45196,0.0,2,0,0,0
31178632,34.035620046,108.757404104,424.17,395.931,-0.0,0.931571,1.45148,0.0,2,0,0,0
31377271,34.0356199739,108.757402346,424.158,395.9,-0.0,0.931075,1.45103,0.0,2,0,0,0
31580883,34.0356197507,108.757400345,424.122,395.843,-0.0,0.930582,1.45133,0.0,2,0,0,0
31779627,34.0356194616,108.757398297,424.072,395.773,-0.0,0.930125,1.45093,0.0,2,0,0,0
31983142,34.035619239,108.757396158,424.022,395.703,-0.0,0.929697,1.45054,0.0,2,0,0,0
32181789,34.0356191497,108.757394157,423.995,395.657,-0.0,0.929328,1.45019,0.0,2,0,0,0
32385402,34.0356191972,108.757392282,423.976,395.619,-0.0,0.928947,1.45055,0.0,2,0,0,0
32584095,34.0356193335,108.757390551,423.963,395.587,-0.0,0.928587,1.45023,0.0,2,0,0,0
32782701,34.0356194293,108.757388843,423.951,395.559,-0.0,0.928287,1.44993,0.0,2,0,0,0
32981341,34.0356193984,108.757387133,423.944,395.533,-0.0,0.927998,1.45033,0.0,2,0,0,0
33179988,34.0356192548,108.757385437,423.94,395.511,-0.0,0.927689,1.45004,0.0,2,0,0,0
33378670,34.0356191194,108.757383759,423.939,395.493,-0.0,0.927424,1.44976,0.0,2,0,0,0
33587216,34.0356190579,108.75738199,423.943,395.476,-0.0,0.92744,1.45037,0.0,2,0,0,0
33780894,34.0356190423,108.757380371,423.956,395.47,-0.0,0.926876,1.44991,0.0,2,0,0,0
33979585,34.0356191068,108.757378674,423.984,395.479,-0.0,0.926616,1.44966,0.0,2,0,0,0
34178188,34.035619217,108.757376859,424.005,395.479,-0.0,0.926385,1.4501,0.0,2,0,0,0
34381800,34.0356192442,108.757374872,423.998,395.454,-0.0,0.926168,1.44985,0.0,2,0,0,0
34575481,34.0356192812,108.757373023,423.989,395.427,-0.0,0.92567,1.4501,0.0,2,0,0,0
34784067,34.0356194848,108.757371262,424.003,395.426,-0.0,0.925749,1.45004,0.0,2,0,0,0
34982748,34.0356198413,108.75736968,424.043,395.451,-0.0,0.925584,1.4498,0.0,2,0,0,0
35181354,34.0356202612,108.757367971,424.098,395.49,-0.0,0.925396,1.45024,0.0,2,0,0,0
35380005,34.0356206846,108.757366173,424.143,395.52,-0.0,0.925248,1.44999,0.0,2,0,0,0
35578651,34.035621039,108.75736438,424.185,395.547,-0.0,0.925104,1.44975,0.0,2,0,0,0
35777294,34.0356212925,108.757362564,424.196,395.544,-0.0,0.924963,1.44951,0.0,2,0,0,0
35980908,34.0356215156,108.757360704,424.178,395.513,-0.0,0.924789,1.44995,0.0,2,0,0,0
36179553,34.0356217591,108.757358913,424.148,395.469,-0.0,0.924617,1.4497,0.0,2,0,0,0
36378359,34.0356220398,108.757357148,424.118,395.427,-0.0,0.924458,1.45013,0.0,2,0,0,0
36576847,34.035622322,108.757355438,424.105,395.4,-0.0,0.924302,1.44988,0.0,2,0,0,0
36785426,34.0356225597,108.757353653,424.102,395.383,-0.0,0.924442,1.44982,0.0,2,0,0,0
36979127,34.0356226947,108.757351966,424.114,395.382,-0.0,0.924003,1.45006,0.0,2,0,0,0
37177880,34.0356229212,108.757350323,424.144,395.399,-0.0,0.923857,1.44982,0.0,2,0,0,0
37381406,34.0356233988,108.757348786,424.181,395.422,-0.0,0.923716,1.44958,0.0,2,0,0,0
37584980,34.0356239586,108.757347285,424.171,395.399,-0.0,0.923586,1.44935,0.0,2,0,0,0
37783627,34.0356243982,108.757345766,424.105,395.32,-0.0,0.92349,1.44912,0.0,2,0,0,0
37982391,34.0356246561,108.75734416,424.018,395.222,-0.0,0.923381,1.44957,0.0,2,0,0,0
38185887,34.0356247605,108.757342457,423.949,395.141,-0.0,0.923234,1.44934,0.0,2,0,0,0
38384534,34.0356247337,108.757340798,423.909,395.089,-0.0,0.923089,1.44912,0.0,2,0,0,0
38583180,34.0356245728,108.757339199,423.895,395.061,-0.0,0.922948,1.44956,0.0,2,0,0,0
38781905,34.0356243486,108.757337638,423.91,395.063,-0.0,0.92282,1.44934,0.0,2,0,0,0
38980475,34.0356241577,108.757336066,423.951,395.09,-0.0,0.922692,1.44912,0.0,2,0,0,0
39179118,34.0356240707,108.757334476,424.008,395.133,-0.0,0.922563,1.4489,0.0,2,0,0,0
39377768,34.035624043,108.757332904,424.056,395.167,-0.0,0.922442,1.44935,0.0,2,0,0,0
39576436,34.0356240925,108.757331345,424.079,395.176,-0.0,0.922314,1.44912,0.0,2,0,0,0
39780036,34.0356242284,108.757329769,424.068,395.151,-0.0,0.922188,1.4489,0.0,2,0,0,0
39983642,34.0356243615,108.757328124,424.034,395.105,-0.0,0.922053,1.44935,0.0,2,0,0,0
40182289,34.0356244764,108.757326346,423.989,395.049,-0.0,0.921908,1.44912,0.0,2,0,0,0
40380955,34.035624556,108.75732445,423.958,395.007,-0.0,0.921771,1.44889,0.0,2,0,0,0
40579583,34.0356246397,108.757322543,423.947,394.987,-0.0,0.921634,1.44932,0.0,2,0,0,0
40778230,34.0356247923,108.757320636,423.959,394.987,-0.0,0.921445,1.44907,0.0,2,0,0,0
40981843,34.0356249633,108.7573186,423.984,395.003,-0.0,0.921322,1.44883,0.0,2,0,0,0
41180490,34.0356251664,108.75731656,424.023,395.032,-0.0,0.921208,1.44926,0.0,2,0,0,0
41379169,34.0356254801,108.757314517,424.071,395.07,-0.0,0.92109,1.44903,0.0,2,0,0,0
41587716,34.0356258598,108.757312386,424.126,395.115,-0.0,0.921285,1.44898,0.0,2,0,0,0
41786364,34.0356261108,108.757310386,424.165,395.145,-0.0,0.921204,1.4494,0.0,2,0,0,0
41985023,34.035626343,108.757308386,424.178,395.15,-0.0,0.921091,1.44915,0.0,2,0,0,0
42178691,34.0356265684,108.757306463,424.169,395.133,-0.0,0.920664,1.44938,0.0,2,0,0,0
42377338,34.0356267269,108.75730456,424.164,395.119,-0.0,0.920545,1.44913,0.0,2,0,0,0
42580952,34.0356268484,108.757302607,424.174,395.122,-0.0,0.920416,1.44888,0.0,2,0,0,0
42779624,34.0356269846,108.757300729,424.198,395.138,-0.0,0.92027,1.44864,0.0,2,0,0,0
42988178,34.0356271823,108.757298866,424.214,395.146,-0.0,0.920434,1.44857,0.0,2,0,0,0
43181860,34.0356273318,108.757297167,424.203,395.128,-0.0,0.920062,1.44882,0.0,2,0,0,0
43380512,34.0356274237,108.757295406,424.182,395.101,-0.0,0.919959,1.44857,0.0,2,0,0,0
43579155,34.0356274914,108.757293658,424.175,395.089,-0.0,0.919849,1.44899,0.0,2,0,0,0
43782767,34.0356274812,108.757291877,424.187,395.096,-0.0,0.919743,1.44874,0.0,2,0,0,0
43981427,34.035627404,108.757290184,424.209,395.113,-0.0,0.919682,1.4485,0.0,2,0,0,0
44180234,34.0356273465,108.757288531,424.235,395.134,-0.0,0.919594,1.44891,0.0,2,0,0,0
44378709,34.0356274289,108.757286889,424.268,395.162,-0.0,0.919508,1.44867,0.0,2,0,0,0
44587326,34.0356277569,108.757285221,424.299,395.187,-0.0,0.91969,1.4486,0.0,2,0,0,0
44780972,34.0356282263,108.757283663,424.315,395.2,-0.0,0.919324,1.44884,0.0,2,0,0,0
44979738,34.0356287683,108.757282043,424.293,395.175,-0.0,0.919249,1.4486,0.0,2,0,0,0
45178263,34.0356292308,108.757280405,424.239,395.117,-0.0,0.91917,1.44836,0.0,2,0,0,0
45376913,34.0356295788,108.757278767,424.183,395.059,-0.0,0.919085,1.44877,0.0,2,0,0,0
45580524,34.035629761,108.757277132,424.143,395.016,-0.0,0.919002,1.44853,0.0,2,0,0,0
45779313,34.0356298744,108.757275502,424.125,394.995,-0.0,0.918927,1.44829,0.0,2,0,0,0
45982784,34.0356300224,108.757273795,424.118,394.985,-0.0,0.918854,1.44806,0.0,2,0,0,0
46181432,34.0356301091,108.757272112,424.123,394.987,-0.0,0.918785,1.44847,0.0,2,0,0,0
46380119,34.035630189,108.757270389,424.148,395.01,-0.0,0.918706,1.44823,0.0,2,0,0,0
46578824,34.0356302884,108.757268635,424.187,395.046,-0.0,0.918629,1.448,0.0,2,0,0,0
46782340,34.035630378,108.757266805,424.206,395.063,-0.0,0.918525,1.4484,0.0,2,0,0,0
46980999,34.0356304379,108.757264989,424.195,395.05,-0.0,0.918477,1.44818,0.0,2,0,0,0
47179634,34.03563048,108.757263203,424.158,395.012,-0.0,0.918405,1.44795,0.0,2,0,0,0
47378303,34.0356305589,108.757261469,424.129,394.982,-0.0,0.918327,1.44836,0.0,2,0,0,0
47586874,34.0356306664,108.757259666,424.108,394.96,-0.0,0.918507,1.44829,0.0,2,0,0,0
47785509,34.0356307376,108.75725789,424.092,394.942,-0.0,0.91843,1.44805,0.0,2,0,0,0
47979191,34.0356307607,108.757256083,424.083,394.93,-0.0,0.918104,1.4483,0.0,2,0,0,0
48177837,34.0356307906,108.757254218,424.078,394.921,-0.0,0.91801,1.44807,0.0,2,0,0,0
48381450,34.0356309219,108.757252328,424.076,394.917,-0.0,0.917984,1.44784,0.0,2,0,0,0
48580100,34.035631088,108.757250511,424.07,394.909,-0.0,0.917925,1.44762,0.0,2,0,0,0
48783712,34.0356313257,108.757248668,424.061,394.897,-0.0,0.917874,1.44804,0.0,2,0,0,0
48982360,34.0356316331,108.757246899,424.052,394.885,-0.0,0.917819,1.44782,0.0,2,0,0,0
49181006,34.0356319547,108.757245175,424.047,394.88,-0.0,0.917809,1.44761,0.0,2,0,0,0
49379665,34.0356322361,108.757243461,424.047,394.88,-0.0,0.917763,1.44803,0.0,2,0,0,0
49578301,34.0356324209,108.757241755,424.042,394.874,-0.0,0.917749,1.44781,0.0,2,0,0,0
49776948,34.0356324995,108.757240058,424.022,394.852,-0.0,0.917682,1.44759,0.0,2,0,0,0
49980562,34.0356324954,108.757238307,423.998,394.826,-0.0,0.917638,1.44801,0.0,2,0,0,0
50179210,34.0356324799,108.757236613,423.988,394.815,-0.0,0.9176,1.44779,0.0,2,0,0,0
50377857,34.0356325114,108.757234985,423.997,394.825,-0.0,0.917558,1.44758,0.0,2,0,0,0
50586437,34.0356326128,108.757233324,424.021,394.848,-0.0,0.917767,1.44753,0.0,2,0,0,0
50780140,34.0356327837,108.757231786,424.054,394.883,-0.0,0.917444,1.44778,0.0,2,0,0,0
50978765,34.0356330118,108.757230165,424.094,394.923,-0.0,0.917364,1.44755,0.0,2,0,0,0
51177588,34.0356332448,108.757228427,424.112,394.942,-0.0,0.917323,1.44795,0.0,2,0,0,0
51381026,34.0356334662,108.75722661,424.096,394.926,-0.0,0.917273,1.44772,0.0,2,0,0,0
51584640,34.0356336572,108.757224824,424.057,394.888,-0.0,0.917215,1.44749,0.0,2,0,0,0
51778321,34.0356338133,108.757223072,423.998,394.83,-0.0,0.916913,1.44774,0.0,2,0,0,0
51977103,34.0356338964,108.757221129,423.927,394.76,-0.0,0.91688,1.44752,0.0,2,0,0,0
52185549,34.0356339388,108.757218939,423.858,394.693,-0.0,0.917101,1.44746,0.0,2,0,0,0
52384215,34.0356339705,108.757216839,423.798,394.635,-0.0,0.917043,1.44787,0.0,2,0,0,0
52582845,34.0356338786,108.75721477,423.744,394.581,-0.0,0.916984,1.44764,0.0,2,0,0,0
52781622,34.0356336689,108.757212717,423.687,394.524,-0.0,0.916896,1.44742,0.0,2,0,0,0
52980139,34.0356334312,108.757210697,423.642,394.479,-0.0,0.916848,1.44783,0.0,2,0,0,0
53178786,34.0356331392,108.757208727,423.624,394.46,-0.0,0.916798,1.44762,0.0,2,0,0,0
53377434,34.0356328207,108.757206829,423.631,394.466,-0.0,0.91676,1.4474,0.0,2,0,0,0
53586123,34.0356325434,108.757204931,423.671,394.505,-0.0,0.917012,1.44735,0.0,2,0,0,0
53779695,34.0356322733,108.757203192,423.744,394.576,-0.0,0.916725,1.4476,0.0,2,0,0,0
53978383,34.0356320702,108.757201395,423.836,394.667,-0.0,0.916702,1.4474,0.0,2,0,0,0
54181956,34.0356319489,108.757199553,423.946,394.776,-0.0,0.916673,1.44719,0.0,2,0,0,0
54380661,34.0356317796,108.757197844,424.063,394.894,-0.0,0.91665,1.44699,0.0,2,0,0,0
54584219,34.035631514,108.75719622,424.146,394.978,-0.0,0.916616,1.44741,0.0,2,0,0,0
54782865,34.0356313079,108.757194693,424.148,394.98,-0.0,0.916597,1.44722,0.0,2,0,0,0
54981513,34.0356312355,108.757193179,424.109,394.94,-0.0,0.916544,1.44702,0.0,2,0,0,0
55180236,34.0356311262,108.757191593,424.057,394.888,-0.0,0.916482,1.44745,0.0,2,0,0,0
55378808,34.0356309192,108.757190018,424.008,394.837,-0.0,0.916427,1.44725,0.0,2,0,0,0
55587388,34.0356306572,108.757188418,423.978,394.806,-0.0,0.91663,1.44722,0.0,2,0,0,0
55786036,34.0356303809,108.75718684,423.978,394.803,-0.0,0.916595,1.44703,0.0,2,0,0,0
55984690,34.0356301409,108.757185215,424.018,394.84,-0.0,0.91656,1.44745,0.0,2,0,0,0
56178365,34.0356299031,108.757183658,424.095,394.914,-0.0,0.916275,1.44709,0.0,2,0,0,0
56377013,34.0356296974,108.757182024,424.214,395.029,-0.0,0.916252,1.4469,0.0,2,0,0,0
56585613,34.0356295815,108.757180269,424.347,395.16,-0.0,0.91648,1.44748,0.0,2,0,0,0
56784269,34.0356295257,108.757178715,424.448,395.259,-0.0,0.916429,1.44728,0.0,2,0,0,0
56987854,34.0356295087,108.757177171,424.508,395.317,-0.0,0.916379,1.44709,0.0,2,0,0,0
57181537,34.0356295093,108.757175535,424.522,395.329,-0.0,0.916106,1.44736,0.0,2,0,0,0
57380184,34.0356294807,108.757173664,424.489,395.296,-0.0,0.916078,1.44717,0.0,2,0,0,0
57578832,34.0356293648,108.757171584,424.438,395.244,-0.0,0.916049,1.44698,0.0,2,0,0,0
57782445,34.0356291762,108.757169286,424.412,395.217,-0.0,0.916033,1.44679,0.0,2,0,0,0
57981093,34.0356290018,108.757167071,424.411,395.214,-0.0,0.916024,1.44722,0.0,2,0,0,0
58179741,34.0356288803,108.757164955,424.432,395.233,-0.0,0.916022,1.44704,0.0,2,0,0,0
58378389,34.035628777,108.757162861,424.476,395.276,-0.0,0.916025,1.44686,0.0,2,0,0,0
58582004,34.0356287316,108.757160707,424.537,395.333,-0.0,0.91603,1.44667,0.0,2,0,0,0
58780697,34.0356287095,108.75715861,424.59,395.383,-0.0,0.916011,1.44711,0.0,2,0,0,0
58979465,34.0356287356,108.757156594,424.62,395.408,-0.0,0.916011,1.44693,0.0,2,0,0,0
59177946,34.0356288175,108.757154721,424.623,395.408,-0.0,0.915998,1.44675,0.0,2,0,0,0
59381560,34.0356289226,108.757152892,424.629,395.408,-0.0,0.915982,1.44719,0.0,2,0,0,0
59580208,34.0356290429,108.757151161,424.646,395.419,-0.0,0.915968,1.44701,0.0,2,0,0,0
59778989,34.0356291475,108.757149442,424.676,395.442,-0.0,0.915921,1.44683,0.0,2,0,0,0
59982469,34.0356292259,108.757147693,424.723,395.48,-0.0,0.915744,1.44665,0.0,2,0,0,0
60181117,34.0356293076,108.757145967,424.785,395.537,-0.0,0.915749,1.44709,0.0,2,0,0,0
60379772,34.0356293218,108.757144294,424.842,395.587,-0.0,0.915746,1.44691,0.0,2,0,0,0
60578508,34.0356292576,108.757142754,424.875,395.613,-0.0,0.915743,1.44673,0.0,2,0,0,0
60782027,34.0356291977,108.757141268,424.869,395.599,-0.0,0.91571,1.44716,0.0,2,0,0,0
60975710,34.035629131,108.757139961,424.831,395.555,-0.0,0.915424,1.44682,0.0,2,0,0,0
61184289,34.0356290084,108.757138599,424.763,395.481,-0.0,0.915662,1.4468,0.0,2,0,0,0
61383018,34.0356288617,108.757137265,424.689,395.401,-0.0,0.916236,1.44755,0.0,2,0,0,0
61581585,34.0356286836,108.757135852,424.604,395.311,-0.0,0.916324,1.44735,0.0,2,0,0,0
61780233,34.0356284004,108.75713415,424.512,395.212,-0.0,0.916371,1.44715,0.0,2,0,0,0
61978880,34.0356280409,108.757132134,424.42,395.114,-0.0,0.916273,1.44757,0.0,2,0,0,0
62177556,34.035627677,108.757129949,424.346,395.036,-0.0,0.916303,1.44737,0.0,2,0,0,0
62381140,34.0356273214,108.757127476,424.309,394.993,-0.0,0.916293,1.44717,0.0,2,0,0,0
62579790,34.0356270477,108.757124977,424.302,394.98,-0.0,0.916313,1.44759,0.0,2,0,0,0
62783405,34.0356268511,108.757122317,424.313,394.984,-0.0,0.916332,1.44739,0.0,2,0,0,0
62982073,34.035626875,108.757119771,424.341,395.004,-0.0,0.916314,1.44718,0.0,2,0,0,0
63180702,34.0356271351,108.757117315,424.387,395.042,-0.0,0.916326,1.44698,0.0,2,0,0,0
63379349,34.0356274895,108.75711493,424.457,395.105,-0.0,0.916327,1.4474,0.0,2,0,0,0
63577996,34.0356277747,108.757112681,424.539,395.179,-0.0,0.91629,1.4472,0.0,2,0,0,0
63776644,34.0356279648,108.757110552,424.612,395.245,-0.0,0.916247,1.447,0.0,2,0,0,0
63980258,34.0356280734,108.757108437,424.677,395.301,-0.0,0.916217,1.44742,0.0,2,0,0,0
64178909,34.0356280715,108.757106441,424.718,395.334,-0.0,0.916188,1.44722,0.0,2,0,0,0
64382520,34.0356280945,108.757104472,424.742,395.35,-0.0,0.916174,1.44702,0.0,2,0,0,0
64581205,34.0356281352,108.757102663,424.755,395.356,-0.0,0.916124,1.44743,0.0,2,0,0,0
64779816,34.0356282199,108.757100974,424.763,395.356,-0.0,0.916065,1.44722,0.0,2,0,0,0
64978465,34.0356282649,108.757099411,424.769,395.356,-0.0,0.916037,1.44701,0.0,2,0,0,0
65182080,34.0356282618,108.757097913,424.77,395.351,-0.0,0.916011,1.44743,0.0,2,0,0,0
65380727,34.0356282154,108.757096506,424.758,395.332,-0.0,0.915988,1.44722,0.0,2,0,0,0
65579374,34.0356280985,108.757094971,424.738,395.303,-0.0,0.915958,1.44702,0.0,2,0,0,0
65782989,34.0356278866,108.757093134,424.719,395.277,-0.0,0.915932,1.44682,0.0,2,0,0,0
65981642,34.0356276662,108.757091142,424.72,395.269,-0.0,0.915908,1.44724,0.0,2,0,0,0
66180287,34.0356275206,108.757088982,424.733,395.272,-0.0,0.915893,1.44704,0.0,2,0,0,0
66383903,34.035627373,108.757086577,424.759,395.288,-0.0,0.915883,1.44685,0.0,2,0,0,0
66582548,34.0356271506,108.757084237,424.807,395.327,-0.0,0.915867,1.44666,0.0,2,0,0,0
66781359,34.0356269643,108.757082076,424.854,395.363,-0.0,0.915829,1.44707,0.0,2,0,0,0
66979844,34.0356269839,108.75708008,424.855,395.354,-0.0,0.915811,1.44749,0.0,2,0,0,0
67178492,34.0356271656,108.757078196,424.792,395.281,-0.0,0.915763,1.44728,0.0,2,0,0,0
67377140,34.0356273034,108.757076456,424.713,395.191,-0.0,0.915747,1.44707,0.0,2,0,0,0
67585871,34.0356273368,108.757074657,424.661,395.129,-0.0,0.915965,1.44702,0.0,2,0,0,0
67779402,34.0356273363,108.757072966,424.63,395.087,-0.0,0.915676,1.44726,0.0,2,0,0,0
67983016,34.0356272876,108.757071191,424.608,395.053,-0.0,0.915668,1.44705,0.0,2,0,0,0
68181663,34.0356271773,108.757069406,424.597,395.031,-0.0,0.915653,1.44746,0.0,2,0,0,0
68380457,34.0356270426,108.757067576,424.594,395.014,-0.0,0.915644,1.44725,0.0,2,0,0,0
68583929,34.0356268686,108.757065695,424.602,395.009,-0.0,0.915639,1.44704,0.0,2,0,0,0
68782575,34.0356266648,108.757063841,424.622,395.015,-0.0,0.915649,1.44683,0.0,2,0,0,0
68981223,34.0356264659,108.757062016,424.645,395.025,-0.0,0.91566,1.44725,0.0,2,0,0,0
69179929,34.0356262404,108.757060215,424.645,395.012,-0.0,0.915671,1.44705,0.0,2,0,0,0
69378522,34.035626041,108.757058404,424.606,394.961,-0.0,0.915678,1.44685,0.0,2,0,0,0
69582135,34.0356259911,108.75705653,424.533,394.877,-0.0,0.915677,1.44727,0.0,2,0,0,0
69780785,34.0356260352,108.757054557,424.449,394.781,-0.0,0.915671,1.44706,0.0,2,0,0,0
69979454,34.03562611,108.757052417,424.368,394.69,-0.0,0.915664,1.44747,0.0,2,0,0,0
70178081,34.0356263268,108.757050237,424.295,394.608,-0.0,0.915659,1.44726,0.0,2,0,0,0
70381693,34.0356265498,108.757048034,424.224,394.527,-0.0,0.915667,1.44705,0.0,2,0,0,0
70580342,34.0356266373,108.757045986,424.151,394.444,-0.0,0.915674,1.44684,0.0,2,0,0,0
70779036,34.0356267077,108.757044027,424.064,394.346,-0.0,0.915655,1.44726,0.0,2,0,0,0
70982604,34.0356267694,108.757042057,423.98,394.252,-0.0,0.915664,1.44705,0.0,2,0,0,0
71181252,34.0356267838,108.757040124,423.92,394.18,-0.0,0.915677,1.44686,0.0,2,0,0,0
71384866,34.0356267482,108.757038164,423.9,394.149,-0.0,0.915703,1.44666,0.0,2,0,0,0
71583521,34.0356266062,108.757036339,423.934,394.173,-0.0,0.915742,1.44708,0.0,2,0,0,0
71782210,34.0356262891,108.757034596,424.018,394.246,-0.0,0.915811,1.44689,0.0,2,0,0,0
71980813,34.0356258523,108.757032909,424.144,394.361,-0.0,0.91586,1.4467,0.0,2,0,0,0
72179460,34.0356252815,108.757031207,424.282,394.488,-0.0,0.915907,1.44713,0.0,2,0,0,0
72378114,34.0356247488,108.757029329,424.38,394.576,-0.0,0.915946,1.44694,0.0,2,0,0,0
72586689,34.0356244064,108.757027127,424.407,394.594,-0.0,0.916233,1.44691,0.0,2,0,0,0
72785337,34.0356241241,108.757024807,424.405,394.582,-0.0,0.916272,1.44672,0.0,2,0,0,0
72974243,34.0356238734,108.757022468,424.417,394.586,-0.0,0.916052,1.44699,0.0,2,0,0,0
73177667,34.0356235461,108.75701994,424.449,394.61,-0.0,0.916066,1.4468,0.0,2,0,0,0
73376317,34.0356230817,108.757017583,424.505,394.658,-0.0,0.91608,1.44662,0.0,2,0,0,0
73579930,34.0356225402,108.757015363,424.609,394.754,-0.0,0.916106,1.44644,0.0,2,0,0,0
73778762,34.0356221697,108.757013372,424.731,394.867,-0.0,0.916158,1.44687,0.0,2,0,0,0
73982198,34.0356220061,108.7570114,424.845,394.972,-0.0,0.916192,1.44669,0.0,2,0,0,0
74180841,34.0356221662,108.757009578,424.914,395.032,-0.0,0.916245,1.44652,0.0,2,0,0,0
74384456,34.0356225978,108.75700781,424.927,395.038,-0.0,0.916259,1.44634,0.0,2,0,0,0
74583280,34.0356231109,108.757006105,424.902,395.006,-0.0,0.916259,1.44678,0.0,2,0,0,0
74781753,34.0356236614,108.757004405,424.873,394.972,-0.0,0.916253,1.44661,0.0,2,0,0,0
74980416,34.0356242524,108.75700277,424.863,394.957,-0.0,0.916273,1.44644,0.0,2,0,0,0
75179050,34.0356248106,108.757001191,424.881,394.97,-0.0,0.916266,1.44687,0.0,2,0,0,0
75377802,34.0356252852,108.756999649,424.915,395.0,-0.0,0.916263,1.4467,0.0,2,0,0,0
75586280,34.0356257093,108.756998081,424.959,395.04,-0.0,0.91651,1.44668,0.0,2,0,0,0
75784973,34.0356260966,108.756996609,424.984,395.061,-0.0,0.916497,1.44651,0.0,2,0,0,0
75978610,34.0356264825,108.756995211,424.986,395.059,-0.0,0.916236,1.44678,0.0,2,0,0,0
76177390,34.0356268274,108.756993853,424.97,395.039,-0.0,0.916194,1.44661,0.0,2,0,0,0
76380872,34.0356271101,108.756992515,424.934,395.0,-0.0,0.916181,1.44643,0.0,2,0,0,0
76584487,34.0356273731,108.756991057,424.903,394.965,-0.0,0.916171,1.44627,0.0,2,0,0,0
76783173,34.0356276909,108.756989484,424.882,394.941,-0.0,0.916162,1.4467,0.0,2,0,0,0
76981883,34.0356279955,108.756987798,424.85,394.907,-0.0,0.916193,1.44654,0.0,2,0,0,0
77180433,34.0356282394,108.756985945,424.808,394.863,-0.0,0.916195,1.44637,0.0,2,0,0,0
77384047,34.0356284806,108.756983899,424.761,394.812,-0.0,0.916206,1.44681,0.0,2,0,0,0
77582696,34.0356286719,108.756981817,424.707,394.756,-0.0,0.916231,1.44663,0.0,2,0,0,0
77781373,34.0356287691,108.756979765,424.653,394.699,-0.0,0.916286,1.44646,0.0,2,0,0,0
77979995,34.0356287605,108.756977796,424.617,394.661,-0.0,0.916339,1.44689,0.0,2,0,0,0
78178644,34.0356286799,108.756975925,424.601,394.643,-0.0,0.916397,1.44672,0.0,2,0,0,0
78382256,34.0356285275,108.756974087,424.597,394.636,-0.0,0.91645,1.44654,0.0,2,0,0,0
78580905,34.0356283039,108.756972397,424.6,394.635,-0.0,0.916535,1.44636,0.0,2,0,0,0
78779553,34.0356281921,108.756970776,424.598,394.63,-0.0,0.916584,1.4468,0.0,2,0,0,0
78983168,34.0356283257,108.756969057,424.601,394.629,-0.0,0.916638,1.44662,0.0,2,0,0,0
79181817,34.0356285541,108.756967207,424.614,394.639,-0.0,0.916721,1.44645,0.0,2,0,0,0
79380465,34.0356287306,108.756965226,424.623,394.644,-0.0,0.916805,1.44628,0.0,2,0,0,0
79579114,34.0356288115,108.756963189,424.619,394.638,-0.0,0.916852,1.44671,0.0,2,0,0,0
79782730,34.0356287963,108.756961049,424.604,394.622,-0.0,0.916889,1.44654,0.0,2,0,0,0
79981377,34.0356286616,108.756958899,424.588,394.603,-0.0,0.916944,1.44637,0.0,2,0,0,0
80180033,34.0356284671,108.756956707,424.562,394.576,-0.0,0.916993,1.44681,0.0,2,0,0,0
80383643,34.0356282717,108.756954494,424.533,394.547,-0.0,0.917007,1.44664,0.0,2,0,0,0
80582290,34.0356280683,108.756952361,424.491,394.504,-0.0,0.917044,1.44647,0.0,2,0,0,0
80780939,34.0356278503,108.756950243,424.433,394.445,-0.0,0.917047,1.4463,0.0,2,0,0,0
80979586,34.035627639,108.756948192,424.38,394.393,-0.0,0.917066,1.44674,0.0,2,0,0,0
81178235,34.0356274433,108.756946216,424.344,394.357,-0.0,0.917086,1.44656,0.0,2,0,0,0
81381850,34.035627241,108.756944283,424.326,394.339,-0.0,0.917185,1.44638,0.0,2,0,0,0
81580670,34.0356270293,108.75694244,424.316,394.33,-0.0,0.917321,1.44681,0.0,2,0,0,0
81779150,34.0356268064,108.756940629,424.316,394.33,-0.0,0.917427,1.44663,0.0,2,0,0,0
81977801,34.0356266484,108.756938824,424.324,394.339,-0.0,0.917521,1.44646,0.0,2,0,0,0
82181412,34.0356266901,108.756936894,424.348,394.365,-0.0,0.917602,1.44689,0.0,2,0,0,0
82380214,34.0356269256,108.75693493,424.384,394.403,-0.0,0.917663,1.4467,0.0,2,0,0,0
82578711,34.0356272229,108.756932933,424.43,394.449,-0.0,0.917744,1.44652,0.0,2,0,0,0
82782323,34.0356274834,108.756930852,424.478,394.498,-0.0,0.91775,1.44694,0.0,2,0,0,0
82980971,34.0356276758,108.756928776,424.516,394.538,-0.0,0.917809,1.44675,0.0,2,0,0,0
83179718,34.0356278329,108.756926682,424.545,394.568,-0.0,0.917907,1.44656,0.0,2,0,0,0
83378269,34.0356279776,108.756924604,424.561,394.585,-0.0,0.917989,1.44698,0.0,2,0,0,0
83581884,34.0356281301,108.756922485,424.57,394.594,-0.0,0.918057,1.44679,0.0,2,0,0,0
83780533,34.0356282763,108.756920401,424.569,394.595,-0.0,0.918113,1.44661,0.0,2,0,0,0
83979295,34.0356284033,108.756918304,424.559,394.585,-0.0,0.918161,1.44642,0.0,2,0,0,0
84177830,34.0356284961,108.756916192,424.535,394.562,-0.0,0.91819,1.44685,0.0,2,0,0,0
84376478,34.0356284775,108.7569141,424.503,394.53,-0.0,0.918211,1.44666,0.0,2,0,0,0
84580097,34.0356284283,108.756911937,424.465,394.492,-0.0,0.918218,1.44648,0.0,2,0,0,0
84778822,34.0356283412,108.756909905,424.422,394.449,-0.0,0.918243,1.4469,0.0,2,0,0,0
84987324,34.0356281936,108.756907879,424.372,394.399,-0.0,0.918535,1.44688,0.0,2,0,0,0
85185972,34.0356281494,108.756905992,424.318,394.347,-0.0,0.918557,1.4467,0.0,2,0,0,0
85379656,34.0356282456,108.756904165,424.268,394.299,-0.0,0.918312,1.44636,0.0,2,0,0,0
85578370,34.0356285022,108.756902252,424.24,394.273,-0.0,0.918319,1.44679,0.0,2,0,0,0
85781923,34.0356288732,108.75690027,424.24,394.276,-0.0,0.918345,1.44661,0.0,2,0,0,0
85980571,34.0356291992,108.756898357,424.267,394.305,-0.0,0.918347,1.44644,0.0,2,0,0,0
86179216,34.0356294808,108.756896446,424.313,394.352,-0.0,0.918341,1.44627,0.0,2,0,0,0
86387803,34.0356297274,108.756894458,424.361,394.402,-0.0,0.918592,1.44686,0.0,2,0,0,0
86581502,34.035629844,108.756892704,424.382,394.426,-0.0,0.918324,1.44652,0.0,2,0,0,0
86780129,34.0356298974,108.75689097,424.346,394.394,-0.0,0.918309,1.44634,0.0,2,0,0,0
86983751,34.0356298658,108.756889229,424.256,394.308,-0.0,0.918277,1.44677,0.0,2,0,0,0
87182402,34.0356297481,108.756887567,424.159,394.216,-0.0,0.918232,1.44659,0.0,2,0,0,0
87381042,34.0356295261,108.756885985,424.097,394.159,-0.0,0.918183,1.44641,0.0,2,0,0,0
87579723,34.0356292051,108.756884424,424.087,394.155,-0.0,0.918136,1.44684,0.0,2,0,0,0
87783306,34.0356287408,108.756882712,424.125,394.197,-0.0,0.918102,1.44667,0.0,2,0,0,0
87981955,34.0356282471,108.756880968,424.191,394.267,-0.0,0.918069,1.44649,0.0,2,0,0,0
88180604,34.0356279841,108.756879082,424.283,394.362,-0.0,0.918046,1.44632,0.0,2,0,0,0
88384219,34.0356279559,108.756876808,424.371,394.454,-0.0,0.91802,1.44675,0.0,2,0,0,0
88582932,34.0356279898,108.756874283,424.435,394.52,-0.0,0.918013,1.44657,0.0,2,0,0,0
88781519,34.0356281331,108.756871548,424.479,394.565,-0.0,0.91798,1.44639,0.0,2,0,0,0
88985133,34.0356284613,108.756868578,424.518,394.608,-0.0,0.917938,1.44681,0.0,2,0,0,0
89183781,34.0356288495,108.756865602,424.576,394.672,-0.0,0.917925,1.44664,0.0,2,0,0,0
89382600,34.0356292299,108.756862645,424.639,394.741,-0.0,0.917904,1.44646,0.0,2,0,0,0
89581079,34.0356294984,108.756859816,424.668,394.777,-0.0,0.917886,1.44689,0.0,2,0,0,0
89779763,34.0356295854,108.756857131,424.661,394.777,-0.0,0.917829,1.44672,0.0,2,0,0,0
89983343,34.0356295325,108.756854532,424.623,394.746,-0.0,0.917762,1.44654,0.0,2,0,0,0
90182124,34.0356294313,108.756852103,424.58,394.71,-0.0,0.917689,1.44636,0.0,2,0,0,0
90380641,34.0356293058,108.756849739,424.55,394.686,-0.0,0.917628,1.4468,0.0,2,0,0,0
90579290,34.0356291451,108.756847459,424.53,394.672,-0.0,0.917577,1.44662,0.0,2,0,0,0
90782905,34.0356290508,108.756845182,424.52,394.668,-0.0,0.917534,1.44645,0.0,2,0,0,0
90981653,34.0356290595,108.756842989,424.514,394.665,-0.0,0.91749,1.44627,0.0,2,0,0,0
91180204,34.0356291882,108.756840901,424.509,394.665,-0.0,0.917454,1.44671,0.0,2,0,0,0
91378853,34.0356294151,108.756838858,424.512,394.674,-0.0,0.917423,1.44653,0.0,2,0,0,0
91582477,34.0356296549,108.756836749,424.518,394.684,-0.0,0.917388,1.44636,0.0,2,0,0,0
91781174,34.0356298454,108.756834709,424.527,394.698,-0.0,0.91736,1.44619,0.0,2,0,0,0
91979765,34.0356299696,108.756832736,424.529,394.705,-0.0,0.917362,1.44663,0.0,2,0,0,0
92178415,34.0356300351,108.756830856,424.529,394.712,-0.0,0.917329,1.44645,0.0,2,0,0,0
92382047,34.0356300544,108.756828931,424.527,394.715,-0.0,0.91729,1.44688,0.0,2,0,0,0
92580704,34.0356299799,108.756826988,424.516,394.711,-0.0,0.917246,1.44669,0.0,2,0,0,0
92779329,34.0356298475,108.756825066,424.497,394.7,-0.0,0.917208,1.44652,0.0,2,0,0,0
92977976,34.035629757,108.756823197,424.471,394.681,-0.0,0.917163,1.44634,0.0,2,0,0,0
93181593,34.0356298569,108.756821384,424.443,394.66,-0.0,0.917114,1.44677,0.0,2,0,0,0
93380242,34.0356302243,108.756819672,424.412,394.637,-0.0,0.917062,1.44659,0.0,2,0,0,0
93578890,34.0356306383,108.756817908,424.375,394.607,-0.0,0.917018,1.4464,0.0,2,0,0,0
93782505,34.0356309211,108.756816067,424.327,394.566,-0.0,0.916979,1.44683,0.0,2,0,0,0
93986121,34.0356310904,108.756814199,424.28,394.526,-0.0,0.916943,1.44665,0.0,2,0,0,0
94184816,34.0356312004,108.75681236,424.251,394.504,-0.0,0.916906,1.44646,0.0,2,0,0,0
94383419,34.0356312408,108.756810488,424.239,394.499,-0.0,0.916914,1.44689,0.0,2,0,0,0
94582070,34.0356311535,108.756808532,424.246,394.512,-0.0,0.916898,1.44669,0.0,2,0,0,0
94780717,34.0356309452,108.756806443,424.28,394.553,-0.0,0.916861,1.44711,0.0,2,0,0,0
94979388,34.0356306418,108.756804211,424.344,394.622,-0.0,0.916857,1.44691,0.0,2,0,0,0
95178015,34.0356302338,108.756801868,424.419,394.703,-0.0,0.916883,1.44672,0.0,2,0,0,0
95386597,34.0356297664,108.756799486,424.522,394.813,-0.0,0.917144,1.44668,0.0,2,0,0,0
95575504,34.0356294339,108.75679741,424.628,394.924,-0.0,0.916901,1.44695,0.0,2,0,0,0
95778931,34.0356290856,108.75679516,424.733,395.034,-0.0,0.91692,1.44675,0.0,2,0,0,0
95977578,34.0356286691,108.756792914,424.806,395.11,-0.0,0.916946,1.44657,0.0,2,0,0,0
96186160,34.0356283064,108.756790542,424.844,395.151,-0.0,0.917214,1.44654,0.0,2,0,0,0
96375041,34.0356281423,108.756788408,424.855,395.166,-0.0,0.916982,1.4468,0.0,2,0,0,0
96578492,34.0356281343,108.756786101,424.838,395.151,-0.0,0.916995,1.44661,0.0,2,0,0,0
96782107,34.0356283674,108.756783738,424.799,395.115,-0.0,0.917001,1.44643,0.0,2,0,0,0
96980793,34.0356287867,108.756781455,424.752,395.071,-0.0,0.917031,1.44686,0.0,2,0,0,0
97179544,34.0356292737,108.75677928,424.684,395.008,-0.0,0.917032,1.44668,0.0,2,0,0,0
97383023,34.0356297042,108.756777166,424.614,394.942,-0.0,0.917042,1.4465,0.0,2,0,0,0
97581671,34.0356299429,108.756775089,424.567,394.9,-0.0,0.917098,1.44692,0.0,2,0,0,0
97780320,34.0356302213,108.756772974,424.546,394.884,-0.0,0.917751,1.44704,0.0,2,0,0,0
97979072,34.0356304819,108.756770872,424.546,394.886,-0.0,0.917875,1.44685,0.0,2,0,0,0
98177622,34.035630625,108.756768799,424.554,394.897,-0.0,0.918014,1.44727,0.0,2,0,0,0
98386204,34.0356307087,108.756766656,424.558,394.904,-0.0,0.91844,1.44722,0.0,2,0,0,0
98579885,34.0356307744,108.756764692,424.543,394.893,-0.0,0.918338,1.44686,0.0,2,0,0,0
98778603,34.0356308468,108.756762709,424.513,394.867,-0.0,0.918461,1.44727,0.0,2,0,0,0
98977184,34.0356308983,108.756760796,424.497,394.856,-0.0,0.918625,1.44705,0.0,2,0,0,0
99180797,34.0356309142,108.756758952,424.518,394.882,-0.0,0.918783,1.44746,0.0,2,0,0,0
99379447,34.0356308828,108.756757214,424.582,394.95,-0.0,0.918913,1.44724,0.0,2,0,0,0
99578200,34.0356307066,108.756755499,424.671,395.043,-0.0,0.919029,1.44703,0.0,2,0,0,0
99781711,34.0356304563,108.756753836,424.766,395.141,-0.0,0.91913,1.44682,0.0,2,0,0,0
99980368,34.0356302843,108.756752307,424.849,395.229,-0.0,0.919207,1.44724,0.0,2,0,0,0
100183977,34.0356300812,108.756750782,424.929,395.313,-0.0,0.919269,1.44703,0.0,2,0,0,0
100382648,34.0356297936,108.756749337,425.004,395.392,-0.0,0.919318,1.44683,0.0,2,0,0,0
100581307,34.0356295123,108.756747971,425.061,395.452,-0.0,0.919374,1.44663,0.0,2,0,0,0
100779924,34.0356292355,108.756746619,425.07,395.465,-0.0,0.919356,1.44705,0.0,2,0,0,0
100978574,34.0356289258,108.756745284,425.039,395.438,-0.0,0.919346,1.44685,0.0,2,0,0,0
101177261,34.0356285243,108.756744032,425.003,395.407,-0.0,0.919319,1.44726,0.0,2,0,0,0
101375873,34.0356281041,108.756742765,425.008,395.416,-0.0,0.919283,1.44706,0.0,2,0,0,0
101579489,34.0356276592,108.756741493,425.057,395.47,-0.0,0.919263,1.44685,0.0,2,0,0,0
101778137,34.0356271671,108.756740358,425.133,395.55,-0.0,0.919251,1.44665,0.0,2,0,0,0
101986740,34.0356266875,108.756739251,425.199,395.62,-0.0,0.919493,1.44661,0.0,2,0,0,0
102185369,34.0356262242,108.756738205,425.218,395.642,-0.0,0.919476,1.44703,0.0,2,0,0,0
102379052,34.0356257752,108.756737069,425.187,395.615,-0.0,0.919174,1.44667,0.0,2,0,0,0
102582667,34.0356253709,108.75673575,425.129,395.56,-0.0,0.919152,1.44708,0.0,2,0,0,0
102781318,34.0356249477,108.756734374,425.085,395.52,-0.0,0.919114,1.44688,0.0,2,0,0,0
102979989,34.0356244481,108.756732892,425.06,395.498,-0.0,0.919126,1.44667,0.0,2,0,0,0
103183582,34.0356238615,108.756731285,425.047,395.488,-0.0,0.919177,1.44708,0.0,2,0,0,0
103382232,34.0356233296,108.75672952,425.045,395.488,-0.0,0.919277,1.44689,0.0,2,0,0,0
103580881,34.0356228922,108.756727628,425.05,395.494,-0.0,0.919373,1.44669,0.0,2,0,0,0
103779530,34.0356224422,108.756725692,425.037,395.483,-0.0,0.919459,1.4465,0.0,2,0,0,0
103978180,34.0356219732,108.756723651,425.012,395.458,-0.0,0.919531,1.44691,0.0,2,0,0,0
104177020,34.0356215373,108.756721488,424.999,395.446,-0.0,0.919584,1.44672,0.0,2,0,0,0
104380445,34.0356211451,108.756719183,425.0,395.447,-0.0,0.919622,1.44714,0.0,2,0,0,0
104579094,34.0356207971,108.756716832,425.013,395.461,-0.0,0.919657,1.44694,0.0,2,0,0,0
104787676,34.0356204553,108.756714337,425.036,395.484,-0.0,0.919938,1.4469,0.0,2,0,0,0
104986534,34.0356200967,108.756712022,425.066,395.514,-0.0,0.919957,1.44671,0.0,2,0,0,0
105184975,34.0356198029,108.756709797,425.113,395.562,-0.0,0.919975,1.44713,0.0,2,0,0,0
105378658,34.0356196696,108.75670771,425.171,395.62,-0.0,0.919722,1.44677,0.0,2,0,0,0
105582274,34.0356195905,108.756705592,425.22,395.668,-0.0,0.919727,1.44658,0.0,2,0,0,0
105781021,34.0356194979,108.756703578,425.249,395.697,-0.0,0.919733,1.4464,0.0,2,0,0,0
105979573,34.0356194054,108.756701589,425.266,395.715,-0.0,0.919727,1.44682,0.0,2,0,0,0
106183190,34.0356193322,108.756699613,425.279,395.731,-0.0,0.919744,1.44664,0.0,2,0,0,0
106381838,34.0356193243,108.75669777,425.29,395.744,-0.0,0.919757,1.44646,0.0,2,0,0,0
106580550,34.0356193726,108.756695949,425.289,395.746,-0.0,0.919732,1.44688,0.0,2,0,0,0
106779137,34.0356194449,108.756694164,425.277,395.737,-0.0,0.919682,1.44669,0.0,2,0,0,0
106977787,34.0356194936,108.756692469,425.251,395.713,-0.0,0.919651,1.44651,0.0,2,0,0,0
107176437,34.0356194957,108.75669083,425.21,395.673,-0.0,0.919613,1.44693,0.0,2,0,0,0
107375101,34.0356194548,108.756689211,425.143,395.609,-0.0,0.919578,1.44675,0.0,2,0,0,0
107578706,34.0356194201,108.756687571,425.049,395.517,-0.0,0.919535,1.44656,0.0,2,0,0,0
107782376,34.0356193741,108.756685858,424.934,395.405,-0.0,0.919497,1.44638,0.0,2,0,0,0
107980968,34.0356192525,108.756684212,424.823,395.297,-0.0,0.91946,1.44681,0.0,2,0,0,0
108179625,34.0356191463,108.756682733,424.726,395.203,-0.0,0.919432,1.44663,0.0,2,0,0,0
108378267,34.0356191692,108.756681353,424.636,395.116,-0.0,0.9194,1.44645,0.0,2,0,0,0
108581892,34.0356191473,108.75667997,424.558,395.04,-0.0,0.919365,1.44628,0.0,2,0,0,0
108780531,34.0356190314,108.756678573,424.499,394.985,-0.0,0.919337,1.44671,0.0,2,0,0,0
108979181,34.0356189551,108.756677153,424.455,394.943,-0.0,0.919352,1.44653,0.0,2,0,0,0
109182798,34.035618872,108.756675779,424.426,394.917,-0.0,0.919361,1.44696,0.0,2,0,0,0
109381448,34.0356187616,108.756674529,424.409,394.903,-0.0,0.919363,1.44677,0.0,2,0,0,0
109580099,34.0356186662,108.756673264,424.407,394.904,-0.0,0.919366,1.44658,0.0,2,0,0,0
109778746,34.0356187048,108.756671841,424.416,394.918,-0.0,0.919343,1.447,0.0,2,0,0,0
109982368,34.0356189137,108.756670147,424.441,394.946,-0.0,0.919349,1.44682,0.0,2,0,0,0
110176046,34.035619194,108.756668263,424.469,394.978,-0.0,0.919092,1.44647,0.0,2,0,0,0
110384627,34.0356194754,108.756665992,424.503,395.015,-0.0,0.919346,1.44645,0.0,2,0,0,0
110583277,34.0356197193,108.756663644,424.548,395.062,-0.0,0.919393,1.44688,0.0,2,0,0,0
110781928,34.0356198907,108.756661178,424.609,395.126,-0.0,0.919393,1.4467,0.0,2,0,0,0
110985543,34.0356200132,108.756658654,424.679,395.199,-0.0,0.919393,1.44651,0.0,2,0,0,0
111184199,34.0356201318,108.756656305,424.735,395.257,-0.0,0.919407,1.44634,0.0,2,0,0,0
111382899,34.0356201317,108.756654116,424.775,395.299,-0.0,0.919419,1.44677,0.0,2,0,0,0
111581494,34.0356200169,108.75665208,424.792,395.318,-0.0,0.919425,1.44659,0.0,2,0,0,0
111780141,34.0356199174,108.756650256,424.794,395.323,-0.0,0.919402,1.44642,0.0,2,0,0,0
111978933,34.0356198097,108.75664869,424.789,395.32,-0.0,0.919377,1.44685,0.0,2,0,0,0
112182410,34.0356195915,108.756647413,424.773,395.308,-0.0,0.919383,1.44667,0.0,2,0,0,0
112381057,34.0356193055,108.756646499,424.747,395.286,-0.0,0.919424,1.44649,0.0,2,0,0,0
112579707,34.0356190075,108.756645837,424.712,395.256,-0.0,0.919467,1.44632,0.0,2,0,0,0
112783323,34.0356187013,108.756645334,424.665,395.213,-0.0,0.919478,1.44674,0.0,2,0,0,0
112981972,34.0356184138,108.756644933,424.608,395.16,-0.0,0.919519,1.44656,0.0,2,0,0,0
113180622,34.0356181101,108.756644475,424.552,395.109,-0.0,0.919589,1.44638,0.0,2,0,0,0
113379272,34.035617829,108.756643782,424.493,395.054,-0.0,0.919616,1.44681,0.0,2,0,0,0
113577924,34.0356176286,108.756642823,424.435,395.001,-0.0,0.919639,1.44663,0.0,2,0,0,0
113776571,34.0356174263,108.756641751,424.383,394.955,-0.0,0.919659,1.44645,0.0,2,0,0,0
113985204,34.0356171795,108.75664069,424.347,394.924,-0.0,0.919922,1.44643,0.0,2,0,0,0
114178837,34.0356169773,108.756639778,424.332,394.916,-0.0,0.919672,1.4467,0.0,2,0,0,0
114377646,34.0356168858,108.756638898,424.332,394.92,-0.0,0.919695,1.44652,0.0,2,0,0,0
114586070,34.0356168367,108.756638048,424.355,394.948,-0.0,0.919968,1.4465,0.0,2,0,0,0
114779753,34.0356167762,108.756637292,424.399,394.996,-0.0,0.919693,1.44677,0.0,2,0,0,0
114978433,34.0356167306,108.756636444,424.462,395.062,-0.0,0.919697,1.4466,0.0,2,0,0,0
115177178,34.035616621,108.756635356,424.544,395.148,-0.0,0.919695,1.44643,0.0,2,0,0,0
115385635,34.0356165104,108.756633914,424.64,395.248,-0.0,0.919944,1.44641,0.0,2,0,0,0
115579318,34.0356165487,108.756632293,424.725,395.336,-0.0,0.919639,1.44669,0.0,2,0,0,0
115782936,34.0356166246,108.756630319,424.799,395.413,-0.0,0.919625,1.44652,0.0,2,0,0,0
115981696,34.0356166091,108.756628292,424.853,395.471,-0.0,0.919585,1.44635,0.0,2,0,0,0
116180234,34.0356166545,108.756626288,424.9,395.522,-0.0,0.919565,1.44618,0.0,2,0,0,0
116378887,34.0356168059,108.75662422,424.943,395.572,-0.0,0.919536,1.44661,0.0,2,0,0,0
116577533,34.0356169676,108.756621978,424.965,395.6,-0.0,0.919509,1.44644,0.0,2,0,0,0
116776243,34.0356171228,108.756619656,424.965,395.608,-0.0,0.919456,1.44686,0.0,2,0,0,0
116979800,34.0356172002,108.756617298,424.961,395.61,-0.0,0.919415,1.44668,0.0,2,0,0,0
117183417,34.0356171967,108.756614951,424.945,395.602,-0.0,0.919378,1.44651,0.0,2,0,0,0
117382065,34.0356171042,108.756612673,424.912,395.577,-0.0,0.919351,1.44634,0.0,2,0,0,0
117580758,34.0356169555,108.756610433,424.869,395.541,-0.0,0.919317,1.44677,0.0,2,0,0,0
117779366,34.0356167852,108.756608266,424.836,395.517,-0.0,0.919277,1.4466,0.0,2,0,0,0
117982999,34.0356165987,108.756606099,424.819,395.507,-0.0,0.919243,1.44643,0.0,2,0,0,0
118181631,34.0356164546,108.756603891,424.804,395.499,-0.0,0.919205,1.44626,0.0,2,0,0,0
118380343,34.0356163456,108.756601586,424.789,395.491,-0.0,0.919165,1.4467,0.0,2,0,0,0
118578932,34.0356162899,108.756599322,424.779,395.488,-0.0,0.919106,1.44653,0.0,2,0,0,0
118787514,34.0356163103,108.756596989,424.772,395.491,-0.0,0.919272,1.44651,0.0,2,0,0,0
118981202,34.0356163983,108.756594864,424.771,395.496,-0.0,0.918968,1.44679,0.0,2,0,0,0
119179847,34.0356165506,108.756592746,424.778,395.51,-0.0,0.918926,1.44662,0.0,2,0,0,0
119378497,34.0356167349,108.756590683,424.791,395.53,-0.0,0.918916,1.44645,0.0,2,0,0,0
119577149,34.0356168681,108.756588674,424.798,395.543,-0.0,0.918884,1.44628,0.0,2,0,0,0
119775798,34.0356169224,108.756586772,424.807,395.559,-0.0,0.918864,1.44671,0.0,2,0,0,0
119984381,34.0356168494,108.756584945,424.823,395.582,-0.0,0.919065,1.44668,0.0,2,0,0,0
120178065,34.0356166739,108.756583472,424.846,395.61,-0.0,0.918767,1.44635,0.0,2,0,0,0
120381680,34.0356164533,108.756582128,424.876,395.647,-0.0,0.918744,1.44678,0.0,2,0,0,0
120580330,34.0356161334,108.756580911,424.911,395.687,-0.0,0.918751,1.4466,0.0,2,0,0,0
120779013,34.035615694,108.756579825,424.952,395.732,-0.0,0.918735,1.44643,0.0,2,0,0,0
120982596,34.0356152032,108.756578853,424.972,395.758,-0.0,0.918738,1.44626,0.0,2,0,0,0
121181246,34.0356146594,108.756577909,424.947,395.737,-0.0,0.918731,1.44669,0.0,2,0,0,0
121384862,34.0356141336,108.75657694,424.866,395.661,-0.0,0.91871,1.44652,0.0,2,0,0,0
121583512,34.0356137482,108.756576104,424.753,395.553,-0.0,0.918687,1.44635,0.0,2,0,0,0
121782163,34.0356136398,108.756575423,424.648,395.455,-0.0,0.918648,1.44618,0.0,2,0,0,0
121980812,34.0356138695,108.756574778,424.567,395.38,-0.0,0.918639,1.44662,0.0,2,0,0,0
122179625,34.0356142003,108.75657408,424.506,395.326,-0.0,0.918626,1.44645,0.0,2,0,0,0
122378112,34.0356144512,108.756573297,424.456,395.283,-0.0,0.919216,1.44659,0.0,2,0,0,0
122576762,34.0356146725,108.756572253,424.42,395.254,-0.0,0.919208,1.44702,0.0,2,0,0,0
122785348,34.035614947,108.75657074,424.39,395.23,-0.0,0.919422,1.44699,0.0,2,0,0,0
122984172,34.0356151992,108.75656891,424.369,395.215,-0.0,0.919403,1.44681,0.0,2,0,0,0
123177686,34.0356154386,108.75656678,424.358,395.209,-0.0,0.91911,1.44647,0.0,2,0,0,0
123381295,34.0356156691,108.756564242,424.348,395.205,-0.0,0.919143,1.4469,0.0,2,0,0,0
123584913,34.0356157938,108.756561453,424.342,395.205,-0.0,0.919215,1.44672,0.0,2,0,0,0
123783669,34.0356158619,108.756558501,424.345,395.214,-0.0,0.919251,1.44655,0.0,2,0,0,0
123982212,34.0356160123,108.756555416,424.362,395.236,-0.0,0.919348,1.44637,0.0,2,0,0,0
124180862,34.0356162311,108.756552273,424.4,395.281,-0.0,0.919435,1.44681,0.0,2,0,0,0
124379562,34.0356163645,108.756549114,424.451,395.337,-0.0,0.919527,1.44663,0.0,2,0,0,0
124578212,34.035616487,108.756545981,424.502,395.393,-0.0,0.919607,1.44646,0.0,2,0,0,0
124776812,34.0356167085,108.756542935,424.557,395.455,-0.0,0.919613,1.44689,0.0,2,0,0,0
124980478,34.0356170556,108.75653992,424.623,395.524,-0.0,0.919658,1.44671,0.0,2,0,0,0
125179079,34.0356174612,108.756537024,424.691,395.596,-0.0,0.919687,1.44654,0.0,2,0,0,0
125377798,34.0356177796,108.75653426,424.761,395.67,-0.0,0.919713,1.44636,0.0,2,0,0,0
125586312,34.0356179991,108.756531571,424.824,395.736,-0.0,0.919983,1.44695,0.0,2,0,0,0
125780014,34.0356181924,108.756529249,424.871,395.785,-0.0,0.919703,1.4466,0.0,2,0,0,0
125983612,34.035618344,108.756526847,424.913,395.829,-0.0,0.919706,1.44642,0.0,2,0,0,0
126182268,34.0356184411,108.756524558,424.95,395.867,-0.0,0.91971,1.44685,0.0,2,0,0,0
126380920,34.0356185855,108.756522396,424.991,395.91,-0.0,0.919675,1.44666,0.0,2,0,0,0
126579563,34.0356187516,108.75652017,425.038,395.958,-0.0,0.919669,1.44709,0.0,2,0,0,0
126783179,34.0356189454,108.756517741,425.071,395.991,-0.0,0.919627,1.4469,0.0,2,0,0,0
126981829,34.0356191615,108.756515216,425.066,395.987,-0.0,0.919612,1.44671,0.0,2,0,0,0
127180480,34.0356193447,108.756512605,425.023,395.944,-0.0,0.919595,1.44652,0.0,2,0,0,0
127384097,34.0356194667,108.756509874,424.941,395.862,-0.0,0.919564,1.44695,0.0,2,0,0,0
127582746,34.0356195132,108.756507074,424.851,395.771,-0.0,0.919533,1.44676,0.0,2,0,0,0
127781396,34.0356196586,108.756504181,424.766,395.685,-0.0,0.919498,1.44657,0.0,2,0,0,0
127980048,34.0356198655,108.756501196,424.699,395.617,-0.0,0.919468,1.44699,0.0,2,0,0,0
128178697,34.0356199845,108.756498102,424.644,395.56,-0.0,0.919443,1.44679,0.0,2,0,0,0
128387280,34.0356199931,108.756494843,424.587,395.501,-0.0,0.919678,1.44675,0.0,2,0,0,0
128585930,34.0356200047,108.756491773,424.536,395.445,-0.0,0.919628,1.44717,0.0,2,0,0,0
128779615,34.0356201065,108.756488924,424.514,395.419,-0.0,0.919349,1.44681,0.0,2,0,0,0
128978264,34.035620351,108.756486255,424.528,395.428,-0.0,0.919334,1.44662,0.0,2,0,0,0
129177076,34.0356207024,108.756483742,424.572,395.467,-0.0,0.919326,1.44704,0.0,2,0,0,0
129380531,34.0356210709,108.756481153,424.635,395.527,-0.0,0.919324,1.44684,0.0,2,0,0,0
129579182,34.0356214143,108.75647858,424.694,395.582,-0.0,0.919327,1.44664,0.0,2,0,0,0
129782798,34.0356217384,108.756476047,424.747,395.631,-0.0,0.919329,1.44706,0.0,2,0,0,0
129981600,34.0356219616,108.756473673,424.802,395.684,-0.0,0.919319,1.44687,0.0,2,0,0,0
130180115,34.0356221161,108.756471344,424.854,395.733,-0.0,0.919312,1.44668,0.0,2,0,0,0
130378749,34.0356223046,108.756469126,424.898,395.775,-0.0,0.919295,1.44649,0.0,2,0,0,0
130582370,34.0356225009,108.756466992,424.929,395.803,-0.0,0.919279,1.44691,0.0,2,0,0,0
130781136,34.0356226854,108.756464992,424.955,395.826,-0.0,0.919226,1.44673,0.0,2,0,0,0
130979666,34.0356228867,108.756463024,424.975,395.845,-0.0,0.919206,1.44654,0.0,2,0,0,0
131178317,34.0356230333,108.756461115,424.988,395.857,-0.0,0.919162,1.44696,0.0,2,0,0,0
131386899,34.0356230975,108.75645918,424.984,395.853,-0.0,0.919401,1.44693,0.0,2,0,0,0
131585701,34.0356231327,108.756457397,424.967,395.835,-0.0,0.919395,1.44673,0.0,2,0,0,0
131779268,34.0356232212,108.756455686,424.955,395.822,-0.0,0.919118,1.447,0.0,2,0,0,0
131982851,34.0356234476,108.756453926,424.948,395.815,-0.0,0.9191,1.4468,0.0,2,0,0,0
132181501,34.0356238503,108.756452289,424.931,395.8,-0.0,0.919109,1.44662,0.0,2,0,0,0
132380263,34.0356244135,108.756450707,424.908,395.779,-0.0,0.919117,1.44644,0.0,2,0,0,0
132578802,34.0356249627,108.756448971,424.877,395.749,-0.0,0.919112,1.44686,0.0,2,0,0,0
132782418,34.0356254839,108.756447028,424.827,395.701,-0.0,0.919118,1.44668,0.0,2,0,0,0
132981085,34.0356259747,108.756445055,424.763,395.638,-0.0,0.919148,1.44649,0.0,2,0,0,0
133179787,34.0356265026,108.756443024,424.693,395.571,-0.0,0.919149,1.44691,0.0,2,0,0,0
133378394,34.0356270702,108.756440926,424.616,395.498,-0.0,0.919139,1.44671,0.0,2,0,0,0
133581986,34.0356276462,108.75643875,424.552,395.439,-0.0,0.919139,1.44652,0.0,2,0,0,0
133780636,34.0356280945,108.756436639,424.522,395.414,-0.0,0.919141,1.44693,0.0,2,0,0,0
133979344,34.0356283966,108.756434517,424.511,395.407,-0.0,0.919165,1.44674,0.0,2,0,0,0
134177938,34.0356287241,108.756432487,424.518,395.416,-0.0,0.919173,1.44655,0.0,2,0,0,0
134381555,34.0356292044,108.756430528,424.553,395.454,-0.0,0.919148,1.44697,0.0,2,0,0,0
134580205,34.0356296494,108.756428608,424.607,395.511,-0.0,0.919145,1.44678,0.0,2,0,0,0
134778855,34.0356299882,108.756426608,424.646,395.55,-0.0,0.919111,1.44658,0.0,2,0,0,0
134977507,34.035630309,108.756424479,424.645,395.551,-0.0,0.919105,1.44699,0.0,2,0,0,0
135181122,34.0356306685,108.756422192,424.602,395.511,-0.0,0.919061,1.44679,0.0,2,0,0,0
135384739,34.0356310757,108.756419849,424.559,395.47,-0.0,0.919015,1.44659,0.0,2,0,0,0
135583390,34.0356314398,108.756417524,424.557,395.471,-0.0,0.918966,1.447,0.0,2,0,0,0
135782040,34.0356317012,108.756415277,424.595,395.511,-0.0,0.918927,1.44681,0.0,2,0,0,0
135980710,34.0356321068,108.756413101,424.658,395.576,-0.0,0.918899,1.4466,0.0,2,0,0,0
136179344,34.0356326815,108.756410956,424.722,395.643,-0.0,0.918867,1.44702,0.0,2,0,0,0
136377992,34.0356332275,108.756408897,424.767,395.691,-0.0,0.918848,1.44682,0.0,2,0,0,0
136581609,34.035633748,108.756406847,424.766,395.694,-0.0,0.918827,1.44723,0.0,2,0,0,0
136780259,34.0356342207,108.756404943,424.715,395.646,-0.0,0.9188,1.44702,0.0,2,0,0,0
136979067,34.0356347258,108.756403225,424.662,395.599,-0.0,0.918786,1.44682,0.0,2,0,0,0
137177561,34.0356354037,108.756401654,424.649,395.59,-0.0,0.918748,1.44662,0.0,2,0,0,0
137381178,34.0356362261,108.756400143,424.68,395.625,-0.0,0.91872,1.44703,0.0,2,0,0,0
137579827,34.035637,108.756398613,424.742,395.692,-0.0,0.918692,1.44684,0.0,2,0,0,0
137778600,34.0356378378,108.756396884,424.787,395.74,-0.0,0.918672,1.44664,0.0,2,0,0,0
137982096,34.0356387547,108.756394819,424.783,395.741,-0.0,0.918643,1.44645,0.0,2,0,0,0
138180746,34.035639647,108.756392534,424.724,395.686,-0.0,0.918637,1.44687,0.0,2,0,0,0
138384363,34.0356404659,108.756390016,424.641,395.608,-0.0,0.91861,1.44668,0.0,2,0,0,0
138583122,34.0356412154,108.756387481,424.58,395.551,-0.0,0.918585,1.4465,0.0,2,0,0,0
138781697,34.035642044,108.756385028,424.559,395.535,-0.0,0.918557,1.44631,0.0,2,0,0,0
138980314,34.0356429184,108.756382706,424.578,395.558,-0.0,0.918537,1.44674,0.0,2,0,0,0
139178971,34.0356437366,108.756380483,424.605,395.588,-0.0,0.918515,1.44655,0.0,2,0,0,0
139377731,34.0356444591,108.756378397,424.618,395.603,-0.0,0.918498,1.44637,0.0,2,0,0,0
139576266,34.0356451314,108.756376441,424.604,395.59,-0.0,0.918507,1.4468,0.0,2,0,0,0
139779883,34.0356458053,108.756374554,424.582,395.57,-0.0,0.918479,1.44661,0.0,2,0,0,0
139978534,34.0356464281,108.756372885,424.559,395.548,-0.0,0.91849,1.44643,0.0,2,0,0,0
140177311,34.0356469693,108.756371331,424.526,395.515,-0.0,0.918492,1.44626,0.0,2,0,0,0
140385768,34.0356475155,108.756369812,424.474,395.463,-0.0,0.918722,1.44683,0.0,2,0,0,0
140579452,34.0356480186,108.756368558,424.438,395.428,-0.0,0.918434,1.44649,0.0,2,0,0,0
140783069,34.0356485852,108.75636734,424.438,395.43,-0.0,0.918423,1.44631,0.0,2,0,0,0
140981730,34.0356491576,108.756366186,424.473,395.465,-0.0,0.918422,1.44673,0.0,2,0,0,0
141180370,34.0356497263,108.756364888,424.531,395.523,-0.0,0.918429,1.44656,0.0,2,0,0,0
141383989,34.0356502569,108.756363325,424.585,395.58,-0.0,0.918411,1.44638,0.0,2,0,0,0
141582678,34.0356507336,108.756361588,424.609,395.605,-0.0,0.918367,1.4462,0.0,2,0,0,0
141781324,34.0356512338,108.756359669,424.582,395.579,-0.0,0.918378,1.44663,0.0,2,0,0,0
141979939,34.0356516609,108.756357573,424.524,395.524,-0.0,0.918381,1.44645,0.0,2,0,0,0
142178590,34.0356520289,108.75635529,424.442,395.445,-0.0,0.918365,1.44628,0.0,2,0,0,0
142377243,34.0356524871,108.756352872,424.363,395.368,-0.0,0.918374,1.4467,0.0,2,0,0,0
142585825,34.0356529991,108.756350194,424.297,395.306,-0.0,0.918612,1.44667,0.0,2,0,0,0
142779508,34.0356534275,108.756347756,424.253,395.266,-0.0,0.918329,1.44633,0.0,2,0,0,0
142978159,34.0356538454,108.756345453,424.234,395.249,-0.0,0.918343,1.44676,0.0,2,0,0,0
143176810,34.0356541901,108.756343224,424.237,395.254,-0.0,0.918369,1.44658,0.0,2,0,0,0
143385394,34.0356544701,108.756340921,424.26,395.278,-0.0,0.918652,1.44655,0.0,2,0,0,0
143579079,34.0356545979,108.756338893,424.307,395.326,-0.0,0.91842,1.44682,0.0,2,0,0,0
143782729,34.0356547085,108.756336767,424.378,395.397,-0.0,0.918447,1.44663,0.0,2,0,0,0
143981537,34.0356549093,108.756334574,424.448,395.466,-0.0,0.918462,1.44644,0.0,2,0,0,0
144179996,34.0356550474,108.756332442,424.522,395.542,-0.0,0.918476,1.44687,0.0,2,0,0,0
144383613,34.0356551644,108.756330395,424.612,395.634,-0.0,0.918513,1.44669,0.0,2,0,0,0
144582264,34.0356553101,108.756328398,424.697,395.72,-0.0,0.918518,1.44651,0.0,2,0,0,0
144781071,34.0356553627,108.756326321,424.755,395.779,-0.0,0.918493,1.44693,0.0,2,0,0,0
144979566,34.0356552894,108.756324266,424.786,395.811,-0.0,0.918501,1.44674,0.0,2,0,0,0
145188203,34.0356551963,108.756322184,424.798,395.825,-0.0,0.91877,1.44671,0.0,2,0,0,0
145381835,34.0356550928,108.756320334,424.791,395.819,-0.0,0.91852,1.44637,0.0,2,0,0,0
145580617,34.0356549446,108.756318574,424.769,395.798,-0.0,0.918521,1.44679,0.0,2,0,0,0
145779137,34.0356548055,108.756316964,424.733,395.764,-0.0,0.918519,1.4466,0.0,2,0,0,0
145977787,34.0356547719,108.756315517,424.69,395.723,-0.0,0.9185,1.44642,0.0,2,0,0,0
146176437,34.0356547915,108.756314162,424.658,395.693,-0.0,0.918499,1.44683,0.0,2,0,0,0
146385123,34.0356548461,108.756312681,424.64,395.677,-0.0,0.918788,1.4468,0.0,2,0,0,0
146578705,34.0356550375,108.75631128,424.644,395.686,-0.0,0.918567,1.44645,0.0,2,0,0,0
146782322,34.035655265,108.756309695,424.672,395.718,-0.0,0.918608,1.44687,0.0,2,0,0,0
146980973,34.0356554036,108.756308064,424.716,395.765,-0.0,0.918682,1.44669,0.0,2,0,0,0
147179668,34.0356554782,108.75630638,424.763,395.815,-0.0,0.918733,1.44651,0.0,2,0,0,0
147383244,34.0356555608,108.756304603,424.803,395.857,-0.0,0.918806,1.44632,0.0,2,0,0,0
147581891,34.0356556111,108.756302833,424.829,395.886,-0.0,0.918909,1.44675,0.0,2,0,0,0
147780542,34.0356556091,108.756301017,424.841,395.9,-0.0,0.919035,1.44657,0.0,2,0,0,0
147979220,34.0356556309,108.756299161,424.847,395.91,-0.0,0.919162,1.44639,0.0,2,0,0,0
148177844,34.0356556637,108.756297167,424.849,395.915,-0.0,0.919281,1.44681,0.0,2,0,0,0
148386428,34.0356556901,108.756294992,424.82,395.889,-0.0,0.919659,1.44678,0.0,2,0,0,0
148580113,34.0356557919,108.756293001,424.756,395.83,-0.0,0.919522,1.44644,0.0,2,0,0,0
148778806,34.0356559647,108.756290977,424.668,395.746,-0.0,0.919581,1.44686,0.0,2,0,0,0
148977414,34.0356562003,108.756289098,424.581,395.662,-0.0,0.919686,1.44667,0.0,2,0,0,0
149181031,34.0356564693,108.756287184,424.511,395.594,-0.0,0.919797,1.44649,0.0,2,0,0,0
149384648,34.0356566413,108.756285056,424.475,395.562,-0.0,0.919896,1.44691,0.0,2,0,0,0
149583311,34.0356567911,108.756282846,424.466,395.558,-0.0,0.919989,1.44673,0.0,2,0,0,0
149781950,34.03565699,108.756280592,424.466,395.563,-0.0,0.92008,1.44654,0.0,2,0,0,0
149980601,34.0356572094,108.756278325,424.461,395.564,-0.0,0.92016,1.44636,0.0,2,0,0,0
150179271,34.0356574573,108.756276113,424.448,395.556,-0.0,0.920248,1.44678,0.0,2,0,0,0
150377903,34.0356577221,108.756273957,424.427,395.539,-0.0,0.920332,1.44658,0.0,2,0,0,0
150581537,34.035658035,108.756271807,424.416,395.533,-0.0,0.920412,1.44639,0.0,2,0,0,0
150780171,34.0356583408,108.756269749,424.421,395.542,-0.0,0.920484,1.44681,0.0,2,0,0,0
150978825,34.0356586355,108.756267671,424.426,395.551,-0.0,0.920549,1.44663,0.0,2,0,0,0
151177473,34.0356589749,108.756265632,424.431,395.56,-0.0,0.920615,1.44644,0.0,2,0,0,0
151386056,34.0356593779,108.756263539,424.444,395.576,-0.0,0.920935,1.44641,0.0,2,0,0,0
151579789,34.035659832,108.756261676,424.472,395.611,-0.0,0.920732,1.44667,0.0,2,0,0,0
151778550,34.0356603191,108.756259821,424.514,395.659,-0.0,0.920806,1.44649,0.0,2,0,0,0
151977064,34.0356607854,108.756258034,424.544,395.694,-0.0,0.920882,1.44631,0.0,2,0,0,0
152180661,34.0356611872,108.756256313,424.568,395.722,-0.0,0.920947,1.44673,0.0,2,0,0,0
152379312,34.0356614706,108.756254689,424.588,395.749,-0.0,0.921013,1.44656,0.0,2,0,0,0
152578086,34.0356617255,108.756253041,424.61,395.779,-0.0,0.92106,1.44638,0.0,2,0,0,0
152781581,34.0356620259,108.756251332,424.63,395.807,-0.0,0.921082,1.4462,0.0,2,0,0,0
152985230,34.0356623472,108.756249665,424.642,395.825,-0.0,0.921143,1.44663,0.0,2,0,0,0
153183848,34.0356626672,108.756248067,424.645,395.833,-0.0,0.921223,1.44646,0.0,2,0,0,0
153382616,34.0356629609,108.756246428,424.623,395.816,-0.0,0.921302,1.44629,0.0,2,0,0,0
153581150,34.0356631781,108.756244763,424.59,395.789,-0.0,0.921368,1.44612,0.0,2,0,0,0
153779816,34.0356633612,108.756243061,424.551,395.756,-0.0,0.921423,1.44655,0.0,2,0,0,0
153983418,34.0356634981,108.75624124,424.505,395.717,-0.0,0.921469,1.44638,0.0,2,0,0,0
154182144,34.0356634896,108.756239413,424.449,395.669,-0.0,0.921508,1.44621,0.0,2,0,0,0
154380721,34.0356634584,108.756237576,424.389,395.616,-0.0,0.921565,1.44665,0.0,2,0,0,0
154579372,34.035663455,108.756235744,424.349,395.585,-0.0,0.921598,1.44648,0.0,2,0,0,0
154778023,34.035663562,108.756234047,424.346,395.59,-0.0,0.921612,1.44631,0.0,2,0,0,0
154986669,34.0356638963,108.756232501,424.377,395.629,-0.0,0.921953,1.4463,0.0,2,0,0,0
155180293,34.035664306,108.756231148,424.425,395.685,-0.0,0.921743,1.44657,0.0,2,0,0,0
155378943,34.0356646995,108.756229758,424.481,395.749,-0.0,0.921838,1.4464,0.0,2,0,0,0
155582560,34.0356650201,108.756228281,424.525,395.802,-0.0,0.921906,1.44682,0.0,2,0,0,0
155781230,34.0356653093,108.756226742,424.545,395.831,-0.0,0.921982,1.44664,0.0,2,0,0,0
155979862,34.0356655712,108.756225185,424.546,395.839,-0.0,0.922063,1.44645,0.0,2,0,0,0
156183479,34.035665777,108.756223629,424.528,395.828,-0.0,0.922149,1.44687,0.0,2,0,0,0
156382130,34.0356659451,108.75622214,424.492,395.8,-0.0,0.922246,1.44667,0.0,2,0,0,0
156580787,34.0356660753,108.756220742,424.442,395.758,-0.0,0.922313,1.44709,0.0,2,0,0,0
156779433,34.0356661509,108.75621934,424.383,395.705,-0.0,0.92237,1.44689,0.0,2,0,0,0
156978085,34.0356661821,108.756217868,424.326,395.655,-0.0,0.922426,1.4467,0.0,2,0,0,0
157181701,34.0356661628,108.756216367,424.285,395.619,-0.0,0.922484,1.4465,0.0,2,0,0,0
157380352,34.035666116,108.756214881,424.267,395.606,-0.0,0.922529,1.44692,0.0,2,0,0,0
157579004,34.0356660906,108.756213432,424.274,395.62,-0.0,0.922561,1.44673,0.0,2,0,0,0
157787587,34.0356660739,108.756212019,424.306,395.659,-0.0,0.922848,1.4467,0.0,2,0,0,0
157981272,34.0356660176,108.756210779,424.358,395.717,-0.0,0.922609,1.44635,0.0,2,0,0,0
158179924,34.0356659122,108.756209572,424.433,395.8,-0.0,0.922603,1.44677,0.0,2,0,0,0
158378578,34.0356657546,108.75620843,424.53,395.904,-0.0,0.9226,1.44659,0.0,2,0,0,0
158582196,34.0356654311,108.756207454,424.647,396.028,-0.0,0.922599,1.44641,0.0,2,0,0,0
158781055,34.0356649565,108.756206755,424.761,396.148,-0.0,0.92265,1.44622,0.0,2,0,0,0
158984461,34.0356644905,108.756206176,424.872,396.265,-0.0,0.922691,1.44664,0.0,2,0,0,0
159183112,34.0356641213,108.756205634,424.94,396.34,-0.0,0.922776,1.44644,0.0,2,0,0,0
159381763,34.0356639718,108.756205178,424.95,396.357,-0.0,0.922882,1.44623,0.0,2,0,0,0
159580584,34.0356639462,108.756204908,424.912,396.326,-0.0,0.922995,1.44661,0.0,2,0,0,0
159779066,34.0356639257,108.75620472,424.864,396.286,-0.0,0.923082,1.44638,0.0,2,0,0,0
159982683,34.0356637941,108.75620457,424.813,396.244,-0.0,0.923188,1.44615,0.0,2,0,0,0
160181336,34.0356634511,108.756204475,424.762,396.203,-0.0,0.923332,1.44592,0.0,2,0,0,0
160380114,34.0356627661,108.756204342,424.707,396.157,-0.0,0.923453,1.44628,0.0,2,0,0,0
160578637,34.0356617758,108.756203894,424.646,396.108,-0.0,0.923575,1.44606,0.0,2,0,0,0
160787221,34.0356606217,108.756202826,424.57,396.042,-0.0,0.924018,1.44598,0.0,2,0,0,0
160980958,34.0356594701,108.756201172,424.491,395.975,-0.0,0.923843,1.44621,0.0,2,0,0,0
161179686,34.0356584586,108.75619922,424.425,395.92,-0.0,0.923971,1.44599,0.0,2,0,0,0
161378208,34.0356579465,108.75619751,424.404,395.91,-0.0,0.924083,1.44579,0.0,2,0,0,0
161581826,34.0356575238,108.756195959,424.42,395.936,-0.0,0.924193,1.4462,0.0,2,0,0,0
161775511,34.0356569559,108.756194596,424.467,395.993,-0.0,0.924006,1.44588,0.0,2,0,0,0
