timestamp,roll,pitch,yaw,thrust_body[0],thrust_body[1],thrust_body[2]
21872610,0.0287023,-0.00429834,-0.000155347,0.0,0.0,-0.0
21877608,0.0283568,-0.00413876,-0.000368184,0.0,0.0,-0.0
21897474,0.0275912,-0.00484064,-0.00046952,0.0,0.0,-0.0
21917332,0.0274736,-0.00567998,-0.000825723,0.0,0.0,-0.0
21932356,0.0284571,-0.00375221,-0.000352946,0.0,0.0,-0.0
21957085,0.0261849,-0.00379691,0.000754434,0.0,0.0,-0.0
21976960,0.027696,-0.00229805,-0.000555179,0.0,0.0,-0.0
21991799,0.0327715,-0.00519874,-0.00127337,0.0,0.0,-0.0
22016643,0.0200235,-0.00524931,-0.000566425,0.0,0.0,-0.0
22036526,0.0330701,-0.00823987,0.000387838,0.0,0.0,-0.0
22056325,0.0200712,-0.00153136,-0.00100607,0.0,0.0,-0.0
22076159,0.0316063,-0.00324332,0.000233375,0.0,0.0,-0.0
22096041,0.0220395,-0.00306302,-0.00107385,0.0,0.0,-0.0
22116057,0.0288363,-0.00094242,0.000430365,0.0,0.0,-0.0
22130851,0.0280298,-0.00638921,-0.000845002,0.0,0.0,-0.0
22155754,0.0272242,-0.00705719,-0.00105068,0.0,0.0,-0.0
22175611,0.0263735,-0.00172637,0.000203067,0.0,0.0,-0.0
22195421,0.0276982,-0.00116457,0.000298112,0.0,0.0,-0.0
22215274,0.026308,-0.00625788,-0.0016448,0.0,0.0,-0.0
22235136,0.0272203,-0.00489598,-0.000159194,0.0,0.0,-0.0
22255026,0.0283972,0.000718787,0.000651024,0.0,0.0,-0.0
22274812,0.0246392,-0.00525347,-0.00119578,0.0,0.0,-0.0
22294680,0.0265914,-0.00608597,-0.000811362,0.0,0.0,-0.0
22314512,0.0266665,-0.000300404,0.000559596,0.0,0.0,-0.0
22334433,0.0286007,-0.00122769,-0.000814669,0.0,0.0,-0.0
22354289,0.0248148,-0.00589079,-0.00159465,0.0,0.0,-0.0
22374295,0.0258419,-0.00330364,0.000193166,0.0,0.0,-0.0
22394295,0.028792,-0.000615447,0.00110752,0.0,0.0,-0.0
22414013,0.0276754,-0.00263929,-0.0011794,0.0,0.0,-0.0
22433818,0.0236321,-0.00545457,-0.00139994,0.0,0.0,-0.0
22453655,0.0270143,-0.00243602,-3.85663e-05,0.0,0.0,-0.0
22478459,0.0282571,-0.0016779,0.000210771,0.0,0.0,-0.0
22493378,0.0269352,-0.0040874,-0.00119901,0.0,0.0,-0.0
22513333,0.0224866,-0.00302597,-0.000583723,0.0,0.0,-0.0
22538035,0.0227364,-0.00239016,-0.000273436,0.0,0.0,-0.0
22552890,0.031788,-0.00403184,-0.000457814,0.0,0.0,-0.0
22572740,0.0256234,-0.00578244,-0.00139675,0.0,0.0,-0.0
22597577,0.0240509,-0.0055491,-0.00143911,0.0,0.0,-0.0
22617554,0.0222833,0.000483495,-0.000489649,0.0,0.0,-0.0
22632489,0.0323739,-0.00432529,-0.000248206,0.0,0.0,-0.0
22652427,0.0260262,-0.00676727,-0.00137466,0.0,0.0,-0.0
22677135,0.0246758,-0.0054608,-0.00112992,0.0,0.0,-0.0
22692092,0.0276851,0.000828651,0.000175404,0.0,0.0,-0.0
22711913,0.0320288,-0.00571848,-6.5423e-05,0.0,0.0,-0.0
22736828,0.0308503,-0.00750813,-5.05643e-05,0.0,0.0,-0.0
22756564,0.0251005,-0.00651478,-0.000770906,0.0,0.0,-0.0
22771519,0.0277361,0.00339211,-0.000116761,0.0,0.0,-0.0
22796222,0.0296267,0.00164691,-0.000691661,0.0,0.0,-0.0
22816087,0.0308108,-0.00801941,2.74683e-05,0.0,0.0,-0.0
22831108,0.0242279,-3.59631e-05,-0.000778495,0.0,0.0,-0.0
22855912,0.0249813,0.00183795,-0.000902427,0.0,0.0,-0.0
22875770,0.0290357,0.00341887,-0.00107705,0.0,0.0,-0.0
22895655,0.0306959,-0.00783063,-0.000181443,0.0,0.0,-0.0
22915606,0.0257947,-0.00917637,0.000380801,0.0,0.0,-0.0
22935441,0.0249476,0.00253816,-0.00080838,0.0,0.0,-0.0
22955293,0.0295379,0.00523615,-0.00160499,0.0,0.0,-0.0
22975087,0.0301237,-0.00640401,-0.00016125,0.0,0.0,-0.0
22994997,0.0252102,-0.00952808,0.000951796,0.0,0.0,-0.0
23014766,0.0257726,0.00125575,-0.000760949,0.0,0.0,-0.0
23034640,0.0300292,0.00615251,-0.00205802,0.0,0.0,-0.0
23054519,0.0298577,-0.00484526,-0.000198036,0.0,0.0,-0.0
23074431,0.0254145,-0.0101597,0.00122396,0.0,0.0,-0.0
23094346,0.0252119,-0.00037154,-0.000786398,0.0,0.0,-0.0
23114091,0.0302652,0.00680838,-0.00236548,0.0,0.0,-0.0
23133969,0.029406,-0.00182623,-0.000164555,0.0,0.0,-0.0
23153918,0.0266037,-0.0102757,0.00130513,0.0,0.0,-0.0
23178808,0.0259791,-0.00971425,0.0013132,0.0,0.0,-0.0
23193782,0.0296442,0.00554148,-0.00252198,0.0,0.0,-0.0
23213530,0.0299078,0.0013716,-0.000425555,0.0,0.0,-0.0
23238315,0.0288962,-0.00088822,-0.000144927,0.0,0.0,-0.0
23253331,0.0265973,-0.00499932,-0.000398155,0.0,0.0,-0.0
23273176,0.0307428,0.00452979,-0.00254202,0.0,0.0,-0.0
23292863,0.0292776,0.00339659,-0.000833036,0.0,0.0,-0.0
23317792,0.0285099,0.00171301,-0.000460369,0.0,0.0,-0.0
23332735,0.0264543,-0.00643821,-2.80074e-05,0.0,0.0,-0.0
23352611,0.0309431,-0.00746559,-0.00253161,0.0,0.0,-0.0
23377355,0.0316906,0.00229439,-0.00213286,0.0,0.0,-0.0
23392267,0.024577,-0.00311844,0.00165631,0.0,0.0,-0.0
23412090,0.0268383,-0.00721268,0.000301053,0.0,0.0,-0.0
23436884,0.0277198,-0.0059471,-0.00019856,0.0,0.0,-0.0
23456964,0.0315584,-0.000470724,-0.00202657,0.0,0.0,-0.0
23471723,0.0253152,0.000992759,0.00144491,0.0,0.0,-0.0
23496552,0.0254811,-0.0010342,0.00116371,0.0,0.0,-0.0
23516410,0.0274696,-0.00636464,-0.000683298,0.0,0.0,-0.0
23531358,0.0299652,0.00122001,-0.000918588,0.0,0.0,-0.0
23556217,0.0295019,0.00249116,6.01206e-05,0.0,0.0,-0.0
23576200,0.0272283,0.00184393,0.00106261,0.0,0.0,-0.0
23595949,0.0281789,-0.0129489,-0.00137621,0.0,0.0,-0.0
23615767,0.0297121,-0.00324505,-0.00174851,0.0,0.0,-0.0
23635671,0.0297581,0.00129996,0.000531651,0.0,0.0,-0.0
23655519,0.0281535,0.00285264,0.00126455,0.0,0.0,-0.0
23675236,0.0283887,-0.00254788,-0.00158431,0.0,0.0,-0.0
23695089,0.028345,-0.00439236,-0.00224791,0.0,0.0,-0.0
23715079,0.0294945,0.000376945,0.000895056,0.0,0.0,-0.0
23735037,0.0300028,0.00337822,0.00140428,0.0,0.0,-0.0
23754848,0.0291731,0.000598193,-0.00165425,0.0,0.0,-0.0
23774649,0.0268698,-0.00122177,-0.00212229,0.0,0.0,-0.0
23794528,0.0286396,0.000510803,0.000973429,0.0,0.0,-0.0
23814464,0.0317444,0.000865364,0.00167848,0.0,0.0,-0.0
23834412,0.0299841,-0.0019642,-0.00162138,0.0,0.0,-0.0
23854159,0.0136655,-0.00140774,-0.00211185,0.0,0.0,-0.0
23873983,0.0282125,0.00181117,0.000758244,0.0,0.0,-0.0
23893773,0.0318692,0.00107981,0.00152722,0.0,0.0,-0.0
23913616,0.0309606,-0.00267617,-0.00120037,0.0,0.0,-0.0
23933488,0.0261655,-0.00119994,-0.00166919,0.0,0.0,-0.0
23953401,0.0146855,0.00342606,0.000119148,0.0,0.0,-0.0
23973320,0.0195186,0.0016077,0.000930961,0.0,0.0,-0.0
23993274,0.0200491,-0.00497153,-0.00066442,0.0,0.0,-0.0
24017971,0.0177247,-0.00614056,-0.00112613,0.0,0.0,-0.021224
24032864,0.0136312,0.00562762,-0.000497593,0.0,0.0,-0.0224725
24052715,0.0194416,0.00240455,0.000422672,0.0,0.0,-0.0299633
24077637,0.0211562,0.000656974,-7.65813e-05,0.0,0.0,-0.0411995
24092533,0.0137137,-0.00332161,-0.00104248,0.0,0.0,-0.0411995
24112405,0.0130834,0.00775849,-0.000915307,0.0,0.0,-0.0449449
24137132,0.0255204,0.00925511,-0.000757504,0.0,0.0,-0.0549327
24157034,0.0302826,0.00717789,-0.000567832,0.0,0.0,-0.0774051
24171890,0.0308065,-0.0113272,-0.000117052,0.0,0.0,-0.114859
24196787,0.0321162,-0.0129281,-4.75198e-05,0.0,0.0,-0.198947
24216652,0.0290715,-0.000120761,-0.000749605,0.0,0.0,-0.218947
24231564,0.0223322,0.0173881,-0.00458107,0.0,0.0,-0.218947
24256479,0.0221,0.0197273,-0.00408964,0.0,0.0,-0.221053
24276320,0.0247125,0.0125764,-0.00381722,0.0,0.0,-0.22
24296170,0.0291231,0.00183816,-0.0035852,0.0,0.0,-0.22
24315951,0.0309963,-0.00243871,-0.00409411,0.0,0.0,-0.22
24335787,0.0266991,0.00127719,-0.00532414,0.0,0.0,-0.22
24355708,0.0275473,0.00204306,-0.00554671,0.0,0.0,-0.22
24375539,0.0279107,0.00183838,-0.00434574,0.0,0.0,-0.218947
24395456,0.0215518,0.00440864,-0.00553846,0.0,0.0,-0.218947
24415334,0.0292944,-0.00301933,-0.00821389,0.0,0.0,-0.218947
24435149,0.033136,-0.00374059,-0.0070495,0.0,0.0,-0.218947
24454970,0.0237661,0.00305105,-0.00646348,0.0,0.0,-0.218947
24474785,0.021787,-0.000411851,-0.00860412,0.0,0.0,-0.218947
24494725,0.0333993,-0.00212411,-0.0101319,0.0,0.0,-0.218947
24514608,0.0244556,0.00551849,-0.00933284,0.0,0.0,-0.218947
24534556,0.0174652,0.00552122,-0.00883733,0.0,0.0,-0.217895
24554339,0.0329731,-0.00196741,-0.0106389,0.0,0.0,-0.214737
24574212,0.0324716,0.00250025,-0.0117094,0.0,0.0,-0.214737
24594129,0.0197226,0.00534422,-0.00981764,0.0,0.0,-0.214737
24613995,0.0280238,-0.00392749,-0.0119091,0.0,0.0,-0.214737
24633882,0.0330643,0.000703616,-0.0123437,0.0,0.0,-0.214737
24653692,0.0227311,0.00483174,-0.0119222,0.0,0.0,-0.214737
24673587,0.0287109,0.000661084,-0.0132581,0.0,0.0,-0.214737
24693297,0.0313144,0.00420571,-0.0147745,0.0,0.0,-0.214737
24718151,0.0271848,-0.00254895,-0.0146499,0.0,0.0,-0.214737
24733018,0.0272898,-0.00371476,-0.0147009,0.0,0.0,-0.214737
24752942,0.0297003,-0.000749857,-0.0150524,0.0,0.0,-0.214737
24777816,0.0261789,-0.00202373,-0.0154979,0.0,0.0,-0.214737
24792796,0.0261371,-0.00148933,-0.0160946,0.0,0.0,-0.214737
24812699,0.031164,-0.000155412,-0.0163278,0.0,0.0,-0.214737
24837367,0.029275,-0.00224606,-0.0151115,0.0,0.0,-0.214737
24857279,0.0346146,-0.00528203,-0.0175643,0.0,0.0,-0.214737
24872238,0.032632,-0.00514033,-0.0183191,0.0,0.0,-0.214737
24897029,0.0263323,0.0027292,-0.0176174,0.0,0.0,-0.214737
24916867,0.0312293,-0.00145805,-0.0189346,0.0,0.0,-0.214737
24931719,0.0298616,-0.000220005,-0.0184375,0.0,0.0,-0.214737
24956545,0.0158725,0.00558134,-0.0183948,0.0,0.0,-0.214737
24976479,0.0297173,0.00171825,-0.0182885,0.0,0.0,-0.214737
24996340,0.0144991,0.00122767,-0.0199457,0.0,0.0,-0.214737
25016198,0.0142189,0.00262127,-0.0199582,0.0,0.0,-0.214737
25036066,0.0198043,-0.00101936,-0.0185623,0.0,0.0,-0.214737
25055971,0.0183298,0.00023674,-0.0176171,0.0,0.0,-0.214737
25070843,0.0174739,0.000848622,-0.0186193,0.0,0.0,-0.214737
25095705,0.0151055,-0.0020998,-0.020078,0.0,0.0,-0.214737
25115525,0.0236374,-0.00470133,-0.018953,0.0,0.0,-0.214737
25135384,0.0151501,0.00198115,-0.017828,0.0,0.0,-0.214737
25155303,0.00862182,0.00524918,-0.0191771,0.0,0.0,-0.214737
25175174,0.0170089,-0.0023701,-0.0197343,0.0,0.0,-0.215789
25194951,0.0175472,-0.000422341,-0.0181381,0.0,0.0,-0.216842
25214850,0.0104474,0.00644289,-0.0166904,0.0,0.0,-0.216842
25234734,0.0174556,-0.00303047,-0.0180899,0.0,0.0,-0.216842
25254589,0.0235889,-0.00370957,-0.0191759,0.0,0.0,-0.216842
25274422,0.00887579,0.00852976,-0.0173626,0.0,0.0,-0.217895
25294262,0.00670841,0.00520732,-0.0172866,0.0,0.0,-0.217895
25314068,0.0225937,-0.00506844,-0.0193381,0.0,0.0,-0.22
25334088,0.0279872,0.00183441,-0.019482,0.0,0.0,-0.222105
25354075,0.0203417,-0.00216925,-0.0174241,0.0,0.0,-0.224211
25373774,0.0343693,-0.0084835,-0.0175733,0.0,0.0,-0.229474
25393665,0.027281,0.00331909,-0.0168505,0.0,0.0,-0.234737
25418459,0.0344972,-0.0018887,-0.017494,0.0,0.0,-0.235789
25433398,0.035922,-0.00130563,-0.0177565,0.0,0.0,-0.235789
25453240,0.026249,-0.00439881,-0.015611,0.0,0.0,-0.235789
25478095,0.0341187,-0.00259046,-0.0150352,0.0,0.0,-0.235789
25492961,0.0309838,-0.00295516,-0.0148735,0.0,0.0,-0.234737
25512810,0.0246405,0.00228297,-0.0138278,0.0,0.0,-0.234737
25537545,0.0314253,0.00155265,-0.0151576,0.0,0.0,-0.234737
25557467,0.0281164,-0.00798367,-0.0131289,0.0,0.0,-0.234737
25572346,0.0309531,-0.00122122,-0.013163,0.0,0.0,-0.235789
25592310,0.0312037,-0.00216133,-0.0123712,0.0,0.0,-0.235789
25617204,0.032659,-0.0141583,-0.0129483,0.0,0.0,-0.235789
25632138,0.0303489,-0.0140626,-0.0128329,0.0,0.0,-0.235789
25656876,0.0258101,0.00506606,-0.0124732,0.0,0.0,-0.235789
25676793,0.0319283,-0.0126016,-0.0128314,0.0,0.0,-0.234737
25696650,0.0453996,-0.0130533,-0.0125796,0.0,0.0,-0.235789
25711528,0.0466277,-0.0165912,-0.0115963,0.0,0.0,-0.235789
25736181,0.0463361,-0.0212504,-0.0108663,0.0,0.0,-0.241053
25756050,0.0472137,-0.016441,-0.0107339,0.0,0.0,-0.241053
25771010,0.0474187,-0.00420465,-0.0109258,0.0,0.0,-0.241053
25795816,0.0452963,-0.0137226,-0.0112613,0.0,0.0,-0.241053
25815687,0.0457785,-0.00800312,-0.0115624,0.0,0.0,-0.241053
25835565,0.0325418,-0.00271155,-0.0086727,0.0,0.0,-0.241053
25855490,0.0461239,-0.0174524,-0.00973218,0.0,0.0,-0.250526
25875506,0.0398475,0.00177644,-0.0106485,0.0,0.0,-0.254737
25895247,0.0380222,0.00214532,-0.00877339,0.0,0.0,-0.255789
25915137,0.0477549,2.33874e-05,-0.00987323,0.0,0.0,-0.258947
25935042,0.0391222,0.00682752,-0.00772908,0.0,0.0,-0.264211
25954813,0.0478859,-0.00457797,-0.00838433,0.0,0.0,-0.264211
25974592,0.0560758,-0.00193138,-0.00824254,0.0,0.0,-0.272632
25994473,0.0544127,0.00231103,-0.00607133,0.0,0.0,-0.274737
26014364,0.0561989,-0.00278733,-0.00815406,0.0,0.0,-0.274737
26034249,0.0552085,0.00102224,-0.00647342,0.0,0.0,-0.273684
26054071,0.0450234,-0.00964304,-0.00539289,0.0,0.0,-0.273684
26073921,0.0409638,-0.0133521,-0.00578406,0.0,0.0,-0.272632
26093792,0.0470547,-0.0133852,-0.0045109,0.0,0.0,-0.271579
26118727,0.0558735,-0.0161776,-0.00484559,0.0,0.0,-0.272632
26133627,0.0567405,-0.0148181,-0.00390858,0.0,0.0,-0.272632
26153579,0.0577297,-0.0100442,-0.00283053,0.0,0.0,-0.272632
26178327,0.0587044,-0.0140517,-0.00246277,0.0,0.0,-0.272632
26193253,0.0578337,-0.0122076,-0.00288298,0.0,0.0,-0.272632
26213099,0.0489009,-0.00323034,-0.0031104,0.0,0.0,-0.272632
26232887,0.0505807,-0.00999834,-0.00304064,0.0,0.0,-0.273684
26257733,0.0493231,-0.00433636,-0.00343504,0.0,0.0,-0.274737
26272621,0.0499769,-0.00445856,-0.00316206,0.0,0.0,-0.277895
26292471,0.0570694,-0.0109935,-0.00512482,0.0,0.0,-0.292632
26317278,0.0534581,-0.00741042,-0.0038024,0.0,0.0,-0.307368
26332168,0.0542653,-0.00716897,-0.00448089,0.0,0.0,-0.309474
26352042,0.055971,-0.0113275,-0.00519927,0.0,0.0,-0.311579
26376932,0.0511692,-0.00944144,-0.00490105,0.0,0.0,-0.312632
26396822,0.0579106,-0.0111453,-0.00485275,0.0,0.0,-0.313684
26411785,0.0571472,-0.0118852,-0.0050609,0.0,0.0,-0.313684
26436563,0.0575974,-0.0111358,-0.0046908,0.0,0.0,-0.313684
26456342,0.0532631,-0.00286215,-0.00455095,0.0,0.0,-0.313684
26471470,0.0503336,-0.00370437,-0.00489154,0.0,0.0,-0.313684
26496138,0.0545793,-0.0063942,-0.00750196,0.0,0.0,-0.313684
26516063,0.049123,-0.00775788,-0.00705876,0.0,0.0,-0.313684
26535815,0.0546207,-0.0109518,-0.00874961,0.0,0.0,-0.313684
26555641,0.0515213,-0.0064239,-0.00738118,0.0,0.0,-0.313684
26575515,0.0558929,-0.00806328,-0.00891135,0.0,0.0,-0.313684
26595410,0.0519094,-0.00440696,-0.00743297,0.0,0.0,-0.314737
26615304,0.0558578,-0.00666067,-0.00918031,0.0,0.0,-0.314737
26635179,0.0559702,-0.00607582,-0.00818524,0.0,0.0,-0.326316
26655038,0.050941,-0.00632699,-0.00940487,0.0,0.0,-0.343158
26674989,0.0552231,-0.00833592,-0.00830181,0.0,0.0,-0.345263
26694943,0.0535353,-0.00555315,-0.00985541,0.0,0.0,-0.355789
26714648,0.0546399,-0.0112668,-0.00864513,0.0,0.0,-0.363158
26734475,0.047898,-0.00560539,-0.0091677,0.0,0.0,-0.375789
26754320,0.0524342,-0.00975642,-0.0092618,0.0,0.0,-0.381053
26774256,0.0478565,-0.00529336,-0.00936121,0.0,0.0,-0.382105
26794070,0.0476545,-0.00983833,-0.0115577,0.0,0.0,-0.385263
26813968,0.0493655,-0.00834624,-0.0109023,0.0,0.0,-0.385263
26833815,0.051978,-0.00948907,-0.0121778,0.0,0.0,-0.385263
26853678,0.0506585,-0.00962943,-0.0128061,0.0,0.0,-0.385263
26873544,0.0454313,-0.00769644,-0.0123012,0.0,0.0,-0.388421
26893363,0.0511158,-0.00673264,-0.0136871,0.0,0.0,-0.397895
26913171,0.0488093,-0.00561991,-0.0126641,0.0,0.0,-0.402105
26933122,0.0465958,-0.00262454,-0.0129307,0.0,0.0,-0.412632
26958033,0.0452148,0.000306387,-0.0130262,0.0,0.0,-0.422105
26972922,0.0452687,-0.00210068,-0.0133144,0.0,0.0,-0.422105
26992679,0.0455366,-0.00682806,-0.0156428,0.0,0.0,-0.424211
27017604,0.0370018,-0.00903005,-0.015326,0.0,0.0,-0.425263
27032590,0.0359138,-0.00306914,-0.0129215,0.0,0.0,-0.425263
27052512,0.0349669,7.69187e-05,-0.0143653,0.0,0.0,-0.425263
27077225,0.0354123,0.00932528,-0.0131994,0.0,0.0,-0.427368
27097111,0.0291513,0.00478666,-0.0132996,0.0,0.0,-0.427368
27111876,0.0275107,-0.000212255,-0.0148438,0.0,0.0,-0.425263
27136630,0.0193739,-0.00772547,-0.016224,0.0,0.0,-0.424211
27156501,0.0172395,-0.00541269,-0.0163501,0.0,0.0,-0.425263
27171463,0.0185025,-0.00241896,-0.0154502,0.0,0.0,-0.425263
27196308,0.00973518,0.00162035,-0.0161156,0.0,0.0,-0.42
27216237,0.00144103,0.00582072,-0.0154174,0.0,0.0,-0.42
27236152,-0.00813467,0.00224332,-0.0169468,0.0,0.0,-0.42
27255944,-0.00704726,-0.00325862,-0.0196906,0.0,0.0,-0.42
27275884,-0.0154981,-0.0065728,-0.0210435,0.0,0.0,-0.418947
27295722,-0.0178598,-0.00408476,-0.021521,0.0,0.0,-0.418947
27315594,-0.0233583,-0.00633803,-0.0265145,0.0,0.0,-0.418947
27335467,-0.0334986,-0.00436459,-0.0272774,0.0,0.0,-0.418947
27355307,-0.0372726,-0.00345494,-0.0299613,0.0,0.0,-0.418947
27375016,-0.0392258,-0.00531749,-0.0353137,0.0,0.0,-0.418947
27394876,-0.047573,-0.00480083,-0.0364443,0.0,0.0,-0.418947
27414810,-0.0542214,-0.00719945,-0.0368632,0.0,0.0,-0.424211
27434669,-0.0577896,-0.00917781,-0.0401665,0.0,0.0,-0.427368
27454535,-0.0584305,-0.00887134,-0.0410396,0.0,0.0,-0.427368
27474488,-0.0567463,-0.00596842,-0.04202,0.0,0.0,-0.429474
27494397,-0.0583344,-0.00409207,-0.0461242,0.0,0.0,-0.430526
27514220,-0.0591883,-0.00538693,-0.0462232,0.0,0.0,-0.432632
27534139,-0.0558714,-0.00779785,-0.049286,0.0,0.0,-0.432632
27553961,-0.0566338,-0.00939652,-0.0547483,0.0,0.0,-0.432632
27573814,-0.0509927,0.00022788,-0.0548193,0.0,0.0,-0.432632
27593564,-0.0462178,-0.011395,-0.0585174,0.0,0.0,-0.433684
27613441,-0.0315951,-0.010506,-0.0614648,0.0,0.0,-0.434737
27633273,-0.0324821,-0.0119018,-0.0627226,0.0,0.0,-0.434737
27658162,-0.0253203,-0.014782,-0.0655254,0.0,0.0,-0.434737
27673039,-0.0159942,-0.0147298,-0.0674646,0.0,0.0,-0.434737
27692897,-0.0150279,-0.0104128,-0.0673034,0.0,0.0,-0.434737
27717723,-0.0224567,-0.0126849,-0.0685747,0.0,0.0,-0.434737
27732671,-0.0238078,-0.00778309,-0.0706429,0.0,0.0,-0.435789
27752558,-0.0408578,-0.00467826,-0.0706249,0.0,0.0,-0.436842
27777490,-0.0578272,-0.00386138,-0.0723028,0.0,0.0,-0.441053
27797302,-0.0560209,-0.00974885,-0.072415,0.0,0.0,-0.447368
27812222,-0.0588543,-0.00985671,-0.0740909,0.0,0.0,-0.452632
27837013,-0.0665689,-0.0160748,-0.0769193,0.0,0.0,-0.456842
27856775,-0.0675927,-0.0188006,-0.0790333,0.0,0.0,-0.462105
27871709,-0.0706773,-0.0221278,-0.0813681,0.0,0.0,-0.462105
27896504,-0.0710974,-0.0273729,-0.0836578,0.0,0.0,-0.464211
27916341,-0.0769536,-0.031346,-0.0851566,0.0,0.0,-0.464211
27936268,-0.0751644,-0.0363278,-0.0899703,0.0,0.0,-0.467368
27956167,-0.0821533,-0.0332915,-0.0919178,0.0,0.0,-0.470526
27976010,-0.100444,-0.0333739,-0.0929919,0.0,0.0,-0.471579
27995881,-0.115219,-0.0341825,-0.0982668,0.0,0.0,-0.470526
28010804,-0.122195,-0.0310224,-0.0973251,0.0,0.0,-0.471579
28035766,-0.131637,-0.0349069,-0.100866,0.0,0.0,-0.471579
28055500,-0.140683,-0.0433859,-0.101747,0.0,0.0,-0.474737
28075426,-0.143719,-0.0544154,-0.10603,0.0,0.0,-0.474737
28095242,-0.151443,-0.0624281,-0.105911,0.0,0.0,-0.475789
28115095,-0.163367,-0.066263,-0.104851,0.0,0.0,-0.476842
28134922,-0.166363,-0.0721355,-0.10637,0.0,0.0,-0.476842
28154693,-0.171114,-0.0776858,-0.109913,0.0,0.0,-0.48
28174619,-0.171466,-0.074875,-0.108841,0.0,0.0,-0.48
28194591,-0.180291,-0.0759434,-0.107843,0.0,0.0,-0.48
28214502,-0.181171,-0.0726028,-0.106669,0.0,0.0,-0.48
28234296,-0.190515,-0.0868703,-0.107582,0.0,0.0,-0.48
28254165,-0.176872,-0.0922243,-0.105229,0.0,0.0,-0.48
28274072,-0.17583,-0.10116,-0.103836,0.0,0.0,-0.482105
28294055,-0.168241,-0.124087,-0.102227,0.0,0.0,-0.482105
28314014,-0.183184,-0.177611,-0.101724,0.0,0.0,-0.482105
28333583,-0.198561,-0.232138,-0.0990706,0.0,0.0,-0.483158
28358440,-0.210764,-0.254183,-0.0966208,0.0,0.0,-0.485263
28373320,-0.226713,-0.277333,-0.0933474,0.0,0.0,-0.497895
28393220,-0.234137,-0.30564,-0.09141,0.0,0.0,-0.509474
28417994,-0.230869,-0.3035,-0.0866847,0.0,0.0,-0.509474
28432839,-0.230167,-0.301421,-0.0865954,0.0,0.0,-0.511799
28452792,-0.232454,-0.276086,-0.0832262,0.0,0.0,-0.511799
28477599,-0.240078,-0.260017,-0.0804144,0.0,0.0,-0.512999
28497486,-0.238774,-0.25273,-0.0768948,0.0,0.0,-0.512999
28512327,-0.240874,-0.263887,-0.0756279,0.0,0.0,-0.514198
28537100,-0.243885,-0.26389,-0.0698836,0.0,0.0,-0.514198
28557036,-0.231591,-0.255354,-0.0701286,0.0,0.0,-0.514198
28572200,-0.226576,-0.253647,-0.0675652,0.0,0.0,-0.514198
28596806,-0.214126,-0.251203,-0.0653433,0.0,0.0,-0.514198
28616703,-0.195501,-0.245092,-0.0617611,0.0,0.0,-0.515398
28636537,-0.176179,-0.242791,-0.0580014,0.0,0.0,-0.515398
28651439,-0.159544,-0.233793,-0.0583174,0.0,0.0,-0.515398
28676235,-0.145043,-0.244575,-0.0528476,0.0,0.0,-0.515398
28696184,-0.135194,-0.237553,-0.051711,0.0,0.0,-0.515398
28711022,-0.131391,-0.244902,-0.0473366,0.0,0.0,-0.515398
28735843,-0.128345,-0.250573,-0.0459338,0.0,0.0,-0.515398
28755605,-0.132715,-0.242514,-0.0436774,0.0,0.0,-0.515398
28775481,-0.136497,-0.230075,-0.040849,0.0,0.0,-0.515398
28795355,-0.146531,-0.217491,-0.0382684,0.0,0.0,-0.515398
28815278,-0.149785,-0.197158,-0.0370022,0.0,0.0,-0.515398
28835232,-0.135167,-0.17455,-0.0356119,0.0,0.0,-0.515398
28855040,-0.12242,-0.152506,-0.0332698,0.0,0.0,-0.515398
28874955,-0.102872,-0.136409,-0.0296335,0.0,0.0,-0.515398
28894772,-0.0865545,-0.116932,-0.0265278,0.0,0.0,-0.515398
28914634,-0.0630925,-0.0869142,-0.0236983,0.0,0.0,-0.515398
28934575,-0.0440326,-0.0466839,-0.020617,0.0,0.0,-0.515398
28954402,-0.0448544,0.00161268,-0.0176139,0.0,0.0,-0.514198
28974263,-0.0442974,0.0523219,-0.0159819,0.0,0.0,-0.514198
28994108,-0.0481858,0.0941852,-0.0142533,0.0,0.0,-0.512999
29013891,-0.053186,0.0847118,-0.011944,0.0,0.0,-0.512999
29033824,-0.0603794,0.0877149,-0.0082949,0.0,0.0,-0.512999
29058568,-0.0785751,0.11678,-0.00655942,0.0,0.0,-0.512999
29073514,-0.0946091,0.115436,-0.00500853,0.0,0.0,-0.512999
29093421,-0.109639,0.122073,-0.00485806,0.0,0.0,-0.511799
29113431,-0.123868,0.126428,-0.00432293,0.0,0.0,-0.511799
29133243,-0.133192,0.124203,-0.00335841,0.0,0.0,-0.511799
29153053,-0.127288,0.110946,-0.00232646,0.0,0.0,-0.511799
29177929,-0.102763,0.102593,-0.00649767,0.0,0.0,-0.511799
29197627,-0.0837518,0.109332,-0.00675998,0.0,0.0,-0.512999
29212546,-0.066206,0.0970358,-0.00675183,0.0,0.0,-0.512999
29232379,-0.0512139,0.0936431,-0.00854323,0.0,0.0,-0.512999
29257255,-0.0451766,0.093668,-0.00921064,0.0,0.0,-0.514198
29272137,-0.0454611,0.0782009,-0.0102327,0.0,0.0,-0.514198
29292001,-0.0571622,0.102167,-0.0102826,0.0,0.0,-0.514198
29316773,-0.0780978,0.0963013,-0.0122768,0.0,0.0,-0.514198
29336749,-0.0924852,0.115006,-0.0126667,0.0,0.0,-0.514198
29351713,-0.0995113,0.138752,-0.0122764,0.0,0.0,-0.515398
29376633,-0.0907418,0.138271,-0.0149611,0.0,0.0,-0.515398
29396344,-0.0735889,0.12186,-0.0145837,0.0,0.0,-0.515398
29411354,-0.0640242,0.112242,-0.0162537,0.0,0.0,-0.515398
29436164,-0.0519748,0.100974,-0.0142752,0.0,0.0,-0.514198
29456031,-0.0464141,0.0800588,-0.0154421,0.0,0.0,-0.512999
29475778,-0.0469066,0.0628964,-0.0175269,0.0,0.0,-0.511799
29495554,-0.0441176,0.0445373,-0.0176088,0.0,0.0,-0.511799
29515429,-0.0405576,0.0366999,-0.0176681,0.0,0.0,-0.5106
29535300,-0.0415781,0.0342503,-0.0176105,0.0,0.0,-0.5106
29555222,-0.0451722,0.0329693,-0.0172207,0.0,0.0,-0.509474
29575120,-0.0479323,0.0317436,-0.0175288,0.0,0.0,-0.509474
29594979,-0.0469531,0.029235,-0.0188233,0.0,0.0,-0.509474
29614855,-0.0453375,0.0234373,-0.0198442,0.0,0.0,-0.509474
29634808,-0.0415154,0.0182813,-0.0187473,0.0,0.0,-0.509474
29654771,-0.0383348,0.0213641,-0.0175405,0.0,0.0,-0.509474
29674507,-0.044569,0.02377,-0.0167171,0.0,0.0,-0.509474
29694384,-0.0466643,0.0212535,-0.0164013,0.0,0.0,-0.5106
29714304,-0.0469669,0.0153756,-0.0172992,0.0,0.0,-0.511799
29734038,-0.0442491,0.0105947,-0.0185147,0.0,0.0,-0.511799
29753835,-0.0418,0.00403631,-0.0184222,0.0,0.0,-0.514198
29773677,-0.0497328,0.0031594,-0.0171924,0.0,0.0,-0.515398
29793648,-0.0608262,0.00541833,-0.0157628,0.0,0.0,-0.515398
29813534,-0.0702247,0.010489,-0.0147872,0.0,0.0,-0.515398
29833359,-0.0795242,0.0197303,-0.0155253,0.0,0.0,-0.514198
29853222,-0.0813868,0.0220518,-0.0175933,0.0,0.0,-0.5106
29873056,-0.0790051,0.0243106,-0.0186519,0.0,0.0,-0.509474
29897934,-0.0784484,0.0292381,-0.01526,0.0,0.0,-0.5106
29912957,-0.0682093,0.0175191,-0.018194,0.0,0.0,-0.512999
29932642,-0.0628548,0.016194,-0.0173736,0.0,0.0,-0.512999
29957474,-0.0518576,0.00807433,-0.0167322,0.0,0.0,-0.511799
29972454,-0.0532382,0.00658877,-0.0148836,0.0,0.0,-0.511799
29992348,-0.0504546,0.00355125,-0.015011,0.0,0.0,-0.511799
30017098,-0.0493922,-0.00198435,-0.0142647,0.0,0.0,-0.511799
30037127,-0.0527582,-0.00384207,-0.0131088,0.0,0.0,-0.511799
30051826,-0.0534527,-0.00264345,-0.0131583,0.0,0.0,-0.511799
30076645,-0.0536037,-0.00120801,-0.0103355,0.0,0.0,-0.511799
30096601,-0.0511019,-0.0012086,-0.00935465,0.0,0.0,-0.5106
30111496,-0.0304071,-0.00437861,-0.00814017,0.0,0.0,-0.508421
30136314,-0.0270944,-0.00579712,-0.00777303,0.0,0.0,-0.508421
30156100,0.000282105,-0.00847414,-0.00647492,0.0,0.0,-0.507368
30176062,0.00606583,-0.0122757,-0.00372342,0.0,0.0,-0.508421
30196095,0.00618213,-0.009624,-0.00157713,0.0,0.0,-0.508421
30215811,0.000748324,-0.00790186,9.46316e-05,0.0,0.0,-0.509474
30235597,0.048339,-0.00765231,0.000870994,0.0,0.0,-0.511799
30255475,0.0494987,-0.00514132,0.0013407,0.0,0.0,-0.511799
30275433,0.0207255,-0.00342096,0.00220853,0.0,0.0,-0.511799
30295351,-0.0485324,-0.042618,0.00436482,0.0,0.0,-0.511799
30315114,-0.0542438,-0.0600708,0.00698822,0.0,0.0,-0.511799
30334936,-0.0597406,-0.0582858,0.00957848,0.0,0.0,-0.5106
30354775,-0.0478316,-0.0555065,0.0109116,0.0,0.0,-0.507368
30374648,-0.0424526,-0.0513098,0.0124434,0.0,0.0,-0.507368
30394445,-0.00991672,-0.0556283,0.0123207,0.0,0.0,-0.506316
30414375,-0.00251426,-0.192545,0.0129199,0.0,0.0,-0.506316
30434276,0.00559887,-0.263927,0.0148979,0.0,0.0,-0.506316
30454216,0.0246837,-0.265363,0.0157824,0.0,0.0,-0.506316
30474019,0.0728919,-0.250154,0.0169459,0.0,0.0,-0.506316
30493878,0.0660352,-0.234924,0.0199559,0.0,0.0,-0.505263
30513780,0.051464,-0.261948,0.021848,0.0,0.0,-0.495789
30533686,0.0356676,-0.241258,0.0221582,0.0,0.0,-0.487368
30553579,0.0191475,-0.207166,0.0212602,0.0,0.0,-0.487368
30573487,0.00752643,-0.204746,0.0209515,0.0,0.0,-0.48
30598173,-0.00213698,-0.166963,0.0244031,0.0,0.0,-0.469474
30612946,-0.0023667,-0.15,0.0211249,0.0,0.0,-0.466316
30632839,-0.011724,-0.123004,0.0225528,0.0,0.0,-0.455789
30657643,-0.0264272,-0.100876,0.0204199,0.0,0.0,-0.432632
30672603,-0.0302866,-0.0955742,0.0214488,0.0,0.0,-0.425263
30692502,-0.0303219,-0.0813897,0.020249,0.0,0.0,-0.418947
30717470,-0.0357574,-0.0542748,0.0194889,0.0,0.0,-0.418947
30737213,-0.0395891,-0.0270274,0.0190099,0.0,0.0,-0.418947
30752151,-0.0460612,-0.0188379,0.0183088,0.0,0.0,-0.418947
30777005,-0.051225,-0.00242672,0.0180347,0.0,0.0,-0.418947
30796913,-0.0547107,0.00962278,0.0182831,0.0,0.0,-0.418947
30811774,-0.0550198,0.0350887,0.016124,0.0,0.0,-0.418947
30836524,-0.0691323,0.0522672,0.0160944,0.0,0.0,-0.418947
30856306,-0.0844522,0.0804703,0.0167861,0.0,0.0,-0.42
30876216,-0.0589406,0.0924462,0.0138428,0.0,0.0,-0.42
30896024,-0.0228195,0.136196,0.0126768,0.0,0.0,-0.42
30915941,-0.0209995,0.160799,0.0152597,0.0,0.0,-0.42
30935800,-0.010226,0.135472,0.0122768,0.0,0.0,-0.421053
30955719,-0.00329625,0.122167,0.0116596,0.0,0.0,-0.421053
30975695,-0.00792008,0.0930865,0.0130186,0.0,0.0,-0.42
30995536,-0.0102717,0.0723308,0.0129178,0.0,0.0,-0.437895
31015313,-0.0142363,0.0527472,0.0111382,0.0,0.0,-0.447368
31035247,-0.0179319,-0.0406215,0.0142428,0.0,0.0,-0.466316
31055203,-0.017752,-0.135566,0.0136401,0.0,0.0,-0.473684
31074996,-0.0130059,-0.133666,0.012283,0.0,0.0,-0.473684
31094723,-0.0277807,-0.190663,0.0158428,0.0,0.0,-0.473684
31114532,-0.0279418,-0.179264,0.0138397,0.0,0.0,-0.473684
31134408,-0.0156777,-0.175004,0.014333,0.0,0.0,-0.474737
31154379,-0.0184704,-0.146669,0.0129612,0.0,0.0,-0.474737
31174184,-0.033734,-0.137553,0.0166204,0.0,0.0,-0.474737
31194091,-0.0426111,-0.121224,0.0147889,0.0,0.0,-0.473684
31213954,-0.0381065,-0.0973252,0.0157247,0.0,0.0,-0.472632
31233882,-0.0554343,-0.0771741,0.0138262,0.0,0.0,-0.471579
31253724,-0.0503974,-0.0448573,0.0163706,0.0,0.0,-0.471579
31273730,-0.0262637,-0.00401596,0.0149071,0.0,0.0,-0.471579
31298445,0.000195971,0.0437363,0.0142045,0.0,0.0,-0.471579
31313338,0.0120175,0.0679755,0.0142302,0.0,0.0,-0.471579
31333259,0.0190902,0.061077,0.0121302,0.0,0.0,-0.471579
31358009,0.0254807,0.168637,0.0146581,0.0,0.0,-0.470526
31372862,0.0226997,0.159246,0.0148325,0.0,0.0,-0.470526
31392685,0.00692485,0.170725,0.0157078,0.0,0.0,-0.470526
31417510,-7.6049e-05,0.162638,0.0148221,0.0,0.0,-0.470526
31437393,-0.0125497,0.139808,0.0162665,0.0,0.0,-0.470526
31452284,-0.00593489,0.118112,0.0127951,0.0,0.0,-0.471579
31477239,-0.0122796,0.0962998,0.0108689,0.0,0.0,-0.472632
31497035,-0.0188132,0.0801337,0.0115255,0.0,0.0,-0.473684
31512039,-0.0267077,0.0691016,0.0112378,0.0,0.0,-0.473684
31531927,-0.0226116,0.0561918,0.0104515,0.0,0.0,-0.473684
31556700,-0.0306635,0.0234337,0.0112531,0.0,0.0,-0.481053
31576457,-0.012202,0.0137496,0.01102,0.0,0.0,-0.481053
31591450,-0.00641172,-0.000687546,0.0129372,0.0,0.0,-0.483158
31616265,0.0137815,-0.00971853,0.0116691,0.0,0.0,-0.484211
31636074,0.0173629,-0.0135433,0.01395,0.0,0.0,-0.483158
31650981,0.0243971,-0.00703594,0.0115082,0.0,0.0,-0.483158
31675791,0.0219786,0.0598271,0.0133652,0.0,0.0,-0.483158
31695665,0.0322681,0.147347,0.0138134,0.0,0.0,-0.483158
31715614,0.0257526,0.280544,0.0144219,0.0,0.0,-0.484211
31735520,-0.00123918,0.266716,0.0181148,0.0,0.0,-0.485263
31755281,-0.00559202,0.244724,0.0178983,0.0,0.0,-0.485263
31775175,-0.00636577,0.204891,0.0192419,0.0,0.0,-0.485263
31795021,-0.00564962,0.159484,0.0207172,0.0,0.0,-0.484211
31814880,-0.00119977,0.117777,0.0209798,0.0,0.0,-0.484211
31834750,0.00734341,0.0840069,0.0223914,0.0,0.0,-0.485263
31854600,0.0319752,0.0524125,0.0239196,0.0,0.0,-0.498947
31874473,0.0328048,0.0294332,0.0244394,0.0,0.0,-0.508421
31894444,0.0692803,0.0143907,0.0254662,0.0,0.0,-0.514198
31914205,0.145644,0.00496924,0.0239603,0.0,0.0,-0.516597
31934002,0.160794,0.00157257,0.0254531,0.0,0.0,-0.517797
31953941,0.144591,0.00717053,0.0278681,0.0,0.0,-0.517797
31973814,0.135368,0.00504195,0.0286533,0.0,0.0,-0.517797
31998624,0.150375,-0.00804763,0.0258066,0.0,0.0,-0.523794
32013444,0.133022,-0.0101987,0.026778,0.0,0.0,-0.526193
32033326,0.121598,-0.0189555,0.0258159,0.0,0.0,-0.526193
32058183,0.0873193,-0.0160658,0.02872,0.0,0.0,-0.501053
32073292,0.0544926,-0.0328883,0.0250618,0.0,0.0,-0.502105
32092988,0.0411206,-0.0303524,0.0247586,0.0,0.0,-0.502105
32117886,-0.0876435,-0.0341267,0.0225402,0.0,0.0,-0.502105
32137675,-0.137574,-0.0270525,0.0207617,0.0,0.0,-0.503158
32152582,-0.144404,-0.0206711,0.0224406,0.0,0.0,-0.503158
32172620,-0.153198,-0.0270912,0.0191545,0.0,0.0,-0.503158
32197322,-0.125178,-0.0273305,0.0193276,0.0,0.0,-0.504211
32212179,-0.107479,-0.0298209,0.014381,0.0,0.0,-0.505263
32232051,-0.084565,-0.0301795,0.0132029,0.0,0.0,-0.505263
32256785,-0.0518429,-0.0385897,0.0111059,0.0,0.0,-0.505263
32276620,-0.0345153,-0.0383626,0.00883003,0.0,0.0,-0.504211
32291566,-0.0279874,-0.0375182,0.00882699,0.0,0.0,-0.504211
32316502,-0.0205277,-0.039612,0.00722427,0.0,0.0,-0.503158
32336443,-0.0195463,-0.034245,0.00552322,0.0,0.0,-0.503158
32351311,-0.0176415,-0.0323371,0.00339894,0.0,0.0,-0.503158
32376100,-0.0112512,-0.0313381,-0.000164959,0.0,0.0,-0.504211
32395959,-0.0104556,-0.0294396,-0.0012789,0.0,0.0,-0.504211
32415782,-0.000610637,-0.0267452,-0.00198321,0.0,0.0,-0.504211
32435624,-0.0173291,-0.0245791,-0.0036904,0.0,0.0,-0.504211
32455541,-0.0152416,-0.0367207,-0.00572634,0.0,0.0,-0.504211
32475364,-0.0241299,-0.0379085,-0.00821677,0.0,0.0,-0.504211
32495166,-0.0241482,-0.0356525,-0.0118683,0.0,0.0,-0.504211
32514987,-0.0230619,-0.0337919,-0.0127891,0.0,0.0,-0.504211
32534910,-0.00677665,-0.0322203,-0.0126747,0.0,0.0,-0.504211
32554771,-0.00804191,-0.0296703,-0.0156082,0.0,0.0,-0.504211
32574689,0.000251525,-0.0311199,-0.0180941,0.0,0.0,-0.504211
32594582,0.0103509,-0.0319998,-0.0199396,0.0,0.0,-0.504211
32614599,0.0127859,-0.0303159,-0.0227786,0.0,0.0,-0.504211
32634340,-0.00256708,-0.0256596,-0.0223608,0.0,0.0,-0.504211
32654259,-0.0141208,-0.0253063,-0.0226962,0.0,0.0,-0.504211
32674076,-0.0183494,-0.0293381,-0.0259844,0.0,0.0,-0.504211
32693911,-0.0117567,-0.0294738,-0.0286786,0.0,0.0,-0.504211
32713678,-0.00714166,-0.0295607,-0.0302002,0.0,0.0,-0.504211
32733554,-0.00237676,-0.0266721,-0.0301305,0.0,0.0,-0.504211
32753482,0.000301608,-0.0218013,-0.0290275,0.0,0.0,-0.504211
32773290,0.0117753,-0.0160085,-0.031595,0.0,0.0,-0.504211
32793144,0.00127152,-0.0109597,-0.0358207,0.0,0.0,-0.504211
32813021,0.00341014,-0.00940051,-0.0378481,0.0,0.0,-0.504211
32837877,-0.00997361,0.002413,-0.0362066,0.0,0.0,-0.504211
32852811,0.00752473,0.00560508,-0.0388478,0.0,0.0,-0.504211
32872814,-0.00331442,0.00881494,-0.038764,0.0,0.0,-0.503158
32897510,0.00124327,0.00313401,-0.0425217,0.0,0.0,-0.503158
32912405,-0.00953428,0.00259804,-0.0424157,0.0,0.0,-0.503158
32932355,-0.000139119,-0.0032845,-0.0443335,0.0,0.0,-0.503158
32957101,0.000537214,-0.00427808,-0.0439481,0.0,0.0,-0.503158
32976934,0.0345821,-0.0150614,-0.0464828,0.0,0.0,-0.503158
32991826,0.0348673,-0.0116354,-0.0441586,0.0,0.0,-0.503158
33016573,0.0517505,-0.0117999,-0.0458648,0.0,0.0,-0.503158
33036469,0.0610538,0.00117091,-0.0446509,0.0,0.0,-0.503158
33051457,0.0741372,-0.00382752,-0.0473891,0.0,0.0,-0.504211
33076257,0.109632,-0.00514256,-0.0473764,0.0,0.0,-0.504211
33096123,0.120681,-0.00681959,-0.047868,0.0,0.0,-0.504211
33116032,0.113247,-0.00255515,-0.0463954,0.0,0.0,-0.504211
33135968,0.0767681,-0.00229499,-0.0436301,0.0,0.0,-0.506316
33156030,0.0533205,0.0220396,-0.0415089,0.0,0.0,-0.508421
33175660,0.065335,0.0379095,-0.0423145,0.0,0.0,-0.514198
33195466,0.0715816,0.0453777,-0.0433116,0.0,0.0,-0.515398
33215329,0.139039,0.0614536,-0.043484,0.0,0.0,-0.514198
33235269,0.193755,0.050596,-0.0415437,0.0,0.0,-0.511799
33254995,0.184822,0.0477119,-0.0394981,0.0,0.0,-0.511799
33274848,0.163748,0.0393376,-0.0360919,0.0,0.0,-0.515398
33294733,0.148397,0.0296898,-0.0342114,0.0,0.0,-0.516597
33314668,0.132261,0.0185892,-0.0344844,0.0,0.0,-0.516597
33334513,0.126358,0.0099437,-0.0338576,0.0,0.0,-0.516597
33354380,0.122094,0.0172874,-0.0324454,0.0,0.0,-0.521395
33374214,0.0721046,0.0247714,-0.0310856,0.0,0.0,-0.527393
33394047,0.0149426,0.0366579,-0.0293119,0.0,0.0,-0.529792
33414165,-0.0647883,0.0459922,-0.0265811,0.0,0.0,-0.529792
33433858,-0.164244,0.0528442,-0.0253015,0.0,0.0,-0.527393
33453698,-0.20994,0.0585345,-0.0255901,0.0,0.0,-0.527393
33473567,-0.261722,0.062893,-0.0254258,0.0,0.0,-0.527393
33493446,-0.233659,0.0613884,-0.0249237,0.0,0.0,-0.527393
33513370,-0.248247,0.0557654,-0.0246619,0.0,0.0,-0.526193
33538166,-0.209384,0.0448679,-0.0249516,0.0,0.0,-0.526193
33553073,-0.198702,0.0367264,-0.0246078,0.0,0.0,-0.524994
33572875,-0.17431,0.024747,-0.0259818,0.0,0.0,-0.523794
33597729,-0.133898,0.0151117,-0.0237251,0.0,0.0,-0.523794
33612594,-0.11993,0.00694133,-0.0246032,0.0,0.0,-0.523794
33632389,-0.108538,0.00230435,-0.0238119,0.0,0.0,-0.526193
33657231,-0.0850324,-0.0135612,-0.0249498,0.0,0.0,-0.527393
33677175,-0.0796137,-0.00910789,-0.0236412,0.0,0.0,-0.526193
33692207,-0.0700653,-0.0051392,-0.0237265,0.0,0.0,-0.526193
33716919,-0.0564715,-0.068661,-0.0216865,0.0,0.0,-0.523794
33736861,-0.0442004,-0.155477,-0.0215709,0.0,0.0,-0.508421
33751738,-0.0575223,-0.215327,-0.0213823,0.0,0.0,-0.526193
33776521,-0.0550143,-0.237051,-0.0223778,0.0,0.0,-0.517797
33796324,-0.0433473,-0.204308,-0.0217346,0.0,0.0,-0.515398
33816173,-0.0481819,-0.158278,-0.0209442,0.0,0.0,-0.512999
33836003,-0.0938428,-0.139777,-0.0197032,0.0,0.0,-0.511799
33855963,-0.0863425,-0.14776,-0.0183845,0.0,0.0,-0.509474
33875808,-0.0772564,-0.142306,-0.0178282,0.0,0.0,-0.508421
33895686,-0.0614809,-0.120951,-0.017523,0.0,0.0,-0.508421
33915556,-0.0415006,-0.114884,-0.0184147,0.0,0.0,-0.493684
33935464,-0.0174134,-0.102199,-0.018044,0.0,0.0,-0.483158
33955469,0.00437127,-0.0866366,-0.0159905,0.0,0.0,-0.471579
33975201,0.0124875,-0.0730722,-0.0148862,0.0,0.0,-0.468421
33995019,0.0155389,-0.0419426,-0.013731,0.0,0.0,-0.467368
34014840,0.0160544,-0.0137168,-0.013576,0.0,0.0,-0.468421
34034783,0.013962,0.0195395,-0.0118031,0.0,0.0,-0.468421
34054591,0.0115925,0.0673649,-0.00972578,0.0,0.0,-0.468421
34074464,0.00521539,0.0707319,-0.0097592,0.0,0.0,-0.468421
34094461,0.0489743,0.102104,-0.00897815,0.0,0.0,-0.468421
34114185,0.103205,0.169286,-0.0095502,0.0,0.0,-0.469474
34134063,0.121688,0.193003,-0.00620031,0.0,0.0,-0.469474
34154013,0.117183,0.219435,-0.00479824,0.0,0.0,-0.469474
34173913,0.112363,0.245709,-0.00514123,0.0,0.0,-0.469474
34193669,0.0829745,0.211721,-0.00599765,0.0,0.0,-0.469474
34213616,0.0724495,0.193109,-0.0032811,0.0,0.0,-0.469474
34238313,0.0568462,0.154672,-0.00454177,0.0,0.0,-0.469474
34253225,0.0436173,0.139324,-0.00212092,0.0,0.0,-0.469474
34273085,0.058124,0.115208,-0.00578731,0.0,0.0,-0.469474
34297983,0.109474,0.106968,-0.00393065,0.0,0.0,-0.469474
34312874,0.149319,0.0986029,-0.0044645,0.0,0.0,-0.469474
34332732,0.183882,0.0877632,-0.00458685,0.0,0.0,-0.475789
34357497,0.104527,0.0764739,-0.00597345,0.0,0.0,-0.483158
34377357,0.04493,0.0574081,-0.0058456,0.0,0.0,-0.487368
34392261,0.0173728,0.0537058,-0.00662512,0.0,0.0,-0.511799
34417141,-0.0183679,0.0439933,-0.00841595,0.0,0.0,-0.511799
34437010,-0.0263693,0.0405841,-0.00824767,0.0,0.0,-0.511799
34451857,-0.0188648,0.0347149,-0.0106868,0.0,0.0,-0.511799
34476761,0.0544762,0.0344446,-0.0129605,0.0,0.0,-0.512999
34496746,0.0681701,0.0236897,-0.0151517,0.0,0.0,-0.512999
34516481,0.0317391,0.0180235,-0.0146267,0.0,0.0,-0.514198
34531385,0.00948494,0.0154391,-0.0179651,0.0,0.0,-0.518996
34556213,0.025231,0.00983118,-0.0176459,0.0,0.0,-0.517797
34576176,0.0442653,0.00534051,-0.0213159,0.0,0.0,-0.517797
34590929,0.0785813,0.00508789,-0.0208262,0.0,0.0,-0.517797
34615826,0.112039,0.00359228,-0.0265002,0.0,0.0,-0.518996
34635649,0.103389,0.00851751,-0.0273866,0.0,0.0,-0.518996
34655482,0.0821661,0.0110735,-0.0291529,0.0,0.0,-0.517797
34675280,0.0595951,0.00969112,-0.0309946,0.0,0.0,-0.517797
34695141,0.0409517,0.00887183,-0.0346897,0.0,0.0,-0.516597
34715078,0.0242582,0.00667619,-0.0377119,0.0,0.0,-0.515398
34734950,0.013527,0.00503336,-0.0386465,0.0,0.0,-0.515398
34754986,0.00156879,0.00851996,-0.0393357,0.0,0.0,-0.515398
34774766,-0.0108959,0.0113422,-0.040736,0.0,0.0,-0.515398
34794608,-0.0305557,0.0111496,-0.0451926,0.0,0.0,-0.514198
34814440,-0.0426335,0.00921551,-0.048982,0.0,0.0,-0.512999
34834440,-0.0682807,0.00738839,-0.0506566,0.0,0.0,-0.512999
34854190,-0.0827993,0.011614,-0.0519741,0.0,0.0,-0.512999
34874021,-0.142275,0.0168331,-0.0510422,0.0,0.0,-0.511799
34893935,-0.169654,0.0181737,-0.0523579,0.0,0.0,-0.511799
34913718,-0.152911,0.0218618,-0.0553011,0.0,0.0,-0.512999
34938541,-0.119844,0.0219825,-0.0556715,0.0,0.0,-0.515398
34953398,-0.128997,0.0211787,-0.0579606,0.0,0.0,-0.516597
34973248,-0.131859,0.0209277,-0.0573714,0.0,0.0,-0.516597
34998132,-0.110282,0.00558502,-0.0589629,0.0,0.0,-0.514198
35013222,-0.10132,0.00252011,-0.0566612,0.0,0.0,-0.503158
35033109,-0.0894503,-0.000525237,-0.0577126,0.0,0.0,-0.503158
35057872,-0.0581067,-0.00265736,-0.0578107,0.0,0.0,-0.485263
35077639,-0.0514217,0.00104253,-0.0576896,0.0,0.0,-0.485263
35092558,-0.0483969,0.000316083,-0.0590925,0.0,0.0,-0.485263
35112465,-0.043115,0.00946436,-0.0581032,0.0,0.0,-0.485263
35137170,-0.0519181,0.0148112,-0.0587533,0.0,0.0,-0.485263
35152132,-0.055484,0.00998414,-0.0585085,0.0,0.0,-0.487368
35171944,-0.0510553,0.0140185,-0.0583144,0.0,0.0,-0.487368
35196775,-0.0509349,0.0191199,-0.058564,0.0,0.0,-0.492632
35216585,-0.0490787,0.0273695,-0.0577642,0.0,0.0,-0.493684
35231499,-0.0586228,0.0347839,-0.0574352,0.0,0.0,-0.493684
35256464,-0.0599276,0.0425186,-0.0528888,0.0,0.0,-0.515398
35276353,-0.0570973,0.0425619,-0.0556743,0.0,0.0,-0.524994
35291412,-0.0584493,0.0448786,-0.0520307,0.0,0.0,-0.523794
35316071,-0.0390605,0.0359797,-0.054011,0.0,0.0,-0.521395
35335966,-0.034204,0.0282842,-0.0508883,0.0,0.0,-0.518996
35355794,-0.0252131,0.0194333,-0.0498273,0.0,0.0,-0.517797
35375666,-0.0142863,0.0123937,-0.0499695,0.0,0.0,-0.502105
35395406,-0.00238221,0.00535052,-0.0485815,0.0,0.0,-0.482105
35415244,0.00120845,0.00156593,-0.0484884,0.0,0.0,-0.474737
35435101,-0.0105372,-0.000857551,-0.0460838,0.0,0.0,-0.472632
35455015,-0.0106384,-0.00259389,-0.0434106,0.0,0.0,-0.472632
35474903,-0.00960594,-0.00368824,-0.0422099,0.0,0.0,-0.472632
35494792,-0.00550008,-0.00239147,-0.0424905,0.0,0.0,-0.472632
35514625,0.00325079,-0.00376058,-0.0420242,0.0,0.0,-0.473684
35534459,0.0120212,-0.00442495,-0.0397086,0.0,0.0,-0.474737
35554472,0.0289364,-0.00366792,-0.0384538,0.0,0.0,-0.474737
35574418,0.030466,-0.00954581,-0.0373049,0.0,0.0,-0.474737
35594221,0.0334972,-0.0127252,-0.035658,0.0,0.0,-0.474737
35614060,0.0343955,-0.0139007,-0.0346718,0.0,0.0,-0.474737
35638843,0.0279212,-0.015981,-0.0324858,0.0,0.0,-0.473684
35653647,0.0398724,-0.0164128,-0.0318815,0.0,0.0,-0.472632
35673520,0.0355017,-0.0165866,-0.030349,0.0,0.0,-0.472632
35693486,0.0949587,-0.0161951,-0.0278003,0.0,0.0,-0.472632
35713307,0.167712,-0.0148878,-0.0270006,0.0,0.0,-0.472632
35733161,0.163459,-0.0135609,-0.0273101,0.0,0.0,-0.472632
35752974,0.0936399,-0.0122803,-0.0251503,0.0,0.0,-0.472632
35777814,0.0677516,-0.00888057,-0.0229395,0.0,0.0,-0.473684
35792726,0.0648011,-0.00866315,-0.0215923,0.0,0.0,-0.473684
35812666,0.075219,-0.0065262,-0.0202596,0.0,0.0,-0.473684
35837608,0.0722098,-0.00153765,-0.0188041,0.0,0.0,-0.474737
35852374,0.0720544,-1.94657e-05,-0.0171845,0.0,0.0,-0.474737
35872232,0.079335,0.00456794,-0.0159428,0.0,0.0,-0.476842
35897016,0.0886941,0.0066919,-0.0145667,0.0,0.0,-0.483158
35916994,0.0861885,0.00307097,-0.012729,0.0,0.0,-0.483158
35931763,0.0669076,0.0016356,-0.0109842,0.0,0.0,-0.490526
35956674,0.0555229,-0.00590329,-0.00933356,0.0,0.0,-0.495789
35976509,0.0523824,-0.00474186,-0.00709459,0.0,0.0,-0.495789
35991356,0.0750483,-0.00766975,-0.00837849,0.0,0.0,-0.495789
36016235,0.0680097,0.00343652,-0.00791216,0.0,0.0,-0.495789
36036116,0.0831102,-0.00505007,-0.00604718,0.0,0.0,-0.495789
36055940,0.0867315,-0.000646668,-0.00345068,0.0,0.0,-0.495789
36075740,0.0729785,-0.0014806,-0.00151907,0.0,0.0,-0.494737
36095871,0.0660715,-0.00284155,-0.00115614,0.0,0.0,-0.494737
36115718,0.0442684,-0.00554216,-0.00310143,0.0,0.0,-0.494737
36135443,0.0223089,-0.00763418,-0.000905533,0.0,0.0,-0.495789
36155311,0.0203371,-0.00412806,0.00117696,0.0,0.0,-0.494737
36175220,0.0341284,0.000538545,0.00287338,0.0,0.0,-0.495789
36195041,0.0318346,0.0112298,0.00313646,0.0,0.0,-0.504211
36214865,0.0109433,0.0115915,0.00258388,0.0,0.0,-0.514198
36234819,-0.0495552,0.0164015,0.00428221,0.0,0.0,-0.517797
36254639,-0.203518,0.0113514,0.00709137,0.0,0.0,-0.520196
36274499,-0.21564,0.0082253,0.00967511,0.0,0.0,-0.520196
36294254,-0.222834,0.0140617,0.0100727,0.0,0.0,-0.521395
36314114,-0.171117,0.0103673,0.00876696,0.0,0.0,-0.521395
36333983,-0.144309,0.00652329,0.0101536,0.0,0.0,-0.521395
36353960,-0.119091,0.00165301,0.0109105,0.0,0.0,-0.524994
36373897,-0.0962284,-0.0108624,0.0116061,0.0,0.0,-0.526193
36393664,-0.0692672,-0.0139855,0.0145255,0.0,0.0,-0.524994
36413595,-0.0520146,-0.0156666,0.0171837,0.0,0.0,-0.524994
36433522,-0.0488908,-0.0155686,0.0169264,0.0,0.0,-0.524994
36453467,-0.042215,-0.0147263,0.0167913,0.0,0.0,-0.524994
36478236,-0.0400773,-0.0106169,0.0213683,0.0,0.0,-0.524994
36493132,-0.0315697,-0.0101981,0.0180611,0.0,0.0,-0.524994
36512860,-0.0321049,-0.00578115,0.018806,0.0,0.0,-0.524994
36537597,-0.0315383,-0.000974442,0.0199124,0.0,0.0,-0.524994
36552485,-0.0218142,-0.00153577,0.0235525,0.0,0.0,-0.522595
36572347,-0.0243829,-0.00372226,0.0244878,0.0,0.0,-0.522595
36597246,-0.024868,-0.00681349,0.0219982,0.0,0.0,-0.521395
36617158,-0.048037,-0.00664549,0.0241455,0.0,0.0,-0.522595
36632201,-0.0458335,-0.00658865,0.0244546,0.0,0.0,-0.522595
36656842,-0.00146551,-0.00216839,0.0277106,0.0,0.0,-0.523794
36676746,0.0112155,-0.00529706,0.0277476,0.0,0.0,-0.523794
36691599,0.0431585,-0.00529244,0.0266619,0.0,0.0,-0.524994
36716503,0.0639333,-0.00842926,0.0285107,0.0,0.0,-0.524994
36736378,0.0759545,-0.0127336,0.0287033,0.0,0.0,-0.524994
36756245,0.0739115,-0.0164627,0.0293614,0.0,0.0,-0.523794
36776033,0.0640593,-0.018027,0.0315131,0.0,0.0,-0.523794
36795872,0.0503277,-0.0163552,0.03446,0.0,0.0,-0.523794
36815760,0.0358529,-0.0136113,0.0363298,0.0,0.0,-0.523794
36835769,0.0402215,-0.013061,0.036111,0.0,0.0,-0.522595
36855562,0.0455186,-0.0113746,0.0363742,0.0,0.0,-0.522595
36875334,0.0704414,-0.0116961,0.0369387,0.0,0.0,-0.523794
36895272,0.179509,-0.0141741,0.0365637,0.0,0.0,-0.523794
36915177,0.256698,-0.00632815,0.0360599,0.0,0.0,-0.522595
36935049,0.38409,-0.00954224,0.0376699,0.0,0.0,-0.522595
36954850,0.397309,-0.0135034,0.0399434,0.0,0.0,-0.523794
36974659,0.391177,-0.0154737,0.0408945,0.0,0.0,-0.524994
36994588,0.361199,-0.0165829,0.0393322,0.0,0.0,-0.524994
37014438,0.312226,-0.0127152,0.0395639,0.0,0.0,-0.524994
37034393,0.247122,-0.00571912,0.039992,0.0,0.0,-0.524994
37054158,0.263667,0.00289378,0.0405637,0.0,0.0,-0.523794
37074061,0.284094,0.00739449,0.0417491,0.0,0.0,-0.522595
37093865,0.265545,0.00977985,0.0425489,0.0,0.0,-0.522595
37113821,0.237491,0.00824764,0.0424068,0.0,0.0,-0.522595
37133524,0.191083,0.00107293,0.0409926,0.0,0.0,-0.521395
37153478,0.159053,-0.00652918,0.0395381,0.0,0.0,-0.520196
37178349,0.0551391,-0.0119454,0.0418846,0.0,0.0,-0.517797
37193250,-0.0588514,-0.0143939,0.0378284,0.0,0.0,-0.5
37213113,-0.0774688,-0.0121056,0.0375848,0.0,0.0,-0.5
37238099,-0.225795,-0.00665568,0.0367165,0.0,0.0,-0.472632
37252867,-0.213402,-0.00480413,0.0385451,0.0,0.0,-0.472632
37272706,-0.251794,-0.00015637,0.0366859,0.0,0.0,-0.463158
37297520,-0.228698,-0.000253641,0.0337139,0.0,0.0,-0.458947
37317434,-0.297394,0.00267155,0.0335649,0.0,0.0,-0.434737
37332297,-0.28813,-0.000661633,0.0283739,0.0,0.0,-0.422105
37357050,-0.217864,-0.00236852,0.0254024,0.0,0.0,-0.422105
37376913,-0.182444,-0.00111074,0.0255055,0.0,0.0,-0.422105
37391763,-0.151259,-0.0026032,0.0226627,0.0,0.0,-0.422105
37416640,-0.0981009,-0.00561972,0.0233822,0.0,0.0,-0.424211
37436652,-0.0552487,-0.00863635,0.0198073,0.0,0.0,-0.424211
37456602,-0.0427334,-0.00711631,0.0206608,0.0,0.0,-0.425263
37476361,-0.0227772,-0.010142,0.0199242,0.0,0.0,-0.425263
37496214,-0.00522332,-0.00648673,0.0173204,0.0,0.0,-0.425263
37516096,-0.00209712,-0.0020499,0.0179326,0.0,0.0,-0.425263
37530949,0.00217817,0.00166395,0.0173483,0.0,0.0,-0.426316
37555694,0.000132562,0.00673562,0.0169994,0.0,0.0,-0.44
37575628,-0.0157132,0.0116991,0.0157537,0.0,0.0,-0.448421
37595443,-0.0852507,0.00374055,0.0161602,0.0,0.0,-0.453684
37615306,-0.0825081,0.00637479,0.0163575,0.0,0.0,-0.453684
37635123,-0.0768862,0.0103625,0.0156742,0.0,0.0,-0.453684
37654982,-0.0606679,0.0107565,0.0143973,0.0,0.0,-0.455789
37674857,-0.0410071,-0.00622422,0.0147641,0.0,0.0,-0.463158
37694915,-0.0265118,-0.00483366,0.0143188,0.0,0.0,-0.466316
37714830,-0.00452017,-0.0441172,0.0128191,0.0,0.0,-0.474737
37734584,0.0205934,-0.0567796,0.0116262,0.0,0.0,-0.476842
37754422,0.0253013,-0.0757326,0.0122233,0.0,0.0,-0.48
37774522,0.0461123,-0.0817224,0.011277,0.0,0.0,-0.481053
37794227,0.0436075,-0.123869,0.0125537,0.0,0.0,-0.487368
37813938,0.0403096,-0.112762,0.0114785,0.0,0.0,-0.487368
37833872,0.0470229,-0.123223,0.00958909,0.0,0.0,-0.493684
37853673,0.0381394,-0.127919,0.00858378,0.0,0.0,-0.508421
37878480,0.0397346,-0.109284,0.00737493,0.0,0.0,-0.509474
37893356,0.0424831,-0.0584362,0.00947021,0.0,0.0,-0.514198
37913276,0.0514237,0.00213469,0.0069362,0.0,0.0,-0.521395
37938152,0.0285079,0.019017,0.00854653,0.0,0.0,-0.523794
37953099,0.0159555,0.0688068,0.0077784,0.0,0.0,-0.524994
37972970,0.00512587,0.107671,0.00901274,0.0,0.0,-0.526193
37992948,0.0425066,0.106984,0.00656327,0.0,0.0,-0.526193
38017620,0.0798846,0.0920349,0.00842969,0.0,0.0,-0.526193
38032560,0.097482,0.0741662,0.00531171,0.0,0.0,-0.526193
38052398,0.107184,0.0563536,0.00600323,0.0,0.0,-0.526193
38077246,0.0863058,0.0290307,0.0055922,0.0,0.0,-0.526193
38092086,0.0580404,0.00923869,0.00924826,0.0,0.0,-0.526193
38111945,0.102964,0.00468627,0.00796523,0.0,0.0,-0.524994
38136697,0.112139,-0.00141135,0.00785424,0.0,0.0,-0.524994
38156605,0.0846452,0.00741787,0.00784542,0.0,0.0,-0.524994
38171503,0.0879741,0.00873961,0.00764703,0.0,0.0,-0.524994
38196383,0.086515,0.0159824,0.00746409,0.0,0.0,-0.524994
38216247,0.0771263,0.00836983,0.00807765,0.0,0.0,-0.526193
38231183,0.074962,0.00914258,0.00778608,0.0,0.0,-0.526193
38256084,0.0713923,0.0209034,0.00965804,0.0,0.0,-0.526193
38275810,0.0589592,0.0226774,0.00844478,0.0,0.0,-0.526193
38295737,0.0464682,0.0194536,0.00794592,0.0,0.0,-0.526193
38315599,0.0371478,0.0170041,0.0075636,0.0,0.0,-0.526193
38335425,0.0309459,0.00933032,0.00732877,0.0,0.0,-0.526193
38355420,0.0296728,0.0103011,0.00896982,0.0,0.0,-0.526193
38375201,0.0319791,0.0107021,0.00928737,0.0,0.0,-0.526193
38395027,0.0350614,0.0146489,0.00744543,0.0,0.0,-0.526193
38414900,0.0422772,0.0155047,0.00532459,0.0,0.0,-0.526193
38434785,0.0475239,0.017572,0.00500921,0.0,0.0,-0.526193
38454593,0.0454855,0.0253491,0.00471018,0.0,0.0,-0.524994
38474581,0.0413243,0.029731,0.00592402,0.0,0.0,-0.524994
38494399,0.04822,0.0304374,0.00641651,0.0,0.0,-0.523794
38514316,0.0564924,0.0409707,0.00508788,0.0,0.0,-0.523794
38534331,0.0595679,0.0359799,0.00232133,0.0,0.0,-0.523794
38553923,0.0376848,0.0281128,0.000903512,0.0,0.0,-0.523794
38578785,0.0429485,0.0238975,0.0023661,0.0,0.0,-0.522595
38593654,0.0431695,0.0212438,-0.000299515,0.0,0.0,-0.522595
38613681,0.0646082,0.0239371,0.000417985,0.0,0.0,-0.523794
38633442,0.126046,0.0236744,-0.000299809,0.0,0.0,-0.526193
38653303,0.116642,0.0242268,-0.00378977,0.0,0.0,-0.526193
38673122,0.0483292,0.0189256,-0.00627997,0.0,0.0,-0.526193
38692972,0.00436007,0.0203035,-0.00709644,0.0,0.0,-0.526193
38717799,-0.0203649,0.0272325,-0.00713793,0.0,0.0,-0.526193
38732685,-0.0190889,0.0303071,-0.00817071,0.0,0.0,-0.523794
38752556,-0.0151388,0.0346626,-0.00848948,0.0,0.0,-0.523794
38777427,0.0240176,0.0342175,-0.0135547,0.0,0.0,-0.523794
38792484,0.0245062,0.0358608,-0.0150728,0.0,0.0,-0.523794
38812165,0.0618817,0.0314905,-0.0169619,0.0,0.0,-0.523794
38837079,-0.00135477,0.0278531,-0.0180238,0.0,0.0,-0.524994
38856995,-0.0192844,0.021704,-0.0215083,0.0,0.0,-0.524994
38871894,-0.0333335,0.0229968,-0.0182808,0.0,0.0,-0.524994
38896768,-0.00302991,0.0203934,-0.0245198,0.0,0.0,-0.522595
38916573,0.0068215,0.025361,-0.0255701,0.0,0.0,-0.522595
38931432,0.0319824,0.0237758,-0.0299632,0.0,0.0,-0.523794
38956106,0.0430995,0.0210687,-0.0334928,0.0,0.0,-0.521395
38975969,0.0556767,0.0164552,-0.0373418,0.0,0.0,-0.521395
38995919,0.0496522,0.0157107,-0.0393158,0.0,0.0,-0.521395
39015812,0.0984228,0.0119091,-0.0407681,0.0,0.0,-0.521395
39035693,0.0861351,0.00658526,-0.0425079,0.0,0.0,-0.508421
39055611,0.0779708,-0.00183352,-0.0479244,0.0,0.0,-0.502105
39075675,0.0566312,-0.0216038,-0.0527202,0.0,0.0,-0.491579
39095267,0.029885,-0.0357179,-0.054556,0.0,0.0,-0.477895
39115149,-0.00500806,-0.0350802,-0.0566006,0.0,0.0,-0.475789
39135012,-0.0472641,-0.0319581,-0.0608986,0.0,0.0,-0.474737
39154868,-0.0754112,-0.0275363,-0.0665244,0.0,0.0,-0.474737
39174662,-0.0756855,-0.0194623,-0.0687692,0.0,0.0,-0.474737
39194552,-0.09388,-0.0164571,-0.0712999,0.0,0.0,-0.474737
39214401,-0.0624205,-0.0293233,-0.0751137,0.0,0.0,-0.474737
39234341,-0.000107526,-0.00558447,-0.0789317,0.0,0.0,-0.472632
39254183,0.00433608,0.0203139,-0.0799651,0.0,0.0,-0.469474
39274060,-0.0794143,0.0302605,-0.0831664,0.0,0.0,-0.466316
39293893,-0.126143,0.0275622,-0.0867417,0.0,0.0,-0.466316
39313799,-0.154632,0.0205885,-0.0876559,0.0,0.0,-0.466316
39333799,-0.0868744,0.00895749,-0.0893977,0.0,0.0,-0.466316
39353513,0.0089343,0.00348042,-0.0925317,0.0,0.0,-0.465263
39373442,0.0193636,0.00309921,-0.0933447,0.0,0.0,-0.465263
39393200,0.101555,0.00131425,-0.094627,0.0,0.0,-0.464211
39418176,0.18871,-0.00183136,-0.0973767,0.0,0.0,-0.46
39433061,0.182047,-0.00302472,-0.0978895,0.0,0.0,-0.461053
39452854,0.125523,-0.00511171,-0.0990513,0.0,0.0,-0.461053
39477612,0.0993167,-0.00852821,-0.0987335,0.0,0.0,-0.461053
39492570,0.0912184,-0.00392747,-0.100185,0.0,0.0,-0.461053
39512438,0.0727206,0.00110907,-0.100691,0.0,0.0,-0.461053
39537151,0.0342505,0.00980165,-0.101935,0.0,0.0,-0.462105
39557017,0.00996351,0.0201889,-0.101953,0.0,0.0,-0.462105
39571914,0.00610577,0.0243569,-0.102727,0.0,0.0,-0.462105
39596982,-0.0474355,0.0298928,-0.103181,0.0,0.0,-0.474737
39616729,-0.0409994,0.030415,-0.102728,0.0,0.0,-0.474737
39631590,-0.0560128,0.028602,-0.104424,0.0,0.0,-0.477895
39656510,-0.0926433,0.0221438,-0.105473,0.0,0.0,-0.476842
39676362,-0.148303,0.0116943,-0.104039,0.0,0.0,-0.477895
39696276,-0.182632,-0.0226685,-0.103229,0.0,0.0,-0.477895
39716056,-0.191361,-0.0428534,-0.104941,0.0,0.0,-0.476842
39735853,-0.19256,-0.056438,-0.103563,0.0,0.0,-0.474737
39755736,-0.159001,-0.0734931,-0.10243,0.0,0.0,-0.474737
39775547,-0.115561,-0.0834365,-0.105107,0.0,0.0,-0.474737
39795453,-0.0806664,-0.0740414,-0.103223,0.0,0.0,-0.474737
39815307,-0.0562436,-0.087022,-0.102746,0.0,0.0,-0.474737
39835220,-0.0310589,-0.0844379,-0.104536,0.0,0.0,-0.474737
39855160,-0.0178994,-0.0674653,-0.102898,0.0,0.0,-0.475789
39875204,-0.0135286,-0.0450435,-0.103145,0.0,0.0,-0.475789
39894879,-0.0105824,-0.021025,-0.101307,0.0,0.0,-0.475789
39914743,-0.0205421,-0.0163651,-0.0998854,0.0,0.0,-0.477895
39934612,-0.0171275,-0.0254743,-0.0992153,0.0,0.0,-0.477895
39954523,-0.0149904,-0.0650376,-0.0961591,0.0,0.0,-0.477895
39974262,-0.00866423,-0.0781179,-0.0949602,0.0,0.0,-0.483158
39994129,0.00111114,-0.0720956,-0.0944913,0.0,0.0,-0.483158
40013933,0.0113757,-0.0733949,-0.0910494,0.0,0.0,-0.489474
40033879,0.034184,-0.0038758,-0.0899189,0.0,0.0,-0.509474
40053698,0.0460562,0.0474,-0.0898829,0.0,0.0,-0.517797
40073557,0.0335423,0.0418667,-0.0865278,0.0,0.0,-0.517797
40093406,0.0250327,-0.020303,-0.083669,0.0,0.0,-0.517797
40118286,0.0292571,-0.00204412,-0.0820108,0.0,0.0,-0.515398
40133411,0.0443664,0.0430671,-0.0833857,0.0,0.0,-0.512999
40153142,0.0462904,0.132345,-0.0798718,0.0,0.0,-0.512999
40178001,0.0541133,0.189367,-0.0801736,0.0,0.0,-0.514198
40192855,0.0540548,0.185897,-0.0793262,0.0,0.0,-0.514198
40212691,0.0545183,0.197662,-0.0772918,0.0,0.0,-0.515398
40237463,0.0493792,0.173886,-0.0752596,0.0,0.0,-0.515398
40257261,0.0425703,0.149936,-0.0722902,0.0,0.0,-0.514198
40272147,0.0371912,0.130961,-0.0710435,0.0,0.0,-0.514198
40297038,0.0628066,0.108427,-0.0657189,0.0,0.0,-0.514198
40316877,0.0921313,0.0842667,-0.0664387,0.0,0.0,-0.515398
40331790,0.110218,0.0636033,-0.0623826,0.0,0.0,-0.516597
40356638,0.147217,0.0568483,-0.0605197,0.0,0.0,-0.517797
40376489,0.152466,0.0509241,-0.0564973,0.0,0.0,-0.517797
40396484,0.136179,0.0469666,-0.0563737,0.0,0.0,-0.517797
40411490,0.120984,0.0493927,-0.0538145,0.0,0.0,-0.517797
40436119,0.089748,0.0440634,-0.0515934,0.0,0.0,-0.518996
40456057,0.0737067,0.0477768,-0.0473882,0.0,0.0,-0.520196
40475918,0.0488677,0.050772,-0.0444337,0.0,0.0,-0.518996
40495772,0.0754753,0.0504531,-0.044839,0.0,0.0,-0.517797
40515664,0.108517,0.058069,-0.0434917,0.0,0.0,-0.516597
40535481,0.0940787,0.0580194,-0.0399833,0.0,0.0,-0.515398
40555315,0.0373523,0.0492789,-0.0358307,0.0,0.0,-0.515398
40575210,0.0144107,0.0452779,-0.0315812,0.0,0.0,-0.515398
40595094,-0.087109,0.0400639,-0.0308766,0.0,0.0,-0.515398
40614925,-0.0896943,0.0351205,-0.0293993,0.0,0.0,-0.515398
40634774,-0.0386048,0.0346606,-0.0265054,0.0,0.0,-0.512999
40654658,0.0379743,0.0494161,-0.0241228,0.0,0.0,-0.512999
40674573,0.0712569,0.0494089,-0.0195799,0.0,0.0,-0.512999
40694413,0.0504333,0.0473399,-0.0175931,0.0,0.0,-0.514198
40714297,0.00829901,0.0332627,-0.0158712,0.0,0.0,-0.515398
40734106,-0.0184685,0.0261124,-0.0127779,0.0,0.0,-0.516597
40754022,-0.0378658,0.0190682,-0.0096735,0.0,0.0,-0.516597
40773916,-0.0312947,0.0182336,-0.00460454,0.0,0.0,-0.516597
40793838,-0.0171627,0.0212107,-0.00128634,0.0,0.0,-0.516597
40818589,-0.0131615,0.0242256,-0.000769573,0.0,0.0,-0.516597
40833335,0.00062743,0.0285927,0.00138526,0.0,0.0,-0.515398
40853184,0.00425898,0.0295454,0.0024332,0.0,0.0,-0.514198
40878029,0.0186252,0.0270124,0.0078037,0.0,0.0,-0.512999
40893032,0.00866399,0.0241129,0.00765493,0.0,0.0,-0.511799
40912848,-0.00647083,0.0201441,0.0108929,0.0,0.0,-0.511799
40937860,-0.013649,0.0152804,0.0137176,0.0,0.0,-0.511799
40957717,-0.0181253,0.0140477,0.0159306,0.0,0.0,-0.512999
40972549,-0.0235372,0.0128814,0.0173744,0.0,0.0,-0.512999
40997416,-0.0431949,0.0104545,0.0205646,0.0,0.0,-0.512999
41017292,-0.0532259,0.00702506,0.0213174,0.0,0.0,-0.512999
41032153,-0.0872554,0.0104728,0.0249229,0.0,0.0,-0.512999
41051924,-0.113217,0.0100069,0.0261756,0.0,0.0,-0.511799
41076663,-0.117276,0.0092153,0.0277829,0.0,0.0,-0.511799
41096535,-0.140147,0.00854025,0.0307141,0.0,0.0,-0.511799
41111449,-0.124393,0.0045838,0.0296381,0.0,0.0,-0.511799
41136321,-0.141277,0.00740723,0.0321673,0.0,0.0,-0.516597
41156198,-0.123397,0.0051057,0.0333066,0.0,0.0,-0.516597
41171165,-0.156611,0.00755151,0.0380662,0.0,0.0,-0.515398
41196118,-0.137778,-0.000461462,0.0388809,0.0,0.0,-0.512999
41215943,-0.121491,-0.00338242,0.0419677,0.0,0.0,-0.509474
41235758,-0.111592,-0.00797213,0.0424966,0.0,0.0,-0.504211
41255617,-0.0757854,-0.0171651,0.0422544,0.0,0.0,-0.504211
41275478,-0.0406767,-0.0231993,0.0451123,0.0,0.0,-0.507368
41295395,-0.0357674,-0.0274438,0.0479604,0.0,0.0,-0.508421
41315086,-0.0300394,-0.0304297,0.051597,0.0,0.0,-0.508421
41334898,-0.0389998,-0.0420882,0.0534559,0.0,0.0,-0.508421
41354778,-0.0360428,-0.0478808,0.0534021,0.0,0.0,-0.508421
41374784,-0.0425461,-0.0509505,0.0547596,0.0,0.0,-0.506316
41394593,-0.0379536,-0.0475694,0.0570308,0.0,0.0,-0.506316
41414459,-0.0331877,-0.0442333,0.0613035,0.0,0.0,-0.504211
41434280,-0.0297894,-0.0295587,0.0642489,0.0,0.0,-0.503158
41454162,-0.0260417,-0.0357936,0.0643608,0.0,0.0,-0.502105
41474231,-0.0147396,-0.0378962,0.0638602,0.0,0.0,-0.5
41494108,-0.00662358,-0.0431916,0.0648785,0.0,0.0,-0.493684
41518887,-0.0143099,-0.0365927,0.0689616,0.0,0.0,-0.488421
41533665,-0.0116449,-0.0322918,0.0701473,0.0,0.0,-0.488421
41553553,-0.032823,-0.0261339,0.0728494,0.0,0.0,-0.475789
41573326,-0.0371793,-0.0170082,0.0733199,0.0,0.0,-0.469474
41593181,-0.0321464,-0.010592,0.0738532,0.0,0.0,-0.469474
41613122,-0.0224677,-0.0105472,0.0752203,0.0,0.0,-0.466316
41632977,-0.00189721,-0.00677524,0.0782115,0.0,0.0,-0.466316
41657805,0.0115238,-0.00138416,0.0790424,0.0,0.0,-0.466316
41672670,0.0115908,-0.00979801,0.0824208,0.0,0.0,-0.466316
41692517,-0.00595951,-0.00545875,0.081589,0.0,0.0,-0.466316
41717383,-0.00801572,-0.00840899,0.0865462,0.0,0.0,-0.466316
41732413,-0.0109082,-0.00728397,0.087916,0.0,0.0,-0.466316
41752307,0.00188597,-0.00858969,0.0903322,0.0,0.0,-0.465263
41777059,0.000808786,-0.00307501,0.092149,0.0,0.0,-0.464211
41796823,-0.0153634,-0.00239927,0.0933394,0.0,0.0,-0.464211
41811788,-0.0174864,0.000171617,0.0961521,0.0,0.0,-0.466316
41836628,-0.0175278,0.000816926,0.0962065,0.0,0.0,-0.467368
41856459,-0.0247734,0.00642893,0.0996216,0.0,0.0,-0.467368
41871336,-0.0195187,0.00539539,0.0972759,0.0,0.0,-0.468421
41896132,-0.0144289,0.0122095,0.0986202,0.0,0.0,-0.468421
41916070,-0.0120114,0.0168412,0.0999264,0.0,0.0,-0.468421
41935934,-0.021956,0.0233995,0.103423,0.0,0.0,-0.468421
41955845,-0.0321774,0.028715,0.105045,0.0,0.0,-0.468421
41975637,-0.0319552,0.0254904,0.102371,0.0,0.0,-0.468421
41995460,-0.0253335,0.0225113,0.102694,0.0,0.0,-0.472632
42015386,-0.0166846,0.0234577,0.103744,0.0,0.0,-0.481053
