timestamp,timestamp_sample,baro_device_id,baro_alt_meter,baro_temp_celcius,baro_pressure_pa,rho
21865545,21842921,3997730,358.819,27.11,97088.7,1.15357
21915880,21895602,3997730,358.732,27.11,97089.8,1.15359
22076754,22056530,3997730,358.774,27.11,97089.2,1.15358
22237537,22217381,3997730,358.753,27.11,97089.5,1.15358
22448675,22430947,3997730,358.967,27.12,97087.0,1.15355
22669965,22647167,3997730,358.494,27.12,97092.5,1.15362
22831016,22808192,3997730,358.904,27.13,97087.7,1.15356
23041963,23021765,3997730,358.946,27.13,97087.2,1.15356
23253087,23235373,3997730,358.687,27.13,97090.3,1.15359
23474389,23451675,3997730,358.687,27.13,97090.3,1.15359
23635184,23612545,3997730,358.84,27.14,97088.5,1.15357
23846510,23826286,3997730,358.774,27.14,97089.2,1.15358
24057559,24039845,3997730,358.711,27.14,97090.0,1.15359
24218403,24200770,3997730,358.645,27.15,97090.8,1.1536
24439612,24416967,3997730,358.882,27.15,97088.0,1.15357
24650658,24630501,3997730,358.861,27.15,97088.2,1.15357
24861764,24844145,3997730,358.774,27.16,97089.2,1.15358
25022756,25005088,3997730,358.904,27.16,97087.7,1.15356
25243783,25221077,3997730,358.732,27.16,97089.8,1.15359
25454974,25434772,3997730,358.819,27.16,97088.7,1.15357
25666137,25648518,3997730,358.991,27.16,97086.7,1.15355
25827132,25809387,3997730,358.925,27.17,97087.5,1.15356
26048113,26025456,3997730,358.84,27.17,97088.5,1.15357
26259331,26239113,3997730,358.774,27.18,97089.2,1.15358
26470275,26452628,3997730,358.904,27.18,97087.8,1.15356
26631330,26613551,3997730,358.795,27.18,97089.0,1.15358
26852246,26829531,3997730,359.033,27.18,97086.3,1.15355
27063611,27043349,3997730,358.882,27.18,97088.0,1.15357
27274827,27257119,3997730,358.539,27.19,97092.0,1.15361
27435565,27417936,3997730,359.012,27.19,97086.5,1.15355
27656760,27633965,3997730,358.753,27.2,97089.5,1.15358
27867743,27847516,3997730,358.774,27.2,97089.2,1.15358
28028443,28008325,3997730,359.096,27.19,97085.5,1.15354
28239718,28221927,3997730,358.991,27.2,97086.8,1.15355
28460790,28438141,3997730,359.075,27.2,97085.7,1.15354
28622243,28599008,3997730,358.687,27.21,97090.3,1.15359
28842884,28825244,3997730,359.075,27.2,97085.8,1.15354
29064129,29041286,3997730,359.12,27.21,97085.3,1.15353
29275173,29255048,3997730,358.946,27.21,97087.2,1.15356
29436304,29415899,3997730,359.096,27.21,97085.5,1.15354
29647208,29629535,3997730,359.527,27.22,97080.5,1.15348
29868830,29845764,3997730,359.659,27.22,97079.0,1.15346
30039335,30019165,3997730,359.614,27.22,97079.5,1.15347
30250477,30232756,3997730,359.873,27.23,97076.5,1.15343
30471732,30449004,3997730,359.765,27.23,97077.8,1.15344
30632647,30609910,3997730,360.196,27.23,97072.8,1.15338
30843786,30823491,3997730,360.196,27.23,97072.8,1.15338
31054879,31037182,3997730,360.37,27.23,97070.7,1.15336
31276101,31253375,3997730,360.584,27.24,97068.3,1.15333
31436885,31414227,3997730,360.37,27.24,97070.7,1.15336
31657948,31640338,3997730,360.434,27.24,97070.0,1.15335
31818809,31801168,3997730,360.304,27.24,97071.5,1.15337
32040032,32017347,3997730,360.476,27.24,97069.5,1.15335
32251169,32231002,3997730,360.37,27.25,97070.7,1.15336
32462279,32444570,3997730,359.702,27.25,97078.5,1.15345
32622958,32605332,3997730,360.045,27.25,97074.5,1.15341
32854311,32834133,3997730,360.066,27.25,97074.3,1.1534
33065557,33047802,3997730,359.982,27.26,97075.3,1.15341
33226339,33208623,3997730,360.003,27.26,97075.0,1.15341
33447604,33424801,3997730,359.958,27.26,97075.5,1.15342
33658723,33638540,3997730,359.852,27.26,97076.8,1.15343
33869782,33852101,3997730,360.111,27.27,97073.8,1.1534
34050824,34020566,3997730,359.813,27.27,97077.2,1.15344
34261945,34241731,3997730,360.175,27.27,97073.0,1.15339
34432733,34408557,3997730,360.124,27.27,97073.6,1.15339
34653867,34631217,3997730,359.894,27.27,97076.3,1.15343
34875004,34850741,3997730,360.262,27.27,97072.0,1.15338
35035797,35018191,3997730,360.024,27.28,97074.8,1.15341
35256994,35234334,3997730,360.196,27.28,97072.8,1.15338
35468175,35448028,3997730,360.045,27.28,97074.5,1.15341
35629585,35608769,3997730,360.066,27.29,97074.3,1.1534
35860317,35837678,3997730,360.132,27.28,97073.5,1.15339
36021919,35998537,3997730,359.937,27.29,97075.8,1.15342
36242249,36224571,3997730,360.024,27.29,97074.8,1.15341
36463460,36440716,3997730,360.045,27.29,97074.5,1.15341
36674656,36654515,3997730,359.937,27.29,97075.8,1.15342
36835677,36815362,3997730,359.982,27.3,97075.3,1.15341
37046759,37029075,3997730,360.196,27.3,97072.8,1.15338
37267912,37245250,3997730,360.238,27.3,97072.3,1.15338
37428724,37406077,3997730,360.087,27.3,97074.0,1.1534
37639783,37619630,3997730,360.175,27.3,97073.0,1.15339
37851020,37833263,3997730,360.003,27.3,97075.0,1.15341
38072147,38049434,3997730,359.982,27.3,97075.3,1.15341
38232941,38210255,3997730,359.894,27.31,97076.2,1.15343
38444168,38424019,3997730,360.111,27.31,97073.8,1.1534
38655537,38637871,3997730,359.937,27.31,97075.8,1.15342
38816343,38798709,3997730,359.958,27.31,97075.5,1.15342
39037447,39014771,3997730,360.153,27.32,97073.3,1.15339
39248524,39228396,3997730,360.262,27.32,97072.0,1.15338
39459641,39442018,3997730,360.111,27.32,97073.8,1.1534
39620526,39602801,3997730,360.412,27.32,97070.2,1.15336
39851734,39831608,3997730,360.175,27.32,97073.0,1.15339
40062598,40044989,3997730,360.37,27.32,97070.7,1.15336
40243497,40213170,3997730,360.021,27.33,97074.8,1.15341
40454554,40434371,3997730,360.175,27.33,97073.0,1.15339
40665794,40648157,3997730,360.196,27.33,97072.8,1.15338
40826631,40808966,3997730,360.087,27.33,97074.0,1.1534
41047626,41025003,3997730,360.066,27.33,97074.3,1.1534
41258645,41238513,3997730,360.153,27.34,97073.3,1.15339
41420419,41399424,3997730,360.37,27.34,97070.7,1.15336
41660878,41640716,3997730,360.283,27.34,97071.8,1.15337
41871954,41854279,3997730,360.283,27.34,97071.8,1.15337
42032998,42015315,3997730,360.238,27.34,97072.3,1.15338
42254253,42231598,3997730,360.518,27.34,97069.0,1.15334
42465290,42445113,3997730,360.346,27.35,97071.0,1.15336
42676528,42658889,3997730,360.262,27.35,97072.0,1.15338
42837695,42819880,3997730,360.217,27.35,97072.5,1.15338
43059658,43036084,3997730,360.024,27.35,97074.8,1.15341
43229695,43209455,3997730,360.175,27.35,97073.0,1.15339
43442235,43423054,3997730,360.111,27.36,97073.8,1.1534
43672100,43651932,3997730,360.003,27.36,97075.0,1.15341
43832932,43812750,3997730,360.153,27.36,97073.3,1.15339
44044226,44026563,3997730,360.455,27.36,97069.7,1.15335
44265535,44242844,3997730,360.066,27.36,97074.3,1.1534
44426419,44403654,3997730,360.262,27.36,97072.0,1.15338
44638230,44617321,3997730,360.478,27.36,97069.5,1.15335
44848696,44830982,3997730,360.434,27.37,97070.0,1.15335
45070328,45047166,3997730,360.283,27.37,97071.8,1.15337
45240961,45220668,3997730,360.087,27.37,97074.0,1.1534
45452078,45434350,3997730,360.304,27.37,97071.5,1.15337
45673254,45650556,3997730,360.262,27.37,97072.0,1.15338
45834167,45811352,3997730,360.045,27.38,97074.5,1.15341
46055303,46037577,3997730,360.455,27.38,97069.7,1.15335
46276446,46253805,3997730,360.111,27.38,97073.8,1.1534
46437253,46414565,3997730,360.066,27.38,97074.3,1.1534
46648619,46628320,3997730,360.066,27.39,97074.3,1.1534
46859518,46841807,3997730,360.153,27.38,97073.3,1.15339
47020435,47002660,3997730,360.196,27.39,97072.8,1.15338
47251553,47231420,3997730,360.196,27.39,97072.8,1.15338
47462633,47445016,3997730,360.153,27.39,97073.3,1.15339
47623598,47605889,3997730,359.982,27.39,97075.3,1.15341
47844899,47822215,3997730,359.894,27.39,97076.2,1.15343
48055822,48035698,3997730,360.111,27.39,97073.8,1.1534
48266905,48249242,3997730,359.916,27.39,97076.0,1.15342
48427820,48410045,3997730,360.175,27.4,97073.0,1.15339
48649016,48626219,3997730,360.262,27.4,97072.0,1.15338
48860178,48839920,3997730,360.045,27.4,97074.5,1.15341
49071242,49053586,3997730,359.831,27.4,97077.0,1.15344
49252309,49221968,3997730,359.934,27.41,97075.8,1.15342
49463439,49443209,3997730,359.916,27.4,97076.0,1.15342
49674473,49656824,3997730,360.196,27.41,97072.8,1.15338
49835249,49817632,3997730,360.238,27.41,97072.3,1.15338
50056464,50033785,3997730,359.636,27.41,97079.3,1.15346
50267556,50247415,3997730,359.894,27.41,97076.3,1.15343
50428663,50408194,3997730,360.262,27.41,97072.0,1.15338
50669588,50649473,3997730,359.894,27.41,97076.3,1.15343
50830891,50810296,3997730,360.045,27.42,97074.5,1.15341
51061703,51039018,3997730,359.807,27.42,97077.3,1.15344
51272943,51252607,3997730,360.153,27.42,97073.3,1.15339
51433715,51413483,3997730,360.024,27.42,97074.8,1.15341
51645459,51627246,3997730,360.066,27.43,97074.3,1.1534
51876190,51856055,3997730,360.003,27.43,97075.0,1.15341
52037173,52016861,3997730,359.807,27.43,97077.3,1.15344
52248303,52230619,3997730,359.807,27.43,97077.3,1.15344
52469333,52446669,3997730,359.937,27.43,97075.8,1.15342
52630187,52607515,3997730,359.765,27.43,97077.8,1.15344
52841533,52821237,3997730,359.678,27.43,97078.8,1.15346
53052799,53035086,3997730,359.807,27.43,97077.3,1.15344
53274006,53251336,3997730,359.723,27.43,97078.3,1.15345
53434847,53412061,3997730,359.723,27.43,97078.3,1.15345
53646020,53625757,3997730,359.551,27.44,97080.3,1.15347
53857078,53839363,3997730,359.958,27.44,97075.5,1.15342
54017854,54000214,3997730,359.659,27.44,97079.0,1.15346
54239020,54216343,3997730,359.982,27.44,97075.3,1.15341
54450196,54429985,3997730,359.958,27.44,97075.5,1.15342
54661394,54643705,3997730,360.175,27.44,97073.0,1.15339
54822294,54804564,3997730,360.325,27.44,97071.3,1.15337
55043501,55020819,3997730,360.045,27.45,97074.5,1.15341
55254444,55234328,3997730,360.175,27.45,97073.0,1.15339
55465587,55447955,3997730,359.852,27.45,97076.8,1.15343
55626646,55608929,3997730,360.066,27.45,97074.3,1.1534
55857827,55837703,3997730,360.087,27.45,97074.0,1.1534
56068791,56051168,3997730,360.175,27.46,97073.0,1.15339
56229744,56211999,3997730,360.262,27.46,97072.0,1.15338
56450754,56428063,3997730,360.37,27.46,97070.7,1.15336
56662014,56641770,3997730,360.283,27.46,97071.8,1.15337
56873130,56855440,3997730,360.671,27.46,97067.3,1.15332
57033907,57016273,3997730,360.864,27.47,97065.0,1.15329
57254954,57232320,3997730,360.542,27.47,97068.7,1.15334
57466136,57445907,3997730,360.864,27.47,97065.0,1.15329
57677231,57659470,3997730,360.111,27.47,97073.8,1.1534
57838023,57820360,3997730,360.412,27.47,97070.2,1.15336
58059185,58036555,3997730,360.756,27.47,97066.3,1.15331
58270257,58250038,3997730,360.692,27.48,97067.0,1.15332
58431146,58410863,3997730,360.648,27.48,97067.5,1.15332
58642156,58624436,3997730,360.563,27.48,97068.5,1.15333
58863354,58840632,3997730,360.692,27.48,97067.0,1.15332
59074586,59054367,3997730,360.777,27.48,97066.0,1.1533
59235599,59215307,3997730,360.518,27.48,97069.0,1.15334
59446663,59428964,3997730,360.777,27.48,97066.0,1.1533
59667718,59645048,3997730,360.648,27.49,97067.5,1.15332
59828582,59805915,3997730,360.843,27.49,97065.3,1.1533
60039763,60019592,3997730,360.843,27.49,97065.3,1.1533
60250939,60233231,3997730,360.605,27.49,97068.0,1.15333
60431740,60409118,3997730,360.864,27.49,97065.0,1.15329
60643049,60622844,3997730,360.885,27.49,97064.8,1.15329
60854303,60836656,3997730,360.777,27.49,97066.0,1.1533
61075498,61052794,3997730,360.843,27.5,97065.3,1.1533
61246304,61226172,3997730,360.563,27.5,97068.5,1.15333
61457480,61439786,3997730,360.542,27.5,97068.7,1.15334
61618310,61600658,3997730,360.864,27.5,97065.0,1.15329
61839565,61816833,3997730,360.476,27.5,97069.5,1.15335
62050708,62030583,3997730,360.262,27.5,97072.0,1.15338
62261845,62244226,3997730,360.521,27.5,97069.0,1.15334
62442745,62420112,3997730,360.262,27.5,97072.0,1.15338
62653964,62633784,3997730,360.283,27.5,97071.8,1.15337
62865153,62847538,3997730,360.217,27.5,97072.5,1.15338
63026079,63008317,3997730,360.196,27.51,97072.8,1.15338
63247147,63224504,3997730,360.478,27.51,97069.5,1.15335
63458380,63438153,3997730,360.391,27.51,97070.5,1.15336
63669605,63651970,3997730,360.563,27.51,97068.5,1.15333
63830473,63812856,3997730,360.542,27.52,97068.7,1.15334
64061751,64041627,3997730,360.735,27.52,97066.5,1.15331
64272710,64255075,3997730,360.714,27.52,97066.8,1.15331
64453781,64423348,3997730,360.743,27.52,97066.4,1.15331
64664851,64644649,3997730,360.93,27.52,97064.2,1.15328
64875948,64858300,3997730,361.036,27.52,97063.0,1.15327
65036712,65019036,3997730,360.78,27.52,97066.0,1.1533
65257889,65235256,3997730,360.951,27.53,97064.0,1.15328
65468962,65448816,3997730,360.671,27.53,97067.2,1.15332
65630062,65609708,3997730,360.822,27.53,97065.5,1.1533
65841009,65823333,3997730,360.777,27.53,97066.0,1.1533
66062396,66039362,3997730,360.542,27.53,97068.8,1.15334
66273209,66253083,3997730,360.584,27.53,97068.2,1.15333
66434671,66413969,3997730,360.973,27.53,97063.8,1.15328
66675349,66655162,3997730,360.885,27.54,97064.8,1.15329
66836395,66816098,3997730,360.973,27.53,97063.8,1.15328
67047604,67029842,3997730,361.039,27.54,97063.0,1.15327
67269255,67246102,3997730,361.469,27.54,97058.0,1.15321
67439801,67419534,3997730,360.885,27.54,97064.8,1.15329
67650800,67633095,3997730,360.994,27.54,97063.5,1.15327
67831735,67808990,3997730,360.801,27.55,97065.8,1.1533
68042771,68022626,3997730,360.455,27.55,97069.7,1.15335
68253996,68236278,3997730,360.563,27.55,97068.5,1.15333
68475176,68452409,3997730,360.735,27.55,97066.5,1.15331
68635958,68613306,3997730,360.478,27.55,97069.5,1.15335
68847114,68826920,3997730,360.605,27.55,97068.0,1.15333
69058141,69040506,3997730,360.563,27.55,97068.5,1.15333
69219129,69201415,3997730,360.478,27.56,97069.5,1.15335
69450376,69430239,3997730,360.692,27.56,97067.0,1.15332
69661667,69644009,3997730,360.822,27.56,97065.5,1.1533
69842592,69819953,3997730,360.714,27.56,97066.7,1.15331
70053789,70033631,3997730,360.346,27.56,97071.0,1.15336
70264846,70247239,3997730,360.217,27.56,97072.5,1.15338
70425728,70408069,3997730,360.066,27.56,97074.3,1.1534
70647001,70624348,3997730,360.196,27.57,97072.8,1.15338
70858049,70837847,3997730,359.723,27.57,97078.3,1.15345
71069085,71051464,3997730,359.982,27.57,97075.3,1.15341
71229789,71212177,3997730,359.723,27.57,97078.3,1.15345
71451048,71428344,3997730,359.894,27.57,97076.3,1.15343
71662090,71641896,3997730,360.045,27.57,97074.5,1.15341
71873366,71855631,3997730,360.087,27.57,97074.0,1.1534
72034147,72016517,3997730,359.958,27.57,97075.5,1.15342
72255185,72232565,3997730,360.003,27.58,97075.0,1.15341
72466429,72446294,3997730,360.283,27.58,97071.8,1.15337
72627450,72607275,3997730,360.412,27.58,97070.2,1.15336
72838635,72821029,3997730,360.217,27.58,97072.5,1.15338
73059794,73037142,3997730,360.196,27.58,97072.8,1.15338
73270845,73250702,3997730,360.777,27.59,97066.0,1.1533
73431768,73411623,3997730,360.542,27.58,97068.7,1.15334
73642882,73625161,3997730,360.283,27.59,97071.8,1.15337
73864285,73841428,3997730,360.521,27.58,97069.0,1.15334
74075181,74055061,3997730,360.714,27.59,97066.7,1.15331
74236229,74215950,3997730,360.864,27.59,97065.0,1.15329
74447251,74429595,3997730,360.951,27.59,97064.0,1.15328
74668534,74645882,3997730,360.885,27.6,97064.8,1.15329
74829378,74806680,3997730,360.885,27.59,97064.8,1.15329
75040569,75020317,3997730,360.777,27.6,97066.0,1.1533
75251573,75233875,3997730,360.864,27.6,97065.0,1.15329
75472796,75450065,3997730,360.93,27.6,97064.2,1.15328
75633519,75610795,3997730,360.864,27.6,97065.0,1.15329
75844553,75824406,3997730,361.21,27.6,97061.0,1.15325
76055642,76037968,3997730,360.864,27.6,97065.0,1.15329
76277041,76254226,3997730,361.165,27.6,97061.5,1.15325
76437772,76415134,3997730,360.906,27.61,97064.5,1.15329
76648798,76628682,3997730,360.801,27.61,97065.8,1.1533
76859971,76842314,3997730,360.563,27.61,97068.5,1.15333
77020940,77003198,3997730,360.885,27.61,97064.8,1.15329
77251961,77231840,3997730,360.455,27.61,97069.8,1.15335
77463060,77445439,3997730,360.584,27.61,97068.3,1.15333
77624111,77606350,3997730,360.671,27.62,97067.2,1.15332
77845242,77822472,3997730,360.584,27.62,97068.2,1.15333
78056487,78036301,3997730,360.066,27.62,97074.3,1.1534
78267734,78250019,3997730,360.37,27.62,97070.7,1.15336
78428602,78410882,3997730,360.455,27.62,97069.7,1.15335
78649732,78626916,3997730,360.629,27.62,97067.7,1.15333
78861050,78840781,3997730,360.563,27.62,97068.5,1.15333
79072187,79054529,3997730,360.629,27.62,97067.7,1.15333
79233149,79215309,3997730,360.629,27.62,97067.7,1.15333
79454232,79431479,3997730,360.455,27.63,97069.7,1.15335
79665576,79645340,3997730,360.518,27.63,97069.0,1.15334
79876703,79858992,3997730,360.175,27.63,97073.0,1.15339
80037606,80019816,3997730,360.434,27.63,97070.0,1.15335
80258769,80236007,3997730,360.37,27.63,97070.7,1.15336
80469931,80449735,3997730,360.153,27.64,97073.3,1.15339
80630764,80610578,3997730,360.346,27.63,97071.0,1.15336
80862104,80831777,3997730,360.521,27.64,97069.0,1.15334
81073069,81052867,3997730,360.5,27.64,97069.2,1.15334
81233960,81213762,3997730,359.852,27.64,97076.8,1.15343
81445087,81427480,3997730,359.852,27.64,97076.8,1.15343
81666201,81643506,3997730,359.873,27.64,97076.5,1.15343
81827076,81804385,3997730,360.175,27.64,97073.0,1.15339
82038521,82018077,3997730,360.024,27.65,97074.8,1.15341
82269590,82246865,3997730,360.238,27.65,97072.3,1.15338
82431106,82407665,3997730,360.132,27.64,97073.5,1.15339
82651592,82633943,3997730,360.262,27.64,97072.0,1.15338
82872848,82850087,3997730,360.262,27.65,97072.0,1.15338
83033454,83010816,3997730,360.412,27.65,97070.2,1.15336
83244813,83224474,3997730,360.391,27.65,97070.5,1.15336
83455882,83438174,3997730,360.521,27.65,97069.0,1.15334
83616772,83599047,3997730,360.262,27.65,97072.0,1.15338
83837814,83815171,3997730,360.283,27.66,97071.8,1.15337
84048882,84028768,3997730,360.37,27.66,97070.7,1.15336
84260238,84242523,3997730,360.542,27.66,97068.7,1.15334
84421160,84403423,3997730,360.563,27.66,97068.5,1.15333
84642476,84619721,3997730,360.304,27.66,97071.5,1.15337
84853562,84833331,3997730,360.217,27.66,97072.5,1.15338
85064798,85046981,3997730,360.045,27.66,97074.5,1.15341
85225486,85207881,3997730,360.111,27.67,97073.8,1.1534
85446662,85423966,3997730,360.217,27.66,97072.5,1.15338
85657683,85637570,3997730,360.391,27.67,97070.5,1.15336
85868967,85851308,3997730,360.132,27.67,97073.5,1.15339
86029660,86012001,3997730,360.087,27.67,97074.0,1.1534
86260905,86240740,3997730,360.045,27.67,97074.5,1.15341
86472123,86454400,3997730,360.37,27.67,97070.7,1.15336
86632886,86615189,3997730,360.391,27.67,97070.5,1.15336
86854092,86831270,3997730,360.238,27.68,97072.3,1.15338
87065389,87045236,3997730,360.196,27.67,97072.8,1.15338
87276636,87259001,3997730,360.153,27.68,97073.3,1.15339
87437661,87419952,3997730,360.283,27.68,97071.8,1.15337
87658862,87636179,3997730,359.916,27.68,97076.0,1.15342
87869919,87849749,3997730,360.111,27.68,97073.8,1.1534
88030896,88010684,3997730,359.723,27.69,97078.3,1.15345
88262229,88239597,3997730,360.132,27.69,97073.5,1.15339
88473429,88453304,3997730,360.304,27.69,97071.5,1.15337
88634341,88614080,3997730,360.175,27.69,97073.0,1.15339
88845367,88827577,3997730,360.692,27.69,97067.0,1.15332
89066430,89043752,3997730,360.391,27.69,97070.5,1.15336
89227310,89204647,3997730,360.37,27.69,97070.7,1.15336
89438386,89418242,3997730,360.801,27.7,97065.8,1.1533
89649412,89631779,3997730,360.864,27.69,97065.0,1.15329
89870840,89848002,3997730,360.5,27.7,97069.2,1.15334
90031562,90008926,3997730,360.756,27.7,97066.3,1.15331
90242699,90222498,3997730,360.563,27.7,97068.5,1.15333
90453957,90436318,3997730,360.801,27.7,97065.8,1.1533
90675360,90652631,3997730,360.626,27.7,97067.8,1.15333
90836055,90813416,3997730,360.346,27.71,97071.0,1.15336
91047400,91027214,3997730,360.478,27.71,97069.5,1.15335
91258657,91240993,3997730,360.325,27.71,97071.3,1.15337
91419876,91401908,3997730,360.412,27.71,97070.2,1.15336
91640661,91617995,3997730,360.391,27.71,97070.5,1.15336
91861927,91837763,3997730,360.521,27.71,97069.0,1.15334
92022812,92005207,3997730,360.434,27.71,97070.0,1.15335
92244110,92221328,3997730,360.434,27.71,97070.0,1.15335
92454984,92434795,3997730,360.37,27.72,97070.7,1.15336
92666010,92648379,3997730,360.521,27.72,97069.0,1.15334
92826847,92809183,3997730,360.542,27.72,97068.7,1.15334
93048834,93025395,3997730,360.37,27.72,97070.7,1.15336
93269421,93251781,3997730,360.238,27.72,97072.3,1.15338
93430318,93412562,3997730,360.283,27.72,97071.8,1.15337
93651484,93628796,3997730,360.283,27.72,97071.8,1.15337
93863286,93842366,3997730,360.262,27.72,97072.0,1.15338
94033678,94015950,3997730,360.024,27.73,97074.8,1.15341
94255576,94232192,3997730,359.982,27.73,97075.3,1.15341
94476151,94458487,3997730,360.217,27.73,97072.5,1.15338
94637084,94619333,3997730,360.37,27.73,97070.7,1.15336
94858186,94835459,3997730,360.217,27.73,97072.5,1.15338
95069399,95049065,3997730,360.391,27.73,97070.5,1.15336
95230139,95209981,3997730,360.65,27.73,97067.5,1.15332
95441309,95423650,3997730,360.563,27.74,97068.5,1.15333
95662390,95639737,3997730,361.102,27.74,97062.3,1.15326
95873615,95853351,3997730,360.843,27.74,97065.3,1.1533
96034409,96014249,3997730,361.165,27.74,97061.5,1.15325
96245671,96227982,3997730,361.361,27.74,97059.3,1.15322
96466827,96444168,3997730,361.102,27.74,97062.3,1.15326
96678148,96657900,3997730,361.081,27.75,97062.5,1.15326
96838827,96818711,3997730,360.671,27.75,97067.2,1.15332
97050068,97032399,3997730,360.648,27.75,97067.5,1.15332
97230977,97208328,3997730,360.542,27.75,97068.7,1.15334
97442114,97421943,3997730,360.584,27.75,97068.2,1.15333
97653242,97635602,3997730,360.629,27.75,97067.7,1.15333
97874645,97851915,3997730,360.391,27.75,97070.5,1.15336
98045524,98025344,3997730,360.238,27.75,97072.3,1.15338
98256534,98238889,3997730,360.283,27.76,97071.8,1.15337
98437591,98407231,3997730,360.053,27.75,97074.4,1.1534
98648736,98628457,3997730,360.671,27.76,97067.3,1.15332
98819823,98795528,3997730,360.296,27.76,97071.6,1.15337
99040925,99018114,3997730,360.864,27.76,97065.0,1.15329
99252020,99231840,3997730,360.759,27.76,97066.2,1.15331
99463118,99445443,3997730,360.629,27.76,97067.7,1.15333
99624111,99606475,3997730,360.629,27.76,97067.7,1.15333
99845520,99822767,3997730,360.822,27.76,97065.5,1.1533
100056686,100036518,3997730,360.994,27.77,97063.5,1.15327
100267787,100250114,3997730,361.123,27.77,97062.0,1.15326
100428644,100411017,3997730,360.994,27.77,97063.5,1.15327
100649658,100627030,3997730,361.039,27.77,97063.0,1.15327
100870941,100846728,3997730,360.951,27.77,97064.0,1.15328
101031785,101014093,3997730,360.906,27.77,97064.5,1.15329
101252996,101230286,3997730,360.5,27.77,97069.2,1.15334
101464114,101443923,3997730,360.843,27.77,97065.3,1.1533
101674993,101657373,3997730,360.671,27.77,97067.3,1.15332
101835932,101818277,3997730,360.973,27.77,97063.7,1.15328
102057389,102034266,3997730,360.909,27.78,97064.5,1.15329
102277955,102260321,3997730,361.165,27.78,97061.5,1.15325
102438810,102421154,3997730,361.274,27.78,97060.2,1.15324
102670322,102650015,3997730,361.123,27.78,97062.0,1.15326
102831061,102810898,3997730,361.081,27.78,97062.5,1.15326
103042156,103024487,3997730,360.801,27.78,97065.8,1.1533
103263431,103240676,3997730,360.801,27.78,97065.8,1.1533
103474487,103454181,3997730,360.973,27.78,97063.7,1.15328
103635161,103615045,3997730,360.777,27.79,97066.0,1.1533
103846289,103828599,3997730,360.909,27.79,97064.5,1.15329
104067600,104044956,3997730,360.994,27.79,97063.5,1.15327
104238507,104218354,3997730,360.93,27.79,97064.2,1.15328
104449705,104432020,3997730,360.973,27.79,97063.7,1.15328
104670941,104648268,3997730,360.994,27.8,97063.5,1.15327
104832080,104809247,3997730,360.909,27.79,97064.5,1.15329
105043043,105022893,3997730,361.232,27.79,97060.8,1.15324
105254175,105236542,3997730,361.036,27.79,97063.0,1.15327
105475334,105452581,3997730,360.692,27.8,97067.0,1.15332
105636098,105613317,3997730,360.864,27.8,97065.0,1.15329
105847291,105827040,3997730,360.885,27.8,97064.8,1.15329
106058357,106040622,3997730,361.144,27.8,97061.8,1.15325
106239132,106208963,3997730,361.105,27.8,97062.2,1.15326
106450170,106429994,3997730,361.382,27.8,97059.0,1.15322
106661290,106643605,3997730,361.189,27.8,97061.2,1.15325
106822188,106804557,3997730,360.885,27.8,97064.8,1.15329
107043473,107020754,3997730,360.843,27.8,97065.3,1.1533
107254551,107234431,3997730,360.756,27.81,97066.3,1.15331
107465648,107448037,3997730,360.864,27.81,97065.0,1.15329
107626518,107608898,3997730,360.735,27.81,97066.5,1.15331
107847678,107824922,3997730,360.605,27.81,97068.0,1.15333
108058820,108038628,3997730,360.542,27.81,97068.7,1.15334
108270201,108252265,3997730,360.455,27.81,97069.7,1.15335
108430798,108413095,3997730,360.605,27.81,97068.0,1.15333
108651794,108629088,3997730,360.37,27.81,97070.7,1.15336
108872916,108855155,3997730,360.391,27.81,97070.5,1.15336
109033743,109016100,3997730,360.346,27.82,97071.0,1.15336
109265155,109244857,3997730,360.238,27.81,97072.3,1.15338
109476364,109458558,3997730,360.37,27.82,97070.7,1.15336
109637040,109619427,3997730,360.671,27.82,97067.3,1.15332
109858102,109835479,3997730,360.066,27.83,97074.3,1.1534
110069178,110049013,3997730,360.325,27.82,97071.3,1.15337
110230101,110209865,3997730,360.692,27.82,97067.0,1.15332
110441145,110423442,3997730,360.605,27.83,97068.0,1.15333
110662377,110639673,3997730,360.283,27.83,97071.8,1.15337
110873551,110853403,3997730,360.692,27.83,97067.0,1.15332
111034405,111014250,3997730,360.542,27.83,97068.7,1.15334
111245493,111227748,3997730,360.455,27.83,97069.7,1.15335
111466561,111443837,3997730,360.951,27.83,97064.0,1.15328
111627378,111604621,3997730,360.777,27.83,97066.0,1.1533
111838398,111818273,3997730,360.756,27.83,97066.3,1.15331
112049427,112031725,3997730,360.843,27.84,97065.3,1.1533
112270461,112247837,3997730,360.542,27.84,97068.7,1.15334
112431798,112408639,3997730,360.777,27.84,97066.0,1.1533
112652530,112634887,3997730,360.843,27.84,97065.3,1.1533
112873789,112851108,3997730,360.542,27.84,97068.7,1.15334
113034765,113011913,3997730,360.455,27.84,97069.7,1.15335
113245810,113225594,3997730,360.5,27.84,97069.2,1.15334
113457150,113439440,3997730,360.346,27.84,97071.0,1.15336
113678371,113655607,3997730,360.434,27.84,97070.0,1.15335
113839315,113816493,3997730,360.455,27.84,97069.7,1.15335
114050462,114030259,3997730,360.37,27.85,97070.7,1.15336
114261592,114243967,3997730,360.153,27.84,97073.3,1.15339
114422496,114404752,3997730,360.087,27.85,97074.0,1.1534
114643797,114620918,3997730,360.325,27.85,97071.3,1.15337
114854970,114834723,3997730,360.542,27.85,97068.7,1.15334
115066087,115048387,3997730,360.325,27.85,97071.3,1.15337
115226892,115209252,3997730,360.175,27.85,97073.0,1.15339
115448129,115425389,3997730,360.37,27.85,97070.7,1.15336
115659354,115639043,3997730,360.391,27.85,97070.5,1.15336
115870330,115852645,3997730,360.584,27.86,97068.2,1.15333
116031166,116013552,3997730,360.777,27.86,97066.0,1.1533
116262632,116242403,3997730,360.605,27.86,97068.0,1.15333
116473625,116455915,3997730,360.692,27.87,97067.0,1.15332
116634481,116616845,3997730,360.909,27.86,97064.5,1.15329
116855611,116832988,3997730,360.648,27.86,97067.5,1.15332
117066757,117046628,3997730,360.885,27.86,97064.8,1.15329
117227657,117207525,3997730,360.994,27.87,97063.5,1.15327
117438690,117421028,3997730,361.06,27.87,97062.7,1.15327
117659786,117637090,3997730,361.036,27.87,97063.0,1.15327
117870992,117850819,3997730,360.885,27.86,97064.8,1.15329
118031947,118011720,3997730,360.671,27.87,97067.3,1.15332
118242959,118225282,3997730,360.671,27.87,97067.3,1.15332
118464105,118441368,3997730,360.563,27.87,97068.5,1.15333
118675242,118655043,3997730,360.626,27.88,97067.8,1.15333
118836026,118815798,3997730,360.478,27.88,97069.5,1.15335
119047028,119029346,3997730,360.434,27.88,97070.0,1.15335
119268070,119245385,3997730,360.885,27.88,97064.8,1.15329
119429353,119406291,3997730,360.909,27.88,97064.5,1.15329
119650214,119632552,3997730,360.714,27.88,97066.7,1.15331
119871364,119848705,3997730,360.391,27.88,97070.5,1.15336
120032304,120009621,3997730,360.563,27.89,97068.5,1.15333
120243403,120223183,3997730,360.692,27.88,97067.0,1.15332
120454463,120436768,3997730,360.885,27.88,97064.8,1.15329
120675552,120652879,3997730,360.714,27.88,97066.8,1.15331
120836395,120813705,3997730,360.756,27.88,97066.3,1.15331
121047580,121027335,3997730,360.626,27.89,97067.8,1.15333
121258672,121241007,3997730,360.885,27.89,97064.8,1.15329
121419440,121401835,3997730,360.714,27.89,97066.7,1.15331
121640662,121617988,3997730,360.455,27.89,97069.7,1.15335
121851852,121831673,3997730,360.584,27.89,97068.3,1.15333
122062839,122045211,3997730,360.37,27.89,97070.7,1.15336
122223595,122205952,3997730,360.563,27.9,97068.5,1.15333
122444839,122422179,3997730,360.217,27.9,97072.5,1.15338
122655949,122635748,3997730,360.217,27.9,97072.5,1.15338
122867075,122849460,3997730,360.391,27.9,97070.5,1.15336
123028067,123010192,3997730,360.542,27.9,97068.7,1.15334
123249088,123226399,3997730,360.304,27.9,97071.5,1.15337
123460220,123440059,3997730,360.5,27.9,97069.2,1.15334
123671306,123653632,3997730,360.283,27.9,97071.8,1.15337
123832030,123814392,3997730,360.478,27.9,97069.5,1.15335
124053538,124030673,3997730,360.196,27.91,97072.8,1.15338
124264525,124244358,3997730,360.521,27.91,97069.0,1.15334
124475599,124457898,3997730,360.542,27.91,97068.7,1.15334
124636545,124618828,3997730,360.756,27.91,97066.3,1.15331
124857700,124835025,3997730,360.521,27.91,97069.0,1.15334
125068921,125048657,3997730,360.671,27.91,97067.2,1.15332
125230483,125209423,3997730,360.692,27.92,97067.0,1.15332
125460947,125438230,3997730,361.102,27.91,97062.2,1.15326
125672141,125651956,3997730,360.843,27.92,97065.3,1.1533
125833281,125812940,3997730,361.06,27.92,97062.7,1.15327
126064731,126034400,3997730,361.036,27.92,97063.0,1.15327
126275842,126255656,3997730,361.144,27.92,97061.8,1.15325
126436658,126416471,3997730,361.123,27.92,97062.0,1.15326
126647679,126630032,3997730,361.316,27.92,97059.8,1.15323
126868924,126846252,3997730,361.081,27.92,97062.5,1.15326
127029841,127007183,3997730,361.123,27.92,97062.0,1.15326
127241400,127220814,3997730,361.554,27.92,97057.0,1.1532
127472159,127449477,3997730,361.62,27.93,97056.3,1.15319
127633640,127610312,3997730,361.533,27.93,97057.2,1.1532
127854302,127836621,3997730,361.337,27.93,97059.5,1.15323
128075238,128052613,3997730,360.994,27.93,97063.5,1.15327
128236202,128213455,3997730,361.06,27.93,97062.7,1.15327
128447297,128427062,3997730,360.864,27.93,97065.0,1.15329
128658502,128640734,3997730,361.036,27.93,97063.0,1.15327
128819305,128801652,3997730,360.801,27.94,97065.8,1.1533
129050616,129030443,3997730,360.65,27.94,97067.5,1.15332
129261767,129244037,3997730,360.434,27.94,97070.0,1.15335
129422549,129404936,3997730,360.843,27.94,97065.3,1.1533
129643789,129621009,3997730,360.777,27.94,97066.0,1.1533
129854855,129834707,3997730,360.692,27.94,97067.0,1.15332
130065860,130048199,3997730,360.563,27.94,97068.5,1.15333
130226726,130209087,3997730,360.455,27.94,97069.7,1.15335
130447790,130425159,3997730,360.864,27.94,97065.0,1.15329
130659179,130639008,3997730,360.885,27.94,97064.8,1.15329
130870368,130852754,3997730,360.885,27.95,97064.8,1.15329
131051486,131028735,3997730,360.692,27.95,97067.0,1.15332
131262634,131242422,3997730,360.626,27.95,97067.8,1.15333
131473870,131456187,3997730,360.801,27.95,97065.8,1.1533
131634706,131617064,3997730,360.951,27.95,97064.0,1.15328
131855762,131833127,3997730,360.909,27.95,97064.5,1.15329
132066889,132046672,3997730,360.648,27.95,97067.5,1.15332
132228039,132207551,3997730,360.801,27.95,97065.8,1.1533
132438901,132421155,3997730,360.885,27.95,97064.8,1.15329
132670178,132650008,3997730,360.563,27.95,97068.5,1.15333
132830922,132810794,3997730,360.605,27.95,97068.0,1.15333
133062343,133031969,3997730,360.518,27.96,97069.0,1.15334
133273421,133253158,3997730,360.412,27.96,97070.2,1.15336
133434207,133413941,3997730,360.692,27.96,97067.0,1.15332
133645342,133627654,3997730,360.521,27.96,97069.0,1.15334
133866225,133843597,3997730,360.045,27.96,97074.5,1.15341
134027165,134004404,3997730,360.325,27.96,97071.3,1.15337
134238888,134218175,3997730,360.217,27.97,97072.5,1.15338
134469556,134446886,3997730,360.325,27.97,97071.3,1.15337
134631066,134607757,3997730,360.518,27.96,97069.0,1.15334
134851668,134833983,3997730,360.455,27.97,97069.7,1.15335
135072823,135050183,3997730,360.671,27.97,97067.3,1.15332
135233755,135211008,3997730,360.476,27.97,97069.5,1.15335
135445665,135424780,3997730,360.478,27.97,97069.5,1.15335
135615880,135598172,3997730,360.325,27.98,97071.3,1.15337
135836817,135814103,3997730,360.714,27.98,97066.8,1.15331
136048015,136027790,3997730,360.605,27.98,97068.0,1.15333
136258877,136241219,3997730,360.864,27.98,97065.0,1.15329
136439841,136417221,3997730,360.714,27.98,97066.8,1.15331
136650952,136630806,3997730,360.605,27.98,97068.0,1.15333
136862055,136844436,3997730,360.692,27.98,97067.0,1.15332
137022869,137005189,3997730,360.37,27.98,97070.7,1.15336
137244093,137221423,3997730,360.563,27.99,97068.5,1.15333
137455232,137435106,3997730,360.518,27.99,97069.0,1.15334
137666303,137648650,3997730,360.756,27.99,97066.3,1.15331
137827264,137809435,3997730,360.777,27.99,97066.0,1.1533
138048531,138025800,3997730,360.885,27.99,97064.8,1.15329
138259537,138239379,3997730,360.801,27.99,97065.8,1.1533
138470705,138453002,3997730,360.973,27.99,97063.7,1.15328
138631466,138613828,3997730,360.843,27.99,97065.3,1.1533
138852685,138829991,3997730,360.605,27.99,97068.0,1.15333
139063990,139043781,3997730,360.777,28.0,97066.0,1.1533
139275180,139257492,3997730,360.412,28.0,97070.2,1.15336
139435914,139418302,3997730,360.542,27.99,97068.7,1.15334
139657106,139634390,3997730,360.37,28.0,97070.7,1.15336
139868320,139848078,3997730,360.93,28.0,97064.2,1.15328
140029543,140008895,3997730,360.521,28.0,97069.0,1.15334
140260335,140237684,3997730,360.78,28.0,97066.0,1.1533
140471338,140451190,3997730,360.671,28.0,97067.3,1.15332
140632230,140612032,3997730,360.238,28.0,97072.3,1.15338
140843818,140825742,3997730,360.196,28.01,97072.8,1.15338
141064623,141041924,3997730,360.346,28.01,97071.0,1.15336
141225741,141202857,3997730,360.434,28.01,97070.0,1.15335
141436620,141416460,3997730,360.584,28.0,97068.3,1.15333
141647984,141630306,3997730,360.864,28.01,97065.0,1.15329
141869029,141846375,3997730,360.521,28.01,97069.0,1.15334
142029719,142007079,3997730,360.735,28.01,97066.5,1.15331
142251067,142233385,3997730,360.756,28.01,97066.3,1.15331
142472307,142449507,3997730,360.605,28.01,97068.0,1.15333
142632937,142610287,3997730,360.412,28.01,97070.2,1.15336
142844156,142824021,3997730,360.563,28.01,97068.5,1.15333
143055215,143037562,3997730,360.391,28.01,97070.5,1.15336
143276253,143253628,3997730,360.196,28.01,97072.8,1.15338
143447239,143427089,3997730,360.304,28.02,97071.5,1.15337
143658414,143640767,3997730,360.175,28.02,97073.0,1.15339
143819483,143801779,3997730,360.304,28.02,97071.5,1.15337
144040700,144018034,3997730,360.283,28.02,97071.8,1.15337
144251801,144231673,3997730,360.756,28.02,97066.3,1.15331
144462888,144445264,3997730,360.455,28.02,97069.7,1.15335
144644012,144621290,3997730,360.93,28.02,97064.2,1.15328
144855138,144834932,3997730,360.735,28.02,97066.5,1.15331
145066341,145048717,3997730,360.78,28.02,97066.0,1.1533
145227241,145209570,3997730,361.081,28.02,97062.5,1.15326
145448318,145425589,3997730,360.885,28.03,97064.8,1.15329
145659376,145639102,3997730,360.714,28.03,97066.8,1.15331
145830144,145805975,3997730,360.64,28.03,97067.6,1.15332
146051373,146028694,3997730,360.885,28.03,97064.8,1.15329
146262472,146242228,3997730,360.714,28.03,97066.7,1.15331
146473572,146455871,3997730,360.928,28.03,97064.3,1.15328
146634339,146616704,3997730,360.735,28.03,97066.5,1.15331
146855442,146832791,3997730,360.777,28.03,97066.0,1.1533
147066672,147046491,3997730,360.78,28.03,97066.0,1.1533
147227567,147207388,3997730,360.93,28.03,97064.2,1.15328
147438763,147421152,3997730,360.756,28.04,97066.3,1.15331
147660050,147637356,3997730,360.906,28.04,97064.5,1.15329
147821386,147798290,3997730,360.648,28.04,97067.5,1.15332
148042211,148024580,3997730,361.102,28.04,97062.3,1.15326
148263530,148240881,3997730,360.801,28.04,97065.8,1.1533
148474640,148454433,3997730,360.994,28.04,97063.5,1.15327
148635491,148615312,3997730,360.671,28.04,97067.3,1.15332
148846473,148828832,3997730,360.777,28.04,97066.0,1.1533
149067828,149044989,3997730,360.973,28.04,97063.7,1.15328
149238581,149218421,3997730,360.973,28.04,97063.7,1.15328
149449853,149432149,3997730,360.584,28.04,97068.2,1.15333
149670971,149648283,3997730,360.629,28.05,97067.7,1.15333
149831777,149809108,3997730,360.238,28.05,97072.3,1.15338
150052945,150035284,3997730,360.626,28.05,97067.8,1.15333
150274203,150251323,3997730,360.542,28.05,97068.7,1.15334
150434927,150412249,3997730,360.412,28.04,97070.2,1.15336
150645995,150625827,3997730,360.196,28.05,97072.8,1.15338
150857113,150839501,3997730,360.153,28.05,97073.3,1.15339
151018062,151000381,3997730,360.346,28.05,97071.0,1.15336
151239472,151216787,3997730,360.304,28.05,97071.5,1.15337
151450714,151430561,3997730,360.671,28.05,97067.3,1.15332
151661858,151644229,3997730,360.455,28.05,97069.7,1.15335
151822755,151805108,3997730,360.542,28.06,97068.7,1.15334
152043891,152021232,3997730,360.346,28.06,97071.0,1.15336
152254992,152234850,3997730,360.605,28.06,97068.0,1.15333
152466162,152448547,3997730,360.756,28.06,97066.3,1.15331
152626948,152609320,3997730,360.434,28.06,97070.0,1.15335
152848179,152825545,3997730,360.626,28.06,97067.8,1.15333
153059182,153038991,3997730,360.563,28.06,97068.5,1.15333
153270202,153252450,3997730,360.5,28.06,97069.2,1.15334
153430851,153413226,3997730,360.843,28.06,97065.3,1.1533
153652218,153629436,3997730,360.801,28.06,97065.8,1.1533
153863308,153843078,3997730,360.542,28.07,97068.7,1.15334
154074490,154056758,3997730,360.563,28.06,97068.5,1.15333
154235402,154217724,3997730,360.518,28.07,97069.0,1.15334
154456522,154433854,3997730,360.238,28.07,97072.3,1.15338
154667600,154647469,3997730,360.37,28.07,97070.7,1.15336
154828984,154808276,3997730,360.37,28.07,97070.7,1.15336
155059641,155036948,3997730,360.238,28.07,97072.3,1.15338
155270995,155250549,3997730,360.563,28.07,97068.5,1.15333
155441599,155423960,3997730,360.325,28.07,97071.3,1.15337
155663363,155640191,3997730,360.391,28.07,97070.5,1.15336
155833980,155813669,3997730,360.801,28.08,97065.8,1.1533
156045033,156027358,3997730,360.542,28.08,97068.7,1.15334
156276322,156256181,3997730,360.542,28.08,97068.7,1.15334
156437510,156417077,3997730,360.521,28.08,97069.0,1.15334
156648388,156630647,3997730,360.648,28.09,97067.5,1.15332
156869336,156846626,3997730,360.478,28.08,97069.5,1.15335
157030363,157007630,3997730,360.521,28.08,97069.0,1.15334
157241258,157221111,3997730,360.434,28.08,97070.0,1.15335
157452302,157434636,3997730,360.5,28.09,97069.2,1.15334
157673521,157650765,3997730,360.605,28.09,97068.0,1.15333
157834482,157811855,3997730,360.434,28.09,97070.0,1.15335
158045557,158025446,3997730,360.542,28.09,97068.8,1.15334
158256717,158239014,3997730,360.885,28.09,97064.8,1.15329
158477800,158455150,3997730,360.605,28.1,97068.0,1.15333
158638692,158615951,3997730,360.885,28.1,97064.8,1.15329
158849711,158829550,3997730,360.542,28.1,97068.7,1.15334
159060863,159043061,3997730,361.099,28.09,97062.3,1.15326
159221648,159203997,3997730,361.123,28.1,97062.0,1.15326
159442999,159420237,3997730,360.864,28.1,97065.0,1.15329
159654037,159633800,3997730,360.864,28.1,97065.0,1.15329
159865717,159847579,3997730,361.123,28.1,97062.0,1.15326
160026068,160008433,3997730,360.909,28.11,97064.5,1.15329
160247185,160224516,3997730,360.822,28.1,97065.5,1.1533
160458247,160437998,3997730,360.843,28.11,97065.3,1.1533
160620371,160598902,3997730,361.015,28.11,97063.2,1.15327
160850237,160827571,3997730,360.692,28.11,97067.0,1.15332
161061531,161041285,3997730,360.692,28.11,97067.0,1.15332
161272657,161255049,3997730,360.584,28.11,97068.3,1.15333
161433550,161415886,3997730,360.626,28.11,97067.8,1.15333
161654665,161632047,3997730,360.153,28.11,97073.3,1.15339
161866088,161845686,3997730,360.605,28.12,97068.0,1.15333
162026807,162006532,3997730,360.478,28.11,97069.5,1.15335
162237928,162220191,3997730,360.605,28.12,97068.0,1.15333
162459058,162436409,3997730,360.714,28.12,97066.8,1.15331
162670722,162650212,3997730,360.78,28.12,97066.0,1.1533
162841373,162823589,3997730,361.21,28.12,97061.0,1.15325
163062418,163039672,3997730,361.081,28.12,97062.5,1.15326
163273627,163253508,3997730,361.337,28.12,97059.5,1.15323
163434841,163414574,3997730,361.165,28.13,97061.5,1.15325
163645774,163628135,3997730,360.973,28.12,97063.7,1.15328
163867476,163844178,3997730,360.994,28.13,97063.5,1.15327
164037712,164017573,3997730,361.21,28.13,97061.0,1.15325
164248796,164231162,3997730,361.057,28.13,97062.8,1.15327
164469898,164447232,3997730,361.253,28.13,97060.5,1.15324
164630743,164608119,3997730,361.165,28.14,97061.5,1.15325
164842122,164821957,3997730,361.232,28.13,97060.7,1.15324
165053209,165035578,3997730,361.06,28.14,97062.7,1.15327
165234226,165211561,3997730,361.165,28.14,97061.5,1.15325
165445367,165425204,3997730,361.102,28.14,97062.2,1.15326
165656571,165638910,3997730,361.144,28.14,97061.7,1.15325
165817306,165799644,3997730,361.337,28.14,97059.5,1.15323
166038509,166015697,3997730,361.49,28.15,97057.8,1.15321
166249524,166229340,3997730,361.165,28.14,97061.5,1.15325
166420533,166396245,3997730,360.951,28.15,97064.0,1.15328
166641627,166618897,3997730,360.93,28.15,97064.2,1.15328
166852853,166832567,3997730,360.93,28.15,97064.2,1.15328
167064015,167046343,3997730,360.692,28.15,97067.0,1.15332
167224931,167207282,3997730,360.756,28.15,97066.3,1.15331
167446199,167423393,3997730,360.951,28.15,97064.0,1.15328
167657395,167637125,3997730,361.189,28.16,97061.2,1.15325
167868491,167850827,3997730,361.039,28.16,97063.0,1.15327
168029616,168011783,3997730,361.165,28.16,97061.5,1.15325
168250657,168227871,3997730,361.081,28.16,97062.5,1.15326
168461669,168441538,3997730,361.9,28.16,97053.0,1.15315
168672923,168655235,3997730,361.575,28.16,97056.8,1.15319
168833734,168816130,3997730,361.942,28.16,97052.5,1.15314
169055162,169032382,3997730,361.985,28.16,97052.0,1.15314
169266205,169246069,3997730,361.9,28.17,97053.0,1.15315
169477462,169459789,3997730,361.921,28.17,97052.8,1.15315
169658229,169628078,3997730,361.866,28.17,97053.4,1.15315
169869636,169849344,3997730,361.578,28.17,97056.7,1.15319
170030691,170010232,3997730,361.771,28.17,97054.5,1.15317
170241585,170223858,3997730,361.813,28.17,97054.0,1.15316
170462763,170439948,3997730,361.855,28.17,97053.5,1.15316
170673816,170653633,3997730,361.424,28.17,97058.5,1.15322
170834755,170814607,3997730,361.424,28.17,97058.5,1.15322
171046165,171028389,3997730,361.942,28.17,97052.5,1.15314
171267149,171244507,3997730,361.641,28.17,97056.0,1.15319
171428091,171405310,3997730,361.575,28.18,97056.8,1.15319
171639161,171618891,3997730,361.469,28.18,97058.0,1.15321
171850148,171832461,3997730,360.93,28.18,97064.2,1.15328
172071664,172048834,3997730,360.909,28.18,97064.5,1.15329
172232344,172209606,3997730,360.822,28.18,97065.5,1.1533
172443569,172423368,3997730,360.801,28.18,97065.8,1.1533
172654597,172636859,3997730,361.057,28.18,97062.8,1.15327
172875612,172852847,3997730,361.102,28.18,97062.2,1.15326
173036310,173013661,3997730,360.756,28.19,97066.3,1.15331
173247305,173227174,3997730,361.099,28.19,97062.3,1.15326
173458420,173440724,3997730,360.843,28.19,97065.3,1.1533
173619370,173601648,3997730,360.973,28.19,97063.8,1.15328
173850662,173830527,3997730,360.864,28.19,97065.0,1.15329
174061756,174044147,3997730,361.123,28.19,97062.0,1.15326
174222808,174204952,3997730,361.123,28.19,97062.0,1.15326
174443784,174421043,3997730,361.102,28.19,97062.2,1.15326
174655056,174634841,3997730,360.906,28.19,97064.5,1.15329
174866210,174848583,3997730,361.123,28.2,97062.0,1.15326
175027006,175009395,3997730,361.295,28.2,97060.0,1.15323
175248402,175225602,3997730,361.165,28.2,97061.5,1.15325
175459683,175439481,3997730,361.316,28.2,97059.8,1.15323
175670957,175653227,3997730,361.319,28.2,97059.7,1.15323
175851849,175821589,3997730,361.398,28.2,97058.8,1.15322
176062934,176042700,3997730,361.662,28.2,97055.8,1.15318
176234026,176209631,3997730,361.176,28.2,97061.4,1.15325
176455157,176432435,3997730,361.144,28.2,97061.8,1.15325
176666251,176646089,3997730,361.232,28.2,97060.7,1.15324
176877508,176859810,3997730,361.21,28.2,97061.0,1.15325
177038579,177020764,3997730,361.081,28.2,97062.5,1.15326
177259589,177236909,3997730,361.165,28.2,97061.5,1.15325
177470885,177450657,3997730,361.274,28.2,97060.3,1.15324
177631664,177611515,3997730,361.382,28.2,97059.0,1.15322
177863002,177832722,3997730,361.675,28.21,97055.6,1.15318
178074258,178054033,3997730,361.768,28.21,97054.5,1.15317
178235013,178214830,3997730,361.596,28.21,97056.5,1.15319
178446130,178428486,3997730,361.985,28.21,97052.0,1.15314
178667252,178644576,3997730,361.747,28.21,97054.8,1.15317
178828102,178805367,3997730,361.792,28.21,97054.3,1.15316
179039604,179019004,3997730,361.662,28.21,97055.8,1.15318
179270303,179247607,3997730,361.813,28.22,97054.0,1.15316
179431687,179408571,3997730,361.596,28.22,97056.5,1.15319
179652508,179634874,3997730,361.446,28.22,97058.3,1.15321
179873826,179851093,3997730,361.446,28.22,97058.3,1.15321
180034658,180011956,3997730,360.885,28.22,97064.8,1.15329
180245857,180225685,3997730,361.512,28.22,97057.5,1.1532
180456849,180439234,3997730,361.726,28.22,97055.0,1.15317
180678073,180655447,3997730,361.337,28.22,97059.5,1.15323
180838915,180816262,3997730,361.144,28.22,97061.8,1.15325
181050198,181030009,3997730,360.864,28.23,97065.0,1.15329
181261241,181243569,3997730,360.906,28.22,97064.5,1.15329
181422179,181404537,3997730,361.295,28.22,97060.0,1.15323
181653490,181633250,3997730,361.253,28.23,97060.5,1.15324
181864782,181846940,3997730,361.253,28.23,97060.5,1.15324
182025393,182007763,3997730,361.62,28.23,97056.3,1.15319
182246500,182223760,3997730,361.49,28.23,97057.8,1.15321
182457550,182437403,3997730,361.747,28.23,97054.8,1.15317
182668771,182651057,3997730,361.662,28.23,97055.8,1.15318
182829750,182812070,3997730,361.62,28.23,97056.3,1.15319
183050876,183028240,3997730,361.424,28.23,97058.5,1.15322
183261910,183241755,3997730,361.855,28.23,97053.5,1.15316
183473280,183455540,3997730,362.072,28.24,97051.0,1.15313
183654439,183624165,3997730,362.244,28.23,97049.0,1.1531
183865515,183845315,3997730,361.446,28.23,97058.3,1.15321
184076595,184058989,3997730,361.232,28.24,97060.8,1.15324
184237686,184219942,3997730,361.446,28.23,97058.3,1.15321
184458801,184436154,3997730,361.446,28.24,97058.3,1.15321
184669790,184649664,3997730,360.864,28.24,97065.0,1.15329
184831221,184810471,3997730,360.93,28.24,97064.2,1.15328
185041776,185024047,3997730,360.692,28.24,97067.0,1.15332
185262788,185240131,3997730,360.217,28.24,97072.5,1.15338
185473887,185453599,3997730,360.262,28.24,97072.0,1.15338
185635587,185614451,3997730,360.777,28.24,97066.0,1.1533
185865744,185843116,3997730,360.822,28.24,97065.5,1.1533
186026678,186003941,3997730,361.295,28.25,97060.0,1.15323
186237883,186217665,3997730,361.467,28.25,97058.0,1.15321
186449057,186431378,3997730,361.855,28.25,97053.5,1.15316
186670117,186647370,3997730,362.03,28.25,97051.5,1.15313
186831272,186808347,3997730,362.415,28.25,97047.0,1.15308
187052209,187034528,3997730,362.653,28.25,97044.2,1.15305
187273337,187250679,3997730,362.524,28.25,97045.7,1.15306
187434349,187411528,3997730,362.611,28.25,97044.7,1.15305
187645495,187625242,3997730,362.59,28.25,97045.0,1.15306
187856592,187838874,3997730,362.653,28.25,97044.2,1.15305
188077628,188054892,3997730,362.653,28.26,97044.2,1.15305
188238353,188215684,3997730,362.481,28.25,97046.3,1.15307
188449374,188429234,3997730,362.632,28.25,97044.5,1.15305
188660655,188643048,3997730,361.876,28.26,97053.3,1.15315
188821544,188803870,3997730,361.987,28.26,97052.0,1.15314
189042797,189020148,3997730,361.834,28.26,97053.8,1.15316
189253977,189233807,3997730,361.726,28.26,97055.0,1.15317
189465074,189447465,3997730,361.62,28.26,97056.3,1.15319
189625885,189608262,3997730,361.49,28.26,97057.8,1.15321
189847229,189824561,3997730,361.554,28.26,97057.0,1.1532
190058404,190038265,3997730,361.424,28.26,97058.5,1.15322
190269503,190251874,3997730,361.274,28.26,97060.3,1.15324
190430389,190412744,3997730,361.533,28.26,97057.3,1.1532
190661762,190641591,3997730,361.424,28.27,97058.5,1.15322
190872782,190855125,3997730,361.446,28.27,97058.3,1.15321
191053828,191031095,3997730,361.361,28.27,97059.3,1.15322
191265108,191244924,3997730,361.641,28.27,97056.0,1.15319
191476255,191458632,3997730,361.533,28.27,97057.3,1.1532
191637061,191619417,3997730,361.382,28.27,97059.0,1.15322
191858244,191835606,3997730,361.424,28.27,97058.5,1.15322
192069342,192049129,3997730,361.469,28.27,97058.0,1.15321
192240135,192215980,3997730,361.501,28.28,97057.6,1.1532
192461507,192438830,3997730,361.554,28.28,97057.0,1.1532
192672679,192652345,3997730,361.446,28.28,97058.3,1.15321
192833558,192813400,3997730,361.921,28.28,97052.8,1.15315
193065458,193034694,3997730,361.847,28.28,97053.6,1.15316
193235825,193215676,3997730,361.876,28.28,97053.3,1.15315
193446982,193429297,3997730,361.771,28.28,97054.5,1.15317
193668306,193645566,3997730,361.575,28.28,97056.8,1.15319
193829035,193806353,3997730,361.747,28.28,97054.8,1.15317
194040090,194019972,3997730,361.446,28.28,97058.3,1.15321
194251189,194233384,3997730,361.512,28.28,97057.5,1.1532
194472205,194449505,3997730,361.424,28.29,97058.5,1.15322
194633099,194610305,3997730,361.683,28.28,97055.5,1.15318
194844361,194823994,3997730,361.361,28.28,97059.2,1.15322
195055424,195037777,3997730,361.512,28.29,97057.5,1.1532
195276663,195253926,3997730,361.253,28.28,97060.5,1.15324
195437636,195414738,3997730,361.295,28.29,97060.0,1.15323
195648536,195628387,3997730,361.21,28.29,97061.0,1.15325
195860345,195842141,3997730,361.144,28.29,97061.7,1.15325
196020654,196003021,3997730,361.253,28.29,97060.5,1.15324
196241926,196219179,3997730,361.382,28.29,97059.0,1.15322
196452920,196432726,3997730,361.382,28.3,97059.0,1.15322
196664312,196646525,3997730,361.382,28.29,97059.0,1.15322
196845113,196822474,3997730,361.599,28.29,97056.5,1.15319
197056187,197036056,3997730,361.123,28.29,97062.0,1.15326
197267339,197249695,3997730,361.337,28.3,97059.5,1.15323
197428124,197410472,3997730,361.469,28.29,97058.0,1.15321
197649333,197626671,3997730,361.165,28.3,97061.5,1.15325
197860421,197840255,3997730,361.081,28.3,97062.5,1.15326
198071522,198053915,3997730,361.295,28.3,97060.0,1.15323
198232363,198214680,3997730,361.554,28.3,97057.0,1.1532
198453310,198430646,3997730,361.274,28.3,97060.3,1.15324
198664585,198644263,3997730,361.316,28.3,97059.8,1.15323
198875596,198857935,3997730,361.446,28.3,97058.3,1.15321
199036442,199018734,3997730,361.144,28.3,97061.8,1.15325
199257485,199234822,3997730,361.662,28.3,97055.8,1.15318
199468784,199448544,3997730,361.641,28.3,97056.0,1.15319
199629780,199609369,3997730,361.704,28.31,97055.3,1.15318
199840677,199823011,3997730,361.726,28.3,97055.0,1.15317
200062113,200039196,3997730,361.876,28.31,97053.3,1.15315
200272952,200252814,3997730,361.596,28.31,97056.5,1.15319
200434486,200413624,3997730,362.006,28.31,97051.8,1.15314
200675342,200655050,3997730,361.792,28.31,97054.3,1.15316
200836636,200815905,3997730,361.704,28.31,97055.3,1.15318
201027011,201004370,3997730,361.554,28.31,97057.0,1.1532
201238074,201217767,3997730,361.403,28.31,97058.7,1.15322
201449166,201431475,3997730,361.641,28.31,97056.0,1.15319
201671106,201647593,3997730,361.144,28.31,97061.7,1.15325
201841173,201821025,3997730,361.295,28.31,97060.0,1.15323
202052224,202034596,3997730,361.189,28.31,97061.2,1.15325
202233296,202210535,3997730,361.144,28.31,97061.8,1.15325
202444430,202424220,3997730,361.49,28.31,97057.8,1.15321
202655494,202637862,3997730,361.274,28.32,97060.3,1.15324
202816492,202798807,3997730,361.403,28.32,97058.7,1.15322
203037729,203015059,3997730,361.232,28.31,97060.8,1.15324
203248733,203228600,3997730,361.015,28.32,97063.3,1.15327
203459944,203442256,3997730,361.21,28.32,97061.0,1.15325
203620816,203603122,3997730,361.424,28.32,97058.5,1.15322
203852074,203831800,3997730,361.274,28.32,97060.3,1.15324
204063386,204045645,3997730,361.641,28.32,97056.0,1.15319
204244395,204221619,3997730,361.469,28.32,97058.0,1.15321
204455456,204435301,3997730,361.21,28.32,97061.0,1.15325
204666480,204648865,3997730,361.232,28.32,97060.8,1.15324
204827510,204809704,3997730,361.382,28.32,97059.0,1.15322
205048699,205026034,3997730,360.801,28.32,97065.8,1.1533
205259944,205239723,3997730,360.735,28.32,97066.5,1.15331
205471099,205453459,3997730,360.714,28.32,97066.8,1.15331
205631846,205614233,3997730,361.039,28.32,97063.0,1.15327
205853088,205830437,3997730,360.843,28.32,97065.3,1.1533
206064366,206044136,3997730,361.144,28.32,97061.7,1.15325
206275358,206257729,3997730,361.102,28.33,97062.2,1.15326
206436169,206418556,3997730,361.123,28.32,97062.0,1.15326
206657586,206634782,3997730,361.081,28.32,97062.5,1.15326
206868756,206848452,3997730,361.295,28.32,97060.0,1.15323
207029525,207009382,3997730,361.232,28.33,97060.7,1.15324
207240628,207222985,3997730,361.274,28.33,97060.3,1.15324
207461825,207439148,3997730,361.337,28.33,97059.5,1.15323
207672996,207652869,3997730,361.469,28.33,97058.0,1.15321
207834033,207813776,3997730,361.469,28.33,97058.0,1.15321
208044964,208027277,3997730,361.036,28.32,97063.0,1.15327
208266112,208243449,3997730,361.49,28.33,97057.8,1.15321
208426896,208404223,3997730,360.885,28.33,97064.8,1.15329
208637973,208617684,3997730,360.909,28.33,97064.5,1.15329
208848903,208831164,3997730,360.885,28.33,97064.8,1.15329
209070247,209047403,3997730,360.648,28.33,97067.5,1.15332
209231045,209208367,3997730,360.994,28.33,97063.5,1.15327
209442238,209422078,3997730,361.015,28.33,97063.2,1.15327
209653522,209635728,3997730,360.777,28.33,97066.0,1.1533
209874584,209851837,3997730,361.123,28.33,97062.0,1.15326
210035334,210012672,3997730,360.843,28.33,97065.3,1.1533
210246518,210226311,3997730,361.165,28.34,97061.5,1.15325
210457670,210440020,3997730,361.337,28.33,97059.5,1.15323
210618564,210600932,3997730,361.081,28.34,97062.5,1.15326
210849902,210829705,3997730,361.102,28.33,97062.2,1.15326
211060911,211043292,3997730,361.187,28.33,97061.3,1.15325
211241909,211219261,3997730,361.253,28.33,97060.5,1.15324
211453071,211432929,3997730,360.885,28.34,97064.8,1.15329
211664348,211646728,3997730,361.187,28.33,97061.3,1.15325
211825307,211807581,3997730,361.295,28.34,97060.0,1.15323
212046500,212023803,3997730,361.274,28.33,97060.2,1.15324
212257650,212237499,3997730,360.909,28.34,97064.5,1.15329
212468800,212451149,3997730,361.036,28.34,97063.0,1.15327
212629899,212612147,3997730,361.21,28.34,97061.0,1.15325
212851085,212828380,3997730,361.274,28.34,97060.3,1.15324
213062134,213041957,3997730,361.596,28.34,97056.5,1.15319
213273342,213255674,3997730,361.49,28.34,97057.8,1.15321
213434179,213416471,3997730,361.512,28.35,97057.5,1.1532
213655492,213632692,3997730,361.771,28.34,97054.5,1.15317
213866588,213846321,3997730,361.21,28.34,97061.0,1.15325
214027304,214007127,3997730,361.274,28.34,97060.3,1.15324
214238601,214220858,3997730,361.361,28.34,97059.3,1.15322
214459676,214436986,3997730,361.512,28.34,97057.5,1.1532
214671019,214650771,3997730,361.123,28.34,97062.0,1.15326
214832056,214811776,3997730,360.909,28.34,97064.5,1.15329
215043331,215025534,3997730,360.801,28.34,97065.8,1.1533
215264349,215241637,3997730,360.994,28.35,97063.5,1.15327
215425218,215402481,3997730,361.036,28.35,97063.0,1.15327
215636415,215616276,3997730,361.361,28.34,97059.3,1.15322
215847471,215829862,3997730,361.274,28.35,97060.2,1.15324
216068690,216045983,3997730,361.21,28.34,97061.0,1.15325
216229529,216206881,3997730,361.446,28.35,97058.2,1.15321
216440664,216420522,3997730,361.015,28.35,97063.2,1.15327
216651745,216634117,3997730,361.015,28.35,97063.2,1.15327
216873038,216850325,3997730,360.648,28.35,97067.5,1.15332
217033923,217011241,3997730,360.973,28.35,97063.8,1.15328
217245028,217224908,3997730,360.735,28.35,97066.5,1.15331
217456081,217438450,3997730,360.735,28.35,97066.5,1.15331
217677663,217654478,3997730,360.756,28.35,97066.3,1.15331
217848086,217827914,3997730,360.756,28.35,97066.3,1.15331
218059464,218041628,3997730,360.605,28.35,97068.0,1.15333
218220344,218202705,3997730,360.843,28.35,97065.3,1.1533
218441492,218418753,3997730,360.5,28.35,97069.2,1.15334
218662525,218644864,3997730,360.5,28.35,97069.2,1.15334
218823295,218805619,3997730,360.714,28.35,97066.8,1.15331
219044412,219021777,3997730,360.37,28.36,97070.7,1.15336
219255584,219235408,3997730,360.605,28.35,97068.0,1.15333
219466758,219449138,3997730,360.843,28.36,97065.3,1.1533
219627706,219610068,3997730,360.735,28.36,97066.5,1.15331
219848864,219826241,3997730,360.93,28.36,97064.2,1.15328
220059987,220039852,3997730,361.015,28.36,97063.2,1.15327
220271492,220253689,3997730,361.015,28.36,97063.2,1.15327
220432188,220414554,3997730,361.189,28.36,97061.2,1.15325
220663351,220643181,3997730,360.885,28.36,97064.8,1.15329
220874616,220856902,3997730,361.039,28.36,97063.0,1.15327
221055365,221032695,3997730,361.102,28.36,97062.2,1.15326
221266512,221246392,3997730,360.671,28.37,97067.2,1.15332
221477751,221459998,3997730,360.822,28.36,97065.5,1.1533
221638639,221620933,3997730,361.081,28.36,97062.5,1.15326
221860027,221837246,3997730,361.102,28.37,97062.2,1.15326
222071228,222050997,3997730,360.951,28.37,97064.0,1.15328
222232144,222211769,3997730,361.081,28.37,97062.5,1.15326
222443269,222425558,3997730,361.123,28.37,97062.0,1.15326
222674369,222654188,3997730,360.973,28.37,97063.7,1.15328
222835069,222814931,3997730,360.756,28.37,97066.3,1.15331
223046117,223028481,3997730,360.994,28.37,97063.5,1.15327
223267396,223244602,3997730,361.039,28.37,97063.0,1.15327
223428508,223405531,3997730,360.692,28.37,97067.0,1.15332
223639344,223619206,3997730,360.584,28.38,97068.3,1.15333
223850565,223832907,3997730,360.563,28.37,97068.5,1.15333
224071702,224049022,3997730,360.756,28.38,97066.3,1.15331
224232595,224209928,3997730,360.325,28.38,97071.3,1.15337
224443579,224423450,3997730,360.153,28.38,97073.3,1.15339
224654758,224637050,3997730,360.412,28.38,97070.2,1.15336
224835760,224813078,3997730,360.175,28.38,97073.0,1.15339
225047047,225026839,3997730,360.325,28.38,97071.3,1.15337
225258130,225240470,3997730,360.671,28.38,97067.3,1.15332
225419147,225401379,3997730,360.175,28.38,97073.0,1.15339
225650353,225630076,3997730,360.735,28.38,97066.5,1.15331
225862035,225843805,3997730,360.455,28.38,97069.7,1.15335
226022433,226004718,3997730,360.584,28.38,97068.3,1.15333
226243639,226220916,3997730,361.039,28.39,97063.0,1.15327
226454739,226434591,3997730,361.06,28.38,97062.7,1.15327
226666020,226648253,3997730,361.144,28.38,97061.8,1.15325
226826771,226809124,3997730,360.909,28.38,97064.5,1.15329
227048107,227025274,3997730,361.165,28.38,97061.5,1.15325
227269120,227251456,3997730,360.973,28.38,97063.7,1.15328
227429921,227412247,3997730,361.446,28.38,97058.2,1.15321
227661049,227640872,3997730,361.274,28.39,97060.3,1.15324
227872179,227854522,3997730,360.906,28.38,97064.5,1.15329
228033068,228015401,3997730,360.801,28.39,97065.8,1.1533
