timestamp,timestamp_sample,accel_device_id,gyro_device_id,delta_angle[0],delta_angle[1],delta_angle[2],delta_velocity[0],delta_velocity[1],delta_velocity[2],delta_angle_dt,delta_velocity_dt,delta_velocity_clipping
21872388,21872048,3670026,3670026,-0.000232397,0.000141057,-1.80177e-05,-0.00207357,0.000875264,-0.0486814,4966,4966,0
21877411,21877015,3670026,3670026,3.87857e-05,-4.9475e-05,5.91417e-05,-0.000127682,0.000314677,-0.0474279,4967,4967,0
22374152,22373779,3670026,3670026,0.000443337,0.000391444,-0.000224772,0.00254289,0.000864227,-0.049248,4990,4990,0
22875625,22875209,3670026,3670026,0.00026282,-0.00145926,0.000234476,0.00114912,0.00210289,-0.0484685,4965,4965,0
23377207,23376790,3670026,3670026,-0.000376574,0.000262395,0.000612537,-0.00222358,0.00429612,-0.053831,4967,4967,0
23878757,23878378,3670026,3670026,0.000286848,0.000244177,0.000446696,-0.00244523,-5.6486e-05,-0.0510605,4972,4972,0
24375359,24374986,3670026,3670026,0.000465176,-0.00032817,-0.000319085,0.00536383,-0.00911037,-0.0481461,4959,4959,0
24871955,24871603,3670026,3670026,-0.000833532,0.00058342,0.000775781,0.00507365,0.0102325,-0.0453362,4967,4967,0
25373533,25373183,3670026,3670026,-0.00210398,0.000810821,0.000388619,0.0022689,0.00518259,-0.0504688,4966,4966,0
25875260,25874874,3670026,3670026,0.000976866,-0.0014145,0.000192524,0.0204788,0.000277652,-0.0347412,4985,4985,0
26376729,26376348,3670026,3670026,0.000454198,0.000171142,0.00017009,-0.00807541,-0.000509697,-0.0559893,4967,4967,0
26873334,26872962,3670026,3670026,0.000467713,2.74197e-06,-0.000332673,-0.00165922,-0.00331636,-0.0478272,4966,4966,0
27374864,27374544,3670026,3670026,-0.000115111,-6.57523e-05,0.000911326,0.00793348,-0.00219889,-0.0502653,4966,4966,0
27871532,27871160,3670026,3670026,0.000357463,-8.75184e-05,-0.000116952,0.00235935,-0.00803328,-0.0492907,4961,4961,0
28373128,28372742,3670026,3670026,0.00038293,-0.000276185,-0.000889224,0.000736922,-0.00371095,-0.047787,4965,4965,0
28874754,28874362,3670026,3670026,-0.00107837,-0.000473891,0.000211153,-0.00447417,-0.00140219,-0.0516631,4946,4946,0
29376449,29376034,3670026,3670026,-0.000972108,0.000711661,0.000490632,-0.007723,0.0127889,-0.0551083,4991,4991,0
29877830,29877504,3670026,3670026,0.000107909,-0.000626079,-0.00115569,-0.00582184,-0.0271368,-0.0566464,4981,4981,0
30374437,30374105,3670026,3670026,0.000628838,-0.00108028,-0.000922481,0.00596609,-0.0239601,-0.0416172,4965,4965,0
30876017,30875688,3670026,3670026,-0.000406744,0.000681947,0.000414444,7.53555e-05,0.0146801,-0.034137,4965,4965,0
31372689,31372311,3670026,3670026,0.000131309,0.00033214,-0.00063946,-0.00840648,-0.0166183,-0.0551793,4973,4973,0
31874280,31873888,3670026,3670026,0.000298355,0.000829265,-0.000843662,0.00240653,-0.00149372,-0.0438049,4963,4963,0
32375901,32375472,3670026,3670026,-0.000534257,9.97155e-05,0.000929163,-0.00379902,0.00962367,-0.0508075,4969,4969,0
32872624,32872211,3670026,3670026,0.000472745,-0.000693419,-0.000873077,-0.00458751,-0.0362522,-0.0538845,4983,4983,0
33374005,33373674,3670026,3670026,-0.000184082,5.59458e-05,0.000598867,-0.00832079,0.0200156,-0.0602187,4967,4967,0
33875663,33875251,3670026,3670026,-3.75807e-05,-0.00104028,-0.000588147,0.0014362,-0.0153064,-0.0461107,4962,4962,0
34377211,34376834,3670026,3670026,0.0018054,9.31054e-05,-0.000360054,-0.000231547,-0.00816137,-0.0436514,4966,4966,0
34873782,34873451,3670026,3670026,-6.24849e-05,-0.000361404,-0.000506103,-0.00837831,-0.0229947,-0.0593798,4966,4966,0
35375424,35375083,3670026,3670026,-0.000343818,1.63352e-05,-0.000358996,0.00480574,-0.00551005,-0.0454023,5015,5015,0
35871996,35871651,3670026,3670026,0.000484778,-0.000536403,-0.000344779,0.00116969,-0.0128981,-0.0423199,4954,4954,0
36373758,36373383,3670026,3670026,-0.00190326,0.000410246,0.000205735,-0.0119314,0.00562077,-0.0606677,5002,5002,0
36875185,36874818,3670026,3670026,-0.00036432,7.7379e-05,0.000344243,0.0039886,0.0138542,-0.0454687,4965,4965,0
37376769,37376401,3670026,3670026,-0.00331868,0.000161394,0.00113492,-0.00725226,-0.000218356,-0.0519425,4967,4967,0
37878314,37877988,3670026,3670026,-0.00075548,-0.000112704,0.00111687,-0.000457327,0.0158246,-0.0469728,4967,4967,0
38374960,38374637,3670026,3670026,0.000753804,-0.000612707,-0.000799581,0.00389707,-0.0212507,-0.048714,4994,4994,0
38871611,38871219,3670026,3670026,0.00222293,-0.000779641,-0.00161435,0.00364038,-0.0324474,-0.0501326,4966,4966,0
39373154,39372804,3670026,3670026,-0.000691199,-5.06137e-05,-0.000144517,-0.00287056,-0.0175098,-0.0477085,4968,4968,0
39874952,39874585,3670026,3670026,-0.000340743,-0.000574962,0.000313427,-0.000872589,0.00428237,-0.0449885,4999,4999,0
40376347,40375972,3670026,3670026,0.002373,-0.000487704,-0.00165401,0.00396204,-0.0304365,-0.0467143,4968,4968,0
40877882,40877553,3670026,3670026,0.000267605,-9.80223e-07,-0.000869419,0.00342796,-0.0119373,-0.0470846,4966,4966,0
41374523,41374190,3670026,3670026,-0.000635695,0.000538676,0.000968772,-0.000945066,0.0227591,-0.0472791,4975,4975,0
41871159,41870788,3670026,3670026,-0.00138367,0.000614761,0.00097057,-0.00818786,0.016228,-0.0518024,4966,4966,0
42372816,42372379,3670026,3670026,-0.000816702,0.00075538,0.00152407,-0.00179359,-0.0143774,-0.0525423,4973,4973,0
42874311,42873959,3670026,3670026,-0.00080468,-0.000135374,1.43429e-05,-0.00538955,-0.0115002,-0.0510671,4964,4964,0
43376150,43375721,3670026,3670026,-0.00141166,0.000902385,0.00109312,-0.00719312,0.0322666,-0.0543093,4950,4950,0
43877524,43877186,3670026,3670026,-2.39768e-05,-0.000127504,0.000438794,-0.00618056,-0.00148769,-0.0528234,5004,5004,0
44374075,44373743,3670026,3670026,-0.00073632,-3.62456e-05,7.45004e-05,-0.00966954,-0.00718832,-0.061975,4965,4965,0
44875696,44875326,3670026,3670026,-0.000508482,2.08784e-05,0.000604818,0.00224178,-0.00152638,-0.0397895,4966,4966,0
45372365,45371948,3670026,3670026,0.000583683,-0.000313515,-0.00151138,-0.000236313,-0.0318538,-0.0533113,4970,4970,0
45873969,45873577,3670026,3670026,0.000672161,-0.000405287,-0.000995065,0.00447157,-0.015354,-0.0471359,5015,5015,0
46375465,46375127,3670026,3670026,0.00110098,-3.57392e-05,-0.000386882,0.00906197,-0.000838703,-0.0424544,4948,4948,0
46877327,46876898,3670026,3670026,-0.000500984,0.00111751,0.000644847,-0.00807227,-0.00949066,-0.0552877,4999,4999,0
47373688,47373318,3670026,3670026,0.00184974,-0.000363919,-0.00100348,0.0102756,-0.0109535,-0.0391617,4943,4943,0
47875288,47874908,3670026,3670026,0.00105704,0.000341497,-0.000138115,0.00713551,0.00243962,-0.0395024,4974,4974,0
48376807,48376484,3670026,3670026,-0.000632105,6.16453e-05,-0.000243728,-0.0118197,-0.0114248,-0.0595751,4965,4965,0
48873465,48873140,3670026,3670026,-0.000553966,-8.23119e-06,-0.000392045,-0.00337623,-0.00435423,-0.0523714,5003,5003,0
49375017,49374688,3670026,3670026,-8.82996e-07,-0.000585999,-0.000191763,-0.000679516,-0.0121187,-0.0515178,4967,4967,0
49876660,49876272,3670026,3670026,0.000696884,-0.000305268,0.000477992,0.00224966,0.00674694,-0.0442102,4966,4966,0
50373500,50373074,3670026,3670026,0.000938047,-0.000454891,-0.000345164,0.00629227,-0.0089518,-0.0450331,4991,4991,0
50874918,50874540,3670026,3670026,-0.000482389,-9.24499e-05,0.000178947,-0.00899508,-0.00755675,-0.0553838,4984,4984,0
51376381,51376060,3670026,3670026,0.000230733,0.00041629,0.000464237,-0.00395069,0.0109982,-0.0461021,4965,4965,0
51877971,51877645,3670026,3670026,-0.000842668,0.000356484,0.00109032,0.00429257,0.0289234,-0.0410677,4966,4966,0
52374639,52374268,3670026,3670026,-0.000921837,0.000460472,-0.000105475,-0.0102949,0.00771218,-0.062126,4970,4970,0
52876274,52875910,3670026,3670026,-0.00148649,0.000324008,0.000131593,-0.00658189,0.00670933,-0.0545748,4961,4961,0
53372848,53372468,3670026,3670026,0.000405504,0.000110714,0.00053103,-0.000357982,0.0190157,-0.0515706,4964,4964,0
53874401,53874055,3670026,3670026,-0.00114487,0.000211946,-0.000156474,-0.00919122,-0.0132951,-0.0581909,4790,4790,0
54376064,54375670,3670026,3670026,7.80102e-05,0.000115246,0.000291753,0.00240217,0.00807618,-0.0383362,4985,4985,0
54877590,54877224,3670026,3670026,-0.000878253,0.000527659,0.00100994,0.000608222,0.0311203,-0.0463546,4967,4967,0
55374214,55373842,3670026,3670026,-0.00115072,0.000834519,0.00101361,-0.00913077,0.0273961,-0.0595417,4966,4966,0
55875773,55875444,3670026,3670026,-0.00159145,0.000962072,0.000761203,-0.0154217,0.0168249,-0.0626499,4987,4987,0
56372466,56372052,3670026,3670026,-0.00181678,0.00127356,0.000891496,-0.0119866,0.0130613,-0.0567286,4972,4972,0
56874026,56873684,3670026,3670026,-0.000708732,-0.000425124,0.000158798,-0.00378196,-0.00383064,-0.0497739,5018,5018,0
57375601,57375217,3670026,3670026,-0.000527735,0.000411424,0.000760351,-0.0119541,0.000170827,-0.0530683,4963,4963,0
57877224,57876849,3670026,3670026,0.000397414,0.000790882,-0.000312334,-0.00463422,-0.00931268,-0.0568216,4987,4987,0
58373792,58373422,3670026,3670026,-0.0012909,0.000495207,0.00110632,0.00111482,0.0278439,-0.0496046,4966,4966,0
58875339,58875008,3670026,3670026,0.000223391,0.000443646,0.000760653,0.00184679,0.0112279,-0.0432194,4966,4966,0
59372017,59371641,3670026,3670026,-0.000409172,-0.000636744,0.00067259,-0.00432968,0.0143889,-0.0496106,4976,4976,0
59873580,59873215,3670026,3670026,-0.000536129,0.00112766,0.00138406,-0.00113623,0.0342183,-0.0470479,4954,4954,0
60375151,60374799,3670026,3670026,-0.000453974,0.000501319,0.000884466,-0.00373799,0.00605293,-0.051237,4966,4966,0
60876734,60876396,3670026,3670026,-0.000405945,-0.000554439,-0.00062032,-0.0096076,-0.0154064,-0.0504744,4978,4978,0
61373431,61373108,3670026,3670026,0.000906446,-0.000287011,0.000255582,0.000269943,-0.00582794,-0.0452698,5000,5000,0
61874917,61874591,3670026,3670026,-0.000300294,-4.49733e-05,0.00133516,0.00179719,0.0286271,-0.0438499,4961,4961,0
62376500,62376176,3670026,3670026,0.000621689,0.00120805,0.0011176,-0.00566907,0.0281017,-0.0553225,4955,4955,0
62873131,62872796,3670026,3670026,-0.000363443,0.000411248,0.000461837,-0.00692343,0.00513991,-0.0512365,4966,4966,0
63374703,63374382,3670026,3670026,-0.000528577,-0.000653135,-0.000540218,0.00154729,-0.0184744,-0.0421893,4966,4966,0
63876314,63875968,3670026,3670026,0.000618495,1.6804e-05,0.000396902,0.0104555,0.0126787,-0.0334052,4966,4966,0
64372975,64372588,3670026,3670026,0.00141778,-0.000789728,-0.000894472,0.00697355,-0.0169551,-0.0381158,4961,4961,0
64874696,64874286,3670026,3670026,-4.12475e-05,0.0010482,0.00052893,-0.00576374,0.0214613,-0.0513387,4987,4987,0
65376094,65375767,3670026,3670026,0.000167817,-0.00152571,0.000349555,-0.00162014,0.0105812,-0.0482313,4973,4973,0
65877772,65877347,3670026,3670026,0.00107554,0.000477951,0.000806456,0.00386728,0.0158344,-0.046038,4913,4913,0
66374345,66373967,3670026,3670026,-0.00105619,0.00256162,0.00118796,-0.0120329,0.019284,-0.0560911,4961,4961,0
66876067,66875553,3670026,3670026,0.00107011,0.000293208,4.0665e-05,0.00132742,0.00230565,-0.0379739,4966,4966,0
67372517,67372173,3670026,3670026,0.000185073,-0.000617534,0.000158919,0.00851628,0.0107358,-0.0415014,4966,4966,0
67874154,67873766,3670026,3670026,0.000484293,-0.000181523,-0.000645123,0.00116321,-0.0105142,-0.0478343,4972,4972,0
68375786,68375420,3670026,3670026,0.000295084,0.000550957,-0.00118015,-0.00276778,-0.0183135,-0.0556234,4986,4986,0
68877309,68876938,3670026,3670026,0.000131367,-3.72243e-05,-0.000690154,-0.0107464,-0.0213615,-0.0617477,4971,4971,0
69373886,69373554,3670026,3670026,0.000577825,-0.00051638,0.000356609,-5.42339e-05,0.0080056,-0.0400691,4966,4966,0
69875513,69875140,3670026,3670026,-0.000247662,-0.000344612,0.000197015,-0.00186799,-0.0168967,-0.0515435,4966,4966,0
70372220,70371760,3670026,3670026,-0.00130455,0.000579467,-0.000210671,-0.0163248,-0.0121304,-0.0605359,4964,4964,0
70873692,70873347,3670026,3670026,0.000605253,-0.000605749,-0.00109229,-0.00101905,-0.0306338,-0.0519069,4966,4966,0
71375280,71374934,3670026,3670026,0.000188001,-5.32205e-06,0.000657053,0.00155939,0.030591,-0.051313,4964,4964,0
71876996,71876630,3670026,3670026,0.000745434,-0.000926838,-0.00022813,0.00283668,-0.016387,-0.0533816,4997,4997,0
72373524,72373198,3670026,3670026,0.00130419,-0.000292509,-0.00038035,0.00379747,-0.00961726,-0.0424386,4989,4989,0
72875101,72874729,3670026,3670026,0.000133463,0.00137046,0.000751985,0.0064303,0.0221114,-0.0401036,4967,4967,0
73371754,73371350,3670026,3670026,-9.61023e-05,-5.99485e-05,0.00122935,0.00101136,0.026177,-0.0505688,4967,4967,0
73873402,73872941,3670026,3670026,0.00138417,-0.000378842,4.42248e-05,0.0080751,0.00490661,-0.0355529,4934,4934,0
74374911,74374525,3670026,3670026,-0.000450447,1.89415e-05,-0.00035834,-0.00251197,-0.00443491,-0.0418637,4968,4968,0
74876468,74876115,3670026,3670026,-0.000849459,0.000408765,0.000843476,-0.00352352,0.0145933,-0.0554529,4970,4970,0
75373279,75372811,3670026,3670026,-0.000663616,-0.000555573,-0.000190875,-0.00696447,-0.0170388,-0.0591844,4990,4990,0
75874751,75874331,3670026,3670026,0.00113257,-0.000953491,-0.000766832,-0.00151092,-0.0115991,-0.0413264,4978,4978,0
76376287,76375908,3670026,3670026,0.00104445,-0.00095928,-0.00106922,0.00544571,-0.00929787,-0.0425972,4968,4968,0
76872899,76872528,3670026,3670026,0.00025183,-0.000661793,-0.00134092,-0.00104035,-0.0204661,-0.0459023,4967,4967,0
77374443,77374116,3670026,3670026,8.8866e-05,0.00144086,0.000205861,-0.00563508,0.0198075,-0.053942,4967,4967,0
77876057,77875707,3670026,3670026,-9.74767e-05,-0.000288669,0.000175778,-0.00398225,-0.0082109,-0.0512144,4971,4971,0
78372668,78372323,3670026,3670026,0.000961325,-0.000268858,0.000230709,0.00473396,0.00696344,-0.0411942,4966,4966,0
78874389,78874008,3670026,3670026,0.000872287,-0.000608255,0.00072076,0.00984128,0.00827997,-0.0369485,4940,4940,0
79375914,79375499,3670026,3670026,0.00076772,-0.000495938,-0.000541449,0.00327135,-0.0064618,-0.0430367,4966,4966,0
79877546,79877087,3670026,3670026,0.000204692,4.33212e-05,0.000420851,0.00614808,0.00893518,-0.0382655,4967,4967,0
80374045,80373719,3670026,3670026,0.000381943,-4.17563e-05,-0.000733943,-0.00411511,-0.0185584,-0.0510163,4972,4972,0
80875662,80875296,3670026,3670026,0.000703768,9.38547e-07,0.000220732,0.00392861,-0.00641453,-0.0419439,4967,4967,0
81372268,81371917,3670026,3670026,0.00150837,-0.00110553,-0.000587384,0.00740397,-0.028866,-0.0406478,4965,4965,0
81873863,81873507,3670026,3670026,0.000375774,-0.000303333,-0.000246913,-0.00187126,-0.00847267,-0.0509561,4968,4968,0
82375642,82375225,3670026,3670026,-0.000968246,-8.58497e-05,0.000248095,0.00513397,0.00363487,-0.0396106,4993,4993,0
82877055,82876682,3670026,3670026,0.000545526,-0.000682097,-0.000305298,0.00161113,-0.00409893,-0.0443172,4965,4965,0
83378596,83378269,3670026,3670026,-0.000812177,0.00118975,0.000703976,0.0038947,0.0183549,-0.0399469,4966,4966,0
83875268,83874890,3670026,3670026,-0.000901855,-0.000534077,-0.000706846,-0.00583686,-0.0182304,-0.0553446,4966,4966,0
84371891,84371513,3670026,3670026,0.000893889,0.000159745,-0.000134629,0.0062386,-0.00455344,-0.0365288,4967,4967,0
84873451,84873101,3670026,3670026,0.00173647,-0.000273252,-0.00165524,-0.00192223,-0.0375041,-0.0504031,4965,4965,0
85375084,85374692,3670026,3670026,2.09807e-05,0.00106955,-1.61596e-05,-0.00483454,0.00118581,-0.054973,4938,4938,0
85876772,85876403,3670026,3670026,0.00130083,-0.000379359,0.000345268,0.0136637,0.00557189,-0.0385431,4989,4989,0
86373310,86372899,3670026,3670026,0.00119893,-0.000857444,-0.000841679,0.00476197,-0.0265808,-0.0413295,4966,4966,0
86874824,86874488,3670026,3670026,-0.00101598,0.000177557,0.00112023,-0.00309357,0.0192588,-0.0451731,4967,4967,0
87371438,87371110,3670026,3670026,-0.000436254,0.000331374,0.000276192,-0.00767631,-0.00359189,-0.0603257,4965,4965,0
87873023,87872698,3670026,3670026,0.00110712,-0.000770036,-0.0011972,-0.00576033,-0.0310384,-0.0589081,4967,4967,0
88374644,88374303,3670026,3670026,-0.00134216,-8.30012e-05,-0.000598022,-0.00878484,-0.00649142,-0.0589401,4983,4983,0
88876268,88875874,3670026,3670026,-0.00117838,-0.000194266,-0.000530706,-0.00542466,-0.0275189,-0.0508343,4965,4965,0
89372982,89372616,3670026,3670026,-0.000512358,-2.86501e-05,5.64826e-05,-0.00245746,-0.00814803,-0.046728,4988,4988,0
89874534,89874086,3670026,3670026,-0.000553967,0.000400449,0.000342445,-0.0023594,-0.00338904,-0.0507388,4966,4966,0
90376003,90375674,3670026,3670026,0.000506519,9.48524e-05,0.00054674,-0.00234086,0.00773848,-0.0493616,4963,4963,0
90872619,90872297,3670026,3670026,-0.000879697,6.94089e-05,-0.000819175,-0.00683718,-0.00921801,-0.0567355,4966,4966,0
91374217,91373886,3670026,3670026,-0.000477855,5.47741e-05,0.000479034,7.73314e-05,-0.000729896,-0.0470924,4957,4957,0
91875875,91875490,3670026,3670026,-0.000419866,0.000449985,0.000638651,-0.00523615,0.00207843,-0.0488877,4979,4979,0
92372482,92372097,3670026,3670026,0.000511879,-0.000943679,-0.00117395,-0.00294414,-0.0305807,-0.0506454,4967,4967,0
92874238,92873823,3670026,3670026,-2.32439e-05,0.000936804,0.00157913,-0.0032836,0.0303047,-0.0506871,4988,4988,0
93375603,93375275,3670026,3670026,-0.0019372,-0.000373625,0.00016196,0.00607035,-0.00711347,-0.040784,4964,4964,0
93877236,93876864,3670026,3670026,-0.000287028,9.35794e-05,0.000459119,-0.00589853,-0.00700475,-0.0575321,4967,4967,0
94373816,94373487,3670026,3670026,0.000250462,-0.00105108,-0.000810431,0.00189635,-0.0270281,-0.0531608,4965,4965,0
94875400,94875076,3670026,3670026,0.00132726,0.00042438,-0.00117133,0.00265315,-0.0254638,-0.0472717,4967,4967,0
95372112,95371703,3670026,3670026,0.00114779,-0.000327644,0.000538456,-0.00870116,-0.0102856,-0.0622937,4971,4971,0
95873667,95873289,3670026,3670026,-0.000207562,0.000271251,0.000470009,0.00541428,-0.00106457,-0.0413517,4968,4968,0
96375463,96375041,3670026,3670026,0.000494606,0.00192294,0.000237974,-0.0189496,0.00235125,-0.0550121,4993,4993,0
96876821,96876498,3670026,3670026,0.00018174,0.000198463,-0.00159826,0.00954017,0.00103686,-0.0401719,4991,4991,0
97378384,97378056,3670026,3670026,4.43092e-05,-9.68062e-05,-0.000952722,0.0005673,-0.00576698,-0.050998,4966,4966,0
97875001,97874676,3670026,3670026,0.000147474,1.23096e-05,-0.000731762,0.00507842,0.00153633,-0.0412292,4929,4929,0
98371710,98371338,3670026,3670026,-0.000342173,0.000418154,0.000553539,0.00272563,0.0207725,-0.0403924,4987,4987,0
98873282,98872892,3670026,3670026,-0.000137676,0.000478745,0.000316539,-0.00534206,0.0247113,-0.0560864,4967,4967,0
99374828,99374481,3670026,3670026,-0.000573101,0.000142915,0.000683781,-0.00540143,-0.000292558,-0.0548736,4967,4967,0
99876711,99876241,3670026,3670026,0.00125854,0.000137339,0.000551579,0.000790969,0.0125743,-0.0429699,4991,4991,0
100377995,100377660,3670026,3670026,-3.19154e-05,-8.00739e-05,0.000180418,-0.00291853,0.00109224,-0.049197,4967,4967,0
100874605,100874283,3670026,3670026,-0.000690553,-1.39773e-05,0.000363428,-0.00255282,0.00383521,-0.0468502,4967,4967,0
101371282,101370908,3670026,3670026,0.000900316,-0.000272199,-0.000863157,0.00270379,-0.0327988,-0.049989,4968,4968,0
101872824,101872498,3670026,3670026,-0.000314716,0.00035913,0.000162795,0.0034946,-0.00360175,-0.0413048,4968,4968,0
102374452,102374085,3670026,3670026,-4.80383e-05,-7.92895e-05,0.000179894,0.00210737,0.000812057,-0.0360698,4965,4965,0
102876017,102875675,3670026,3670026,-0.000700152,9.00084e-05,0.000930646,-0.00798685,5.96211e-05,-0.0540496,4966,4966,0
103372825,103372457,3670026,3670026,-0.000267519,0.000962166,0.000951522,-0.00269702,0.00804,-0.0503933,4922,4922,0
103874264,103873886,3670026,3670026,0.000206532,-0.000809204,-0.000182535,0.0049589,-0.00750575,-0.0433414,4962,4962,0
104375865,104375480,3670026,3670026,-0.00138208,5.31443e-05,0.000466776,0.000793715,0.00672037,-0.0507893,4968,4968,0
104872467,104872139,3670026,3670026,-0.000111167,0.000758324,0.000268345,-0.0049103,0.0183178,-0.0552468,4999,4999,0
105374033,105373707,3670026,3670026,-0.000829906,-0.000188291,0.000406846,0.00223719,0.00154574,-0.0445052,4978,4978,0
105875725,105875287,3670026,3670026,-0.00056208,-0.00013276,0.000296466,-0.00856843,-0.00899558,-0.0577973,4971,4971,0
106372354,106371925,3670026,3670026,0.000806707,-0.000674871,-0.000445417,0.00117696,-0.0197247,-0.0484242,4984,4984,0
106874142,106873679,3670026,3670026,0.000148423,-2.66006e-05,0.000200988,-0.00345924,-0.0105306,-0.0477484,4998,4998,0
107375514,107375101,3670026,3670026,0.00113826,-0.000258111,6.94416e-05,0.0150581,0.00771327,-0.0271947,4980,4980,0
107877048,107876676,3670026,3670026,0.000411187,-8.01577e-05,-7.51132e-05,0.00443321,0.00381797,-0.0452203,4966,4966,0
108373632,108373300,3670026,3670026,-0.000643728,0.000307035,0.000118283,-0.00856238,0.000970051,-0.0559118,4966,4966,0
108875220,108874890,3670026,3670026,-0.000239646,0.000241996,0.000280186,-0.00155229,0.00508292,-0.0506306,4961,4961,0
109371840,109371515,3670026,3670026,0.000264748,-0.0008987,-0.000164936,-0.000781021,-0.0123012,-0.052379,4967,4967,0
109873491,109873104,3670026,3670026,-0.0030944,0.00145208,0.000562975,-0.0171281,0.00442126,-0.0657747,4964,4964,0
110375045,110374698,3670026,3670026,0.000728995,4.21683e-05,-0.00112701,-0.00928986,-0.0315492,-0.0575232,4796,4796,0
110876714,110876341,3670026,3670026,0.00106966,0.000620272,-0.00115528,0.00704945,-0.0298458,-0.0422259,4987,4987,0
111378241,111377900,3670026,3670026,-0.000667403,0.00151843,0.00066046,0.00194794,0.015202,-0.0412712,4976,4976,0
111874867,111874500,3670026,3670026,-0.00133412,0.000839118,0.00127947,-0.00353242,0.0258556,-0.049149,4966,4966,0
112371498,112371126,3670026,3670026,-0.00072761,0.000213813,-0.000142396,-0.00220512,-0.00532358,-0.0477043,4966,4966,0
112873087,112872716,3670026,3670026,0.000249413,-0.0005923,0.000478284,0.00272466,0.00438307,-0.0404369,4966,4966,0
113374698,113374306,3670026,3670026,-0.000129563,-0.000391014,-0.00114596,-0.00368446,-0.018524,-0.0533999,4967,4967,0
113876246,113875896,3670026,3670026,-0.00026653,0.000745803,0.000255855,-0.00551411,0.00342624,-0.0541363,4966,4966,0
114378027,114377646,3670026,3670026,0.00146978,-6.53348e-05,-0.000158813,0.013481,-0.0172649,-0.0384885,4950,4950,0
114874483,114874115,3670026,3670026,-0.0010002,-0.00119925,0.000250352,-0.0109917,0.000122441,-0.0606091,4968,4968,0
115371060,115370736,3670026,3670026,0.000104433,0.000644072,0.00110432,0.00408607,0.0277637,-0.0455787,4966,4966,0
115872719,115872327,3670026,3670026,0.00114953,-0.000879056,-0.000955807,0.00199061,-0.0221632,-0.0421049,4967,4967,0
116374331,116373955,3670026,3670026,-0.000509223,0.000236329,-0.000417279,-0.00482254,-0.00730278,-0.0480047,4992,4992,0
116875954,116875509,3670026,3670026,-0.000833727,0.000141381,0.000504613,0.00199825,0.000199344,-0.0431099,4967,4967,0
117377448,117377099,3670026,3670026,-0.000814894,-0.000195337,0.000682171,-0.00164851,-0.00271471,-0.0477782,4962,4962,0
117874331,117873911,3670026,3670026,-0.000633613,-0.000415549,0.000814545,-0.00931956,0.00975422,-0.0542226,4963,4963,0
118375674,118375348,3670026,3670026,0.00167659,-0.000588378,-0.000904164,0.0112511,-0.0235562,-0.0386456,4969,4969,0
118872307,118871975,3670026,3670026,0.00113357,-4.41027e-05,-0.000326355,0.0103484,-0.0035596,-0.0362248,5001,5001,0
119373863,119373531,3670026,3670026,-0.0009154,0.000552842,-0.000278789,-0.0180715,-0.00544543,-0.0645067,4966,4966,0
119875448,119875122,3670026,3670026,-0.00209629,0.00173866,8.56166e-05,-0.0103778,-8.55991e-05,-0.0576211,4966,4966,0
120377111,120376713,3670026,3670026,0.000767821,-0.000410098,0.000383102,-0.000929089,0.00288778,-0.0498183,4966,4966,0
120873676,120873338,3670026,3670026,0.00275723,-0.000585792,-0.00081951,0.00502561,0.00246653,-0.0338317,4965,4965,0
121375482,121375102,3670026,3670026,-0.000579407,0.000307472,0.000416458,-0.00342624,-0.00600084,-0.0520819,4922,4922,0
121876899,121876524,3670026,3670026,0.000182075,-0.000513011,-0.000481547,6.9097e-05,-0.0104617,-0.0520809,4969,4969,0
122373556,122373146,3670026,3670026,5.0251e-05,-0.00143666,-0.000804456,-0.00358281,-0.0344282,-0.0503042,4964,4964,0
122875120,122874737,3670026,3670026,-0.000972482,0.000257944,0.00045668,-0.00796285,0.00227164,-0.0542689,4966,4966,0
123371698,123371375,3670026,3670026,-0.000373576,-0.000103173,-0.000181469,0.00289244,-0.0142406,-0.0419593,4930,4930,0
123873406,123872956,3670026,3670026,0.000857366,-0.000612681,-0.000308503,0.0104659,-0.0061488,-0.0364811,4968,4968,0
124374902,124374561,3670026,3670026,-0.000740538,0.00178659,0.00155227,-0.0129911,0.0368011,-0.0539627,4984,4984,0
124876693,124876325,3670026,3670026,-9.86849e-05,0.00077382,0.00105161,0.000703703,0.0304797,-0.0476606,4994,4994,0
125378163,125377798,3670026,3670026,-0.00146749,0.000968468,0.000427484,-0.00372194,0.0139362,-0.0529862,4988,4988,0
125874755,125874356,3670026,3670026,0.00152032,-0.000104894,-0.000403891,0.00665073,0.00650045,-0.0372839,4968,4968,0
126371391,126370980,3670026,3670026,-3.15466e-05,0.000284563,-0.000326742,0.00213661,0.00216637,-0.0371364,4966,4966,0
126873034,126872572,3670026,3670026,0.00122678,-7.02504e-05,-0.00121381,0.00604826,-0.0175179,-0.0371645,4966,4966,0
127374569,127374164,3670026,3670026,-0.000983291,0.0014609,0.000474257,-0.011865,0.031348,-0.0548261,4962,4962,0
127876146,127875755,3670026,3670026,-0.000581333,0.000399644,0.000255507,-0.00984382,-0.007333,-0.0564754,4966,4966,0
128377738,128377352,3670026,3670026,-0.000731794,0.0013722,0.000576254,-0.012256,0.0160687,-0.0582207,4790,4790,0
128874402,128873984,3670026,3670026,-0.000980963,3.96797e-05,0.000440586,-0.0132501,0.00741176,-0.0658666,4977,4977,0
129370923,129370598,3670026,3670026,-0.00225998,0.000508522,0.001439,-0.00900579,0.0216694,-0.0585944,4965,4965,0
129872532,129872196,3670026,3670026,-0.00074456,0.00144521,0.00150254,-0.00885006,0.0341618,-0.0533101,4972,4972,0
130374172,130373800,3670026,3670026,0.000240458,-1.29962e-05,0.000172395,0.00103375,0.00640392,-0.0422391,4932,4932,0
130875702,130875375,3670026,3670026,0.00112599,-0.000914829,-0.00111088,0.00127836,-0.0163508,-0.0431118,4967,4967,0
131377412,131376967,3670026,3670026,-0.00128999,0.00133185,0.00170383,-0.0114475,0.0300912,-0.0553679,4966,4966,0
131873941,131873596,3670026,3670026,0.000111929,0.000115983,-0.000809096,-0.00836399,-0.0211918,-0.055778,4793,4793,0
132375645,132375321,3670026,3670026,-0.00154602,-1.20028e-05,0.000929796,-0.00624514,0.00451519,-0.0509783,4989,4989,0
132872152,132871821,3670026,3670026,0.00109626,-0.000325992,-0.000771451,-0.000793286,-0.0131384,-0.0443859,4930,4930,0
133373812,133373404,3670026,3670026,0.000846649,1.60692e-05,0.000247451,0.0109453,0.0107619,-0.0377961,4966,4966,0
133875388,133874997,3670026,3670026,0.00279102,-0.000210716,0.000515507,0.00928901,0.00433515,-0.0372073,4961,4961,0
134376924,134376589,3670026,3670026,-0.00248437,-7.16036e-05,0.000225161,-0.0094557,-0.00521601,-0.0618669,4966,4966,0
134873560,134873215,3670026,3670026,-0.000513046,0.000555011,0.000941897,-0.00964898,0.00564833,-0.046917,4967,4967,0
135375163,135374807,3670026,3670026,-0.00158256,0.00163395,0.000392185,-0.00934636,0.0111815,-0.0615119,4764,4764,0
135876855,135876486,3670026,3670026,0.000432336,0.000452998,-0.000200306,-0.00670044,7.4373e-05,-0.052469,4977,4977,0
136373348,136373026,3670026,3670026,-0.000204751,0.000274582,0.000842593,0.00101174,0.0242484,-0.0364338,4964,4964,0
136874942,136874619,3670026,3670026,0.000215245,0.000330494,-0.00019695,-0.0137547,0.00286556,-0.0669804,4943,4943,0
137376537,137376211,3670026,3670026,0.000233919,-0.00167675,-0.000437414,0.0062925,-0.0209826,-0.0458425,4966,4966,0
137873277,137872838,3670026,3670026,-0.000982709,-0.00118617,-0.000474501,0.0009137,-0.018882,-0.0441398,4913,4913,0
138374822,138374430,3670026,3670026,0.00116579,0.0013976,-0.00126021,0.000857865,-0.0314809,-0.0494714,4966,4966,0
138876364,138876023,3670026,3670026,-0.000661797,7.19812e-05,-0.000118915,-0.0064875,0.00957612,-0.0574547,4963,4963,0
139378098,139377731,3670026,3670026,0.000773052,-0.000444009,-0.00114495,0.000104987,-0.0150103,-0.0434894,4998,4998,0
139874569,139874242,3670026,3670026,0.0015395,-0.000704786,-0.00208141,-0.00158223,-0.0237747,-0.0499356,4966,4966,0
140371190,140370869,3670026,3670026,-0.00112506,0.000516206,0.000455685,-0.0182243,-0.000305247,-0.0616125,4966,4966,0
140872818,140872494,3670026,3670026,0.000302208,-0.0016128,0.00125342,-0.00379317,0.0197568,-0.0514346,4999,4999,0
141374497,141374094,3670026,3670026,0.0020405,-0.00143827,-0.000907461,0.0109297,-0.00982184,-0.0311726,5005,5005,0
141875996,141875648,3670026,3670026,-0.000255211,0.000312892,0.000310262,-0.00442714,0.0030802,-0.0490572,4966,4966,0
142377638,142377243,3670026,3670026,0.000614755,-0.000411037,-0.00126588,-0.00258479,-0.0253454,-0.0527722,4969,4969,0
142874294,142873914,3670026,3670026,-0.00175019,0.000456925,1.37634e-05,-0.0123089,0.00100119,-0.0614966,4987,4987,0
143370824,143370495,3670026,3670026,0.000199995,-0.000503957,0.000189781,0.00784078,0.00123487,-0.0390598,4966,4966,0
143872465,143872088,3670026,3670026,-0.00078132,-0.000563819,0.000540466,-0.00409021,-0.000373471,-0.0497168,4965,4965,0
144374045,144373720,3670026,3670026,0.000772756,0.000699626,0.000821426,0.00795222,0.0262774,-0.0377302,4985,4985,0
144875593,144875271,3670026,3670026,-0.000213511,0.000586074,8.60935e-05,-0.00488657,0.0088073,-0.0484579,4925,4925,0
145377219,145376867,3670026,3670026,-0.000529977,0.00018877,0.000705179,-0.00879399,0.00708382,-0.046871,4966,4966,0
145873840,145873495,3670026,3670026,-0.00120147,-0.000520086,0.000561836,-0.00407624,0.0152699,-0.0544829,4966,4966,0
146375522,146375152,3670026,3670026,0.000575039,-0.00179805,-0.000664055,-0.00713713,-0.0172979,-0.0596118,4992,4992,0
146872139,146871715,3670026,3670026,0.000890224,0.000263706,0.000122065,0.0124298,0.00759681,-0.037778,4966,4966,0
147373682,147373309,3670026,3670026,-0.000276277,0.00191019,-0.000482992,-0.00512813,-0.000697636,-0.0488851,4966,4966,0
147875319,147874902,3670026,3670026,0.0022915,-0.00159547,-0.00117794,0.0073965,-0.0189626,-0.0375093,4964,4964,0
148376954,148376495,3670026,3670026,-0.00100264,0.000473566,0.000211777,-0.00622618,0.00545331,-0.051246,4966,4966,0
148873469,148873122,3670026,3670026,0.000974856,3.57983e-05,0.000503579,0.0104286,0.00575043,-0.0398396,4949,4949,0
149375061,149374716,3670026,3670026,-0.000712914,-0.00040983,-0.000409266,-9.44086e-05,-0.00273807,-0.0478728,4966,4966,0
149876709,149876386,3670026,3670026,0.00147273,-0.00047901,-0.000177488,0.0140387,-0.00707003,-0.0289191,4987,4987,0
150373268,150372937,3670026,3670026,-0.000763563,-0.00048579,-0.000103235,-0.00820439,-0.00898875,-0.0616165,4967,4967,0
150874882,150874554,3670026,3670026,-0.000850637,0.000893333,0.000802382,-0.00291511,0.0187758,-0.0473647,4994,4994,0
151376558,151376125,3670026,3670026,-0.0017199,-0.000100078,-0.000735271,-0.0053144,0.00136207,-0.056709,4967,4967,0
151873129,151872752,3670026,3670026,-0.000360913,0.000558098,0.00141658,-0.0038139,0.0287208,-0.0498176,4967,4967,0
152374703,152374345,3670026,3670026,0.0021176,-0.00139465,-0.00103016,0.0104916,-0.00959406,-0.0340321,4965,4965,0
152876289,152875939,3670026,3670026,9.59737e-05,-0.000417052,-0.000364605,0.000546899,0.000105462,-0.0465837,4965,4965,0
153378029,153377625,3670026,3670026,-0.000981153,0.00115501,0.000794983,-0.00709562,0.0097399,-0.0488903,4927,4927,0
153874484,153874160,3670026,3670026,-0.00182998,0.000358022,0.000497728,-0.0135853,0.00307321,-0.0611211,4961,4961,0
154376127,154375755,3670026,3670026,0.000431099,0.000387208,-0.000708116,-0.00644104,-0.019913,-0.0620609,4967,4967,0
154872749,154872382,3670026,3670026,0.00109974,-0.000821136,-0.00128166,0.00789674,-0.0294635,-0.0462586,4966,4966,0
155374347,155373976,3670026,3670026,0.000875051,-0.00154913,-0.000910094,0.00913729,-0.0257908,-0.0356514,4965,4965,0
155875956,155875610,3670026,3670026,0.000437711,0.000684922,-0.00130418,-0.00172261,-0.0278553,-0.0499717,4993,4993,0
156377507,156377165,3670026,3670026,-0.00122367,7.98626e-05,0.00121215,-0.0131356,0.00185804,-0.0562399,4963,4963,0
156874198,156873871,3670026,3670026,-0.00113349,0.000473639,0.000666819,-0.00939648,0.0203114,-0.0616401,4990,4990,0
157370745,157370420,3670026,3670026,0.000149737,0.000240664,0.0010028,0.000341122,0.00386242,-0.0474798,4966,4966,0
157872367,157872018,3670026,3670026,0.000897388,-0.000222046,-0.00274425,0.00487889,-0.00338444,-0.0373428,4969,4969,0
158373994,158373608,3670026,3670026,-0.000354052,0.000150119,-0.00730231,-0.00412538,0.0059166,-0.0522293,4965,4965,0
158875578,158875205,3670026,3670026,0.00176339,0.000747671,-0.00485977,0.00672813,-0.0133044,-0.0343909,4969,4969,0
159377179,159376797,3670026,3670026,0.000490087,0.000137764,0.00127091,0.00962274,0.0096318,-0.0302035,4967,4967,0
159873781,159873425,3670026,3670026,0.00148492,-0.0026629,0.000563469,0.0126057,-0.00577453,-0.0342569,4966,4966,0
160375522,160375117,3670026,3670026,0.00415216,0.000259768,0.000777072,0.00101855,0.0133235,-0.0438927,4974,4974,0
160871985,160871648,3670026,3670026,-0.000561674,0.000785878,-0.00110213,-0.000354161,-0.00893101,-0.0396661,4966,4966,0
161373571,161373246,3670026,3670026,-0.000920282,-0.000298272,-0.000641842,-0.0117273,0.0028571,-0.062733,4970,4970,0
161875175,161874839,3670026,3670026,-0.000683552,-0.000267039,-0.000435925,-0.00830042,-0.0239191,-0.0627534,4949,4949,0
162376817,162376486,3670026,3670026,-0.00121029,0.000622422,-0.000116982,-0.00786659,0.00620709,-0.0531237,4962,4962,0
162873446,162873060,3670026,3670026,-0.00087835,0.000301133,0.000592283,-0.00614523,0.00240299,-0.0533063,4967,4967,0
163375002,163374654,3670026,3670026,-0.000174433,0.000237063,7.99683e-05,-0.00734026,0.0102093,-0.0558992,4966,4966,0
163876772,163876410,3670026,3670026,-0.00240851,-2.23403e-05,0.00130578,-0.00828232,0.0113537,-0.0547821,4969,4969,0
164373254,164372877,3670026,3670026,-0.00128683,0.000739516,4.12625e-05,-0.00420378,-0.0116639,-0.0447167,4965,4965,0
164874794,164874472,3670026,3670026,0.000229225,9.9625e-05,-0.000255674,-0.00811399,-0.015548,-0.0608576,4966,4966,0
165376400,165376067,3670026,3670026,-0.000358418,0.000594136,-0.000166321,-0.00963765,-0.0147971,-0.0615435,4930,4930,0
165873058,165872736,3670026,3670026,0.000269233,0.000756092,0.000385792,0.00199354,0.0103669,-0.0326523,4996,4996,0
166374729,166374291,3670026,3670026,0.000178998,-0.00092298,-0.000516044,-0.00104552,0.00262124,-0.0502711,4966,4966,0
166876239,166875885,3670026,3670026,5.99036e-06,-0.000728374,2.16836e-05,-0.0075219,-0.0262801,-0.059806,4964,4964,0
167378035,167377611,3670026,3670026,0.000698035,-5.36782e-05,-0.00108431,-0.0077149,-0.0372143,-0.0621337,4992,4992,0
167874494,167874110,3670026,3670026,0.000154961,0.000489746,0.00107077,-0.00161518,0.0169902,-0.0475652,4967,4967,0
168376031,168375704,3670026,3670026,-0.00198909,0.000806231,-0.000253174,-0.0131858,-0.00926654,-0.0582082,4963,4963,0
168872661,168872335,3670026,3670026,0.000893851,-0.000443412,-0.000352885,0.00149324,-0.0100094,-0.0390478,4968,4968,0
169374301,169373929,3670026,3670026,-0.000286527,0.000117118,0.000906617,-0.00364034,0.0128783,-0.0515523,4967,4967,0
169875912,169875524,3670026,3670026,0.00166398,-0.0009595,3.24493e-05,0.00739959,0.0134438,-0.0336906,4966,4966,0
170377462,170377120,3670026,3670026,-0.00111808,0.000288644,-4.33959e-05,-0.0028682,-0.0139183,-0.0491213,4967,4967,0
170874336,170873865,3670026,3670026,-0.000518527,-0.00031504,-0.000694676,-0.0100602,-0.00815541,-0.049295,4991,4991,0
171370808,171370379,3670026,3670026,0.000189266,-0.000189795,-0.00197291,-0.00275633,-0.0128586,-0.0546323,4968,4968,0
171872415,171871973,3670026,3670026,-0.000472409,-0.00144569,-0.000130589,-0.015451,0.0217251,-0.0626501,4966,4966,0
172373900,172373569,3670026,3670026,-0.000821214,0.000105861,0.000711268,-0.00797455,-0.00600803,-0.0497885,4967,4967,0
172875531,172875164,3670026,3670026,0.000798481,0.00031505,-0.000491912,-0.00046675,-0.0106583,-0.0518953,4961,4961,0
173377118,173376760,3670026,3670026,0.00150458,-0.00100523,-0.000239587,-0.000886142,-0.00624902,-0.0449289,4954,4954,0
173873771,173873422,3670026,3670026,-0.000344115,0.000531521,3.49884e-05,0.00199481,0.0068623,-0.0454167,4998,4998,0
174375537,174375170,3670026,3670026,0.000268263,7.25817e-06,0.000967453,0.00641464,0.0215324,-0.0423794,4986,4986,0
174872021,174871646,3670026,3670026,0.00214436,0.000194723,0.000333782,-0.00457661,0.0093221,-0.0466173,4997,4997,0
175373537,175373210,3670026,3670026,-0.00227281,-0.00079364,-0.00129857,-0.00122928,-0.0362184,-0.0487502,4965,4965,0
175875128,175874806,3670026,3670026,-0.000706285,-0.000167297,0.000713428,0.000367175,0.00824124,-0.0438127,4966,4966,0
176376727,176376402,3670026,3670026,-0.000140074,-0.000770027,-0.000502072,-0.00257978,-0.0220257,-0.0468127,4967,4967,0
176873389,176873031,3670026,3670026,-0.000508273,-0.000179924,-0.000700886,-0.0072225,-0.00873857,-0.0590415,4966,4966,0
177374988,177374641,3670026,3670026,-0.000344289,0.000773559,-0.000241694,-0.0122422,0.0129119,-0.0622213,4982,4982,0
177876736,177876368,3670026,3670026,0.00145076,-0.000220378,-0.000161335,0.00205299,-0.0126681,-0.0478435,4974,4974,0
178373186,178372862,3670026,3670026,-0.00137642,0.000376733,0.000408726,-0.00181007,0.0151246,-0.0499883,4976,4976,0
178874823,178874448,3670026,3670026,-0.000505441,-6.27728e-05,-0.00017363,-0.00483721,-0.0123486,-0.0452379,4966,4966,0
179376422,179376045,3670026,3670026,0.000224826,-3.22245e-05,0.00100254,-0.00529441,-0.00702939,-0.0472645,4965,4965,0
179873000,179872675,3670026,3670026,-0.00140228,0.000571958,0.00105285,-0.0133656,0.0126196,-0.0615966,4967,4967,0
180374633,180374271,3670026,3670026,0.000561561,0.000358718,-0.000683822,0.00254964,-0.00449677,-0.0454279,4967,4967,0
180876261,180875867,3670026,3670026,0.000467093,0.000428198,0.000165044,0.0063466,-0.0189741,-0.0397614,4918,4918,0
181377998,181377626,3670026,3670026,-0.000771084,0.000304865,0.000927358,-0.00493256,0.017723,-0.0535368,4976,4976,0
181874519,181874109,3670026,3670026,0.000475152,-0.000296295,-0.000559316,0.00286057,-0.0110755,-0.0421463,4988,4988,0
182376031,182375689,3670026,3670026,-0.00122448,0.000428107,-0.00628171,-0.00669957,-0.000610665,-0.0586953,4966,4966,0
182872701,182872319,3670026,3670026,-0.000712032,-0.000244137,-0.00682271,-0.00695167,-0.00456472,-0.0432202,4966,4966,0
183374291,183373915,3670026,3670026,0.00134464,-1.34376e-05,0.000171203,0.000908961,-0.0111039,-0.0369581,4966,4966,0
183875904,183875512,3670026,3670026,-8.42831e-05,-0.000980019,-4.80885e-05,-0.0113715,-0.0247715,-0.055057,4959,4959,0
184377498,184377108,3670026,3670026,-0.000957834,0.000682161,0.00105644,0.00541408,0.0113739,-0.0401473,4965,4965,0
184874303,184873888,3670026,3670026,-0.000422115,0.000382644,0.000527536,-0.00275614,0.00851721,-0.0545578,4987,4987,0
185370796,185370368,3670026,3670026,0.000667502,4.1871e-06,0.000303433,-0.00508691,0.00393718,-0.0653586,4966,4966,0
185872402,185871967,3670026,3670026,0.000534065,3.50624e-05,-0.000268254,-0.00673862,-0.00276491,-0.0550402,4930,4930,0
186373986,186373561,3670026,3670026,-0.001444,0.000256063,0.000999645,-0.00906171,-0.000498407,-0.0440989,4966,4966,0
186875572,186875159,3670026,3670026,0.000701343,0.000347097,-3.37725e-06,0.00344983,-0.00815602,-0.0429062,4963,4963,0
187377156,187376754,3670026,3670026,-7.36968e-05,0.000472086,0.000715925,0.00543915,0.00628445,-0.0404726,4966,4966,0
187873724,187873384,3670026,3670026,0.00112122,-0.00039135,8.42858e-05,0.0112313,-0.00886296,-0.0382609,4966,4966,0
188375522,188375153,3670026,3670026,-0.000471759,-7.05371e-05,-0.000870643,-0.00430138,-0.001449,-0.049956,4993,4993,0
188872040,188871707,3670026,3670026,-0.00182076,-0.000778726,-0.00149229,-0.00864691,-0.0108879,-0.0568764,5009,5009,0
189373533,189373208,3670026,3670026,0.000327553,0.00013446,-9.2185e-05,-1.89468e-05,-0.0137352,-0.0511288,4965,4965,0
189875125,189874805,3670026,3670026,0.000266619,-0.000210444,-0.000256498,-0.00306493,-0.00468068,-0.0492906,4966,4966,0
190376723,190376402,3670026,3670026,-0.0010811,-0.00112498,0.000168593,-0.00818017,0.00496448,-0.0575961,4966,4966,0
190873463,190873075,3670026,3670026,0.000790885,-0.000476582,3.61057e-05,-0.000402134,-0.00732701,-0.0446882,4963,4963,0
191374981,191374637,3670026,3670026,-0.00128878,0.00118035,0.00143001,-0.0106489,0.0306433,-0.0562918,4927,4927,0
191876833,191876408,3670026,3670026,-0.000993187,0.000823363,0.000703764,-0.00721968,0.0158392,-0.056119,4991,4991,0
192373185,192372861,3670026,3670026,-1.01099e-05,0.000636951,4.94383e-05,0.00429449,-0.0114118,-0.0377694,4970,4970,0
192874781,192874457,3670026,3670026,-0.000152862,0.000316875,-0.00342303,-0.00982362,-0.00236713,-0.0384646,4969,4969,0
193376393,193376052,3670026,3670026,0.00252118,-0.000224845,-0.00107416,0.00177894,-0.0219395,-0.0441528,4967,4967,0
193873006,193872682,3670026,3670026,0.00142418,0.000620315,0.00136124,-0.00716876,0.0201301,-0.051891,4956,4956,0
194374608,194374280,3670026,3670026,-0.000738897,0.000719466,0.00100591,-0.00424479,0.0180319,-0.0503111,4968,4968,0
194876221,194875876,3670026,3670026,0.00044404,-0.000108907,3.06829e-05,0.00589618,-0.00440461,-0.0391866,4952,4952,0
195378085,195377722,3670026,3670026,0.000414058,0.000270548,0.000880277,-0.0055356,0.00862688,-0.0552056,5026,5026,0
195874520,195874110,3670026,3670026,0.00105712,-0.000669297,-0.000726138,0.00911413,-0.0121426,-0.0372532,4971,4971,0
196376118,196375702,3670026,3670026,0.000619651,-0.000563742,-0.000668733,0.00137614,-0.0151056,-0.0402666,4967,4967,0
196872781,196872333,3670026,3670026,0.00122802,0.00016744,-0.000417211,0.00952602,0.00230809,-0.0356166,4966,4966,0
197374259,197373930,3670026,3670026,0.00136285,-0.000822983,-0.00063987,0.00654163,-0.0193934,-0.039719,4963,4963,0
197875931,197875528,3670026,3670026,-0.000883562,0.00105994,0.00073987,-0.0132817,0.023269,-0.0623411,4965,4965,0
198377511,198377125,3670026,3670026,-0.00117955,0.000923144,0.00042233,-0.00996261,0.0226939,-0.0597524,4965,4965,0
198874278,198873947,3670026,3670026,-0.00138344,-0.000299679,-0.000206057,-0.00437355,-0.00701743,-0.0513041,4999,4999,0
199370761,199370397,3670026,3670026,0.000946829,0.000368448,-3.2975e-05,0.00173109,-0.0132107,-0.0442632,4937,4937,0
199872418,199871986,3670026,3670026,-0.0010225,0.000263967,-0.000541666,0.00278939,-0.000287772,-0.0385043,4968,4968,0
200373918,200373588,3670026,3670026,0.00122458,-0.000430107,-0.000545372,0.00124915,0.00426388,-0.0370177,4972,4972,0
200875502,200875179,3670026,3670026,9.69184e-05,-0.000147287,-0.00103984,-0.00603428,-0.0282424,-0.0582114,4965,4965,0
201377101,201376777,3670026,3670026,-0.00111721,0.000298851,0.000594448,-0.0127708,0.00111259,-0.0605326,4966,4966,0
201873776,201873408,3670026,3670026,0.000342747,-0.000366276,9.64297e-05,0.004863,0.00850986,-0.0419582,4966,4966,0
202375386,202375033,3670026,3670026,0.000724909,0.00019606,0.000754907,-0.00927933,0.0197992,-0.0579306,4995,4995,0
202872203,202871821,3670026,3670026,0.00147672,-0.000335635,-0.0016445,0.00240106,-0.0377346,-0.0466214,4980,4980,0
203373628,203373255,3670026,3670026,-0.000773748,0.000382047,0.000227647,-0.00583206,-0.00733757,-0.0458807,4938,4938,0
203875164,203874834,3670026,3670026,-0.000439872,0.000977055,0.00161292,-0.0148647,0.0155092,-0.0576419,4968,4968,0
204376803,204376430,3670026,3670026,0.00130551,-0.000580265,0.000823987,0.00499243,0.00306587,-0.0359142,4966,4966,0
204873477,204873062,3670026,3670026,-0.00136704,0.000643041,0.00167638,-0.00726784,0.0313572,-0.0538893,4966,4966,0
205375050,205374660,3670026,3670026,-0.00127647,-3.95737e-05,0.000752458,-0.00502921,0.0235752,-0.0508257,4967,4967,0
205876600,205876258,3670026,3670026,0.00045903,0.000341796,-0.000403075,0.00034631,-0.00331783,-0.0455269,4967,4967,0
206373353,206373028,3670026,3670026,-0.000204219,0.000203381,-0.000340531,-0.00486572,-0.0126938,-0.0560819,4987,4987,0
206874834,206874508,3670026,3670026,0.000300821,0.000127806,-8.73754e-05,-0.00298878,-0.000342158,-0.0446155,4974,4974,0
207376489,207376105,3670026,3670026,-0.000952851,0.000776572,0.000376812,-0.0159207,-0.00446914,-0.0597111,4988,4988,0
207873085,207872716,3670026,3670026,0.000298827,-0.000869151,0.000891966,0.000700805,0.0129446,-0.0416279,4967,4967,0
208374692,208374314,3670026,3670026,0.000292169,0.000721326,-0.000141727,-0.00255238,0.00550289,-0.0549024,4967,4967,0
208876283,208875914,3670026,3670026,-0.000397428,0.000380476,6.73074e-05,-0.00944186,-0.0063961,-0.060494,4966,4966,0
209377851,209377510,3670026,3670026,-0.00107231,0.000192311,0.00107172,-0.00851679,0.0126416,-0.0564842,4967,4967,0
209874636,209874296,3670026,3670026,-0.00112417,0.00047594,0.000468934,-0.00713353,0.00787278,-0.0483644,4989,4989,0
210376161,210375789,3670026,3670026,-0.00101952,0.000571829,0.00022175,-0.0037656,0.0124747,-0.0528567,4991,4991,0
210872695,210872371,3670026,3670026,0.00116794,4.93401e-05,-0.000947637,0.00248374,-0.0177858,-0.0407712,4967,4967,0
211374301,211373969,3670026,3670026,0.000552285,-5.92073e-05,-0.000138485,-0.00249029,-0.00387626,-0.046581,4967,4967,0
211875938,211875567,3670026,3670026,-0.00159051,0.000163586,0.000326682,-0.0164553,-0.00707467,-0.0656712,4967,4967,0
212377575,212377186,3670026,3670026,-0.00107139,-7.27587e-05,6.9269e-06,-0.00617848,-0.0125971,-0.0592324,4983,4983,0
212874195,212873798,3670026,3670026,-0.000776113,0.000191348,-0.000194804,0.00376848,-0.000265571,-0.0401649,4967,4967,0
213370941,213370574,3670026,3670026,-0.000993368,7.99103e-05,-0.000249647,-0.00657575,-0.0174976,-0.0553881,4993,4993,0
213872357,213872027,3670026,3670026,-0.000502898,-0.000240939,-0.000750091,-0.00778712,-0.0126042,-0.0510473,4967,4967,0
214373995,214373625,3670026,3670026,-0.000984164,-0.000157515,-0.000148437,-0.0108086,-0.0171039,-0.0624326,4967,4967,0
214875594,214875222,3670026,3670026,0.00134771,8.55756e-05,-0.000118346,0.00531388,-0.0218908,-0.0412873,4966,4966,0
215377245,215376819,3670026,3670026,-0.00124724,0.000443465,0.00156621,-0.00824108,0.0241651,-0.0522041,4928,4928,0
215873877,215873532,3670026,3670026,0.00122595,0.000164001,-3.38342e-05,0.00922207,0.00271664,-0.0370061,5006,5006,0
216375443,216375052,3670026,3670026,-0.000591437,6.22408e-05,-0.00037558,-0.00672096,-0.020144,-0.0499812,4968,4968,0
216872295,216871861,3670026,3670026,-0.00185117,-0.00117404,-4.49347e-05,-0.00225967,-0.0140331,-0.0495564,5000,5000,0
217373649,217373326,3670026,3670026,-0.000317432,0.000249101,-7.50116e-05,0.00248283,-0.00633529,-0.0494604,4984,4984,0
217875206,217874880,3670026,3670026,0.000865585,-0.00091845,-0.00094403,-0.00850424,-0.019174,-0.0458191,4966,4966,0
218376804,218376477,3670026,3670026,0.000993655,-0.000500987,-0.00172304,-0.00649479,-0.0308861,-0.0473004,4967,4967,0
218873432,218873109,3670026,3670026,-0.000523683,0.00127357,8.22796e-05,0.0032412,-0.00966724,-0.0463421,4967,4967,0
219375069,219374707,3670026,3670026,0.0013977,-0.000231179,-0.000883573,0.0056174,-0.0193098,-0.0438468,4958,4958,0
219876646,219876305,3670026,3670026,-0.0010681,0.000596842,0.000148821,-0.00108561,0.0033442,-0.0444049,4966,4966,0
220373477,220373117,3670026,3670026,0.00135536,-0.000410005,-0.000564991,0.00539081,7.59567e-05,-0.0356603,4958,4958,0
220874920,220874596,3670026,3670026,-6.24165e-05,-0.00153309,0.000443044,0.00134274,-0.0123768,-0.044412,4977,4977,0
221376507,221376134,3670026,3670026,-0.000272827,0.000142206,-0.000696402,0.000701761,-0.0207117,-0.0447956,4929,4929,0
221873133,221872809,3670026,3670026,4.5302e-05,0.000820801,-6.57816e-05,0.00023518,0.00191817,-0.0487634,5009,5009,0
222374700,222374374,3670026,3670026,7.57964e-05,-0.000346143,-0.000236429,-0.00639588,-0.00262148,-0.0500809,4976,4976,0
222876289,222875963,3670026,3670026,-0.000524299,-0.000100329,-0.000438134,0.00153494,-0.00415149,-0.0461768,4966,4966,0
223377982,223377562,3670026,3670026,-0.000682648,0.000149661,0.000345876,0.00106076,-0.00298158,-0.0413954,4967,4967,0
223874546,223874202,3670026,3670026,-0.00143812,0.000951104,0.000847923,-0.0129407,0.0184094,-0.0628458,4802,4802,0
224376160,224375826,3670026,3670026,-0.000686286,-0.0014965,6.06856e-05,-0.00810449,-0.000887198,-0.0614771,4996,4996,0
224872794,224872425,3670026,3670026,0.00151868,0.00129518,-0.000313753,0.00059745,0.00530518,-0.0474765,4967,4967,0
225374407,225374024,3670026,3670026,0.00146846,-0.000324056,0.000252917,0.00816613,0.00105352,-0.0382195,4959,4959,0
225876000,225875674,3670026,3670026,0.00110118,-0.00119147,-0.000576123,-0.000269949,-0.0185915,-0.0390276,4981,4981,0
226377655,226377222,3670026,3670026,0.000828839,-0.0012647,9.57587e-05,0.00739455,-0.00273826,-0.0411845,4967,4967,0
226874205,226873858,3670026,3670026,0.000746919,-0.000540671,-0.00159759,-0.00408332,-0.0237817,-0.043425,4959,4959,0
227371126,227370673,3670026,3670026,-0.000290103,0.00016866,0.000972244,-0.00789752,-0.00182705,-0.0482326,4994,4994,0
227872483,227872108,3670026,3670026,0.00126181,-0.000688436,0.000583524,0.00657778,-0.014127,-0.0445768,4988,4988,0
228374062,228373683,3670026,3670026,0.000479958,-0.000532201,-0.00157947,0.00101534,-0.0267692,-0.0468427,4964,4964,0
228875604,228875282,3670026,3670026,-0.000500809,-0.000371032,0.000533412,-0.00503448,0.00315775,-0.0506166,4966,4966,0
229377213,229376881,3670026,3670026,-0.000772137,0.000193054,-0.000871599,-0.00560665,-0.0240188,-0.0545505,4966,4966,0
229873924,229873514,3670026,3670026,0.00105671,-0.00102674,-0.000958131,0.00158222,-0.0320129,-0.0473063,4966,4966,0
230375468,230375113,3670026,3670026,0.0022068,-0.000326995,-0.000574566,0.00895718,-0.028566,-0.0385217,4967,4967,0
230872098,230871748,3670026,3670026,0.000577662,-5.05687e-05,-0.000454339,0.0019839,-0.0084,-0.0499999,4790,4790,0
231373705,231373372,3670026,3670026,-3.87712e-05,0.000103454,0.000408323,-0.00455177,0.00132545,-0.0573005,4933,4933,0
231875270,231874944,3670026,3670026,-0.00121555,0.000757914,0.000564153,0.0019538,0.0102661,-0.042381,4967,4967,0
232376863,232376540,3670026,3670026,-0.00112336,-0.000451188,0.00024881,-0.000531533,-0.00584894,-0.050376,4964,4964,0
232873540,232873175,3670026,3670026,0.00303704,0.00152061,-0.000174494,0.000202166,0.00451946,-0.0463241,4966,4966,0
233375245,233374775,3670026,3670026,0.00090913,0.000736944,-0.000166096,-0.00207648,0.0132234,-0.0457592,4967,4967,0
233876718,233876373,3670026,3670026,0.000743453,-0.000903783,-0.00105563,0.00309989,-0.0209551,-0.0402678,4951,4951,0
234373397,234373054,3670026,3670026,0.000179437,-4.40754e-05,-0.000494487,-0.00235275,-0.00983876,-0.0486687,4821,4821,0
234875010,234874642,3670026,3670026,-0.0018871,0.000986058,0.000610414,-0.0142122,0.0245796,-0.0583899,4980,4980,0
235376574,235376204,3670026,3670026,-0.00127857,0.00072222,-0.000397607,-0.0124693,-0.00408124,-0.06281,4966,4966,0
235873187,235872866,3670026,3670026,0.000660162,-7.62478e-05,0.000210954,-0.00791446,-0.0189279,-0.0585891,4989,4989,0
236374805,236374437,3670026,3670026,-0.00149505,0.000662135,0.000430486,-0.00909635,0.00397357,-0.0552874,4967,4967,0
236876410,236876036,3670026,3670026,-0.000487525,-0.000833285,-0.000530271,-0.00622922,-0.0179683,-0.0513424,4967,4967,0
237377989,237377642,3670026,3670026,0.000103581,5.91402e-05,0.000439309,0.00619169,0.00504818,-0.0386417,4973,4973,0
237874607,237874268,3670026,3670026,-0.000380607,0.00114894,-0.000849357,-0.00242805,-0.00776508,-0.0467918,4967,4967,0
238371346,238370941,3670026,3670026,-0.00190368,0.00138701,-0.000290177,-0.0118383,-0.00265479,-0.0578649,4980,4980,0
238872824,238872500,3670026,3670026,0.000456586,-0.000340028,0.000258741,-0.00482487,0.00574362,-0.053423,4967,4967,0
239374477,239374101,3670026,3670026,-0.000441561,-0.000205324,-0.000770803,-0.00676721,-0.0203855,-0.0564279,4964,4964,0
239876101,239875734,3670026,3670026,-0.000864572,0.000160631,-0.000259098,-0.0125169,-0.0142941,-0.0603076,5002,5002,0
240377761,240377343,3670026,3670026,-0.00116574,-0.000580098,-0.000667055,-0.0103454,0.0148879,-0.0632277,5012,5012,0
240874357,240873964,3670026,3670026,0.00167903,0.00167773,0.00104013,0.00234424,0.026087,-0.0401575,4995,4995,0
241370912,241370563,3670026,3670026,-0.000260772,0.000233544,0.00014263,0.00146365,-0.00253171,-0.045065,4963,4963,0
241872582,241872209,3670026,3670026,0.000431164,-0.000940157,-0.0011787,0.00560045,-0.0351328,-0.043247,4981,4981,0
242374095,242373762,3670026,3670026,-0.00146571,0.000585711,-0.000114419,-0.0144925,-0.0172526,-0.0627495,4967,4967,0
242875683,242875361,3670026,3670026,-7.44586e-05,0.000792986,-0.000189844,-0.00374774,0.00157304,-0.0552765,4966,4966,0
243377389,243376960,3670026,3670026,-0.000181432,-0.00117465,-0.000761246,0.00446907,-0.0251352,-0.036116,4966,4966,0
243873922,243873593,3670026,3670026,0.00369468,-0.00047322,-0.000225303,0.00165412,0.0107051,-0.0393719,4965,4965,0
244375596,244375198,3670026,3670026,-0.0004044,0.000413022,0.000706267,-0.00950613,0.0144134,-0.0572906,4972,4972,0
244872169,244871826,3670026,3670026,0.000910083,-0.000327194,-2.78006e-05,0.00153219,0.0135824,-0.0439931,4967,4967,0
245373812,245373479,3670026,3670026,-0.000924056,-0.00130898,-0.00101868,0.00129589,-0.0323817,-0.0495145,4989,4989,0
245875485,245875024,3670026,3670026,0.00121887,2.32499e-05,0.000805336,-0.0069159,0.00436195,-0.042563,4908,4908,0
246377003,246376623,3670026,3670026,-0.000155803,-0.0010776,3.21165e-05,0.00822358,-0.0226173,-0.0451002,4965,4965,0
246873675,246873257,3670026,3670026,-0.000357211,-0.000835382,0.000352033,0.00699992,-0.0166154,-0.0465861,4962,4962,0
247375239,247374859,3670026,3670026,0.00138973,-0.000185931,-0.00062645,-0.00408406,-0.00731393,-0.0562937,4969,4969,0
247876842,247876455,3670026,3670026,-0.00111795,0.000900928,0.000847785,-0.0100542,-0.000345362,-0.0561439,4966,4966,0
248373438,248373089,3670026,3670026,-0.000571583,0.000724668,0.000401814,-0.00243139,-0.00984882,-0.0475453,4966,4966,0
248875199,248874820,3670026,3670026,4.20435e-05,0.000599269,-1.1872e-05,-0.00594981,-0.00325597,-0.0519233,4999,4999,0
249376685,249376288,3670026,3670026,0.00150656,-0.000776749,0.000449921,0.002085,-0.00778525,-0.044936,4964,4964,0
249873290,249872921,3670026,3670026,-0.000374319,-3.09216e-06,0.000284823,-0.00282796,0.00620761,-0.0514603,4966,4966,0
250374911,250374521,3670026,3670026,-9.20992e-05,0.00112348,-0.000516126,-0.00474733,0.00717343,-0.0500172,4967,4967,0
250876444,250876120,3670026,3670026,-0.00274222,-0.000212001,0.00117168,-0.00965801,0.0165961,-0.0575005,4966,4966,0
251378069,251377720,3670026,3670026,-0.00053102,-8.97059e-05,-0.000626547,-0.0106682,0.00694438,-0.0579018,4966,4966,0
251874700,251874353,3670026,3670026,0.000353039,0.00155333,0.000455633,-0.0141505,0.0122569,-0.0548637,4966,4966,0
252371511,252371054,3670026,3670026,-0.00215329,-0.000110009,0.000386101,0.0086,-0.0176795,-0.039644,4986,4986,0
252872919,252872586,3670026,3670026,0.00013816,0.000458463,0.00110534,-0.0144648,0.0286045,-0.0686691,4965,4965,0
253374519,253374187,3670026,3670026,0.000253127,0.000179682,0.000373943,-0.00477721,0.0131543,-0.0423203,4963,4963,0
253876110,253875786,3670026,3670026,-0.000621745,0.000497899,8.21534e-05,0.00271228,-0.000524854,-0.0467267,4966,4966,0
254377808,254377387,3670026,3670026,0.000397306,0.000149129,0.00036745,-0.00512715,0.00350747,-0.0465321,4917,4917,0
254874409,254874021,3670026,3670026,1.02719e-05,-0.000136113,-0.000700361,0.00710356,-0.0135007,-0.0388141,4960,4960,0
255371001,255370653,3670026,3670026,0.000187758,0.000215599,0.00159065,-0.00946454,0.0289297,-0.0548443,4968,4968,0
255872718,255872332,3670026,3670026,0.00183517,-0.000708764,-0.000825365,-0.000478772,-0.0293677,-0.0524982,4991,4991,0
256374179,256373854,3670026,3670026,-0.000588382,0.000230699,0.000251949,-0.0034734,0.00326095,-0.0436085,4967,4967,0
256875777,256875453,3670026,3670026,0.000822034,-0.000988764,-0.00147054,0.00978347,-0.0131787,-0.0337508,4966,4966,0
257377403,257377070,3670026,3670026,0.000243503,-0.00146216,0.000232796,0.00256667,-0.0116391,-0.0479036,4972,4972,0
257874059,257873686,3670026,3670026,-0.00028678,0.000319462,-0.00058129,-0.00239099,-0.00196875,-0.0530026,4945,4945,0
258375679,258375287,3670026,3670026,-0.000891005,0.00113564,0.00090531,-0.00740211,-0.00425643,-0.0490649,4967,4967,0
258872272,258871922,3670026,3670026,0.00073882,-3.82957e-05,0.000103434,-0.00453833,-0.0147223,-0.0507816,4968,4968,0
259373986,259373610,3670026,3670026,-0.00211118,0.000994209,0.000339622,-0.0124024,0.0203495,-0.0649208,4982,4982,0
259875506,259875121,3670026,3670026,0.000940481,-0.000165629,-0.000151922,0.0065098,-0.023296,-0.0460481,4965,4965,0
260377055,260376720,3670026,3670026,0.000913737,-0.000182527,-0.0001328,0.00559156,0.00757509,-0.03807,4966,4966,0
260873717,260873351,3670026,3670026,0.00152369,0.0013809,0.000187186,-0.00149251,0.00203038,-0.0350351,4963,4963,0
261375338,261374955,3670026,3670026,-0.000717452,-0.000563357,-0.00151284,-0.00496013,-0.0388772,-0.0548259,4967,4967,0
261876899,261876554,3670026,3670026,-0.00213733,0.00173084,0.00125801,-0.0121305,0.0369553,-0.059434,4965,4965,0
262373544,262373189,3670026,3670026,0.000674794,0.000594767,-0.000212898,-0.00169472,0.00415549,-0.0517385,4967,4967,0
262875305,262874893,3670026,3670026,0.000846288,0.000340079,-0.000104732,0.00685319,0.00205815,-0.0427485,4989,4989,0
263371833,263371422,3670026,3670026,-0.000656105,0.000234812,0.000246384,-0.00496129,0.000456894,-0.0501328,4966,4966,0
263873450,263873023,3670026,3670026,0.000191352,-0.000771823,-0.00166574,-0.00495117,-0.0306159,-0.0535514,4967,4967,0
264375002,264374623,3670026,3670026,0.000732796,3.28659e-05,-0.000123536,0.00231822,0.00907252,-0.0401827,4967,4967,0
264876589,264876222,3670026,3670026,-0.000569471,-0.000186927,0.000335458,-0.00541405,-0.00310497,-0.0471165,4965,4965,0
265378208,265377822,3670026,3670026,-0.00122086,-0.00158161,-0.000407952,-0.00576682,-0.00883155,-0.0545111,4966,4966,0
265874799,265874455,3670026,3670026,0.000724524,0.000383234,-5.24241e-05,-0.000608625,0.0108473,-0.0373885,4964,4964,0
266371515,266371189,3670026,3670026,-0.00047579,-0.00146612,0.00120495,-0.011091,-0.00556596,-0.0577639,4976,4976,0
266873042,266872715,3670026,3670026,-0.00154398,-0.00037851,0.000699314,-0.0132781,-0.00645543,-0.0597784,4985,4985,0
267374612,267374290,3670026,3670026,-0.00191616,0.000719246,0.000774715,-0.0108793,0.0151755,-0.057588,4966,4966,0
267876367,267875890,3670026,3670026,0.000607479,0.00109554,-0.000505296,-0.00355459,0.00276966,-0.0476891,4965,4965,0
268377953,268377492,3670026,3670026,-7.93543e-05,0.00018688,-0.00015187,-0.00226737,0.00880552,-0.0530795,4968,4968,0
268874485,268874125,3670026,3670026,0.000695258,0.00021918,0.000349749,0.00378614,0.0271653,-0.0447886,4967,4967,0
269371099,269370758,3670026,3670026,0.000616322,0.000331306,0.000224159,-0.0103325,0.0140961,-0.058088,4966,4966,0
269872795,269872471,3670026,3670026,-0.00153057,7.55511e-05,0.000326388,-0.00991411,0.0228215,-0.0567949,4974,4974,0
270374336,270374007,3670026,3670026,-0.000548561,0.000539213,0.00145635,-0.0136002,0.00541677,-0.0554169,4981,4981,0
270875957,270875586,3670026,3670026,0.000659312,0.000390185,-0.000173383,0.000943038,-0.0133936,-0.0466921,4976,4976,0
271377584,271377159,3670026,3670026,0.00089179,3.51401e-05,-0.000243311,0.0105357,0.00579365,-0.0337659,4963,4963,0
271874166,271873793,3670026,3670026,-0.000760621,-1.20956e-05,0.00104793,-0.00628267,0.00449377,-0.0487583,4968,4968,0
272375749,272375392,3670026,3670026,-0.00168818,0.000774669,0.000962426,-0.00967879,0.0265115,-0.0534584,4966,4966,0
272872458,272872025,3670026,3670026,-0.000384168,0.000660991,0.000346283,-0.00263432,0.00883625,-0.0469265,4926,4926,0
273374123,273373757,3670026,3670026,0.000457719,-0.000213999,-0.000678263,0.00227319,-0.0206308,-0.0438901,4993,4993,0
