timestamp,ref_timestamp,ref_lat,ref_lon,x,y,z,delta_xy[0],delta_xy[1],delta_z,vx,vy,vz,z_deriv,delta_vxy[0],delta_vxy[1],delta_vz,ax,ay,az,heading,delta_heading,ref_alt,dist_bottom,eph,epv,evh,evv,vxy_max,vz_max,hagl_min,hagl_max,xy_valid,z_valid,v_xy_valid,v_z_valid,xy_reset_counter,z_reset_counter,vxy_reset_counter,vz_reset_counter,heading_reset_counter,xy_global,z_global,dist_bottom_valid
21867082,0,0.0,0.0,0.0,0.0,0.661705,4.76975e-05,2.09995e-05,0.0,0.013524,0.045792,0.105233,0.01888,0.00960481,0.00422866,0.0,-0.0746222,0.286378,-0.171419,-1.51788,-0.0251962,0.0,0.1,0.432329,0.618689,0.365527,0.195204,inf,inf,inf,inf,0,1,0,1,1,0,1,0,2,0,0,1
21877015,0,0.0,0.0,0.0,0.0,0.662122,4.76975e-05,2.09995e-05,0.0,0.0154902,0.0469997,0.106098,0.0199916,0.00960481,0.00422866,0.0,0.154007,-0.0729182,0.231395,-1.51784,-0.0251962,0.0,0.1,0.435532,0.62033,0.367138,0.195462,inf,inf,inf,inf,0,1,0,1,1,0,1,0,2,0,0,1
21976336,0,0.0,0.0,0.0,0.0,0.665728,4.76975e-05,2.09995e-05,0.0,0.00683238,0.0482788,0.106321,0.0218957,0.00960481,0.00422866,0.0,-0.211354,0.114213,-0.10216,-1.51795,-0.0251962,0.0,0.1,0.398297,0.617284,0.340261,0.193702,inf,inf,inf,inf,0,1,0,1,1,0,1,0,2,0,0,1
22075676,0,0.0,0.0,0.0,0.0,0.668319,4.76975e-05,2.09995e-05,0.0,0.0118947,0.0625386,0.108047,0.0240893,0.00960481,0.00422866,0.0,1.11682,0.390343,0.770855,-1.51721,-0.0251962,0.0,0.1,0.428397,0.614317,0.355475,0.191991,inf,inf,inf,inf,0,1,0,1,1,0,1,0,2,0,0,1
22170015,0,0.0,0.0,0.0,0.0,0.669944,4.76975e-05,2.09995e-05,0.0,0.017691,0.048776,0.107482,0.0226577,0.00960481,0.00422866,0.0,1.20227,-0.548059,0.523942,-1.51696,-0.0251962,0.0,0.1,0.389457,0.619285,0.328342,0.192145,inf,inf,inf,inf,0,1,0,1,1,0,1,0,2,0,0,1
22269339,0,0.0,0.0,0.0,0.0,0.671016,4.76975e-05,2.09995e-05,0.0,0.0119912,0.0498978,0.106846,0.0210838,0.00960481,0.00422866,0.0,-0.695688,0.3236,-0.0750085,-1.51614,-0.0251962,0.0,0.1,0.418376,0.61628,0.342877,0.190458,inf,inf,inf,inf,0,1,0,1,1,0,1,0,2,0,0,1
22368789,0,0.0,0.0,0.0,0.0,0.668031,4.76975e-05,2.09995e-05,0.0,0.0110578,0.0502615,0.10471,0.0144341,0.00960481,0.00422866,0.0,0.636932,-0.128561,-0.182535,-1.51498,-0.0251962,0.0,0.1,0.384411,0.613384,0.319704,0.188838,inf,inf,inf,inf,0,1,0,1,1,0,1,0,2,0,0,1
22477923,0,0.0,0.0,0.0,0.0,0.663905,4.76975e-05,2.09995e-05,0.0,0.0130612,0.0514194,0.102553,0.00727381,0.00960481,0.00422866,0.0,0.452054,-0.207413,-0.383263,-1.5129,-0.0251962,0.0,0.1,0.415412,0.612087,0.334917,0.187468,inf,inf,inf,inf,0,1,0,1,1,0,1,0,2,0,0,1
22567308,0,0.0,0.0,0.0,0.0,0.660243,4.76975e-05,2.09995e-05,0.0,0.00739738,0.0459374,0.0999733,0.000870194,0.00960481,0.00422866,0.0,-1.40893,0.0991585,-0.325974,-1.51131,-0.0251962,0.0,0.1,0.379329,0.607651,0.310652,0.185634,inf,inf,inf,inf,0,1,0,1,1,0,1,0,2,0,0,1
22671630,0,0.0,0.0,0.0,0.0,0.655244,4.76975e-05,2.09995e-05,0.0,0.00872966,0.0460389,0.0992438,-0.00493679,0.00960481,0.00422866,0.0,-0.760577,-0.605152,0.0177508,-1.50919,-0.0251962,0.0,0.1,0.406566,0.604856,0.323873,0.184077,inf,inf,inf,inf,0,1,0,1,1,0,1,0,2,0,0,1
22770919,0,0.0,0.0,0.0,0.0,0.650657,4.76975e-05,2.09995e-05,0.0,0.0109864,0.0490814,0.0994356,-0.00821282,0.00960481,0.00422866,0.0,-0.123961,-0.821063,0.0486875,-1.50731,-0.0251962,0.0,0.1,0.3749,0.602117,0.302444,0.182554,inf,inf,inf,inf,0,1,0,1,1,0,1,0,2,0,0,1
22870244,0,0.0,0.0,0.0,0.0,0.649401,4.76975e-05,2.09995e-05,0.0,0.00844233,0.0508561,0.0994907,-0.00772544,0.00960481,0.00422866,0.0,0.378324,0.40782,0.288675,-1.50566,-0.0251962,0.0,0.1,0.401382,0.599396,0.315771,0.18108,inf,inf,inf,inf,0,1,0,1,1,0,1,0,2,0,0,1
22969568,0,0.0,0.0,0.0,0.0,0.646418,4.76975e-05,2.09995e-05,0.0,0.005322,0.0482787,0.0964092,-0.0119821,0.00960481,0.00422866,0.0,-0.326513,0.546433,0.32105,-1.50409,-0.0251962,0.0,0.1,0.370366,0.605641,0.29498,0.181491,inf,inf,inf,inf,0,1,0,1,1,0,1,0,2,0,0,1
23068927,0,0.0,0.0,0.0,0.0,0.64119,4.76975e-05,2.09995e-05,0.0,0.00900344,0.0458078,0.0925711,-0.0189857,0.00960481,0.00422866,0.0,0.141134,-0.457067,-0.094914,-1.5019,-0.0251962,0.0,0.1,0.396121,0.602916,0.307133,0.180017,inf,inf,inf,inf,0,1,0,1,1,0,1,0,2,0,0,1
23178234,0,0.0,0.0,0.0,0.0,0.634874,4.76975e-05,2.09995e-05,0.0,0.00209981,0.0438757,0.0940877,-0.0209757,0.00960481,0.00422866,0.0,-1.24097,-0.57755,0.868775,-1.50071,-0.0251962,0.0,0.1,0.368206,0.601737,0.288288,0.178797,inf,inf,inf,inf,0,1,0,1,1,0,1,0,2,0,0,1
23272501,0,0.0,0.0,0.0,0.0,0.628394,4.76975e-05,2.09995e-05,0.0,0.00859564,0.047858,0.0883991,-0.0307964,0.00960481,0.00422866,0.0,1.2383,-0.382624,-0.457099,-1.49868,-0.0251962,0.0,0.1,0.390783,0.597584,0.298838,0.177149,inf,inf,inf,inf,0,1,0,1,1,0,1,0,2,0,0,1
23371823,0,0.0,0.0,0.0,0.0,0.622809,4.76975e-05,2.09995e-05,0.0,0.0021228,0.0473056,0.0906993,-0.0304048,0.00960481,0.00422866,0.0,0.167801,0.198965,-0.343694,-1.49807,-0.0251962,0.0,0.1,0.361754,0.594978,0.280124,0.17576,inf,inf,inf,inf,0,1,0,1,1,0,1,0,2,0,0,1
23471150,0,0.0,0.0,0.0,0.0,0.618813,4.76975e-05,2.09995e-05,0.0,-0.0013144,0.0443421,0.0920059,-0.0287713,0.00960481,0.00422866,0.0,-1.29203,-0.590674,0.743053,-1.49675,-0.0251962,0.0,0.1,0.38614,0.592428,0.291913,0.174421,inf,inf,inf,inf,0,1,0,1,1,0,1,0,2,0,0,1
23570473,0,0.0,0.0,0.0,0.0,0.614884,4.76975e-05,2.09995e-05,0.0,0.00428952,0.0455972,0.087651,-0.0328496,0.00960481,0.00422866,0.0,-0.430645,-0.120211,0.953643,-1.49457,-0.0251962,0.0,0.1,0.35767,0.589926,0.273689,0.173083,inf,inf,inf,inf,0,1,0,1,1,0,1,0,2,0,0,1
23669793,0,0.0,0.0,0.0,0.0,0.611134,4.76975e-05,2.09995e-05,0.0,0.00203028,0.0462193,0.0824246,-0.0376212,0.00960481,0.00422866,0.0,-0.437746,0.256289,-0.179268,-1.4935,-0.0251962,0.0,0.1,0.381405,0.587435,0.284502,0.17176,inf,inf,inf,inf,0,1,0,1,1,0,1,0,2,0,0,1
23774082,0,0.0,0.0,0.0,0.0,0.609536,4.76975e-05,2.09995e-05,0.0,0.00219989,0.0436984,0.0828461,-0.0351072,0.00960481,0.00422866,0.0,-0.532713,0.14939,-0.201231,-1.49248,-0.0251962,0.0,0.1,0.353519,0.593336,0.266939,0.172156,inf,inf,inf,inf,0,1,0,1,1,0,1,0,2,0,0,1
23873406,0,0.0,0.0,0.0,0.0,0.606411,4.76975e-05,2.09995e-05,0.0,0.0015852,0.0395948,0.0850066,-0.0321652,0.00960481,0.00422866,0.0,-0.0621748,-0.779961,-0.158557,-1.49197,-0.0251962,0.0,0.1,0.376614,0.590798,0.277456,0.170852,inf,inf,inf,inf,0,1,0,1,1,0,1,0,2,0,0,1
23972805,0,0.0,0.0,0.0,0.0,0.601661,4.76975e-05,2.09995e-05,0.0,0.00130168,0.0423521,0.0856517,-0.0321266,0.00960481,0.00422866,0.0,0.597593,-0.301219,0.59489,-1.4904,-0.0251962,0.0,0.1,0.34937,0.588309,0.261022,0.169596,inf,inf,inf,inf,0,1,0,1,1,0,1,0,2,0,0,1
24072051,0,0.0,0.0,0.0,0.0,0.59779,4.76975e-05,2.09995e-05,0.0,-0.00426369,0.0403904,0.0823038,-0.0350087,0.00960481,0.00422866,0.0,-0.437998,0.282543,0.606472,-1.48912,-0.0251962,0.0,0.1,0.371885,0.585871,0.271125,0.168342,inf,inf,inf,inf,0,1,0,1,1,0,1,0,2,0,0,1
24171375,0,0.0,0.0,0.0,0.0,0.593866,4.76975e-05,2.09995e-05,0.0,-0.00391514,0.0414948,0.0774508,-0.0395087,0.00960481,0.00422866,0.0,-0.111357,0.849518,0.0428335,-1.48827,-0.0251962,0.0,0.1,0.345287,0.583478,0.254824,0.167112,inf,inf,inf,inf,0,1,0,1,1,0,1,0,2,0,0,1
24270868,0,0.0,0.0,0.0,0.0,0.591314,4.76975e-05,2.09995e-05,0.0,0.0020858,0.0233307,0.0878912,-0.0273909,0.00960481,0.00422866,0.0,-1.83194,-1.85216,1.52194,-1.48662,-0.0251962,0.0,0.1,0.367209,0.581093,0.266079,0.165896,inf,inf,inf,inf,0,1,0,1,1,0,1,0,2,0,0,1
24370027,0,0.0,0.0,0.0,0.0,0.589599,4.76975e-05,2.09995e-05,0.0,0.00196985,0.0383439,0.0818393,-0.0310678,0.00960481,0.00422866,0.0,0.234617,-0.545153,0.719716,-1.48636,-0.0251962,0.0,0.1,0.39039,0.578719,0.280278,0.164697,inf,inf,inf,inf,0,1,0,1,1,0,1,0,2,0,0,1
24469343,0,0.0,0.0,0.0,0.0,0.590374,4.76975e-05,2.09995e-05,0.0,-0.00254864,0.0270636,0.0838924,-0.024481,0.00960481,0.00422866,0.0,0.0646455,-1.19419,0.3563,-1.48532,-0.0251962,0.0,0.10028,0.414743,0.584368,0.296936,0.165088,inf,inf,inf,inf,0,1,0,1,1,0,1,0,2,0,0,1
24568711,0,0.0,0.0,0.0,0.0,0.590249,4.76975e-05,2.09995e-05,0.0,-0.00560211,0.0479886,0.0710264,-0.0342423,0.00960481,0.00422866,0.0,1.27608,2.00444,-1.21414,-1.48423,-0.0251962,0.0,0.100404,0.440684,0.581987,0.315819,0.163913,inf,inf,inf,inf,0,1,0,1,1,0,1,0,2,0,0,1
24667989,0,0.0,0.0,0.0,0.0,0.589535,4.76975e-05,2.09995e-05,0.0,-0.0132481,0.0309132,0.082106,-0.0209104,0.00960481,0.00422866,0.0,-1.18536,0.903,0.148041,-1.4836,-0.0251962,0.0,0.101119,0.467968,0.579616,0.33626,0.162748,inf,inf,inf,inf,0,1,0,1,1,0,1,0,2,0,0,1
24777308,0,0.0,0.0,0.0,0.0,0.586084,4.76975e-05,2.09995e-05,0.0,-0.00176698,0.0456627,0.0749163,-0.028691,0.00960481,0.00422866,0.0,0.800628,2.23519,-0.871566,-1.48265,-0.0251962,0.0,0.104569,0.500219,0.578632,0.360758,0.161802,inf,inf,inf,inf,0,1,0,1,1,0,1,0,2,0,0,1
24871603,0,0.0,0.0,0.0,0.0,0.581755,4.76975e-05,2.09995e-05,0.0,-0.00481369,0.0398589,0.0781156,-0.0276236,0.00960481,0.00422866,0.0,2.22762,-0.927931,0.673156,-1.48164,-0.0251962,0.0,0.108899,0.527962,0.574971,0.381684,0.160487,inf,inf,inf,inf,0,1,0,1,1,0,1,0,2,0,0,1
24970925,0,0.0,0.0,0.0,0.0,0.575363,4.76975e-05,2.09995e-05,0.0,-0.00662122,0.0432376,0.0723533,-0.0365079,0.00960481,0.00422866,0.0,-0.634648,1.21306,-0.679607,-1.48145,-0.0251962,0.0,0.115291,0.561079,0.572697,0.406122,0.159388,inf,inf,inf,inf,0,1,0,1,1,0,1,0,2,0,0,1
25070373,0,0.0,0.0,0.0,0.0,0.57119,4.76975e-05,2.09995e-05,0.0,-0.0139769,0.0380361,0.0807817,-0.0283147,0.00960481,0.00422866,0.0,-0.412526,-1.59699,2.05175,-1.48153,-0.0251962,0.0,0.119464,0.595933,0.570467,0.431643,0.158336,inf,inf,inf,inf,0,1,0,1,1,0,1,0,2,0,0,1
25169571,0,0.0,0.0,0.0,0.0,0.569598,4.76975e-05,2.09995e-05,0.0,-0.00251144,0.0443271,0.075006,-0.0318743,0.00960481,0.00422866,0.0,-0.292945,2.49901,-2.01758,-1.4814,-0.0251962,0.0,0.121056,0.63358,0.568278,0.457719,0.157279,inf,inf,inf,inf,0,1,0,1,1,0,1,0,2,0,0,1
25268894,0,0.0,0.0,0.0,0.0,0.568126,4.76975e-05,2.09995e-05,0.0,0.000737631,0.043589,0.0747973,-0.0299849,0.00960481,0.00422866,0.0,1.70672,-1.60824,1.30938,-1.48137,-0.0251962,0.0,0.122528,0.672979,0.573684,0.483972,0.157668,inf,inf,inf,inf,0,1,0,1,1,0,1,0,2,0,0,1
25368217,0,0.0,0.0,0.0,0.0,0.565816,4.76975e-05,2.09995e-05,0.0,-0.0120782,0.0494979,0.0727289,-0.0309971,0.00960481,0.00422866,0.0,-1.98111,2.28359,-1.95049,-1.48226,-0.0251962,0.0,0.124838,0.715621,0.571454,0.511281,0.156622,inf,inf,inf,inf,0,1,0,1,1,0,1,0,2,0,0,1
25477473,0,0.0,0.0,0.0,0.0,0.565613,4.76975e-05,2.09995e-05,0.0,-0.0111551,0.0413538,0.0787872,-0.021928,0.00960481,0.00422866,0.0,-0.0247715,-3.80044,1.17674,-1.48281,-0.0251962,0.0,0.125041,0.764595,0.570554,0.541287,0.155781,inf,inf,inf,inf,0,1,0,1,1,0,1,0,2,0,0,1
25566863,0,0.0,0.0,0.0,0.0,0.56387,4.76975e-05,2.09995e-05,0.0,-0.0148461,0.0468177,0.0744888,-0.0255303,0.00960481,0.00422866,0.0,1.57906,-0.427994,-0.475806,-1.48313,-0.0251962,0.0,0.126784,0.807966,0.567084,0.566549,0.154583,inf,inf,inf,inf,0,1,0,1,1,0,1,0,2,0,0,1
25671153,0,0.0,0.0,0.0,0.0,0.562059,4.76975e-05,2.09995e-05,0.0,-0.0131439,0.0486442,0.0741256,-0.0254242,0.00960481,0.00422866,0.0,-0.29352,0.9911,-1.75426,-1.48386,-0.0251962,0.0,0.128595,0.857371,0.56491,0.594197,0.153579,inf,inf,inf,inf,0,1,0,1,1,0,1,0,2,0,0,1
25770476,0,0.0,0.0,0.0,0.0,0.560431,4.76975e-05,2.09995e-05,0.0,-0.0209705,0.0328867,0.0839992,-0.0144328,0.00960481,0.00422866,0.0,0.526876,-5.65029,4.24479,-1.48429,-0.0251962,0.0,0.130223,0.911126,0.562776,0.623044,0.152601,inf,inf,inf,inf,0,1,0,1,1,0,1,0,2,0,0,1
25869889,25845049,34.0356189,108.7574151,0.0,0.0,0.56103,4.76975e-05,2.09995e-05,0.0,-0.0179026,0.0613332,0.0695767,-0.0256098,0.00960481,0.00422866,0.0,0.597828,1.11839,-0.644752,-1.52725,-0.0427076,423.316,0.129624,0.965732,0.560683,0.650577,0.151618,inf,inf,inf,inf,0,1,0,1,1,0,1,0,3,1,1,1
25969122,25845049,34.0356189,108.7574151,0.000482772,0.0121012,0.566607,0.0226914,-0.0785151,0.0,0.0224461,0.0568927,0.132426,0.0395763,0.0479995,-0.00390586,0.0643319,1.26881,1.24721,-1.18342,-1.52778,-0.0427076,423.316,0.124047,0.878182,0.557431,0.256539,0.202185,inf,inf,inf,inf,1,1,1,1,2,0,2,1,3,1,1,1
26068464,25845049,34.0356189,108.7574151,0.00374083,0.0163139,0.57553,0.0226914,-0.0785151,0.0,0.0122459,0.0448465,0.14069,0.0497142,0.0479995,-0.00390586,0.0643319,-1.84436,-0.141399,-0.462008,-1.5291,-0.0427076,423.316,0.115124,0.879084,0.544738,0.261492,0.20254,inf,inf,inf,inf,1,1,1,1,2,0,2,1,3,1,1,1
26172734,25845049,34.0356189,108.7574151,0.00577634,0.0172495,0.585698,0.0226914,-0.0785151,0.0,0.0234317,0.050317,0.143228,0.0542702,0.0479995,-0.00390586,0.0643319,-0.914132,2.92994,-1.08914,-1.53035,-0.0427076,423.316,0.104955,0.716912,0.533216,0.229573,0.185068,inf,inf,inf,inf,1,1,1,1,2,0,2,1,3,1,1,1
26272057,25845049,34.0356189,108.7574151,0.00773742,0.0175659,0.593746,0.0226914,-0.0785151,0.0,0.010145,0.0368214,0.145993,0.0577823,0.0479995,-0.00390586,0.0643319,-1.04054,0.0296485,-0.898392,-1.52979,-0.0427076,423.316,0.1,0.718712,0.523302,0.240873,0.185496,inf,inf,inf,inf,1,1,1,1,2,0,2,1,3,1,1,1
26371381,25845049,34.0356189,108.7574151,0.00723454,0.0156241,0.600409,0.0226914,-0.0785151,0.0,0.0129211,0.0376477,0.147541,0.0590968,0.0479995,-0.00390586,0.0643319,-0.885253,-1.69675,1.03923,-1.52935,-0.0427076,423.316,0.1,0.62158,0.51365,0.221454,0.171943,inf,inf,inf,inf,1,1,1,1,2,0,2,1,3,1,1,1
26465737,25845049,34.0356189,108.7574151,0.00630261,0.0142905,0.607974,0.0226914,-0.0785151,0.0,0.0143381,0.0393453,0.141348,0.0541199,0.0479995,-0.00390586,0.0643319,-1.00223,-0.845658,0.726647,-1.52879,-0.0427076,423.316,0.1,0.623879,0.505452,0.235822,0.172371,inf,inf,inf,inf,1,1,1,1,2,0,2,1,3,1,1,1
26574993,25845049,34.0356189,108.7574151,0.00311267,0.0110693,0.616776,0.0226914,-0.0785151,0.0,0.0040815,0.0350608,0.142658,0.0574602,0.0479995,-0.00390586,0.0643319,-0.749553,-0.874399,0.60884,-1.52773,-0.0427076,423.316,0.1,0.557622,0.497399,0.222746,0.161526,inf,inf,inf,inf,1,1,1,1,2,0,2,1,3,1,1,1
26674445,25845049,34.0356189,108.7574151,-1.93887e-05,0.00891463,0.622823,0.0226914,-0.0785151,0.0,-0.000903329,0.0295671,0.139086,0.0542096,0.0479995,-0.00390586,0.0643319,0.0675555,0.37942,-0.297545,-1.52795,-0.0427076,423.316,0.1,0.56109,0.491074,0.241828,0.16209,inf,inf,inf,inf,1,1,1,1,2,0,2,1,3,1,1,1
26773654,25845049,34.0356189,108.7574151,-0.00280069,0.00546802,0.626407,0.0226914,-0.0785151,0.0,-0.00233469,0.0207681,0.142111,0.0554592,0.0479995,-0.00390586,0.0643319,-0.178233,-1.04467,0.147513,-1.52758,-0.0427076,423.316,0.1,0.511289,0.488346,0.226456,0.153154,inf,inf,inf,inf,1,1,1,1,2,0,2,1,3,1,1,1
26872962,25845049,34.0356189,108.7574151,-0.00510672,0.00275476,0.630079,0.0226914,-0.0785151,0.0,-0.00251422,0.019868,0.139973,0.0519709,0.0479995,-0.00390586,0.0643319,-0.581597,0.179538,0.129146,-1.52652,-0.0427076,423.316,0.1,0.515629,0.483095,0.246253,0.15379,inf,inf,inf,inf,1,1,1,1,2,0,2,1,3,1,1,1
26972291,25845049,34.0356189,108.7574151,-0.00668624,-0.00197907,0.632394,0.0226914,-0.0785151,0.0,-0.0022389,0.0239899,0.133101,0.0426903,0.0479995,-0.00390586,0.0643319,-0.930534,1.38011,-0.298086,-1.52617,-0.0427076,423.316,0.1,0.4763,0.476221,0.229939,0.146184,inf,inf,inf,inf,1,1,1,1,2,0,2,1,3,1,1,1
27071609,25845049,34.0356189,108.7574151,-0.00740736,-0.00573179,0.634096,0.0226914,-0.0785151,0.0,-0.00186583,0.00899834,0.136394,0.0436681,0.0479995,-0.00390586,0.0643319,-1.25677,1.0212,-0.530573,-1.52635,-0.0427076,423.316,0.1,0.481539,0.471968,0.249513,0.146882,inf,inf,inf,inf,1,1,1,1,2,0,2,1,3,1,1,1
27170932,25845049,34.0356189,108.7574151,-0.00749266,-0.0124738,0.635652,0.0226914,-0.0785151,0.0,0.00385684,0.00384362,0.132258,0.0375615,0.0479995,-0.00390586,0.0643319,0.922808,1.11852,-0.676951,-1.52541,-0.0427076,423.316,0.1,0.448999,0.465706,0.231312,0.140356,inf,inf,inf,inf,1,1,1,1,2,0,2,1,3,1,1,1
27270255,25845049,34.0356189,108.7574151,-0.00689839,-0.0187956,0.636934,0.0226914,-0.0785151,0.0,0.011679,-0.000190211,0.132097,0.0356639,0.0479995,-0.00390586,0.0643319,1.62353,-0.917979,0.866194,-1.52344,-0.0427076,423.316,0.1,0.455077,0.462279,0.249989,0.141129,inf,inf,inf,inf,1,1,1,1,2,0,2,1,3,1,1,1
27369578,25845049,34.0356189,108.7574151,-0.00635539,-0.0269784,0.635539,0.0226914,-0.0785151,0.0,0.00620742,-0.0126837,0.132651,0.0321603,0.0479995,-0.00390586,0.0643319,-0.813963,-0.0768796,-0.415847,-1.51922,-0.0427076,423.316,0.1,0.427194,0.456518,0.230492,0.135453,inf,inf,inf,inf,1,1,1,1,2,0,2,1,3,1,1,1
27468977,25845049,34.0356189,108.7574151,-0.0063031,-0.0340651,0.636279,0.0226914,-0.0785151,0.0,-0.0045241,-0.0223199,0.129222,0.027389,0.0479995,-0.00390586,0.0643319,-1.33592,-0.427909,-0.755909,-1.51575,-0.0427076,423.316,0.1,0.434013,0.457629,0.247946,0.136468,inf,inf,inf,inf,1,1,1,1,2,0,2,1,3,1,1,1
27568225,25845049,34.0356189,108.7574151,-0.00486009,-0.0418471,0.638503,0.0226914,-0.0785151,0.0,-0.0128445,-0.0260912,0.138657,0.0366875,0.0479995,-0.00390586,0.0643319,0.721881,-1.10064,0.676084,-1.51119,-0.0427076,423.316,0.1,0.409456,0.452153,0.227945,0.131478,inf,inf,inf,inf,1,1,1,1,2,0,2,1,3,1,1,1
27667549,25845049,34.0356189,108.7574151,-0.00408107,-0.0488591,0.640177,0.0226914,-0.0785151,0.0,-0.0065204,-0.0337787,0.132303,0.0297099,0.0479995,-0.00390586,0.0643319,-0.481934,-0.630783,0.845884,-1.50741,-0.0427076,423.316,0.1,0.416907,0.44991,0.244039,0.132414,inf,inf,inf,inf,1,1,1,1,2,0,2,1,3,1,1,1
27776806,25845049,34.0356189,108.7574151,-0.00141297,-0.0557434,0.638279,0.0226914,-0.0785151,0.0,0.0148857,-0.0235213,0.118704,0.0126123,0.0479995,-0.00390586,0.0643319,-2.33368,0.81152,-0.734779,-1.50507,-0.0427076,423.316,0.1,0.395417,0.445325,0.225189,0.128103,inf,inf,inf,inf,1,1,1,1,2,0,2,1,3,1,1,1
27866199,25845049,34.0356189,108.7574151,0.00148756,-0.0596763,0.636818,0.0226914,-0.0785151,0.0,0.0233178,-0.0216148,0.117485,0.00967955,0.0479995,-0.00390586,0.0643319,2.39934,0.536777,-0.131277,-1.50167,-0.0427076,423.316,0.1,0.40263,0.443033,0.238516,0.128977,inf,inf,inf,inf,1,1,1,1,2,0,2,1,3,1,1,1
27975450,25845049,34.0356189,108.7574151,0.00520947,-0.0663354,0.635596,0.0226914,-0.0785151,0.0,0.0274277,-0.034444,0.115013,0.00581365,0.0479995,-0.00390586,0.0643319,-2.10315,0.328959,-0.0663114,-1.49759,-0.0427076,423.316,0.1,0.383111,0.438782,0.220347,0.125149,inf,inf,inf,inf,1,1,1,1,2,0,2,1,3,1,1,1
28069806,25845049,34.0356189,108.7574151,0.00922981,-0.0714856,0.635554,0.0226914,-0.0785151,0.0,0.0460974,-0.0244502,0.10991,0.000774588,0.0479995,-0.00390586,0.0643319,-1.8274,0.570621,-0.87639,-1.49374,-0.0427076,423.316,0.1,0.390685,0.436898,0.232556,0.126086,inf,inf,inf,inf,1,1,1,1,2,0,2,1,3,1,1,1
28169164,25845049,34.0356189,108.7574151,0.0144397,-0.0766369,0.633134,0.0226914,-0.0785151,0.0,0.0610859,-0.0330074,0.108893,-0.00188026,0.0479995,-0.00390586,0.0643319,-1.41132,-1.44095,1.39378,-1.49229,-0.0427076,423.316,0.1,0.371915,0.435726,0.213995,0.122696,inf,inf,inf,inf,1,1,1,1,2,0,2,1,3,1,1,1
28268483,25845049,34.0356189,108.7574151,0.0209102,-0.0804947,0.629062,0.0226914,-0.0785151,0.0,0.0687439,-0.0145428,0.0982464,-0.0150103,0.0479995,-0.00390586,0.0643319,-0.894081,-0.0439336,0.808191,-1.49332,-0.0427076,423.316,0.1,0.380591,0.434727,0.226594,0.123901,inf,inf,inf,inf,1,1,1,1,2,0,2,1,3,1,1,1
28367777,25845049,34.0356189,108.7574151,0.0300614,-0.0838373,0.624546,0.0226914,-0.0785151,0.0,0.103778,-0.0118777,0.0795851,-0.0346248,0.0479995,-0.00390586,0.0643319,0.195587,-0.0731772,0.181764,-1.49586,-0.0427076,423.316,0.1,0.363162,0.430365,0.209348,0.120653,inf,inf,inf,inf,1,1,1,1,2,0,2,1,3,1,1,1
28477033,25845049,34.0356189,108.7574151,0.0424856,-0.0867453,0.618136,0.0226914,-0.0785151,0.0,0.121837,-0.00703194,0.0447855,-0.0700593,0.0479995,-0.00390586,0.0643319,1.18878,1.24372,-0.867505,-1.50136,-0.0427076,423.316,0.101056,0.373106,0.430273,0.222102,0.122082,inf,inf,inf,inf,1,1,1,1,2,0,2,1,3,1,1,1
28566538,25845049,34.0356189,108.7574151,0.0543044,-0.0891535,0.608834,0.0226914,-0.0785151,0.0,0.129683,-0.0257112,0.00211292,-0.113035,0.0479995,-0.00390586,0.0643319,1.38098,-0.732886,1.32933,-1.5051,-0.0427076,423.316,0.110358,0.355662,0.425542,0.204604,0.118937,inf,inf,inf,inf,1,1,1,1,2,0,2,1,3,1,1,1
28670712,25845049,34.0356189,108.7574151,0.067895,-0.0930746,0.591336,0.0226914,-0.0785151,0.0,0.131491,-0.0357786,-0.0833522,-0.199286,0.0479995,-0.00390586,0.0643319,4.09359,1.26222,-1.92004,-1.51085,-0.0427076,423.316,0.127856,0.364868,0.42513,0.215443,0.120288,inf,inf,inf,inf,1,1,1,1,2,0,2,1,3,1,1,1
28770037,25845049,34.0356189,108.7574151,0.0808624,-0.102976,0.565117,0.0226914,-0.0785151,0.0,0.128213,-0.0861686,-0.144005,-0.262698,0.0479995,-0.00390586,0.0643319,-0.123445,-1.28067,0.989801,-1.51495,-0.0427076,423.316,0.154075,0.349034,0.421168,0.199957,0.117592,inf,inf,inf,inf,1,1,1,1,2,0,2,1,3,1,1,1
28874362,25845049,34.0356189,108.7574151,0.0936599,-0.118379,0.532917,0.0226914,-0.0785151,0.0,0.111501,-0.136396,-0.227498,-0.346809,0.0479995,-0.00390586,0.0643319,-0.16744,0.178387,-0.716805,-1.51996,-0.0427076,423.316,0.186275,0.358407,0.424072,0.210144,0.119263,inf,inf,inf,inf,1,1,1,1,2,0,2,1,3,1,1,1
28973648,25845049,34.0356189,108.7574151,0.103206,-0.134463,0.493861,0.0226914,-0.0785151,0.0,0.113862,-0.193295,-0.290649,-0.41108,0.0479995,-0.00390586,0.0643319,2.25622,-0.680007,-0.129851,-1.52512,-0.0427076,423.316,0.225331,0.343283,0.420187,0.19548,0.11672,inf,inf,inf,inf,1,1,1,1,2,0,2,1,3,1,1,1
29073043,25845049,34.0356189,108.7574151,0.112445,-0.154916,0.450512,0.0226914,-0.0785151,0.0,0.109165,-0.249748,-0.340187,-0.459342,0.0479995,-0.00390586,0.0643319,-1.15957,-0.350588,-0.863554,-1.52915,-0.0427076,423.316,0.26868,0.352783,0.420205,0.205168,0.118274,inf,inf,inf,inf,1,1,1,1,2,0,2,1,3,1,1,1
29172294,25845049,34.0356189,108.7574151,0.122679,-0.188131,0.405412,0.0226914,-0.0785151,0.0,0.0875597,-0.311056,-0.3605,-0.477029,0.0479995,-0.00390586,0.0643319,-3.00183,-2.33521,1.68761,-1.52942,-0.0427076,423.316,0.31378,0.338382,0.416492,0.191555,0.115901,inf,inf,inf,inf,1,1,1,1,2,0,2,1,3,1,1,0
29271617,25845049,34.0356189,108.7574151,0.131997,-0.22579,0.35851,0.0226914,-0.0785151,0.0,0.0981755,-0.351897,-0.406062,-0.519,0.0479995,-0.00390586,0.0643319,-0.199225,0.464652,-1.38927,-1.5272,-0.0427076,423.316,0.360682,0.348001,0.416708,0.200509,0.117451,inf,inf,inf,inf,1,1,1,1,2,0,2,1,3,1,1,0
29371043,25845049,34.0356189,108.7574151,0.136044,-0.259633,0.303378,0.0226914,-0.0785151,0.0,0.0668971,-0.386741,-0.438215,-0.552672,0.0479995,-0.00390586,0.0643319,-3.07775,-1.17962,0.490704,-1.52612,-0.0427076,423.316,0.415814,0.334083,0.413131,0.187551,0.11518,inf,inf,inf,inf,1,1,1,1,2,0,2,1,3,1,1,0
29470264,25845049,34.0356189,108.7574151,0.13816,-0.295119,0.246852,0.0226914,-0.0785151,0.0,0.0628374,-0.392776,-0.473939,-0.587663,0.0479995,-0.00390586,0.0643319,-1.01597,1.05051,-1.68074,-1.52515,-0.0427076,423.316,0.47234,0.343783,0.416441,0.196029,0.117024,inf,inf,inf,inf,1,1,1,1,2,0,2,1,3,1,1,0
29569587,25845049,34.0356189,108.7574151,0.148624,-0.342652,0.18437,0.0226914,-0.0785151,0.0,0.0626891,-0.41304,-0.510612,-0.625789,0.0479995,-0.00390586,0.0643319,3.07086,1.24939,-1.24974,-1.52402,-0.0427076,423.316,0.534822,0.330288,0.412911,0.183802,0.114855,inf,inf,inf,inf,1,1,1,1,2,0,2,1,3,1,1,0
29668912,25845049,34.0356189,108.7574151,0.157779,-0.3908,0.121232,0.0226914,-0.0785151,0.0,0.0541811,-0.428705,-0.529549,-0.643857,0.0479995,-0.00390586,0.0643319,2.9054,-1.23474,1.74581,-1.52397,-0.0427076,423.316,0.59796,0.340045,0.413465,0.191852,0.116506,inf,inf,inf,inf,1,1,1,1,2,0,2,1,3,1,1,0
29768235,25845049,34.0356189,108.7574151,0.161651,-0.430746,0.0508465,0.0226914,-0.0785151,0.0,0.0268394,-0.434841,-0.553931,-0.672257,0.0479995,-0.00390586,0.0643319,-3.62614,-3.45452,2.40089,-1.52506,-0.0427076,423.316,0.668346,0.326805,0.410038,0.180099,0.114405,inf,inf,inf,inf,1,1,1,1,2,0,2,1,3,1,1,0
29867557,25845049,34.0356189,108.7574151,0.163324,-0.46953,-0.0219612,0.0226914,-0.0785151,0.0,0.0079837,-0.425395,-0.600911,-0.722135,0.0479995,-0.00390586,0.0643319,-3.46106,1.49364,-3.12428,-1.52511,-0.0427076,423.316,0.741153,0.336578,0.410718,0.187754,0.116077,inf,inf,inf,inf,1,1,1,1,2,0,2,1,3,1,1,0
29971846,25845049,34.0356189,108.7574151,0.159064,-0.495482,-0.106671,0.0226914,-0.0785151,0.0,-0.0108359,-0.408267,-0.628516,-0.757637,0.0479995,-0.00390586,0.0643319,-1.845,-0.857378,-0.362873,-1.5255,-0.0427076,423.316,0.825863,0.323804,0.407399,0.176803,0.114052,inf,inf,inf,inf,1,1,1,1,2,0,2,1,3,1,1,0
30071170,25845049,34.0356189,108.7574151,0.154089,-0.519752,-0.188132,0.0226914,-0.0785151,0.0,-0.0170631,-0.395246,-0.652845,-0.785806,0.0479995,-0.00390586,0.0643319,1.34956,0.342548,-0.238241,-1.52655,-0.0427076,423.316,0.907323,0.333598,0.411006,0.184209,0.116026,inf,inf,inf,inf,1,1,1,1,2,0,2,1,3,1,1,0
30170614,25845049,34.0356189,108.7574151,0.1449,-0.552975,-0.267302,0.0226914,-0.0785151,0.0,-0.0483307,-0.390404,-0.668009,-0.799355,0.0479995,-0.00390586,0.0643319,-3.18881,-1.99512,1.97043,-1.52945,-0.0427076,423.316,0.986494,0.321139,0.407701,0.173959,0.114089,inf,inf,inf,inf,1,1,1,1,2,0,2,1,3,1,1,0
30269816,25845049,34.0356189,108.7574151,0.134457,-0.587414,-0.345846,0.0226914,-0.0785151,0.0,-0.0734589,-0.384016,-0.690364,-0.818386,0.0479995,-0.00390586,0.0643319,-4.30371,0.167321,-1.50048,-1.53238,-0.0427076,423.316,1.06504,0.330944,0.408623,0.181097,0.115838,inf,inf,inf,inf,1,1,1,1,2,0,2,1,3,1,1,0
30369140,25845049,34.0356189,108.7574151,0.129156,-0.621023,-0.42211,0.0226914,-0.0785151,0.0,-0.0698149,-0.373407,-0.710107,-0.831315,0.0479995,-0.00390586,0.0643319,4.45015,1.20651,-1.08326,-1.53432,-0.0427076,423.316,1.1413,0.318647,0.405383,0.17101,0.113872,inf,inf,inf,inf,1,1,1,1,2,0,2,1,3,1,1,0
30468463,25845049,34.0356189,108.7574151,0.123322,-0.655124,-0.498648,0.0226914,-0.0785151,0.0,-0.0897388,-0.387976,-0.703836,-0.818328,0.0479995,-0.00390586,0.0643319,-1.5385,-2.48841,2.52538,-1.53727,-0.0427076,423.316,1.21784,0.328431,0.406405,0.177898,0.115631,inf,inf,inf,inf,1,1,1,1,2,0,2,1,3,1,1,0
30567786,25845049,34.0356189,108.7574151,0.116095,-0.692545,-0.581506,0.0226914,-0.0785151,0.0,-0.101068,-0.401266,-0.713716,-0.828819,0.0479995,-0.00390586,0.0643319,-4.29602,0.906895,-1.77584,-1.53912,-0.0427076,423.316,1.3007,0.316269,0.403241,0.168221,0.113701,inf,inf,inf,inf,1,1,1,1,2,0,2,1,3,1,1,0
30667110,25845049,34.0356189,108.7574151,0.107573,-0.732954,-0.663521,0.0226914,-0.0785151,0.0,-0.0958704,-0.432526,-0.669961,-0.786228,0.0479995,-0.00390586,0.0643319,0.987093,0.802343,-0.103546,-1.53849,-0.0427076,423.316,1.38271,0.32601,0.404352,0.174855,0.115447,inf,inf,inf,inf,1,1,1,1,2,0,2,1,3,1,1,0
30771398,25845049,34.0356189,108.7574151,0.108551,-0.778374,-0.735377,0.0226914,-0.0785151,0.0,-0.0820818,-0.478662,-0.526218,-0.63911,0.0479995,-0.00390586,0.0643319,-0.548075,-0.158921,2.12171,-1.53794,-0.0427076,423.316,1.45457,0.314122,0.403918,0.165582,0.113769,inf,inf,inf,inf,1,1,1,1,2,0,2,1,3,1,1,0
30870723,25845049,34.0356189,108.7574151,0.112574,-0.825911,-0.786368,0.0226914,-0.0785151,0.0,-0.0766956,-0.522126,-0.355437,-0.463897,0.0479995,-0.00390586,0.0643319,-1.87803,0.655767,0.144488,-1.53681,-0.0427076,423.316,1.50556,0.323814,0.40514,0.171861,0.11549,inf,inf,inf,inf,1,1,1,1,2,0,2,1,3,1,1,0
30970129,25845049,34.0356189,108.7574151,0.119177,-0.879111,-0.825014,0.0226914,-0.0785151,0.0,-0.0486191,-0.562796,-0.176245,-0.28574,0.0479995,-0.00390586,0.0643319,1.26103,-1.17265,2.69985,-1.53575,-0.0427076,423.316,1.54421,0.312139,0.402043,0.16277,0.113485,inf,inf,inf,inf,1,1,1,1,2,0,2,1,3,1,1,0
31069368,25845049,34.0356189,108.7574151,0.125981,-0.936776,-0.847457,0.0226914,-0.0785151,0.0,-0.0413167,-0.613002,-0.0276348,-0.138403,0.0479995,-0.00390586,0.0643319,-0.246959,-1.15176,1.36568,-1.53628,-0.0427076,423.316,1.56665,0.32177,0.403333,0.168546,0.115097,inf,inf,inf,inf,1,1,1,1,2,0,2,1,3,1,1,0
31168691,25845049,34.0356189,108.7574151,0.127467,-1.00598,-0.85333,0.0226914,-0.0785151,0.0,-0.0385154,-0.673303,0.0523149,-0.0543794,0.0479995,-0.00390586,0.0643319,0.79829,-1.30937,1.0026,-1.5364,-0.0427076,423.316,1.57252,0.310427,0.400309,0.159995,0.113099,inf,inf,inf,inf,1,1,1,1,2,0,2,1,3,1,1,0
31268182,25845049,34.0356189,108.7574151,0.12692,-1.0806,-0.852459,0.0226914,-0.0785151,0.0,-0.0414048,-0.722477,0.101017,-0.00140206,0.0479995,-0.00390586,0.0643319,0.856836,-0.581087,1.37445,-1.53642,-0.0427076,423.316,1.57165,0.320006,0.401659,0.165842,0.114759,inf,inf,inf,inf,1,1,1,1,2,0,2,1,3,1,1,0
31367338,25845049,34.0356189,108.7574151,0.120117,-1.16644,-0.843071,0.0226914,-0.0785151,0.0,-0.0381067,-0.782858,0.154896,0.0599576,0.0479995,-0.00390586,0.0643319,2.99631,-1.00981,2.70914,-1.53642,-0.0427076,423.316,1.56226,0.308942,0.398686,0.158129,0.112889,inf,inf,inf,inf,1,1,1,1,2,0,2,1,3,1,1,0
31476593,25845049,34.0356189,108.7574151,0.112219,-1.2647,-0.828816,0.0226914,-0.0785151,0.0,-0.0370247,-0.831844,0.202165,0.112638,0.0479995,-0.00390586,0.0643319,5.19097,-0.251962,0.840537,-1.53543,-0.0427076,423.316,1.54801,0.319491,0.40077,0.164774,0.114872,inf,inf,inf,inf,1,1,1,1,2,0,2,1,3,1,1,0
31570950,25845049,34.0356189,108.7574151,0.0964104,-1.35047,-0.808098,0.0226914,-0.0785151,0.0,-0.0762681,-0.874764,0.243671,0.161507,0.0479995,-0.00390586,0.0643319,-2.27485,0.0778256,-1.09577,-1.53574,-0.0427076,423.316,1.52729,0.307461,0.399757,0.156652,0.113046,inf,inf,inf,inf,1,1,1,1,2,0,2,1,3,1,1,0
31670274,25845049,34.0356189,108.7574151,0.0787841,-1.44303,-0.784214,0.0226914,-0.0785151,0.0,-0.081595,-0.905795,0.283949,0.206802,0.0479995,-0.00390586,0.0643319,-2.22396,1.28996,-1.48155,-1.53642,-0.0427076,423.316,1.50341,0.316977,0.401246,0.162613,0.114798,inf,inf,inf,inf,1,1,1,1,2,0,2,1,3,1,1,0
31769656,25845049,34.0356189,108.7574151,0.0638896,-1.53876,-0.758184,0.0226914,-0.0785151,0.0,-0.0870534,-0.909548,0.320334,0.246204,0.0479995,-0.00390586,0.0643319,1.17962,1.17805,-0.572487,-1.53766,-0.0427076,423.316,1.47738,0.306081,0.398285,0.155487,0.112972,inf,inf,inf,inf,1,1,1,1,2,0,2,1,3,1,1,0
31873888,25845049,34.0356189,108.7574151,0.0484338,-1.63846,-0.728811,0.0226914,-0.0785151,0.0,-0.103607,-0.926341,0.364774,0.291397,0.0479995,-0.00390586,0.0643319,-0.184229,-0.633922,0.94152,-1.53968,-0.0427076,423.316,1.448,0.315566,0.399814,0.161453,0.114724,inf,inf,inf,inf,1,1,1,1,2,0,2,1,3,1,1,0
31973211,25845049,34.0356189,108.7574151,0.0385589,-1.73577,-0.707451,0.0226914,-0.0785151,0.0,-0.129306,-0.925193,0.349239,0.268334,0.0479995,-0.00390586,0.0643319,-7.80894,-0.763857,0.0499459,-1.54125,-0.0427076,423.316,1.42664,0.304786,0.396892,0.154441,0.112882,inf,inf,inf,inf,1,1,1,1,2,0,2,1,3,1,1,0
32072684,25845049,34.0356189,108.7574151,0.0298917,-1.83079,-0.689277,0.0226914,-0.0785151,0.0,-0.0894063,-0.897309,0.288748,0.201972,0.0479995,-0.00390586,0.0643319,7.04655,2.05336,-1.89483,-1.53978,-0.0427076,423.316,1.40847,0.314241,0.401081,0.160566,0.114929,inf,inf,inf,inf,1,1,1,1,2,0,2,1,3,1,1,0
32171856,25845049,34.0356189,108.7574151,0.0279744,-1.92094,-0.679176,0.0226914,-0.0785151,0.0,-0.102,-0.894084,0.270333,0.175018,0.0479995,-0.00390586,0.0643319,-2.49797,-1.82987,1.96761,-1.53762,-0.0427076,423.316,1.39837,0.303662,0.398155,0.154021,0.113121,inf,inf,inf,inf,1,1,1,1,2,0,2,1,3,1,1,0
32271186,25845049,34.0356189,108.7574151,0.0250792,-2.00867,-0.669479,0.0226914,-0.0785151,0.0,-0.102113,-0.86891,0.249661,0.148521,0.0479995,-0.00390586,0.0643319,-1.98499,-0.325376,-0.00635473,-1.5351,-0.0427076,423.316,1.38867,0.313109,0.399809,0.160373,0.114949,inf,inf,inf,inf,1,1,1,1,2,0,2,1,3,1,1,0
32375472,25845049,34.0356189,108.7574151,0.0321616,-2.09459,-0.660168,0.0226914,-0.0785151,0.0,-0.0684354,-0.845157,0.240148,0.133363,0.0479995,-0.00390586,0.0643319,2.11199,0.767796,-0.431304,-1.53077,-0.0427076,423.316,1.37936,0.302499,0.396905,0.153764,0.113108,inf,inf,inf,inf,1,1,1,1,2,0,2,1,3,1,1,0
32474793,25845049,34.0356189,108.7574151,0.0392562,-2.17398,-0.651338,0.0226914,-0.0785151,0.0,-0.0699653,-0.828442,0.231364,0.121355,0.0479995,-0.00390586,0.0643319,1.72533,-0.577625,0.794979,-1.52788,-0.0427076,423.316,1.37053,0.311926,0.398596,0.159934,0.114869,inf,inf,inf,inf,1,1,1,1,2,0,2,1,3,1,1,0
32574214,25845049,34.0356189,108.7574151,0.0474526,-2.25414,-0.646873,0.0226914,-0.0785151,0.0,-0.0643109,-0.815169,0.2279,0.111681,0.0479995,-0.00390586,0.0643319,-0.584981,-1.36509,1.57938,-1.52439,-0.0427076,423.316,1.36606,0.301397,0.395722,0.153661,0.113061,inf,inf,inf,inf,1,1,1,1,2,0,2,1,3,1,1,0
32673441,25845049,34.0356189,108.7574151,0.0536097,-2.33327,-0.639312,0.0226914,-0.0785151,0.0,-0.055858,-0.802114,0.21842,0.100914,0.0479995,-0.00390586,0.0643319,0.153668,-2.60314,2.98813,-1.52156,-0.0427076,423.316,1.3585,0.310812,0.397454,0.159869,0.11481,inf,inf,inf,inf,1,1,1,1,2,0,2,1,3,1,1,0
32772762,25845049,34.0356189,108.7574151,0.0585088,-2.41166,-0.635616,0.0226914,-0.0785151,0.0,-0.0737314,-0.79794,0.199387,0.0782314,0.0479995,-0.00390586,0.0643319,-4.28027,-3.27267,2.71495,-1.51961,-0.0427076,423.316,1.35481,0.300473,0.394621,0.153523,0.112966,inf,inf,inf,inf,1,1,1,1,2,0,2,1,3,1,1,0
32872211,25845049,34.0356189,108.7574151,0.0610085,-2.48954,-0.630475,0.0226914,-0.0785151,0.0,-0.0763416,-0.783351,0.169755,0.0487442,0.0479995,-0.00390586,0.0643319,-7.10291,0.366495,-1.19372,-1.51711,-0.0427076,423.316,1.34967,0.309887,0.398949,0.159767,0.114973,inf,inf,inf,inf,1,1,1,1,2,0,2,1,3,1,1,0
32971411,25845049,34.0356189,108.7574151,0.0560195,-2.56906,-0.627976,0.0226914,-0.0785151,0.0,-0.0702035,-0.77283,0.147579,0.0264257,0.0479995,-0.00390586,0.0643319,-0.825628,1.68169,-2.42713,-1.51473,-0.0427076,423.316,1.34717,0.299582,0.396084,0.153451,0.1131,inf,inf,inf,inf,1,1,1,1,2,0,2,1,3,1,1,0
33070733,25845049,34.0356189,108.7574151,0.049637,-2.64821,-0.624386,0.0226914,-0.0785151,0.0,-0.0738392,-0.763264,0.134414,0.0155431,0.0479995,-0.00390586,0.0643319,-0.862078,2.63238,-2.91926,-1.51468,-0.0427076,423.316,1.34358,0.309,0.397886,0.159806,0.114846,inf,inf,inf,inf,1,1,1,1,2,0,2,1,3,1,1,0
33170056,25845049,34.0356189,108.7574151,0.0403581,-2.72564,-0.623561,0.0226914,-0.0785151,0.0,-0.0445432,-0.769055,0.125802,0.00685776,0.0479995,-0.00390586,0.0643319,4.19473,2.61113,-2.581,-1.51571,-0.0427076,423.316,1.34275,0.298627,0.395019,0.153432,0.112959,inf,inf,inf,inf,1,1,1,1,2,0,2,1,3,1,1,0
33269379,25845049,34.0356189,108.7574151,0.0315264,-2.80222,-0.622711,0.0226914,-0.0785151,0.0,-0.0402187,-0.759277,0.0993035,-0.0174852,0.0479995,-0.00390586,0.0643319,4.96645,-0.977376,1.28098,-1.51784,-0.0427076,423.316,1.3419,0.308039,0.396832,0.159761,0.114669,inf,inf,inf,inf,1,1,1,1,2,0,2,1,3,1,1,0
33368707,25845049,34.0356189,108.7574151,0.0248208,-2.88013,-0.622958,0.0226914,-0.0785151,0.0,-0.0244735,-0.771131,0.0635132,-0.0488131,0.0479995,-0.00390586,0.0643319,-4.21736,-2.14663,1.33634,-1.52104,-0.0427076,423.316,1.34215,0.297804,0.396527,0.153536,0.113056,inf,inf,inf,inf,1,1,1,1,2,0,2,1,3,1,1,0
33468026,25845049,34.0356189,108.7574151,0.0223605,-2.95811,-0.626002,0.0226914,-0.0785151,0.0,0.021224,-0.763774,-0.00187499,-0.108623,0.0479995,-0.00390586,0.0643319,1.45507,1.25963,-2.1395,-1.52206,-0.0427076,423.316,1.34519,0.307227,0.398402,0.160066,0.114779,inf,inf,inf,inf,1,1,1,1,2,0,2,1,3,1,1,0
33567349,25845049,34.0356189,108.7574151,0.0180817,-3.03553,-0.626122,0.0226914,-0.0785151,0.0,0.0301944,-0.762811,-0.0483991,-0.14184,0.0479995,-0.00390586,0.0643319,-2.86417,0.332751,-1.71961,-1.5225,-0.0427076,423.316,1.34531,0.296938,0.395526,0.153766,0.112868,inf,inf,inf,inf,1,1,1,1,2,0,2,1,3,1,1,0
33676709,25845049,34.0356189,108.7574151,0.0169388,-3.12047,-0.63121,0.0226914,-0.0785151,0.0,0.0642475,-0.764088,-0.0993667,-0.180194,0.0479995,-0.00390586,0.0643319,1.8711,0.796589,-2.01838,-1.52244,-0.0427076,423.316,1.3504,0.307352,0.398115,0.161194,0.114828,inf,inf,inf,inf,1,1,1,1,2,0,2,1,3,1,1,0
33770962,25845049,34.0356189,108.7574151,0.0159521,-3.19242,-0.638538,0.0226914,-0.0785151,0.0,0.0545427,-0.77889,-0.133418,-0.203534,0.0479995,-0.00390586,0.0643319,-0.598713,-0.70048,-0.828352,-1.52343,-0.0427076,423.316,1.35773,0.296099,0.394552,0.154247,0.112704,inf,inf,inf,inf,1,1,1,1,2,0,2,1,3,1,1,0
33870289,25845049,34.0356189,108.7574151,0.0147891,-3.27013,-0.650843,0.0226914,-0.0785151,0.0,0.0473755,-0.790414,-0.167713,-0.228789,0.0479995,-0.00390586,0.0643319,2.01898,0.602902,-0.887434,-1.52372,-0.0427076,423.316,1.37004,0.305544,0.396453,0.161265,0.114426,inf,inf,inf,inf,1,1,1,1,2,0,2,1,3,1,1,0
33969609,25845049,34.0356189,108.7574151,0.022145,-3.3485,-0.666437,0.0226914,-0.0785151,0.0,0.0313189,-0.819146,-0.17365,-0.227409,0.0479995,-0.00390586,0.0643319,2.23091,-0.299366,0.682307,-1.52504,-0.0427076,423.316,1.38563,0.295284,0.393627,0.154845,0.112522,inf,inf,inf,inf,1,1,1,1,2,0,2,1,3,1,1,0
34068933,25845049,34.0356189,108.7574151,0.0296435,-3.43019,-0.681073,0.0226914,-0.0785151,0.0,0.0214344,-0.85148,-0.118398,-0.167376,0.0479995,-0.00390586,0.0643319,2.00792,0.432626,0.213703,-1.52685,-0.0427076,423.316,1.40027,0.304749,0.398098,0.161455,0.114473,inf,inf,inf,inf,1,1,1,1,2,0,2,1,3,1,1,0
34168256,25845049,34.0356189,108.7574151,0.0348185,-3.51519,-0.688025,0.0226914,-0.0785151,0.0,-0.00848545,-0.871703,-0.0531125,-0.0966794,0.0479995,-0.00390586,0.0643319,-0.283189,1.55227,-1.64592,-1.52943,-0.0427076,423.316,1.40722,0.29456,0.395236,0.154681,0.112521,inf,inf,inf,inf,1,1,1,1,2,0,2,1,3,1,1,0
34272545,25845049,34.0356189,108.7574151,0.0378677,-3.60689,-0.687715,0.0226914,-0.0785151,0.0,-0.00434653,-0.894282,0.0250947,-0.0134679,0.0479995,-0.00390586,0.0643319,5.04766,-0.0594472,1.25412,-1.52906,-0.0427076,423.316,1.40691,0.304026,0.397179,0.160522,0.114095,inf,inf,inf,inf,1,1,1,1,2,0,2,1,3,1,1,0
34371868,25845049,34.0356189,108.7574151,0.0382614,-3.69774,-0.682527,0.0226914,-0.0785151,0.0,-0.0177328,-0.907128,0.0842793,0.048354,0.0479995,-0.00390586,0.0643319,1.58148,0.060863,-0.212195,-1.52864,-0.0427076,423.316,1.40172,0.293879,0.394322,0.153489,0.112106,inf,inf,inf,inf,1,1,1,1,2,0,2,1,3,1,1,0
34471293,25845049,34.0356189,108.7574151,0.0370018,-3.78931,-0.673952,0.0226914,-0.0785151,0.0,-0.0515285,-0.906452,0.101205,0.0665756,0.0479995,-0.00390586,0.0643319,0.0827104,1.15184,-1.62962,-1.52692,-0.0427076,423.316,1.39314,0.303336,0.396263,0.159671,0.113694,inf,inf,inf,inf,1,1,1,1,2,0,2,1,3,1,1,0
34575481,25845049,34.0356189,108.7574151,0.0423831,-3.87726,-0.672283,0.0226914,-0.0785151,0.0,-0.0394097,-0.903166,0.0818673,0.0419225,0.0479995,-0.00390586,0.0643319,0.0266932,-2.18195,2.0223,-1.52337,-0.0427076,423.316,1.39148,0.293225,0.395938,0.152831,0.111997,inf,inf,inf,inf,1,1,1,1,2,0,2,1,3,1,1,0
34674804,25845049,34.0356189,108.7574151,0.0479867,-3.95981,-0.6761,0.0226914,-0.0785151,0.0,-0.0377427,-0.889805,0.0284788,-0.0166546,0.0479995,-0.00390586,0.0643319,-4.63243,-1.82378,1.12638,-1.52001,-0.0427076,423.316,1.39529,0.302677,0.397894,0.159068,0.113575,inf,inf,inf,inf,1,1,1,1,2,0,2,1,3,1,1,0
34774183,25845049,34.0356189,108.7574151,0.0633858,-4.03246,-0.685955,0.0226914,-0.0785151,0.0,-0.0270076,-0.868761,-0.0270118,-0.077322,0.0479995,-0.00390586,0.0643319,-6.24924,-1.43096,-0.241457,-1.51656,-0.0427076,423.316,1.40515,0.292559,0.39502,0.153254,0.111707,inf,inf,inf,inf,1,1,1,1,2,0,2,1,3,1,1,0
34873451,25845049,34.0356189,108.7574151,0.0792918,-4.10434,-0.699332,0.0226914,-0.0785151,0.0,0.00740692,-0.845666,-0.07938,-0.132874,0.0479995,-0.00390586,0.0643319,-4.14006,1.27252,-2.42378,-1.51281,-0.0427076,423.316,1.41852,0.302039,0.396976,0.159839,0.113294,inf,inf,inf,inf,1,1,1,1,2,0,2,1,3,1,1,0
34972776,25845049,34.0356189,108.7574151,0.102446,-4.17781,-0.72402,0.0226914,-0.0785151,0.0,0.0370715,-0.82794,-0.11581,-0.179062,0.0479995,-0.00390586,0.0643319,0.155632,1.64356,-1.58928,-1.5105,-0.0427076,423.316,1.44321,0.292033,0.394133,0.153715,0.111415,inf,inf,inf,inf,1,1,1,1,2,0,2,1,3,1,1,0
35072146,25845049,34.0356189,108.7574151,0.123684,-4.25249,-0.749956,0.0226914,-0.0785151,0.0,0.0703273,-0.822683,-0.143479,-0.212727,0.0479995,-0.00390586,0.0643319,4.17605,0.508862,0.393139,-1.50942,-0.0427076,423.316,1.46915,0.301554,0.398639,0.160317,0.113273,inf,inf,inf,inf,1,1,1,1,2,0,2,1,3,1,1,0
35171421,25845049,34.0356189,108.7574151,0.148896,-4.33441,-0.778684,0.0226914,-0.0785151,0.0,0.0805444,-0.818788,-0.137494,-0.213934,0.0479995,-0.00390586,0.0643319,1.75948,1.41061,-1.16416,-1.51013,-0.0427076,423.316,1.49788,0.291437,0.395736,0.153972,0.111367,inf,inf,inf,inf,1,1,1,1,2,0,2,1,3,1,1,0
35270762,25845049,34.0356189,108.7574151,0.171804,-4.41794,-0.802538,0.0226914,-0.0785151,0.0,0.0803402,-0.817951,-0.126536,-0.206227,0.0479995,-0.00390586,0.0643319,-0.367292,1.95643,-2.46591,-1.51116,-0.0427076,423.316,1.52173,0.300976,0.397704,0.16033,0.112896,inf,inf,inf,inf,1,1,1,1,2,0,2,1,3,1,1,0
35370068,25845049,34.0356189,108.7574151,0.196186,-4.50018,-0.824747,0.0226914,-0.0785151,0.0,0.0903323,-0.816135,-0.156428,-0.236268,0.0479995,-0.00390586,0.0643319,1.06218,0.89669,-1.5338,-1.51276,-0.0427076,423.316,1.54394,0.290967,0.394835,0.1536,0.110971,inf,inf,inf,inf,1,1,1,1,2,0,2,1,3,1,1,0
35469397,25845049,34.0356189,108.7574151,0.217115,-4.58252,-0.847562,0.0226914,-0.0785151,0.0,0.0919357,-0.813775,-0.155359,-0.233452,0.0479995,-0.00390586,0.0643319,0.769286,0.835557,-0.063674,-1.51499,-0.0427076,423.316,1.56675,0.30052,0.396794,0.159759,0.112466,inf,inf,inf,inf,1,1,1,1,2,0,2,1,3,1,1,0
35568863,25845049,34.0356189,108.7574151,0.236126,-4.66552,-0.866877,0.0226914,-0.0785151,0.0,0.0901357,-0.810666,-0.100054,-0.176387,0.0479995,-0.00390586,0.0643319,1.62453,0.498459,0.328669,-1.51708,-0.0427076,423.316,1.58607,0.290508,0.393942,0.153516,0.110597,inf,inf,inf,inf,1,1,1,1,2,0,2,1,3,1,1,0
35668041,25845049,34.0356189,108.7574151,0.251736,-4.74781,-0.877662,0.0226914,-0.0785151,0.0,0.0728215,-0.814777,-0.0332656,-0.105574,0.0479995,-0.00390586,0.0643319,-0.665478,-1.29892,1.51289,-1.5202,-0.0427076,423.316,1.59685,0.300086,0.395892,0.159521,0.112057,inf,inf,inf,inf,1,1,1,1,2,0,2,1,3,1,1,0
35777294,25845049,34.0356189,108.7574151,0.266032,-4.84094,-0.879575,0.0226914,-0.0785151,0.0,0.0772902,-0.811262,0.0410877,-0.0251817,0.0479995,-0.00390586,0.0643319,0.505066,-0.0880174,0.89226,-1.52279,-0.0427076,423.316,1.59877,0.290984,0.393757,0.153155,0.110342,inf,inf,inf,inf,1,1,1,1,2,0,2,1,3,1,1,0
35871651,25845049,34.0356189,108.7574151,0.276084,-4.92058,-0.874163,0.0226914,-0.0785151,0.0,0.0628739,-0.810207,0.103345,0.0417223,0.0479995,-0.00390586,0.0643319,-2.33934,-0.473503,1.14764,-1.52542,-0.0427076,423.316,1.59336,0.299627,0.397548,0.158222,0.111844,inf,inf,inf,inf,1,1,1,1,2,0,2,1,3,1,1,0
35970977,25845049,34.0356189,108.7574151,0.289496,-5.00404,-0.863432,0.0226914,-0.0785151,0.0,0.0859191,-0.802534,0.151526,0.0938843,0.0479995,-0.00390586,0.0643319,2.9859,0.461053,0.663569,-1.52762,-0.0427076,423.316,1.58262,0.289509,0.394674,0.151302,0.109914,inf,inf,inf,inf,1,1,1,1,2,0,2,1,3,1,1,0
36070328,25845049,34.0356189,108.7574151,0.302544,-5.08692,-0.8495,0.0226914,-0.0785151,0.0,0.107536,-0.797346,0.172043,0.117955,0.0479995,-0.00390586,0.0643319,5.07057,0.398895,0.559923,-1.52903,-0.0427076,423.316,1.56869,0.299052,0.396612,0.157241,0.111344,inf,inf,inf,inf,1,1,1,1,2,0,2,1,3,1,1,0
36169636,25845049,34.0356189,108.7574151,0.316505,-5.16925,-0.83355,0.0226914,-0.0785151,0.0,0.125378,-0.798197,0.180616,0.130536,0.0479995,-0.00390586,0.0643319,6.02613,-0.0911381,0.704217,-1.53104,-0.0427076,423.316,1.55274,0.288961,0.393767,0.150677,0.109463,inf,inf,inf,inf,1,1,1,1,2,0,2,1,3,1,1,0
36268947,25845049,34.0356189,108.7574151,0.330913,-5.25089,-0.815636,0.0226914,-0.0785151,0.0,0.144808,-0.793463,0.183851,0.138277,0.0479995,-0.00390586,0.0643319,4.53029,0.0048433,0.687699,-1.53324,-0.0427076,423.316,1.53483,0.298495,0.398243,0.15663,0.11117,inf,inf,inf,inf,1,1,1,1,2,0,2,1,3,1,1,0
36368381,25845049,34.0356189,108.7574151,0.347429,-5.33199,-0.803011,0.0226914,-0.0785151,0.0,0.125373,-0.79324,0.147595,0.102706,0.0479995,-0.00390586,0.0643319,-0.811407,-1.29668,1.23448,-1.53524,-0.0427076,423.316,1.5222,0.288455,0.395354,0.150301,0.109302,inf,inf,inf,inf,1,1,1,1,2,0,2,1,3,1,1,0
36477524,25845049,34.0356189,108.7574151,0.365922,-5.42016,-0.794747,0.0226914,-0.0785151,0.0,0.12333,-0.787734,0.0862551,0.0415978,0.0479995,-0.00390586,0.0643319,-6.56877,-0.371438,-1.20642,-1.53852,-0.0427076,423.316,1.51394,0.298981,0.398001,0.157002,0.110921,inf,inf,inf,inf,1,1,1,1,2,0,2,1,3,1,1,0
36566915,25845049,34.0356189,108.7574151,0.379207,-5.48989,-0.788849,0.0226914,-0.0785151,0.0,0.132454,-0.776793,0.0419343,0.00118933,0.0479995,-0.00390586,0.0643319,3.90996,0.179837,-0.4696,-1.53846,-0.0427076,423.316,1.50804,0.287953,0.39443,0.150344,0.108897,inf,inf,inf,inf,1,1,1,1,2,0,2,1,3,1,1,0
36676171,25845049,34.0356189,108.7574151,0.392862,-5.57438,-0.787016,0.0226914,-0.0785151,0.0,0.105886,-0.775236,-0.00348603,-0.0402023,0.0479995,-0.00390586,0.0643319,-2.66141,-1.72383,0.599869,-1.5408,-0.0427076,423.316,1.50621,0.2985,0.397051,0.157284,0.110513,inf,inf,inf,inf,1,1,1,1,2,0,2,1,3,1,1,0
36775507,25845049,34.0356189,108.7574151,0.405695,-5.6541,-0.785266,0.0226914,-0.0785151,0.0,0.105466,-0.766002,-0.0520822,-0.0812912,0.0479995,-0.00390586,0.0643319,-0.33799,1.3051,-2.51752,-1.54214,-0.0427076,423.316,1.50446,0.288392,0.394203,0.151352,0.108724,inf,inf,inf,inf,1,1,1,1,2,0,2,1,3,1,1,0
36874818,25845049,34.0356189,108.7574151,0.416025,-5.73333,-0.789352,0.0226914,-0.0785151,0.0,0.0816199,-0.768422,-0.0888934,-0.112973,0.0479995,-0.00390586,0.0643319,2.89688,-0.834555,0.63171,-1.54411,-0.0427076,423.316,1.50854,0.298039,0.396117,0.157539,0.110111,inf,inf,inf,inf,1,1,1,1,2,0,2,1,3,1,1,0
36969175,25845049,34.0356189,108.7574151,0.421349,-5.80954,-0.796826,0.0226914,-0.0785151,0.0,0.0932814,-0.755202,-0.135652,-0.155217,0.0479995,-0.00390586,0.0643319,5.92259,1.57746,-1.42896,-1.54478,-0.0427076,423.316,1.51602,0.286992,0.395111,0.150845,0.108417,inf,inf,inf,inf,1,1,1,1,2,0,2,1,3,1,1,0
37068499,25845049,34.0356189,108.7574151,0.428231,-5.88931,-0.809593,0.0226914,-0.0785151,0.0,0.0880096,-0.764635,-0.167115,-0.183375,0.0479995,-0.00390586,0.0643319,-1.83283,-1.38408,1.40705,-1.54607,-0.0427076,423.316,1.52879,0.296585,0.39704,0.157099,0.109809,inf,inf,inf,inf,1,1,1,1,2,0,2,1,3,1,1,0
37177880,25845049,34.0356189,108.7574151,0.447142,-5.96896,-0.82754,0.0226914,-0.0785151,0.0,0.124811,-0.747025,-0.22168,-0.233543,0.0479995,-0.00390586,0.0643319,-3.16977,0.62665,-1.96816,-1.54609,-0.0427076,423.316,1.54673,0.28745,0.394901,0.151814,0.108241,inf,inf,inf,inf,1,1,1,1,2,0,2,1,3,1,1,0
37272112,25845049,34.0356189,108.7574151,0.467025,-6.03655,-0.847759,0.0226914,-0.0785151,0.0,0.151622,-0.748005,-0.22973,-0.23971,0.0479995,-0.00390586,0.0643319,-4.53826,-1.84544,1.09509,-1.54416,-0.0427076,423.316,1.56695,0.296137,0.396124,0.157364,0.109416,inf,inf,inf,inf,1,1,1,1,2,0,2,1,3,1,1,0
37371434,25845049,34.0356189,108.7574151,0.497101,-6.10384,-0.863848,0.0226914,-0.0785151,0.0,0.187928,-0.734578,-0.155695,-0.161303,0.0479995,-0.00390586,0.0643319,-2.30987,-2.04709,3.11293,-1.54115,-0.0427076,423.316,1.58304,0.286065,0.39333,0.151442,0.107676,inf,inf,inf,inf,1,1,1,1,2,0,2,1,3,1,1,0
37475724,25845049,34.0356189,108.7574151,0.529266,-6.17436,-0.870094,0.0226914,-0.0785151,0.0,0.218518,-0.724871,-0.00261789,-0.00580079,0.0479995,-0.00390586,0.0643319,0.783252,-0.223335,2.26095,-1.53799,-0.0427076,423.316,1.58929,0.295702,0.395238,0.157164,0.109003,inf,inf,inf,inf,1,1,1,1,2,0,2,1,3,1,1,0
37575048,25845049,34.0356189,108.7574151,0.559591,-6.24212,-0.85716,0.0226914,-0.0785151,0.0,0.220401,-0.720587,0.165509,0.166771,0.0479995,-0.00390586,0.0643319,-0.577713,-0.448031,2.22769,-1.53653,-0.0427076,423.316,1.57635,0.28565,0.392477,0.149948,0.107192,inf,inf,inf,inf,1,1,1,1,2,0,2,1,3,1,1,0
37674385,25845049,34.0356189,108.7574151,0.586435,-6.31072,-0.829821,0.0226914,-0.0785151,0.0,0.188822,-0.721343,0.296962,0.301025,0.0479995,-0.00390586,0.0643319,-1.61106,-0.312805,0.533919,-1.53609,-0.0427076,423.316,1.54901,0.295235,0.396897,0.154898,0.108736,inf,inf,inf,inf,1,1,1,1,2,0,2,1,3,1,1,0
37773694,25845049,34.0356189,108.7574151,0.609245,-6.38165,-0.792682,0.0226914,-0.0785151,0.0,0.180989,-0.723572,0.384572,0.389815,0.0479995,-0.00390586,0.0643319,-0.74325,0.589503,-0.170344,-1.5349,-0.0427076,423.316,1.51187,0.285345,0.394128,0.1477,0.106923,inf,inf,inf,inf,1,1,1,1,2,0,2,1,3,1,1,0
37873021,25845049,34.0356189,108.7574151,0.628453,-6.45418,-0.751529,0.0226914,-0.0785151,0.0,0.146108,-0.739422,0.419084,0.423495,0.0479995,-0.00390586,0.0643319,-3.86005,0.739396,-1.08132,-1.53463,-0.0427076,423.316,1.47072,0.294867,0.396039,0.152593,0.108181,inf,inf,inf,inf,1,1,1,1,2,0,2,1,3,1,1,0
37972407,25845049,34.0356189,108.7574151,0.639216,-6.52923,-0.705791,0.0226914,-0.0785151,0.0,0.112431,-0.752605,0.391743,0.399753,0.0479995,-0.00390586,0.0643319,-4.71926,-0.436222,-0.280436,-1.53407,-0.0427076,423.316,1.42498,0.284998,0.393297,0.146313,0.10644,inf,inf,inf,inf,1,1,1,1,2,0,2,1,3,1,1,0
38076631,25845049,34.0356189,108.7574151,0.646081,-6.60865,-0.665372,0.0226914,-0.0785151,0.0,0.096634,-0.756711,0.319935,0.329696,0.0479995,-0.00390586,0.0643319,5.20764,-1.27743,0.989932,-1.53287,-0.0427076,423.316,1.38456,0.294491,0.395177,0.151837,0.107725,inf,inf,inf,inf,1,1,1,1,2,0,2,1,3,1,1,0
38166022,25845049,34.0356189,108.7574151,0.65086,-6.67811,-0.637558,0.0226914,-0.0785151,0.0,0.0547538,-0.773861,0.253401,0.264003,0.0479995,-0.00390586,0.0643319,-1.57088,-0.742081,-0.219582,-1.53385,-0.0427076,423.316,1.35675,0.283604,0.391774,0.145644,0.105866,inf,inf,inf,inf,1,1,1,1,2,0,2,1,3,1,1,0
38275278,25845049,34.0356189,108.7574151,0.65359,-6.76424,-0.613178,0.0226914,-0.0785151,0.0,0.0409053,-0.785819,0.179681,0.189313,0.0479995,-0.00390586,0.0643319,1.72052,-2.35967,1.77736,-1.53398,-0.0427076,423.316,1.33237,0.294038,0.394326,0.152776,0.107399,inf,inf,inf,inf,1,1,1,1,2,0,2,1,3,1,1,0
38374637,25845049,34.0356189,108.7574151,0.649365,-6.83918,-0.59432,0.0226914,-0.0785151,0.0,-0.014681,-0.786132,0.109913,0.122596,0.0479995,-0.00390586,0.0643319,-4.0888,-1.08084,-0.0346899,-1.53427,-0.0427076,423.316,1.31351,0.284048,0.391633,0.147152,0.105747,inf,inf,inf,inf,1,1,1,1,2,0,2,1,3,1,1,0
38473925,25845049,34.0356189,108.7574151,0.642537,-6.91473,-0.582654,0.0226914,-0.0785151,0.0,-0.030413,-0.782406,0.0411795,0.0555205,0.0479995,-0.00390586,0.0643319,-4.11833,2.87437,-3.7453,-1.53311,-0.0427076,423.316,1.30185,0.293592,0.396008,0.153232,0.107332,inf,inf,inf,inf,1,1,1,1,2,0,2,1,3,1,1,0
38573249,25845049,34.0356189,108.7574151,0.631974,-6.98674,-0.578284,0.0226914,-0.0785151,0.0,-0.0326959,-0.784256,-0.026816,-0.0117056,0.0479995,-0.00390586,0.0643319,5.1404,0.905913,-1.89931,-1.53109,-0.0427076,423.316,1.29748,0.283589,0.393286,0.147429,0.105675,inf,inf,inf,inf,1,1,1,1,2,0,2,1,3,1,1,0
38672603,25845049,34.0356189,108.7574151,0.620428,-7.0597,-0.582707,0.0226914,-0.0785151,0.0,-0.0415391,-0.787328,-0.0781907,-0.0647238,0.0479995,-0.00390586,0.0643319,4.79509,-0.870913,1.31693,-1.5288,-0.0427076,423.316,1.3019,0.293151,0.395168,0.153518,0.106979,inf,inf,inf,inf,1,1,1,1,2,0,2,1,3,1,1,0
38771929,25845049,34.0356189,108.7574151,0.607264,-7.13067,-0.59277,0.0226914,-0.0785151,0.0,-0.0835993,-0.796834,-0.142206,-0.129481,0.0479995,-0.00390586,0.0643319,-3.53162,-1.99991,1.36873,-1.52715,-0.0427076,423.316,1.31196,0.283173,0.392469,0.147724,0.105337,inf,inf,inf,inf,1,1,1,1,2,0,2,1,3,1,1,0
38871219,25845049,34.0356189,108.7574151,0.594212,-7.20257,-0.610407,0.0226914,-0.0785151,0.0,-0.0855209,-0.791149,-0.203707,-0.193179,0.0479995,-0.00390586,0.0643319,-6.20831,-1.18648,-0.490684,-1.52449,-0.0427076,423.316,1.3296,0.29275,0.394333,0.153722,0.106612,inf,inf,inf,inf,1,1,1,1,2,0,2,1,3,1,1,0
38970543,25845049,34.0356189,108.7574151,0.585396,-7.27535,-0.6321,0.0226914,-0.0785151,0.0,-0.0819586,-0.78919,-0.262184,-0.251808,0.0479995,-0.00390586,0.0643319,-3.74776,0.360618,-1.97924,-1.51919,-0.0427076,423.316,1.35129,0.282754,0.391657,0.14773,0.10498,inf,inf,inf,inf,1,1,1,1,2,0,2,1,3,1,1,0
39070044,25845049,34.0356189,108.7574151,0.577963,-7.34927,-0.660177,0.0226914,-0.0785151,0.0,-0.0657197,-0.781272,-0.306743,-0.297772,0.0479995,-0.00390586,0.0643319,-2.59636,0.667808,-1.48397,-1.51326,-0.0427076,423.316,1.37937,0.292342,0.393502,0.153608,0.106237,inf,inf,inf,inf,1,1,1,1,2,0,2,1,3,1,1,0
39169208,25845049,34.0356189,108.7574151,0.575154,-7.42184,-0.688717,0.0226914,-0.0785151,0.0,-0.0482461,-0.788409,-0.292206,-0.282813,0.0479995,-0.00390586,0.0643319,-2.00275,-1.02787,1.14155,-1.50732,-0.0427076,423.316,1.40791,0.282335,0.393316,0.14758,0.104899,inf,inf,inf,inf,1,1,1,1,2,0,2,1,3,1,1,0
39268516,25845049,34.0356189,108.7574151,0.573597,-7.49574,-0.715195,0.0226914,-0.0785151,0.0,-0.0301812,-0.779777,-0.242001,-0.233945,0.0479995,-0.00390586,0.0643319,0.390494,0.548805,-0.37935,-1.5013,-0.0427076,423.316,1.43439,0.291924,0.395177,0.153318,0.106146,inf,inf,inf,inf,1,1,1,1,2,0,2,1,3,1,1,0
39367836,25845049,34.0356189,108.7574151,0.572091,-7.56688,-0.738156,0.0226914,-0.0785151,0.0,-0.0115775,-0.785934,-0.166263,-0.1621,0.0479995,-0.00390586,0.0643319,3.19182,-0.594166,2.38402,-1.4977,-0.0427076,423.316,1.45735,0.281942,0.392495,0.146791,0.104501,inf,inf,inf,inf,1,1,1,1,2,0,2,1,3,1,1,0
39477092,25845049,34.0356189,108.7574151,0.571816,-7.64652,-0.756732,0.0226914,-0.0785151,0.0,0.0230987,-0.782114,-0.0836103,-0.0848709,0.0479995,-0.00390586,0.0643319,0.722635,0.390243,0.837996,-1.49597,-0.0427076,423.316,1.47592,0.292486,0.395021,0.152274,0.105868,inf,inf,inf,inf,1,1,1,1,2,0,2,1,3,1,1,0
39566484,25845049,34.0356189,108.7574151,0.576789,-7.7105,-0.762654,0.0226914,-0.0785151,0.0,0.0240098,-0.789194,-0.00343051,-0.00688219,0.0479995,-0.00390586,0.0643319,-2.54647,-0.792047,0.685032,-1.49527,-0.0427076,423.316,1.48185,0.281531,0.391675,0.145226,0.10406,inf,inf,inf,inf,1,1,1,1,2,0,2,1,3,1,1,0
39670773,25845049,34.0356189,108.7574151,0.583799,-7.78684,-0.760902,0.0226914,-0.0785151,0.0,0.0564943,-0.788076,0.0811102,0.0752581,0.0479995,-0.00390586,0.0643319,0.536952,0.0492219,1.23437,-1.49464,-0.0427076,423.316,1.48009,0.291025,0.393486,0.150031,0.105226,inf,inf,inf,inf,1,1,1,1,2,0,2,1,3,1,1,0
39770099,25845049,34.0356189,108.7574151,0.591665,-7.85595,-0.75256,0.0226914,-0.0785151,0.0,0.0638845,-0.793961,0.13985,0.131768,0.0479995,-0.00390586,0.0643319,-1.16638,0.319366,0.527591,-1.4935,-0.0427076,423.316,1.47175,0.281124,0.393324,0.143609,0.103883,inf,inf,inf,inf,1,1,1,1,2,0,2,1,3,1,1,0
39869586,25845049,34.0356189,108.7574151,0.600052,-7.92744,-0.73977,0.0226914,-0.0785151,0.0,0.076889,-0.802235,0.198884,0.187511,0.0479995,-0.00390586,0.0643319,-0.793258,-0.150821,0.169242,-1.49444,-0.0427076,423.316,1.45896,0.290565,0.395145,0.148775,0.105084,inf,inf,inf,inf,1,1,1,1,2,0,2,1,3,1,1,0
39973709,25845049,34.0356189,108.7574151,0.606779,-8.00673,-0.720083,0.0226914,-0.0785151,0.0,0.0623848,-0.826447,0.257713,0.243177,0.0479995,-0.00390586,0.0643319,-1.34537,-0.539492,0.571005,-1.49706,-0.0427076,423.316,1.43927,0.280685,0.392497,0.142703,0.103482,inf,inf,inf,inf,1,1,1,1,2,0,2,1,3,1,1,0
40073035,25845049,34.0356189,108.7574151,0.61129,-8.08634,-0.69636,0.0226914,-0.0785151,0.0,0.0462895,-0.856545,0.301026,0.283432,0.0479995,-0.00390586,0.0643319,-2.09306,-0.712098,-0.301662,-1.50026,-0.0427076,423.316,1.41555,0.290081,0.394285,0.147886,0.104665,inf,inf,inf,inf,1,1,1,1,2,0,2,1,3,1,1,0
40172356,25845049,34.0356189,108.7574151,0.619303,-8.16977,-0.674927,0.0226914,-0.0785151,0.0,0.0345791,-0.889633,0.282234,0.259268,0.0479995,-0.00390586,0.0643319,0.0782363,-1.5579,1.53094,-1.50319,-0.0427076,423.316,1.39412,0.280215,0.391646,0.14194,0.103088,inf,inf,inf,inf,1,1,1,1,2,0,2,1,3,1,1,0
40271680,25845049,34.0356189,108.7574151,0.625698,-8.2569,-0.657497,0.0226914,-0.0785151,0.0,0.027785,-0.909478,0.24154,0.213004,0.0479995,-0.00390586,0.0643319,3.31754,-1.57579,1.44989,-1.50584,-0.0427076,423.316,1.37669,0.28958,0.393411,0.147061,0.104258,inf,inf,inf,inf,1,1,1,1,2,0,2,1,3,1,1,0
40371004,25845049,34.0356189,108.7574151,0.628671,-8.34418,-0.642891,0.0226914,-0.0785151,0.0,0.0225903,-0.93044,0.200742,0.168261,0.0479995,-0.00390586,0.0643319,5.76557,0.495554,-0.857116,-1.50938,-0.0427076,423.316,1.36208,0.279766,0.393265,0.14171,0.103003,inf,inf,inf,inf,1,1,1,1,2,0,2,1,3,1,1,0
40470327,25845049,34.0356189,108.7574151,0.630593,-8.43394,-0.631426,0.0226914,-0.0785151,0.0,0.0104079,-0.936277,0.148952,0.113901,0.0479995,-0.00390586,0.0643319,4.77549,1.97686,-1.61002,-1.51388,-0.0427076,423.316,1.35062,0.289127,0.395035,0.147172,0.104197,inf,inf,inf,inf,1,1,1,1,2,0,2,1,3,1,1,0
40569650,25845049,34.0356189,108.7574151,0.637438,-8.52011,-0.630606,0.0226914,-0.0785151,0.0,0.0197059,-0.940541,0.0982711,0.0554053,0.0479995,-0.00390586,0.0643319,4.35558,0.873547,-0.669166,-1.5187,-0.0427076,423.316,1.3498,0.279314,0.392389,0.141802,0.102668,inf,inf,inf,inf,1,1,1,1,2,0,2,1,3,1,1,0
40669091,25845049,34.0356189,108.7574151,0.644993,-8.60764,-0.634656,0.0226914,-0.0785151,0.0,0.0219783,-0.950324,0.0572408,0.00760286,0.0479995,-0.00390586,0.0643319,2.57598,-1.21474,1.08619,-1.52333,-0.0427076,423.316,1.35385,0.288679,0.394131,0.1473,0.10385,inf,inf,inf,inf,1,1,1,1,2,0,2,1,3,1,1,0
40768297,25845049,34.0356189,108.7574151,0.654166,-8.69563,-0.641723,0.0226914,-0.0785151,0.0,0.0546954,-0.952485,0.0210943,-0.0332464,0.0479995,-0.00390586,0.0643319,2.43191,-1.68899,1.80312,-1.52862,-0.0427076,423.316,1.36091,0.278694,0.39149,0.141745,0.102317,inf,inf,inf,inf,1,1,1,1,2,0,2,1,3,1,1,0
40877553,25845049,34.0356189,108.7574151,0.66539,-8.79421,-0.653192,0.0226914,-0.0785151,0.0,0.0635793,-0.952792,-0.0291132,-0.0870874,0.0479995,-0.00390586,0.0643319,-1.87615,-0.918726,0.1789,-1.53413,-0.0427076,423.316,1.37238,0.289013,0.393889,0.1477,0.103653,inf,inf,inf,inf,1,1,1,1,2,0,2,1,3,1,1,0
40971911,25845049,34.0356189,108.7574151,0.673315,-8.88267,-0.666408,0.0226914,-0.0785151,0.0,0.0948961,-0.955293,-0.0610743,-0.121863,0.0479995,-0.00390586,0.0643319,-0.226225,-0.618191,0.641046,-1.53741,-0.0427076,423.316,1.3856,0.278287,0.393076,0.141734,0.102257,inf,inf,inf,inf,1,1,1,1,2,0,2,1,3,1,1,0
41071234,25845049,34.0356189,108.7574151,0.683195,-8.9769,-0.682982,0.0226914,-0.0785151,0.0,0.120066,-0.963424,-0.0850155,-0.147834,0.0479995,-0.00390586,0.0643319,0.751477,-2.13334,2.39251,-1.54039,-0.0427076,423.316,1.40217,0.28764,0.394812,0.147079,0.103419,inf,inf,inf,inf,1,1,1,1,2,0,2,1,3,1,1,0
41170558,25845049,34.0356189,108.7574151,0.695518,-9.0707,-0.704386,0.0226914,-0.0785151,0.0,0.117818,-0.960073,-0.121348,-0.187615,0.0479995,-0.00390586,0.0643319,-4.122,-1.2028,1.17311,-1.54457,-0.0427076,423.316,1.42358,0.27791,0.392197,0.14192,0.101943,inf,inf,inf,inf,1,1,1,1,2,0,2,1,3,1,1,0
41269891,25845049,34.0356189,108.7574151,0.70848,-9.16469,-0.72783,0.0226914,-0.0785151,0.0,0.123597,-0.957548,-0.154916,-0.222892,0.0479995,-0.00390586,0.0643319,-5.39336,-1.32901,0.345792,-1.54769,-0.0427076,423.316,1.44702,0.287273,0.393922,0.147219,0.103094,inf,inf,inf,inf,1,1,1,1,2,0,2,1,3,1,1,0
41369215,25845049,34.0356189,108.7574151,0.729478,-9.25887,-0.751837,0.0226914,-0.0785151,0.0,0.129938,-0.953276,-0.176805,-0.244656,0.0479995,-0.00390586,0.0643319,-4.4505,0.407122,-1.78401,-1.5513,-0.0427076,423.316,1.47103,0.27752,0.391341,0.141683,0.101621,inf,inf,inf,inf,1,1,1,1,2,0,2,1,3,1,1,0
41468590,25845049,34.0356189,108.7574151,0.750032,-9.35336,-0.77725,0.0226914,-0.0785151,0.0,0.135423,-0.944681,-0.192029,-0.259661,0.0479995,-0.00390586,0.0643319,0.62673,2.30653,-2.64651,-1.55401,-0.0427076,423.316,1.49644,0.286878,0.393047,0.146902,0.102763,inf,inf,inf,inf,1,1,1,1,2,0,2,1,3,1,1,0
41567852,25845049,34.0356189,108.7574151,0.770185,-9.44607,-0.803906,0.0226914,-0.0785151,0.0,0.140482,-0.944915,-0.188312,-0.256421,0.0479995,-0.00390586,0.0643319,3.0048,0.95859,-0.73243,-1.5564,-0.0427076,423.316,1.5231,0.277251,0.390489,0.141415,0.10131,inf,inf,inf,inf,1,1,1,1,2,0,2,1,3,1,1,0
41667180,25845049,34.0356189,108.7574151,0.787563,-9.53907,-0.828493,0.0226914,-0.0785151,0.0,0.116991,-0.94052,-0.136704,-0.205801,0.0479995,-0.00390586,0.0643319,1.07259,0.770018,-0.895926,-1.55982,-0.0427076,423.316,1.54768,0.286608,0.394661,0.146574,0.102719,inf,inf,inf,inf,1,1,1,1,2,0,2,1,3,1,1,0
