timestamp,x,y,z,r,flaps,aux1,aux2,aux3,aux4,aux5,aux6,mode_switch,return_switch,rattitude_switch,posctl_switch,loiter_switch,acro_switch,offboard_switch,kill_switch,arm_switch,transition_switch,gear_switch,mode_slot,data_source,stab_switch,man_switch
20837921,0.0192771,0.0,0.0,1.0,0.0,0.0,0.0,0.0,0.0,0.0,0.0,0,0,0,0,3,0,0,3,0,0,0,4,1,0,0
20860930,0.0192771,0.0,0.0,1.0,0.0,0.0,0.0,0.0,0.0,0.0,0.0,0,0,0,0,3,0,0,3,0,0,0,4,1,0,0
21036713,0.0192771,0.00940439,0.0,1.0,0.0,0.0,0.0,0.0,0.0,0.0,0.0,0,0,0,0,3,0,0,3,0,0,0,4,1,0,0
21238378,0.0192771,0.0250784,0.0,1.0,0.0,0.0,0.0,0.0,0.0,0.0,0.0,0,0,0,0,3,0,0,3,0,0,0,4,1,0,0
21438940,0.0192771,0.0250784,0.0,1.0,0.0,0.0,0.0,0.0,0.0,0.0,0.0,0,0,0,0,3,0,0,3,0,0,0,4,1,0,0
21640220,0.0192771,0.0250784,0.0,0.127404,0.0,0.0,0.0,0.0,0.0,0.0,0.0,0,0,0,0,3,0,0,3,0,0,0,4,1,0,0
21846588,0.0192771,0.0250784,0.0,0.0,0.0,0.0,0.0,0.0,0.0,0.0,0.0,0,0,0,0,3,0,0,3,0,0,0,4,1,0,0
22039720,0.0192771,0.0250784,0.0,0.0,0.0,0.0,0.0,0.0,0.0,0.0,0.0,0,0,0,0,3,0,0,3,0,0,0,4,1,0,0
22240996,0.0192771,0.0250784,0.0,0.0,0.0,0.0,0.0,0.0,0.0,0.0,0.0,0,0,0,0,3,0,0,3,0,0,0,4,1,0,0
22441843,0.0216867,0.0282132,0.0,0.0,0.0,0.0,0.0,0.0,0.0,0.0,0.0,0,0,0,0,3,0,0,3,0,0,0,4,1,0,0
22643957,0.0216867,0.0250784,0.0,0.0,0.0,0.0,0.0,0.0,0.0,0.0,0.0,0,0,0,0,3,0,0,3,0,0,0,4,1,0,0
22844102,0.0216867,0.0250784,0.0,0.0,0.0,0.0,0.0,0.0,0.0,0.0,0.0,0,0,0,0,3,0,0,3,0,0,0,4,1,0,0
23046373,0.0216867,0.0250784,0.0783354,0.0,0.0,0.0,0.0,0.0,0.0,0.0,0.0,0,0,0,0,3,0,0,3,0,0,0,4,1,0,0
23244030,0.0216867,0.0250784,0.239902,0.0,0.0,0.0,0.0,0.0,0.0,0.0,0.0,0,0,0,0,3,0,0,3,0,0,0,4,1,0,0
23442851,0.0216867,0.0250784,0.238678,0.0,0.0,0.0,0.0,0.0,0.0,0.0,0.0,0,0,0,0,3,0,0,3,0,0,0,4,1,0,0
23643588,0.0216867,0.0250784,0.235006,0.0,0.0,0.0,0.0,0.0,0.0,0.0,0.0,0,0,0,0,3,0,0,3,0,0,0,4,1,0,0
23845106,0.0216867,0.0250784,0.271726,0.0,0.0,0.0,0.0,0.0,0.0,0.0,0.0,0,0,0,0,3,0,0,3,0,0,0,4,1,0,0
24045970,0.0216867,0.0250784,0.324357,0.0,0.0,0.0,0.0,0.0,0.0,0.0,0.0,0,0,0,0,3,0,0,3,0,0,0,4,1,0,0
24247882,0.0216867,0.0250784,0.386781,0.0,0.0,0.0,0.0,0.0,0.0,0.0,0.0,0,0,0,0,3,0,0,3,0,0,0,4,1,0,0
24448063,0.0216867,0.0250784,0.386781,0.0,0.0,0.0,0.0,0.0,0.0,0.0,0.0,0,0,0,0,3,0,0,3,0,0,0,4,1,0,0
24649434,0.0216867,0.0250784,0.388005,0.0,0.0,0.0,0.0,0.0,0.0,0.0,0.0,0,0,0,0,3,0,0,3,0,0,0,4,1,0,0
24828840,0.0216867,0.0250784,0.397797,0.0,0.0,0.0,0.0,0.0,0.0,0.0,0.0,0,0,0,0,3,0,0,3,0,0,0,4,1,0,0
25027840,0.0216867,0.0250784,0.47858,0.0,0.0,0.0,0.0,0.0,0.0,0.0,0.0,0,0,0,0,3,0,0,3,0,0,0,4,1,0,0
25250303,0.0216867,0.0250784,0.488372,0.0,0.0,0.0,0.0,0.0,0.0,0.0,0.0,0,0,0,0,3,0,0,3,0,0,0,4,1,0,0
25429125,0.0216867,0.0250784,0.506732,0.0,0.0,0.0,0.0,0.0,0.0,0.0,0.0,0,0,0,0,3,0,0,3,0,0,0,4,1,0,0
25630134,0.0746988,0.031348,0.504284,0.0,0.0,0.0,0.0,0.0,0.0,0.0,0.0,0,0,0,0,3,0,0,3,0,0,0,4,1,0,0
25831362,0.142169,0.031348,0.501836,0.0,0.0,0.0,0.0,0.0,0.0,0.0,0.0,0,0,0,0,3,0,0,3,0,0,0,4,1,0,0
26032272,0.115663,0.0282132,0.500612,0.0,0.0,0.0,0.0,0.0,0.0,0.0,0.0,0,0,0,0,3,0,0,3,0,0,0,4,1,0,0
26233654,0.0192771,0.0250784,0.488372,0.0,0.0,0.0,0.0,0.0,0.0,0.0,0.0,0,0,0,0,3,0,0,3,0,0,0,4,1,0,0
26434640,0.0192771,0.0250784,0.493268,-0.00232019,0.0,0.0,0.0,0.0,0.0,0.0,0.0,0,0,0,0,3,0,0,3,0,0,0,4,1,0,0
26635873,0.0192771,0.0250784,0.499388,-0.0232019,0.0,0.0,0.0,0.0,0.0,0.0,0.0,0,0,0,0,3,0,0,3,0,0,0,4,1,0,0
26834400,0.0192771,0.0250784,0.500612,-0.0301624,0.0,0.0,0.0,0.0,0.0,0.0,0.0,0,0,0,0,3,0,0,3,0,0,0,4,1,0,0
27033220,0.0192771,0.0250784,0.517748,-0.0487239,0.0,0.0,0.0,0.0,0.0,0.0,0.0,0,0,0,0,3,0,0,3,0,0,0,4,1,0,0
27234282,0.0192771,0.0250784,0.526316,-0.0510441,0.0,0.0,0.0,0.0,0.0,0.0,0.0,0,0,0,0,3,0,0,3,0,0,0,4,1,0,0
27435774,0.0192771,0.0250784,0.529988,-0.0510441,0.0,0.0,0.0,0.0,0.0,0.0,0.0,0,0,0,0,3,0,0,3,0,0,0,4,1,0,0
27634409,0.0192771,0.0250784,0.538556,-0.0139211,0.0,0.0,0.0,0.0,0.0,0.0,0.0,0,0,0,0,3,0,0,3,0,0,0,4,1,0,0
27834864,0.168675,0.0282132,0.526316,0.0,0.0,0.0,0.0,0.0,0.0,0.0,0.0,0,0,0,0,3,0,0,3,0,0,0,4,1,0,0
28036735,0.260241,0.0282132,0.526316,0.0,0.0,0.0,0.0,0.0,0.0,0.0,0.0,0,0,0,0,3,0,0,3,0,0,0,4,1,0,0
28237316,0.26747,0.0282132,0.526316,0.0,0.0,0.0,0.0,0.0,0.0,0.0,0.0,0,0,0,0,3,0,0,3,0,0,0,4,1,0,0
28435731,0.238554,0.0282132,0.523868,0.0,0.0,0.0,0.0,0.0,0.0,0.0,0.0,0,0,0,0,3,0,0,3,0,0,0,4,1,0,0
28638023,0.156627,0.0282132,0.544676,0.0,0.0,0.0,0.0,0.0,0.0,0.0,0.0,0,0,0,0,3,0,0,3,0,0,0,4,1,0,0
28838215,0.0216867,0.0250784,0.53978,0.0,0.0,0.0,0.0,0.0,0.0,0.0,0.0,0,0,0,0,3,0,0,3,0,0,0,4,1,0,0
29040037,0.0192771,0.0250784,0.538556,0.0,0.0,0.0,0.0,0.0,0.0,0.0,0.0,0,0,0,0,3,0,0,3,0,0,0,4,1,0,0
29240240,0.0192771,0.0250784,0.53978,0.0,0.0,0.0,0.0,0.0,0.0,0.0,0.0,0,0,0,0,3,0,0,3,0,0,0,4,1,0,0
29442327,0.0192771,0.0250784,0.53978,0.0,0.0,0.0,0.0,0.0,0.0,0.0,0.0,0,0,0,0,3,0,0,3,0,0,0,4,1,0,0
29642824,0.0216867,0.0250784,0.53978,0.0,0.0,0.0,0.0,0.0,0.0,0.0,0.0,0,0,0,0,3,0,0,3,0,0,0,4,1,0,0
29843762,0.0216867,0.0250784,0.53978,0.0,0.0,0.0,0.0,0.0,0.0,0.0,0.0,0,0,0,0,3,0,0,3,0,0,0,4,1,0,0
30049670,0.0216867,0.0250784,0.53978,0.0,0.0,0.0,0.0,0.0,0.0,0.0,0.0,0,0,0,0,3,0,0,3,0,0,0,4,1,0,0
30243337,0.163855,0.0344828,0.542228,0.0,0.0,0.0,0.0,0.0,0.0,0.0,0.0,0,0,0,0,3,0,0,3,0,0,0,4,1,0,0
30444752,0.248193,0.0344828,0.541004,0.0,0.0,0.0,0.0,0.0,0.0,0.0,0.0,0,0,0,0,3,0,0,3,0,0,0,4,1,0,0
30645631,0.209639,0.0344828,0.53978,0.0,0.0,0.0,0.0,0.0,0.0,0.0,0.0,0,0,0,0,3,0,0,3,0,0,0,4,1,0,0
30844231,0.139759,0.0282132,0.541004,0.0,0.0,0.0,0.0,0.0,0.0,0.0,0.0,0,0,0,0,3,0,0,3,0,0,0,4,1,0,0
31042845,0.0216867,0.0250784,0.495716,0.0,0.0,0.0,0.0,0.0,0.0,0.0,0.0,0,0,0,0,3,0,0,3,0,0,0,4,1,0,0
31244363,0.0192771,0.0250784,0.50306,0.0,0.0,0.0,0.0,0.0,0.0,0.0,0.0,0,0,0,0,3,0,0,3,0,0,0,4,1,0,0
31445261,0.0216867,0.031348,0.501836,0.0,0.0,0.0,0.0,0.0,0.0,0.0,0.0,0,0,0,0,3,0,0,3,0,0,0,4,1,0,0
31646436,0.0433735,0.0344828,0.5153,0.0,0.0,0.0,0.0,0.0,0.0,0.0,0.0,0,0,0,0,3,0,0,3,0,0,0,4,1,0,0
31845140,0.207229,0.0438871,0.493268,0.0,0.0,0.0,0.0,0.0,0.0,0.0,0.0,0,0,0,0,3,0,0,3,0,0,0,4,1,0,0
32046000,0.221687,0.106583,0.492044,0.0,0.0,0.0,0.0,0.0,0.0,0.0,0.0,0,0,0,0,3,0,0,3,0,0,0,4,1,0,0
32247258,0.226506,0.128527,0.493268,0.0,0.0,0.0,0.0,0.0,0.0,0.0,0.0,0,0,0,0,3,0,0,3,0,0,0,4,1,0,0
32445872,0.161446,0.0282132,0.493268,0.0,0.0,0.0,0.0,0.0,0.0,0.0,0.0,0,0,0,0,3,0,0,3,0,0,0,4,1,0,0
32646945,0.0192771,0.0250784,0.574051,0.0,0.0,0.0,0.0,0.0,0.0,0.0,0.0,0,0,0,0,3,0,0,3,0,0,0,4,1,0,0
32848676,0.0216867,0.0250784,0.577723,0.0,0.0,0.0,0.0,0.0,0.0,0.0,0.0,0,0,0,0,3,0,0,3,0,0,0,4,1,0,0
33049163,0.0939759,0.0376176,0.574051,0.0,0.0,0.0,0.0,0.0,0.0,0.0,0.0,0,0,0,0,3,0,0,3,0,0,0,4,1,0,0
33227923,0.248193,0.0407524,0.575275,0.0,0.0,0.0,0.0,0.0,0.0,0.0,0.0,0,0,0,0,3,0,0,3,0,0,0,4,1,0,0
33429245,0.253012,0.0344828,0.577723,0.0,0.0,0.0,0.0,0.0,0.0,0.0,0.0,0,0,0,0,3,0,0,3,0,0,0,4,1,0,0
33627745,0.0216867,0.0250784,0.577723,0.0,0.0,0.0,0.0,0.0,0.0,0.0,0.0,0,0,0,0,3,0,0,3,0,0,0,4,1,0,0
33848848,0.0240964,0.031348,0.525092,0.0,0.0,0.0,0.0,0.0,0.0,0.0,0.0,0,0,0,0,3,0,0,3,0,0,0,4,1,0,0
34050011,0.0216867,0.031348,0.498164,0.0,0.0,0.0,0.0,0.0,0.0,0.0,0.0,0,0,0,0,3,0,0,3,0,0,0,4,1,0,0
34229043,0.026506,0.031348,0.489596,0.0,0.0,0.0,0.0,0.0,0.0,0.0,0.0,0,0,0,0,3,0,0,3,0,0,0,4,1,0,0
34429597,0.106024,0.0344828,0.49694,0.0,0.0,0.0,0.0,0.0,0.0,0.0,0.0,0,0,0,0,3,0,0,3,0,0,0,4,1,0,0
34631051,0.236145,0.031348,0.498164,0.0,0.0,0.0,0.0,0.0,0.0,0.0,0.0,0,0,0,0,3,0,0,3,0,0,0,4,1,0,0
34831991,0.274699,0.0344828,0.498164,0.0,0.0,0.0,0.0,0.0,0.0,0.0,0.0,0,0,0,0,3,0,0,3,0,0,0,4,1,0,0
35030925,0.243373,0.031348,0.498164,0.0,0.0,0.0,0.0,0.0,0.0,0.0,0.0,0,0,0,0,3,0,0,3,0,0,0,4,1,0,0
35229235,0.243373,0.031348,0.498164,0.0,0.0,0.0,0.0,0.0,0.0,0.0,0.0,0,0,0,0,3,0,0,3,0,0,0,4,1,0,0
35431135,0.236145,0.031348,0.498164,0.0,0.0,0.0,0.0,0.0,0.0,0.0,0.0,0,0,0,0,3,0,0,3,0,0,0,4,1,0,0
35631317,0.243373,0.0344828,0.498164,0.0,0.0,0.0,0.0,0.0,0.0,0.0,0.0,0,0,0,0,3,0,0,3,0,0,0,4,1,0,0
35832918,0.228916,0.0344828,0.498164,0.0,0.0,0.0,0.0,0.0,0.0,0.0,0.0,0,0,0,0,3,0,0,3,0,0,0,4,1,0,0
36033705,0.156627,0.0344828,0.542228,0.0,0.0,0.0,0.0,0.0,0.0,0.0,0.0,0,0,0,0,3,0,0,3,0,0,0,4,1,0,0
36232425,0.178313,0.0407524,0.543452,0.0,0.0,0.0,0.0,0.0,0.0,0.0,0.0,0,0,0,0,3,0,0,3,0,0,0,4,1,0,0
36450747,0.187952,0.0595611,0.542228,0.0,0.0,0.0,0.0,0.0,0.0,0.0,0.0,0,0,0,0,3,0,0,3,0,0,0,4,1,0,0
36629948,0.187952,0.166144,0.565483,-0.0162413,0.0,0.0,0.0,0.0,0.0,0.0,0.0,0,0,0,0,3,0,0,3,0,0,0,4,1,0,0
36830902,0.0313253,0.0282132,0.564259,0.0,0.0,0.0,0.0,0.0,0.0,0.0,0.0,0,0,0,0,3,0,0,3,0,0,0,4,1,0,0
37029589,0.0192771,0.0250784,0.564259,0.0,0.0,0.0,0.0,0.0,0.0,0.0,0.0,0,0,0,0,3,0,0,3,0,0,0,4,1,0,0
37230383,0.0216867,0.031348,0.563035,0.0,0.0,0.0,0.0,0.0,0.0,0.0,0.0,0,0,0,0,3,0,0,3,0,0,0,4,1,0,0
37429323,0.0626506,0.0376176,0.528764,0.0,0.0,0.0,0.0,0.0,0.0,0.0,0.0,0,0,0,0,3,0,0,3,0,0,0,4,1,0,0
37630389,0.0698795,0.181818,0.542228,0.0,0.0,0.0,0.0,0.0,0.0,0.0,0.0,0,0,0,0,3,0,0,3,0,0,0,4,1,0,0
37831387,0.0433735,0.15047,0.542228,0.0,0.0,0.0,0.0,0.0,0.0,0.0,0.0,0,0,0,0,3,0,0,3,0,0,0,4,1,0,0
38032616,0.0216867,0.0250784,0.543452,0.0,0.0,0.0,0.0,0.0,0.0,0.0,0.0,0,0,0,0,3,0,0,3,0,0,0,4,1,0,0
38238318,0.103614,0.0407524,0.488372,0.0,0.0,0.0,0.0,0.0,0.0,0.0,0.0,0,0,0,0,3,0,0,3,0,0,0,4,1,0,0
38432373,0.0216867,0.0250784,0.492044,0.0,0.0,0.0,0.0,0.0,0.0,0.0,0.0,0,0,0,0,3,0,0,3,0,0,0,4,1,0,0
38633599,0.0192771,0.031348,0.488372,0.0,0.0,0.0,0.0,0.0,0.0,0.0,0.0,0,0,0,0,3,0,0,3,0,0,0,4,1,0,0
38834387,0.110843,0.172414,0.489596,0.0,0.0,0.0,0.0,0.0,0.0,0.0,0.0,0,0,0,0,3,0,0,3,0,0,0,4,1,0,0
39036294,0.0216867,0.0282132,0.517748,0.0,0.0,0.0,0.0,0.0,0.0,0.0,0.0,0,0,0,0,3,0,0,3,0,0,0,4,1,0,0
39236735,0.0192771,0.0250784,0.55814,0.0,0.0,0.0,0.0,0.0,0.0,0.0,0.0,0,0,0,0,3,0,0,3,0,0,0,4,1,0,0
39438618,0.0216867,0.031348,0.542228,0.0,0.0,0.0,0.0,0.0,0.0,0.0,0.0,0,0,0,0,3,0,0,3,0,0,0,4,1,0,0
39637349,0.0987952,0.0721003,0.549572,0.0,0.0,0.0,0.0,0.0,0.0,0.0,0.0,0,0,0,0,3,0,0,3,0,0,0,4,1,0,0
39837721,0.146988,0.0940439,0.550796,0.0,0.0,0.0,0.0,0.0,0.0,0.0,0.0,0,0,0,0,3,0,0,3,0,0,0,4,1,0,0
40036160,0.0915663,0.0344828,0.550796,0.0,0.0,0.0,0.0,0.0,0.0,0.0,0.0,0,0,0,0,3,0,0,3,0,0,0,4,1,0,0
40234915,0.0843373,0.0344828,0.550796,0.0,0.0,0.0,0.0,0.0,0.0,0.0,0.0,0,0,0,0,3,0,0,3,0,0,0,4,1,0,0
40436806,0.0192771,0.0250784,0.550796,0.0,0.0,0.0,0.0,0.0,0.0,0.0,0.0,0,0,0,0,3,0,0,3,0,0,0,4,1,0,0
40637065,0.0192771,0.0250784,0.550796,0.0,0.0,0.0,0.0,0.0,0.0,0.0,0.0,0,0,0,0,3,0,0,3,0,0,0,4,1,0,0
40839067,0.216867,0.0376176,0.550796,0.0,0.0,0.0,0.0,0.0,0.0,0.0,0.0,0,0,0,0,3,0,0,3,0,0,0,4,1,0,0
41039466,0.253012,0.0376176,0.550796,0.0,0.0,0.0,0.0,0.0,0.0,0.0,0.0,0,0,0,0,3,0,0,3,0,0,0,4,1,0,0
41241348,0.190361,0.0344828,0.550796,0.0,0.0,0.0,0.0,0.0,0.0,0.0,0.0,0,0,0,0,3,0,0,3,0,0,0,4,1,0,0
41439980,0.171084,0.0344828,0.550796,0.0,0.0,0.0,0.0,0.0,0.0,0.0,0.0,0,0,0,0,3,0,0,3,0,0,0,4,1,0,0
41640262,0.0987952,0.0282132,0.550796,0.0,0.0,0.0,0.0,0.0,0.0,0.0,0.0,0,0,0,0,3,0,0,3,0,0,0,4,1,0,0
41838865,0.0192771,0.0250784,0.550796,0.0,0.0,0.0,0.0,0.0,0.0,0.0,0.0,0,0,0,0,3,0,0,3,0,0,0,4,1,0,0
42040313,0.163855,0.206897,0.5459,0.0,0.0,0.0,0.0,0.0,0.0,0.0,0.0,0,0,0,0,3,0,0,3,0,0,0,4,1,0,0
42238786,0.122892,0.172414,0.5459,0.0,0.0,0.0,0.0,0.0,0.0,0.0,0.0,0,0,0,0,3,0,0,3,0,0,0,4,1,0,0
42439758,0.0192771,0.0250784,0.553244,0.0,0.0,0.0,0.0,0.0,0.0,0.0,0.0,0,0,0,0,3,0,0,3,0,0,0,4,1,0,0
42638327,0.0216867,0.031348,0.511628,0.0,0.0,0.0,0.0,0.0,0.0,0.0,0.0,0,0,0,0,3,0,0,3,0,0,0,4,1,0,0
42839895,0.0216867,0.031348,0.5153,0.0,0.0,0.0,0.0,0.0,0.0,0.0,0.0,0,0,0,0,3,0,0,3,0,0,0,4,1,0,0
43039056,0.0650602,0.0501567,0.516524,0.0,0.0,0.0,0.0,0.0,0.0,0.0,0.0,0,0,0,0,3,0,0,3,0,0,0,4,1,0,0
43237396,0.115663,0.159875,0.5153,0.0,0.0,0.0,0.0,0.0,0.0,0.0,0.0,0,0,0,0,3,0,0,3,0,0,0,4,1,0,0
43437869,0.0216867,0.0282132,0.52142,0.0,0.0,0.0,0.0,0.0,0.0,0.0,0.0,0,0,0,0,3,0,0,3,0,0,0,4,1,0,0
43639667,0.0192771,0.0250784,0.49082,0.0,0.0,0.0,0.0,0.0,0.0,0.0,0.0,0,0,0,0,3,0,0,3,0,0,0,4,1,0,0
43840162,0.0698795,0.0376176,0.495716,0.0,0.0,0.0,0.0,0.0,0.0,0.0,0.0,0,0,0,0,3,0,0,3,0,0,0,4,1,0,0
44042186,0.146988,0.122257,0.493268,0.0,0.0,0.0,0.0,0.0,0.0,0.0,0.0,0,0,0,0,3,0,0,3,0,0,0,4,1,0,0
44242297,0.122892,0.103448,0.493268,0.0,0.0,0.0,0.0,0.0,0.0,0.0,0.0,0,0,0,0,3,0,0,3,0,0,0,4,1,0,0
44443775,0.106024,0.0344828,0.49694,0.0,0.0,0.0,0.0,0.0,0.0,0.0,0.0,0,0,0,0,3,0,0,3,0,0,0,4,1,0,0
44644720,0.0192771,0.0250784,0.55202,0.0,0.0,0.0,0.0,0.0,0.0,0.0,0.0,0,0,0,0,3,0,0,3,0,0,0,4,1,0,0
44846354,0.101205,0.0344828,0.5459,0.0,0.0,0.0,0.0,0.0,0.0,0.0,0.0,0,0,0,0,3,0,0,3,0,0,0,4,1,0,0
45045248,0.212048,0.0752351,0.5459,0.0,0.0,0.0,0.0,0.0,0.0,0.0,0.0,0,0,0,0,3,0,0,3,0,0,0,4,1,0,0
45245542,0.236145,0.0846395,0.547124,0.0,0.0,0.0,0.0,0.0,0.0,0.0,0.0,0,0,0,0,3,0,0,3,0,0,0,4,1,0,0
45447462,0.236145,0.112853,0.547124,0.0,0.0,0.0,0.0,0.0,0.0,0.0,0.0,0,0,0,0,3,0,0,3,0,0,0,4,1,0,0
45647666,0.233735,0.106583,0.547124,0.0,0.0,0.0,0.0,0.0,0.0,0.0,0.0,0,0,0,0,3,0,0,3,0,0,0,4,1,0,0
45826420,0.243373,0.134796,0.547124,0.0,0.0,0.0,0.0,0.0,0.0,0.0,0.0,0,0,0,0,3,0,0,3,0,0,0,4,1,0,0
46028535,0.226506,0.100313,0.547124,0.0,0.0,0.0,0.0,0.0,0.0,0.0,0.0,0,0,0,0,3,0,0,3,0,0,0,4,1,0,0
46248588,0.236145,0.119122,0.547124,0.0,0.0,0.0,0.0,0.0,0.0,0.0,0.0,0,0,0,0,3,0,0,3,0,0,0,4,1,0,0
46450529,0.231325,0.128527,0.547124,0.0,0.0,0.0,0.0,0.0,0.0,0.0,0.0,0,0,0,0,3,0,0,3,0,0,0,4,1,0,0
46629333,0.224096,0.106583,0.547124,0.0,0.0,0.0,0.0,0.0,0.0,0.0,0.0,0,0,0,0,3,0,0,3,0,0,0,4,1,0,0
46829798,0.214458,0.122257,0.547124,0.0,0.0,0.0,0.0,0.0,0.0,0.0,0.0,0,0,0,0,3,0,0,3,0,0,0,4,1,0,0
47031335,0.19759,0.112853,0.547124,0.0,0.0,0.0,0.0,0.0,0.0,0.0,0.0,0,0,0,0,3,0,0,3,0,0,0,4,1,0,0
47231820,0.180723,0.103448,0.547124,0.0,0.0,0.0,0.0,0.0,0.0,0.0,0.0,0,0,0,0,3,0,0,3,0,0,0,4,1,0,0
47433305,0.144578,0.0877743,0.547124,0.0,0.0,0.0,0.0,0.0,0.0,0.0,0.0,0,0,0,0,3,0,0,3,0,0,0,4,1,0,0
47634268,0.0240964,0.0282132,0.547124,0.0,0.0,0.0,0.0,0.0,0.0,0.0,0.0,0,0,0,0,3,0,0,3,0,0,0,4,1,0,0
47835338,0.0216867,0.031348,0.495716,0.0,0.0,0.0,0.0,0.0,0.0,0.0,0.0,0,0,0,0,3,0,0,3,0,0,0,4,1,0,0
48036289,0.0554217,0.0344828,0.489596,0.0,0.0,0.0,0.0,0.0,0.0,0.0,0.0,0,0,0,0,3,0,0,3,0,0,0,4,1,0,0
48232779,0.0313253,0.0344828,0.492044,0.0,0.0,0.0,0.0,0.0,0.0,0.0,0.0,0,0,0,0,3,0,0,3,0,0,0,4,1,0,0
48433578,0.060241,0.0344828,0.5153,0.0,0.0,0.0,0.0,0.0,0.0,0.0,0.0,0,0,0,0,3,0,0,3,0,0,0,4,1,0,0
48635049,0.0337349,0.031348,0.512852,0.0,0.0,0.0,0.0,0.0,0.0,0.0,0.0,0,0,0,0,3,0,0,3,0,0,0,4,1,0,0
48835835,0.0313253,0.031348,0.514076,0.0,0.0,0.0,0.0,0.0,0.0,0.0,0.0,0,0,0,0,3,0,0,3,0,0,0,4,1,0,0
49032202,0.0216867,0.0282132,0.516524,0.0,0.0,0.0,0.0,0.0,0.0,0.0,0.0,0,0,0,0,3,0,0,3,0,0,0,4,1,0,0
49233133,0.0240964,0.031348,0.5153,0.0,0.0,0.0,0.0,0.0,0.0,0.0,0.0,0,0,0,0,3,0,0,3,0,0,0,4,1,0,0
49434828,0.0313253,0.031348,0.507956,0.0,0.0,0.0,0.0,0.0,0.0,0.0,0.0,0,0,0,0,3,0,0,3,0,0,0,4,1,0,0
49630369,0.0216867,0.031348,0.510404,0.0,0.0,0.0,0.0,0.0,0.0,0.0,0.0,0,0,0,0,3,0,0,3,0,0,0,4,1,0,0
49831903,0.0457831,0.0344828,0.507956,0.0,0.0,0.0,0.0,0.0,0.0,0.0,0.0,0,0,0,0,3,0,0,3,0,0,0,4,1,0,0
50032687,0.0216867,0.0282132,0.511628,0.0,0.0,0.0,0.0,0.0,0.0,0.0,0.0,0,0,0,0,3,0,0,3,0,0,0,4,1,0,0
50231268,0.0216867,0.0250784,0.511628,0.0,0.0,0.0,0.0,0.0,0.0,0.0,0.0,0,0,0,0,3,0,0,3,0,0,0,4,1,0,0
50429930,0.0216867,0.0282132,0.517748,-0.0487239,0.0,0.0,0.0,0.0,0.0,0.0,0.0,0,0,0,0,3,0,0,3,0,0,0,4,1,0,0
50648370,0.0216867,0.0250784,0.529988,0.0,0.0,0.0,0.0,0.0,0.0,0.0,0.0,0,0,0,0,3,0,0,3,0,0,0,4,1,0,0
50849754,0.0216867,0.0250784,0.526316,0.0,0.0,0.0,0.0,0.0,0.0,0.0,0.0,0,0,0,0,3,0,0,3,0,0,0,4,1,0,0
51028521,0.0506024,0.0344828,0.523868,0.0,0.0,0.0,0.0,0.0,0.0,0.0,0.0,0,0,0,0,3,0,0,3,0,0,0,4,1,0,0
51229645,0.178313,0.144201,0.523868,0.0,0.0,0.0,0.0,0.0,0.0,0.0,0.0,0,0,0,0,3,0,0,3,0,0,0,4,1,0,0
51430845,0.13012,0.0407524,0.522644,0.0,0.0,0.0,0.0,0.0,0.0,0.0,0.0,0,0,0,0,3,0,0,3,0,0,0,4,1,0,0
51631645,0.19759,0.0971787,0.522644,0.0,0.0,0.0,0.0,0.0,0.0,0.0,0.0,0,0,0,0,3,0,0,3,0,0,0,4,1,0,0
51833179,0.168675,0.0626959,0.522644,0.0,0.0,0.0,0.0,0.0,0.0,0.0,0.0,0,0,0,0,3,0,0,3,0,0,0,4,1,0,0
52034033,0.166265,0.0532915,0.522644,0.0,0.0,0.0,0.0,0.0,0.0,0.0,0.0,0,0,0,0,3,0,0,3,0,0,0,4,1,0,0
52235634,0.168675,0.0721003,0.522644,0.0,0.0,0.0,0.0,0.0,0.0,0.0,0.0,0,0,0,0,3,0,0,3,0,0,0,4,1,0,0
52436155,0.2,0.0595611,0.522644,0.0,0.0,0.0,0.0,0.0,0.0,0.0,0.0,0,0,0,0,3,0,0,3,0,0,0,4,1,0,0
52634720,0.171084,0.0940439,0.522644,0.0,0.0,0.0,0.0,0.0,0.0,0.0,0.0,0,0,0,0,3,0,0,3,0,0,0,4,1,0,0
52836164,0.178313,0.191223,0.522644,0.0,0.0,0.0,0.0,0.0,0.0,0.0,0.0,0,0,0,0,3,0,0,3,0,0,0,4,1,0,0
53037092,0.195181,0.244514,0.522644,0.0,0.0,0.0,0.0,0.0,0.0,0.0,0.0,0,0,0,0,3,0,0,3,0,0,0,4,1,0,0
53238893,0.163855,0.22884,0.522644,0.0,0.0,0.0,0.0,0.0,0.0,0.0,0.0,0,0,0,0,3,0,0,3,0,0,0,4,1,0,0
53439437,0.139759,0.153605,0.522644,0.0,0.0,0.0,0.0,0.0,0.0,0.0,0.0,0,0,0,0,3,0,0,3,0,0,0,4,1,0,0
53640639,0.0216867,0.031348,0.522644,0.0,0.0,0.0,0.0,0.0,0.0,0.0,0.0,0,0,0,0,3,0,0,3,0,0,0,4,1,0,0
53841519,0.0192771,0.0250784,0.522644,0.0,0.0,0.0,0.0,0.0,0.0,0.0,0.0,0,0,0,0,3,0,0,3,0,0,0,4,1,0,0
54043366,0.0192771,0.0250784,0.522644,0.0,0.0,0.0,0.0,0.0,0.0,0.0,0.0,0,0,0,0,3,0,0,3,0,0,0,4,1,0,0
54243658,0.0987952,0.0971787,0.522644,0.0,0.0,0.0,0.0,0.0,0.0,0.0,0.0,0,0,0,0,3,0,0,3,0,0,0,4,1,0,0
54445633,0.171084,0.178683,0.522644,0.0,0.0,0.0,0.0,0.0,0.0,0.0,0.0,0,0,0,0,3,0,0,3,0,0,0,4,1,0,0
54644085,0.175904,0.175549,0.522644,0.0,0.0,0.0,0.0,0.0,0.0,0.0,0.0,0,0,0,0,3,0,0,3,0,0,0,4,1,0,0
54844607,0.0216867,0.0282132,0.522644,0.0,0.0,0.0,0.0,0.0,0.0,0.0,0.0,0,0,0,0,3,0,0,3,0,0,0,4,1,0,0
55043448,0.0192771,0.0250784,0.565483,0.0,0.0,0.0,0.0,0.0,0.0,0.0,0.0,0,0,0,0,3,0,0,3,0,0,0,4,1,0,0
55244695,0.0192771,0.0250784,0.570379,0.0,0.0,0.0,0.0,0.0,0.0,0.0,0.0,0,0,0,0,3,0,0,3,0,0,0,4,1,0,0
55445473,0.0192771,0.0250784,0.567931,0.0,0.0,0.0,0.0,0.0,0.0,0.0,0.0,0,0,0,0,3,0,0,3,0,0,0,4,1,0,0
55621926,0.086747,0.031348,0.566707,0.0,0.0,0.0,0.0,0.0,0.0,0.0,0.0,0,0,0,0,3,0,0,3,0,0,0,4,1,0,0
55845978,0.120482,0.0282132,0.566707,0.0,0.0,0.0,0.0,0.0,0.0,0.0,0.0,0,0,0,0,3,0,0,3,0,0,0,4,1,0,0
56046439,0.173494,0.031348,0.566707,0.0,0.0,0.0,0.0,0.0,0.0,0.0,0.0,0,0,0,0,3,0,0,3,0,0,0,4,1,0,0
56225216,0.224096,0.0344828,0.566707,0.0,0.0,0.0,0.0,0.0,0.0,0.0,0.0,0,0,0,0,3,0,0,3,0,0,0,4,1,0,0
56448703,0.277108,0.0344828,0.566707,0.0,0.0,0.0,0.0,0.0,0.0,0.0,0.0,0,0,0,0,3,0,0,3,0,0,0,4,1,0,0
56649959,0.257831,0.0344828,0.566707,0.0,0.0,0.0,0.0,0.0,0.0,0.0,0.0,0,0,0,0,3,0,0,3,0,0,0,4,1,0,0
56828933,0.0409639,0.0282132,0.565483,0.0,0.0,0.0,0.0,0.0,0.0,0.0,0.0,0,0,0,0,3,0,0,3,0,0,0,4,1,0,0
57029827,0.0216867,0.0250784,0.53978,0.0,0.0,0.0,0.0,0.0,0.0,0.0,0.0,0,0,0,0,3,0,0,3,0,0,0,4,1,0,0
57230942,0.0506024,0.0344828,0.523868,0.0,0.0,0.0,0.0,0.0,0.0,0.0,0.0,0,0,0,0,3,0,0,3,0,0,0,4,1,0,0
57429625,0.0843373,0.115987,0.514076,0.0,0.0,0.0,0.0,0.0,0.0,0.0,0.0,0,0,0,0,3,0,0,3,0,0,0,4,1,0,0
57628463,0.0795181,0.0626959,0.514076,0.0,0.0,0.0,0.0,0.0,0.0,0.0,0.0,0,0,0,0,3,0,0,3,0,0,0,4,1,0,0
57829289,0.0192771,0.0250784,0.520196,0.0,0.0,0.0,0.0,0.0,0.0,0.0,0.0,0,0,0,0,3,0,0,3,0,0,0,4,1,0,0
58030475,0.0192771,0.0250784,0.494492,0.0,0.0,0.0,0.0,0.0,0.0,0.0,0.0,0,0,0,0,3,0,0,3,0,0,0,4,1,0,0
58231391,0.0192771,0.0282132,0.507956,0.0,0.0,0.0,0.0,0.0,0.0,0.0,0.0,0,0,0,0,3,0,0,3,0,0,0,4,1,0,0
58430421,0.149398,0.184953,0.507956,0.0,0.0,0.0,0.0,0.0,0.0,0.0,0.0,0,0,0,0,3,0,0,3,0,0,0,4,1,0,0
58631322,0.159036,0.166144,0.506732,0.0,0.0,0.0,0.0,0.0,0.0,0.0,0.0,0,0,0,0,3,0,0,3,0,0,0,4,1,0,0
58832248,0.13012,0.0909091,0.528764,0.0,0.0,0.0,0.0,0.0,0.0,0.0,0.0,0,0,0,0,3,0,0,3,0,0,0,4,1,0,0
59030883,0.0216867,0.0282132,0.522644,0.0,0.0,0.0,0.0,0.0,0.0,0.0,0.0,0,0,0,0,3,0,0,3,0,0,0,4,1,0,0
59232421,0.0216867,0.031348,0.52142,0.0,0.0,0.0,0.0,0.0,0.0,0.0,0.0,0,0,0,0,3,0,0,3,0,0,0,4,1,0,0
59433221,0.142169,0.147335,0.52142,0.0,0.0,0.0,0.0,0.0,0.0,0.0,0.0,0,0,0,0,3,0,0,3,0,0,0,4,1,0,0
59634889,0.168675,0.216301,0.52142,0.0,0.0,0.0,0.0,0.0,0.0,0.0,0.0,0,0,0,0,3,0,0,3,0,0,0,4,1,0,0
59830407,0.19759,0.216301,0.52142,0.0,0.0,0.0,0.0,0.0,0.0,0.0,0.0,0,0,0,0,3,0,0,3,0,0,0,4,1,0,0
60031823,0.214458,0.216301,0.52142,0.0,0.0,0.0,0.0,0.0,0.0,0.0,0.0,0,0,0,0,3,0,0,3,0,0,0,4,1,0,0
60232776,0.190361,0.203762,0.52142,0.0,0.0,0.0,0.0,0.0,0.0,0.0,0.0,0,0,0,0,3,0,0,3,0,0,0,4,1,0,0
60431461,0.187952,0.197492,0.52142,0.0,0.0,0.0,0.0,0.0,0.0,0.0,0.0,0,0,0,0,3,0,0,3,0,0,0,4,1,0,0
60632780,0.207229,0.197492,0.52142,0.0,0.0,0.0,0.0,0.0,0.0,0.0,0.0,0,0,0,0,3,0,0,3,0,0,0,4,1,0,0
60833619,0.163855,0.184953,0.52142,0.0,0.0,0.0,0.0,0.0,0.0,0.0,0.0,0,0,0,0,3,0,0,3,0,0,0,4,1,0,0
61035385,0.183133,0.144201,0.52142,0.0,0.0,0.0,0.0,0.0,0.0,0.0,0.0,0,0,0,0,3,0,0,3,0,0,0,4,1,0,0
61230852,0.139759,0.031348,0.52142,0.0,0.0,0.0,0.0,0.0,0.0,0.0,0.0,0,0,0,0,3,0,0,3,0,0,0,4,1,0,0
61429599,0.0192771,0.0250784,0.520196,0.0,0.0,0.0,0.0,0.0,0.0,0.0,0.0,0,0,0,0,3,0,0,3,0,0,0,4,1,0,0
61651417,0.0192771,0.0250784,0.52142,0.0,0.0,0.0,0.0,0.0,0.0,0.0,0.0,0,0,0,0,3,0,0,3,0,0,0,4,1,0,0
61849735,0.173494,0.0344828,0.522644,0.0,0.0,0.0,0.0,0.0,0.0,0.0,0.0,0,0,0,0,3,0,0,3,0,0,0,4,1,0,0
62050279,0.171084,0.0344828,0.52142,0.0,0.0,0.0,0.0,0.0,0.0,0.0,0.0,0,0,0,0,3,0,0,3,0,0,0,4,1,0,0
62229023,0.2,0.0376176,0.52142,0.0,0.0,0.0,0.0,0.0,0.0,0.0,0.0,0,0,0,0,3,0,0,3,0,0,0,4,1,0,0
62430437,0.190361,0.0376176,0.52142,0.0,0.0,0.0,0.0,0.0,0.0,0.0,0.0,0,0,0,0,3,0,0,3,0,0,0,4,1,0,0
62631101,0.166265,0.0595611,0.52142,0.0,0.0,0.0,0.0,0.0,0.0,0.0,0.0,0,0,0,0,3,0,0,3,0,0,0,4,1,0,0
62829882,0.226506,0.175549,0.52142,0.0,0.0,0.0,0.0,0.0,0.0,0.0,0.0,0,0,0,0,3,0,0,3,0,0,0,4,1,0,0
63031190,0.236145,0.181818,0.52142,0.0,0.0,0.0,0.0,0.0,0.0,0.0,0.0,0,0,0,0,3,0,0,3,0,0,0,4,1,0,0
63232066,0.238554,0.172414,0.52142,0.0,0.0,0.0,0.0,0.0,0.0,0.0,0.0,0,0,0,0,3,0,0,3,0,0,0,4,1,0,0
63434015,0.204819,0.106583,0.52142,0.0,0.0,0.0,0.0,0.0,0.0,0.0,0.0,0,0,0,0,3,0,0,3,0,0,0,4,1,0,0
63634286,0.0216867,0.0250784,0.520196,0.0,0.0,0.0,0.0,0.0,0.0,0.0,0.0,0,0,0,0,3,0,0,3,0,0,0,4,1,0,0
63838009,0.0192771,0.0250784,0.571603,0.0,0.0,0.0,0.0,0.0,0.0,0.0,0.0,0,0,0,0,3,0,0,3,0,0,0,4,1,0,0
64031526,0.0216867,0.0250784,0.572827,0.0,0.0,0.0,0.0,0.0,0.0,0.0,0.0,0,0,0,0,3,0,0,3,0,0,0,4,1,0,0
64230320,0.0192771,0.0250784,0.574051,0.0,0.0,0.0,0.0,0.0,0.0,0.0,0.0,0,0,0,0,3,0,0,3,0,0,0,4,1,0,0
64429017,0.0506024,0.0564263,0.570379,0.0,0.0,0.0,0.0,0.0,0.0,0.0,0.0,0,0,0,0,3,0,0,3,0,0,0,4,1,0,0
64647345,0.192771,0.253918,0.570379,0.0,0.0,0.0,0.0,0.0,0.0,0.0,0.0,0,0,0,0,3,0,0,3,0,0,0,4,1,0,0
64826138,0.173494,0.244514,0.570379,0.0,0.0,0.0,0.0,0.0,0.0,0.0,0.0,0,0,0,0,3,0,0,3,0,0,0,4,1,0,0
65048352,0.0192771,0.0250784,0.570379,0.0,0.0,0.0,0.0,0.0,0.0,0.0,0.0,0,0,0,0,3,0,0,3,0,0,0,4,1,0,0
65248287,0.0192771,0.0250784,0.570379,0.0,0.0,0.0,0.0,0.0,0.0,0.0,0.0,0,0,0,0,3,0,0,3,0,0,0,4,1,0,0
65427389,0.0746988,0.0344828,0.548348,0.0,0.0,0.0,0.0,0.0,0.0,0.0,0.0,0,0,0,0,3,0,0,3,0,0,0,4,1,0,0
65628453,0.113253,0.0376176,0.543452,0.0,0.0,0.0,0.0,0.0,0.0,0.0,0.0,0,0,0,0,3,0,0,3,0,0,0,4,1,0,0
65829308,0.163855,0.153605,0.556916,0.0,0.0,0.0,0.0,0.0,0.0,0.0,0.0,0,0,0,0,3,0,0,3,0,0,0,4,1,0,0
66031040,0.0192771,0.031348,0.556916,0.0,0.0,0.0,0.0,0.0,0.0,0.0,0.0,0,0,0,0,3,0,0,3,0,0,0,4,1,0,0
66231900,0.0192771,0.0250784,0.555692,0.0,0.0,0.0,0.0,0.0,0.0,0.0,0.0,0,0,0,0,3,0,0,3,0,0,0,4,1,0,0
66432895,0.0216867,0.031348,0.555692,0.0,0.0,0.0,0.0,0.0,0.0,0.0,0.0,0,0,0,0,3,0,0,3,0,0,0,4,1,0,0
66633712,0.053012,0.0407524,0.543452,0.0,0.0,0.0,0.0,0.0,0.0,0.0,0.0,0,0,0,0,3,0,0,3,0,0,0,4,1,0,0
66835190,0.0506024,0.0407524,0.525092,0.0,0.0,0.0,0.0,0.0,0.0,0.0,0.0,0,0,0,0,3,0,0,3,0,0,0,4,1,0,0
67033834,0.0746988,0.0971787,0.498164,0.0,0.0,0.0,0.0,0.0,0.0,0.0,0.0,0,0,0,0,3,0,0,3,0,0,0,4,1,0,0
67232377,0.0192771,0.0470219,0.528764,0.0,0.0,0.0,0.0,0.0,0.0,0.0,0.0,0,0,0,0,3,0,0,3,0,0,0,4,1,0,0
67433380,0.0216867,0.266458,0.553244,0.0,0.0,0.0,0.0,0.0,0.0,0.0,0.0,0,0,0,0,3,0,0,3,0,0,0,4,1,0,0
67634684,0.0192771,0.222571,0.550796,0.0,0.0,0.0,0.0,0.0,0.0,0.0,0.0,0,0,0,0,3,0,0,3,0,0,0,4,1,0,0
67835574,0.0192771,0.0219436,0.548348,0.0,0.0,0.0,0.0,0.0,0.0,0.0,0.0,0,0,0,0,3,0,0,3,0,0,0,4,1,0,0
68031842,0.0192771,0.0250784,0.550796,0.0,0.0,0.0,0.0,0.0,0.0,0.0,0.0,0,0,0,0,3,0,0,3,0,0,0,4,1,0,0
68232860,0.0626506,0.0344828,0.55202,0.0,0.0,0.0,0.0,0.0,0.0,0.0,0.0,0,0,0,0,3,0,0,3,0,0,0,4,1,0,0
68429808,0.0216867,0.0250784,0.550796,0.0,0.0,0.0,0.0,0.0,0.0,0.0,0.0,0,0,0,0,3,0,0,3,0,0,0,4,1,0,0
68630248,0.0192771,0.0250784,0.550796,0.0,0.0,0.0,0.0,0.0,0.0,0.0,0.0,0,0,0,0,3,0,0,3,0,0,0,4,1,0,0
68829144,0.0192771,0.0250784,0.55202,0.0,0.0,0.0,0.0,0.0,0.0,0.0,0.0,0,0,0,0,3,0,0,3,0,0,0,4,1,0,0
69030191,0.110843,0.0564263,0.544676,0.0,0.0,0.0,0.0,0.0,0.0,0.0,0.0,0,0,0,0,3,0,0,3,0,0,0,4,1,0,0
69231064,0.137349,0.178683,0.554468,0.0,0.0,0.0,0.0,0.0,0.0,0.0,0.0,0,0,0,0,3,0,0,3,0,0,0,4,1,0,0
69432260,0.175904,0.222571,0.554468,0.0,0.0,0.0,0.0,0.0,0.0,0.0,0.0,0,0,0,0,3,0,0,3,0,0,0,4,1,0,0
69633387,0.127711,0.112853,0.554468,0.0,0.0,0.0,0.0,0.0,0.0,0.0,0.0,0,0,0,0,3,0,0,3,0,0,0,4,1,0,0
69834578,0.0192771,0.0250784,0.554468,0.0,0.0,0.0,0.0,0.0,0.0,0.0,0.0,0,0,0,0,3,0,0,3,0,0,0,4,1,0,0
70033336,0.0216867,0.031348,0.525092,0.0,0.0,0.0,0.0,0.0,0.0,0.0,0.0,0,0,0,0,3,0,0,3,0,0,0,4,1,0,0
70234062,0.0216867,0.031348,0.517748,0.0,0.0,0.0,0.0,0.0,0.0,0.0,0.0,0,0,0,0,3,0,0,3,0,0,0,4,1,0,0
70435437,0.0216867,0.031348,0.5153,0.0,0.0,0.0,0.0,0.0,0.0,0.0,0.0,0,0,0,0,3,0,0,3,0,0,0,4,1,0,0
70636366,0.0240964,0.031348,0.517748,0.0,0.0,0.0,0.0,0.0,0.0,0.0,0.0,0,0,0,0,3,0,0,3,0,0,0,4,1,0,0
70837672,0.0216867,0.031348,0.49082,0.0,0.0,0.0,0.0,0.0,0.0,0.0,0.0,0,0,0,0,3,0,0,3,0,0,0,4,1,0,0
71038489,0.0216867,0.031348,0.493268,0.0,0.0,0.0,0.0,0.0,0.0,0.0,0.0,0,0,0,0,3,0,0,3,0,0,0,4,1,0,0
71240405,0.216867,0.100313,0.517748,0.0,0.0,0.0,0.0,0.0,0.0,0.0,0.0,0,0,0,0,3,0,0,3,0,0,0,4,1,0,0
71440866,0.110843,0.031348,0.542228,0.0,0.0,0.0,0.0,0.0,0.0,0.0,0.0,0,0,0,0,3,0,0,3,0,0,0,4,1,0,0
71642138,0.026506,0.0282132,0.594859,0.0,0.0,0.0,0.0,0.0,0.0,0.0,0.0,0,0,0,0,3,0,0,3,0,0,0,4,1,0,0
71843084,0.0192771,0.0250784,0.596083,0.0,0.0,0.0,0.0,0.0,0.0,0.0,0.0,0,0,0,0,3,0,0,3,0,0,0,4,1,0,0
72044968,0.115663,0.0470219,0.591187,0.0,0.0,0.0,0.0,0.0,0.0,0.0,0.0,0,0,0,0,3,0,0,3,0,0,0,4,1,0,0
72245410,0.195181,0.172414,0.592411,0.0,0.0,0.0,0.0,0.0,0.0,0.0,0.0,0,0,0,0,3,0,0,3,0,0,0,4,1,0,0
72447184,0.207229,0.119122,0.593635,0.0,0.0,0.0,0.0,0.0,0.0,0.0,0.0,0,0,0,0,3,0,0,3,0,0,0,4,1,0,0
72647749,0.142169,0.0877743,0.593635,0.0,0.0,0.0,0.0,0.0,0.0,0.0,0.0,0,0,0,0,3,0,0,3,0,0,0,4,1,0,0
72826315,0.0192771,0.0250784,0.529988,0.0,0.0,0.0,0.0,0.0,0.0,0.0,0.0,0,0,0,0,3,0,0,3,0,0,0,4,1,0,0
73028580,0.0216867,0.0282132,0.495716,0.0,0.0,0.0,0.0,0.0,0.0,0.0,0.0,0,0,0,0,3,0,0,3,0,0,0,4,1,0,0
73228851,0.0216867,0.0344828,0.501836,0.0,0.0,0.0,0.0,0.0,0.0,0.0,0.0,0,0,0,0,3,0,0,3,0,0,0,4,1,0,0
73450130,0.0361446,0.0940439,0.501836,0.0,0.0,0.0,0.0,0.0,0.0,0.0,0.0,0,0,0,0,3,0,0,3,0,0,0,4,1,0,0
73629098,0.110843,0.206897,0.501836,0.0,0.0,0.0,0.0,0.0,0.0,0.0,0.0,0,0,0,0,3,0,0,3,0,0,0,4,1,0,0
73827595,0.125301,0.225705,0.501836,0.0,0.0,0.0,0.0,0.0,0.0,0.0,0.0,0,0,0,0,3,0,0,3,0,0,0,4,1,0,0
74046162,0.137349,0.247649,0.501836,0.0,0.0,0.0,0.0,0.0,0.0,0.0,0.0,0,0,0,0,3,0,0,3,0,0,0,4,1,0,0
74245006,0.137349,0.238245,0.501836,0.0,0.0,0.0,0.0,0.0,0.0,0.0,0.0,0,0,0,0,3,0,0,3,0,0,0,4,1,0,0
74443009,0.086747,0.153605,0.501836,0.0,0.0,0.0,0.0,0.0,0.0,0.0,0.0,0,0,0,0,3,0,0,3,0,0,0,4,1,0,0
74641587,0.0192771,0.0250784,0.501836,0.0,0.0,0.0,0.0,0.0,0.0,0.0,0.0,0,0,0,0,3,0,0,3,0,0,0,4,1,0,0
74842567,0.0192771,0.0250784,0.501836,0.0,0.0,0.0,0.0,0.0,0.0,0.0,0.0,0,0,0,0,3,0,0,3,0,0,0,4,1,0,0
75044397,0.243373,0.0344828,0.501836,0.0,0.0,0.0,0.0,0.0,0.0,0.0,0.0,0,0,0,0,3,0,0,3,0,0,0,4,1,0,0
75244880,0.233735,0.0282132,0.577723,0.0,0.0,0.0,0.0,0.0,0.0,0.0,0.0,0,0,0,0,3,0,0,3,0,0,0,4,1,0,0
75446626,0.0216867,0.0250784,0.596083,0.0,0.0,0.0,0.0,0.0,0.0,0.0,0.0,0,0,0,0,3,0,0,3,0,0,0,4,1,0,0
75647050,0.0216867,0.0250784,0.599755,0.0,0.0,0.0,0.0,0.0,0.0,0.0,0.0,0,0,0,0,3,0,0,3,0,0,0,4,1,0,0
75825756,0.0216867,0.0250784,0.597307,0.0,0.0,0.0,0.0,0.0,0.0,0.0,0.0,0,0,0,0,3,0,0,3,0,0,0,4,1,0,0
76047601,0.173494,0.0344828,0.597307,0.0,0.0,0.0,0.0,0.0,0.0,0.0,0.0,0,0,0,0,3,0,0,3,0,0,0,4,1,0,0
76247771,0.209639,0.0344828,0.578947,0.0,0.0,0.0,0.0,0.0,0.0,0.0,0.0,0,0,0,0,3,0,0,3,0,0,0,4,1,0,0
76449917,0.243373,0.0344828,0.565483,0.0,0.0,0.0,0.0,0.0,0.0,0.0,0.0,0,0,0,0,3,0,0,3,0,0,0,4,1,0,0
76648858,0.233735,0.0344828,0.526316,0.0144231,0.0,0.0,0.0,0.0,0.0,0.0,0.0,0,0,0,0,3,0,0,3,0,0,0,4,1,0,0
76843913,0.171084,0.031348,0.506732,0.00240385,0.0,0.0,0.0,0.0,0.0,0.0,0.0,0,0,0,0,3,0,0,3,0,0,0,4,1,0,0
77045190,0.161446,0.0344828,0.567931,0.0,0.0,0.0,0.0,0.0,0.0,0.0,0.0,0,0,0,0,3,0,0,3,0,0,0,4,1,0,0
77245992,0.127711,0.031348,0.563035,0.0,0.0,0.0,0.0,0.0,0.0,0.0,0.0,0,0,0,0,3,0,0,3,0,0,0,4,1,0,0
77447806,0.120482,0.031348,0.514076,0.0120192,0.0,0.0,0.0,0.0,0.0,0.0,0.0,0,0,0,0,3,0,0,3,0,0,0,4,1,0,0
77648178,0.026506,0.031348,0.506732,0.0,0.0,0.0,0.0,0.0,0.0,0.0,0.0,0,0,0,0,3,0,0,3,0,0,0,4,1,0,0
77827128,0.0216867,0.031348,0.512852,0.0144231,0.0,0.0,0.0,0.0,0.0,0.0,0.0,0,0,0,0,3,0,0,3,0,0,0,4,1,0,0
78028935,0.0192771,0.0250784,0.505508,0.0,0.0,0.0,0.0,0.0,0.0,0.0,0.0,0,0,0,0,3,0,0,3,0,0,0,4,1,0,0
78227683,0.0192771,0.031348,0.489596,0.0,0.0,0.0,0.0,0.0,0.0,0.0,0.0,0,0,0,0,3,0,0,3,0,0,0,4,1,0,0
78450455,0.0915663,0.0376176,0.566707,0.0,0.0,0.0,0.0,0.0,0.0,0.0,0.0,0,0,0,0,3,0,0,3,0,0,0,4,1,0,0
78629524,0.0192771,0.0250784,0.55814,0.0,0.0,0.0,0.0,0.0,0.0,0.0,0.0,0,0,0,0,3,0,0,3,0,0,0,4,1,0,0
78830349,0.0192771,0.0250784,0.559364,0.0,0.0,0.0,0.0,0.0,0.0,0.0,0.0,0,0,0,0,3,0,0,3,0,0,0,4,1,0,0
79032169,0.0216867,0.0282132,0.560588,0.0,0.0,0.0,0.0,0.0,0.0,0.0,0.0,0,0,0,0,3,0,0,3,0,0,0,4,1,0,0
79232413,0.0216867,0.031348,0.560588,0.0,0.0,0.0,0.0,0.0,0.0,0.0,0.0,0,0,0,0,3,0,0,3,0,0,0,4,1,0,0
79433947,0.0216867,0.031348,0.560588,0.0,0.0,0.0,0.0,0.0,0.0,0.0,0.0,0,0,0,0,3,0,0,3,0,0,0,4,1,0,0
79634658,0.0216867,0.031348,0.560588,0.0,0.0,0.0,0.0,0.0,0.0,0.0,0.0,0,0,0,0,3,0,0,3,0,0,0,4,1,0,0
79833245,0.0650602,0.0658307,0.560588,0.0,0.0,0.0,0.0,0.0,0.0,0.0,0.0,0,0,0,0,3,0,0,3,0,0,0,4,1,0,0
80034612,0.0216867,0.0909091,0.499388,0.0,0.0,0.0,0.0,0.0,0.0,0.0,0.0,0,0,0,0,3,0,0,3,0,0,0,4,1,0,0
80233394,0.0289157,0.0940439,0.488372,0.0,0.0,0.0,0.0,0.0,0.0,0.0,0.0,0,0,0,0,3,0,0,3,0,0,0,4,1,0,0
80434242,0.0216867,0.0501567,0.512852,0.0,0.0,0.0,0.0,0.0,0.0,0.0,0.0,0,0,0,0,3,0,0,3,0,0,0,4,1,0,0
80632778,0.0289157,0.0407524,0.510404,0.0,0.0,0.0,0.0,0.0,0.0,0.0,0.0,0,0,0,0,3,0,0,3,0,0,0,4,1,0,0
80834881,0.0409639,0.0815047,0.511628,0.0,0.0,0.0,0.0,0.0,0.0,0.0,0.0,0,0,0,0,3,0,0,3,0,0,0,4,1,0,0
81035353,0.0337349,0.159875,0.505508,0.0,0.0,0.0,0.0,0.0,0.0,0.0,0.0,0,0,0,0,3,0,0,3,0,0,0,4,1,0,0
81243788,0.0554217,0.194357,0.511628,0.0,0.0,0.0,0.0,0.0,0.0,0.0,0.0,0,0,0,0,3,0,0,3,0,0,0,4,1,0,0
81437339,0.101205,0.188088,0.510404,0.0,0.0,0.0,0.0,0.0,0.0,0.0,0.0,0,0,0,0,3,0,0,3,0,0,0,4,1,0,0
81639095,0.0915663,0.0407524,0.511628,0.0,0.0,0.0,0.0,0.0,0.0,0.0,0.0,0,0,0,0,3,0,0,3,0,0,0,4,1,0,0
81839639,0.166265,0.031348,0.514076,0.0,0.0,0.0,0.0,0.0,0.0,0.0,0.0,0,0,0,0,3,0,0,3,0,0,0,4,1,0,0
82038187,0.0192771,0.0250784,0.492044,0.0,0.0,0.0,0.0,0.0,0.0,0.0,0.0,0,0,0,0,3,0,0,3,0,0,0,4,1,0,0
82236967,0.0313253,0.0344828,0.520196,0.0,0.0,0.0,0.0,0.0,0.0,0.0,0.0,0,0,0,0,3,0,0,3,0,0,0,4,1,0,0
82435483,0.159036,0.0376176,0.561812,0.0,0.0,0.0,0.0,0.0,0.0,0.0,0.0,0,0,0,0,3,0,0,3,0,0,0,4,1,0,0
82636824,0.146988,0.0344828,0.593635,0.0,0.0,0.0,0.0,0.0,0.0,0.0,0.0,0,0,0,0,3,0,0,3,0,0,0,4,1,0,0
82837708,0.0192771,0.0250784,0.581395,0.0,0.0,0.0,0.0,0.0,0.0,0.0,0.0,0,0,0,0,3,0,0,3,0,0,0,4,1,0,0
83036464,0.221687,0.159875,0.561812,0.0,0.0,0.0,0.0,0.0,0.0,0.0,0.0,0,0,0,0,3,0,0,3,0,0,0,4,1,0,0
83234940,0.163855,0.0971787,0.560588,0.0,0.0,0.0,0.0,0.0,0.0,0.0,0.0,0,0,0,0,3,0,0,3,0,0,0,4,1,0,0
83433581,0.0192771,0.0250784,0.565483,0.0,0.0,0.0,0.0,0.0,0.0,0.0,0.0,0,0,0,0,3,0,0,3,0,0,0,4,1,0,0
83635597,0.0192771,0.0250784,0.565483,0.0,0.0,0.0,0.0,0.0,0.0,0.0,0.0,0,0,0,0,3,0,0,3,0,0,0,4,1,0,0
83835852,0.0216867,0.031348,0.565483,0.0,0.0,0.0,0.0,0.0,0.0,0.0,0.0,0,0,0,0,3,0,0,3,0,0,0,4,1,0,0
84034433,0.13012,0.112853,0.520196,0.0,0.0,0.0,0.0,0.0,0.0,0.0,0.0,0,0,0,0,3,0,0,3,0,0,0,4,1,0,0
84233114,0.0216867,0.0282132,0.525092,0.0,0.0,0.0,0.0,0.0,0.0,0.0,0.0,0,0,0,0,3,0,0,3,0,0,0,4,1,0,0
84435139,0.0192771,0.0250784,0.544676,0.0,0.0,0.0,0.0,0.0,0.0,0.0,0.0,0,0,0,0,3,0,0,3,0,0,0,4,1,0,0
84635402,0.0337349,0.0376176,0.538556,0.0,0.0,0.0,0.0,0.0,0.0,0.0,0.0,0,0,0,0,3,0,0,3,0,0,0,4,1,0,0
84836731,0.168675,0.178683,0.547124,0.0,0.0,0.0,0.0,0.0,0.0,0.0,0.0,0,0,0,0,3,0,0,3,0,0,0,4,1,0,0
85037516,0.086747,0.0564263,0.548348,0.0,0.0,0.0,0.0,0.0,0.0,0.0,0.0,0,0,0,0,3,0,0,3,0,0,0,4,1,0,0
85239592,0.0192771,0.0250784,0.550796,0.0,0.0,0.0,0.0,0.0,0.0,0.0,0.0,0,0,0,0,3,0,0,3,0,0,0,4,1,0,0
85439997,0.026506,0.0344828,0.550796,0.0,0.0,0.0,0.0,0.0,0.0,0.0,0.0,0,0,0,0,3,0,0,3,0,0,0,4,1,0,0
85641650,0.086747,0.112853,0.561812,0.0,0.0,0.0,0.0,0.0,0.0,0.0,0.0,0,0,0,0,3,0,0,3,0,0,0,4,1,0,0
85842223,0.0192771,0.0250784,0.561812,0.0,0.0,0.0,0.0,0.0,0.0,0.0,0.0,0,0,0,0,3,0,0,3,0,0,0,4,1,0,0
86043416,0.0192771,0.0250784,0.559364,0.0,0.0,0.0,0.0,0.0,0.0,0.0,0.0,0,0,0,0,3,0,0,3,0,0,0,4,1,0,0
86244316,0.0626506,0.134796,0.559364,0.0,0.0,0.0,0.0,0.0,0.0,0.0,0.0,0,0,0,0,3,0,0,3,0,0,0,4,1,0,0
86445654,0.0216867,0.0250784,0.560588,0.0,0.0,0.0,0.0,0.0,0.0,0.0,0.0,0,0,0,0,3,0,0,3,0,0,0,4,1,0,0
86644287,0.0192771,0.0250784,0.560588,0.0,0.0,0.0,0.0,0.0,0.0,0.0,0.0,0,0,0,0,3,0,0,3,0,0,0,4,1,0,0
86845184,0.226506,0.0438871,0.5459,0.0,0.0,0.0,0.0,0.0,0.0,0.0,0.0,0,0,0,0,3,0,0,3,0,0,0,4,1,0,0
87044024,0.219277,0.0658307,0.554468,0.0,0.0,0.0,0.0,0.0,0.0,0.0,0.0,0,0,0,0,3,0,0,3,0,0,0,4,1,0,0
87245306,0.161446,0.181818,0.559364,0.0,0.0,0.0,0.0,0.0,0.0,0.0,0.0,0,0,0,0,3,0,0,3,0,0,0,4,1,0,0
87443761,0.0891566,0.197492,0.560588,0.0,0.0,0.0,0.0,0.0,0.0,0.0,0.0,0,0,0,0,3,0,0,3,0,0,0,4,1,0,0
87642467,0.0192771,0.0250784,0.559364,0.0,0.0,0.0,0.0,0.0,0.0,0.0,0.0,0,0,0,0,3,0,0,3,0,0,0,4,1,0,0
87838381,0.0192771,0.0250784,0.559364,0.0,0.0,0.0,0.0,0.0,0.0,0.0,0.0,0,0,0,0,3,0,0,3,0,0,0,4,1,0,0
88037141,0.0216867,0.0250784,0.559364,0.0,0.0,0.0,0.0,0.0,0.0,0.0,0.0,0,0,0,0,3,0,0,3,0,0,0,4,1,0,0
88239127,0.0216867,0.0250784,0.553244,0.0,0.0,0.0,0.0,0.0,0.0,0.0,0.0,0,0,0,0,3,0,0,3,0,0,0,4,1,0,0
88439333,0.0216867,0.0250784,0.555692,0.0,0.0,0.0,0.0,0.0,0.0,0.0,0.0,0,0,0,0,3,0,0,3,0,0,0,4,1,0,0
88641160,0.0192771,0.0250784,0.559364,0.0,0.0,0.0,0.0,0.0,0.0,0.0,0.0,0,0,0,0,3,0,0,3,0,0,0,4,1,0,0
88841634,0.0216867,0.0250784,0.559364,0.0,0.0,0.0,0.0,0.0,0.0,0.0,0.0,0,0,0,0,3,0,0,3,0,0,0,4,1,0,0
89042915,0.0216867,0.0815047,0.560588,0.0,0.0,0.0,0.0,0.0,0.0,0.0,0.0,0,0,0,0,3,0,0,3,0,0,0,4,1,0,0
89243712,0.0216867,0.194357,0.560588,0.0,0.0,0.0,0.0,0.0,0.0,0.0,0.0,0,0,0,0,3,0,0,3,0,0,0,4,1,0,0
89445756,0.0216867,0.0407524,0.561812,0.0,0.0,0.0,0.0,0.0,0.0,0.0,0.0,0,0,0,0,3,0,0,3,0,0,0,4,1,0,0
89646099,0.0216867,0.0470219,0.561812,0.0,0.0,0.0,0.0,0.0,0.0,0.0,0.0,0,0,0,0,3,0,0,3,0,0,0,4,1,0,0
89847958,0.0216867,0.0658307,0.560588,0.0,0.0,0.0,0.0,0.0,0.0,0.0,0.0,0,0,0,0,3,0,0,3,0,0,0,4,1,0,0
90048250,0.13494,0.244514,0.561812,0.0,0.0,0.0,0.0,0.0,0.0,0.0,0.0,0,0,0,0,3,0,0,3,0,0,0,4,1,0,0
90249670,0.192771,0.297806,0.559364,0.0,0.0,0.0,0.0,0.0,0.0,0.0,0.0,0,0,0,0,3,0,0,3,0,0,0,4,1,0,0
90428412,0.13253,0.244514,0.560588,0.0,0.0,0.0,0.0,0.0,0.0,0.0,0.0,0,0,0,0,3,0,0,3,0,0,0,4,1,0,0
90629357,0.0216867,0.0282132,0.529988,0.0,0.0,0.0,0.0,0.0,0.0,0.0,0.0,0,0,0,0,3,0,0,3,0,0,0,4,1,0,0
90831351,0.0216867,0.031348,0.501836,0.0,0.0,0.0,0.0,0.0,0.0,0.0,0.0,0,0,0,0,3,0,0,3,0,0,0,4,1,0,0
91051516,0.0216867,0.031348,0.492044,0.0,0.0,0.0,0.0,0.0,0.0,0.0,0.0,0,0,0,0,3,0,0,3,0,0,0,4,1,0,0
91230161,0.0192771,0.0250784,0.53366,0.0,0.0,0.0,0.0,0.0,0.0,0.0,0.0,0,0,0,0,3,0,0,3,0,0,0,4,1,0,0
91431917,0.0192771,0.0250784,0.523868,0.0,0.0,0.0,0.0,0.0,0.0,0.0,0.0,0,0,0,0,3,0,0,3,0,0,0,4,1,0,0
91632589,0.0192771,0.0250784,0.52142,0.0,0.0,0.0,0.0,0.0,0.0,0.0,0.0,0,0,0,0,3,0,0,3,0,0,0,4,1,0,0
91833706,0.0216867,0.031348,0.52142,0.0,0.0,0.0,0.0,0.0,0.0,0.0,0.0,0,0,0,0,3,0,0,3,0,0,0,4,1,0,0
92034643,0.0698795,0.0344828,0.50306,0.0,0.0,0.0,0.0,0.0,0.0,0.0,0.0,0,0,0,0,3,0,0,3,0,0,0,4,1,0,0
92235903,0.103614,0.0344828,0.505508,0.0,0.0,0.0,0.0,0.0,0.0,0.0,0.0,0,0,0,0,3,0,0,3,0,0,0,4,1,0,0
92436849,0.113253,0.0344828,0.5153,0.0,0.0,0.0,0.0,0.0,0.0,0.0,0.0,0,0,0,0,3,0,0,3,0,0,0,4,1,0,0
92638962,0.127711,0.0376176,0.505508,0.0,0.0,0.0,0.0,0.0,0.0,0.0,0.0,0,0,0,0,3,0,0,3,0,0,0,4,1,0,0
92839255,0.103614,0.0626959,0.505508,0.0,0.0,0.0,0.0,0.0,0.0,0.0,0.0,0,0,0,0,3,0,0,3,0,0,0,4,1,0,0
93040460,0.0192771,0.0250784,0.528764,0.0,0.0,0.0,0.0,0.0,0.0,0.0,0.0,0,0,0,0,3,0,0,3,0,0,0,4,1,0,0
93239538,0.212048,0.112853,0.55814,0.0,0.0,0.0,0.0,0.0,0.0,0.0,0.0,0,0,0,0,3,0,0,3,0,0,0,4,1,0,0
93440016,0.212048,0.153605,0.569155,0.0,0.0,0.0,0.0,0.0,0.0,0.0,0.0,0,0,0,0,3,0,0,3,0,0,0,4,1,0,0
93641363,0.2,0.163009,0.566707,0.0,0.0,0.0,0.0,0.0,0.0,0.0,0.0,0,0,0,0,3,0,0,3,0,0,0,4,1,0,0
93842268,0.236145,0.200627,0.565483,0.0,0.0,0.0,0.0,0.0,0.0,0.0,0.0,0,0,0,0,3,0,0,3,0,0,0,4,1,0,0
94043596,0.0216867,0.0250784,0.565483,0.0,0.0,0.0,0.0,0.0,0.0,0.0,0.0,0,0,0,0,3,0,0,3,0,0,0,4,1,0,0
94244450,0.0192771,0.0250784,0.566707,0.0,0.0,0.0,0.0,0.0,0.0,0.0,0.0,0,0,0,0,3,0,0,3,0,0,0,4,1,0,0
94445783,0.0216867,0.0250784,0.565483,0.0,0.0,0.0,0.0,0.0,0.0,0.0,0.0,0,0,0,0,3,0,0,3,0,0,0,4,1,0,0
94646700,0.0216867,0.0282132,0.565483,0.0,0.0,0.0,0.0,0.0,0.0,0.0,0.0,0,0,0,0,3,0,0,3,0,0,0,4,1,0,0
94848697,0.0216867,0.0344828,0.566707,0.0,0.0,0.0,0.0,0.0,0.0,0.0,0.0,0,0,0,0,3,0,0,3,0,0,0,4,1,0,0
95047227,0.115663,0.213166,0.565483,0.0,0.0,0.0,0.0,0.0,0.0,0.0,0.0,0,0,0,0,3,0,0,3,0,0,0,4,1,0,0
95247759,0.113253,0.263323,0.565483,0.0,0.0,0.0,0.0,0.0,0.0,0.0,0.0,0,0,0,0,3,0,0,3,0,0,0,4,1,0,0
95449317,0.115663,0.225705,0.564259,0.0,0.0,0.0,0.0,0.0,0.0,0.0,0.0,0,0,0,0,3,0,0,3,0,0,0,4,1,0,0
95647582,0.13253,0.213166,0.564259,0.0,0.0,0.0,0.0,0.0,0.0,0.0,0.0,0,0,0,0,3,0,0,3,0,0,0,4,1,0,0
95848709,0.0192771,0.0250784,0.559364,0.0,0.0,0.0,0.0,0.0,0.0,0.0,0.0,0,0,0,0,3,0,0,3,0,0,0,4,1,0,0
96027402,0.0192771,0.0250784,0.559364,0.0,0.0,0.0,0.0,0.0,0.0,0.0,0.0,0,0,0,0,3,0,0,3,0,0,0,4,1,0,0
96248904,0.0192771,0.0250784,0.559364,0.0,0.0,0.0,0.0,0.0,0.0,0.0,0.0,0,0,0,0,3,0,0,3,0,0,0,4,1,0,0
96447137,0.0216867,0.0250784,0.559364,0.0,0.0,0.0,0.0,0.0,0.0,0.0,0.0,0,0,0,0,3,0,0,3,0,0,0,4,1,0,0
96648159,0.0216867,0.0250784,0.561812,0.0,0.0,0.0,0.0,0.0,0.0,0.0,0.0,0,0,0,0,3,0,0,3,0,0,0,4,1,0,0
96849687,0.0216867,0.031348,0.559364,0.0,0.0,0.0,0.0,0.0,0.0,0.0,0.0,0,0,0,0,3,0,0,3,0,0,0,4,1,0,0
97028731,0.108434,0.153605,0.555692,0.0,0.0,0.0,0.0,0.0,0.0,0.0,0.0,0,0,0,0,3,0,0,3,0,0,0,4,1,0,0
97248914,0.212048,0.426332,0.538556,0.0,0.0,0.0,0.0,0.0,0.0,0.0,0.0,0,0,0,0,3,0,0,3,0,0,0,4,1,0,0
97427636,0.2,0.373041,0.542228,0.0,0.0,0.0,0.0,0.0,0.0,0.0,0.0,0,0,0,0,3,0,0,3,0,0,0,4,1,0,0
97633957,0.0192771,0.0250784,0.522644,0.0,0.0,0.0,0.0,0.0,0.0,0.0,0.0,0,0,0,0,3,0,0,3,0,0,0,4,1,0,0
97848174,0.0216867,0.031348,0.5153,-0.00696056,0.0,0.0,0.0,0.0,0.0,0.0,0.0,0,0,0,0,3,0,0,3,0,0,0,4,1,0,0
98048487,0.0216867,0.031348,0.516524,0.0,0.0,0.0,0.0,0.0,0.0,0.0,0.0,0,0,0,0,3,0,0,3,0,0,0,4,1,0,0
98249773,0.0216867,0.031348,0.516524,0.0,0.0,0.0,0.0,0.0,0.0,0.0,0.0,0,0,0,0,3,0,0,3,0,0,0,4,1,0,0
98450589,0.0240964,0.031348,0.516524,0.0,0.0,0.0,0.0,0.0,0.0,0.0,0.0,0,0,0,0,3,0,0,3,0,0,0,4,1,0,0
98629460,0.0216867,0.031348,0.517748,0.0,0.0,0.0,0.0,0.0,0.0,0.0,0.0,0,0,0,0,3,0,0,3,0,0,0,4,1,0,0
98827965,0.0192771,0.0250784,0.492044,0.0,0.0,0.0,0.0,0.0,0.0,0.0,0.0,0,0,0,0,3,0,0,3,0,0,0,4,1,0,0
99029411,0.0192771,0.0250784,0.507956,-0.0278422,0.0,0.0,0.0,0.0,0.0,0.0,0.0,0,0,0,0,3,0,0,3,0,0,0,4,1,0,0
99230313,0.0192771,0.0250784,0.525092,-0.0208817,0.0,0.0,0.0,0.0,0.0,0.0,0.0,0,0,0,0,3,0,0,3,0,0,0,4,1,0,0
99431729,0.0216867,0.0282132,0.517748,-0.00464037,0.0,0.0,0.0,0.0,0.0,0.0,0.0,0,0,0,0,3,0,0,3,0,0,0,4,1,0,0
99632775,0.0216867,0.0250784,0.547124,0.0,0.0,0.0,0.0,0.0,0.0,0.0,0.0,0,0,0,0,3,0,0,3,0,0,0,4,1,0,0
99834551,0.0216867,0.0250784,0.577723,0.0,0.0,0.0,0.0,0.0,0.0,0.0,0.0,0,0,0,0,3,0,0,3,0,0,0,4,1,0,0
100034781,0.0216867,0.0250784,0.581395,0.0,0.0,0.0,0.0,0.0,0.0,0.0,0.0,0,0,0,0,3,0,0,3,0,0,0,4,1,0,0
100236571,0.0216867,0.0250784,0.587515,0.0,0.0,0.0,0.0,0.0,0.0,0.0,0.0,0,0,0,0,3,0,0,3,0,0,0,4,1,0,0
100435214,0.168675,0.184953,0.574051,0.0,0.0,0.0,0.0,0.0,0.0,0.0,0.0,0,0,0,0,3,0,0,3,0,0,0,4,1,0,0
100635810,0.214458,0.153605,0.574051,0.0,0.0,0.0,0.0,0.0,0.0,0.0,0.0,0,0,0,0,3,0,0,3,0,0,0,4,1,0,0
100837495,0.146988,0.0344828,0.574051,0.0,0.0,0.0,0.0,0.0,0.0,0.0,0.0,0,0,0,0,3,0,0,3,0,0,0,4,1,0,0
101038057,0.0192771,0.0250784,0.5153,0.0,0.0,0.0,0.0,0.0,0.0,0.0,0.0,0,0,0,0,3,0,0,3,0,0,0,4,1,0,0
101239350,0.0216867,0.0250784,0.488372,0.0,0.0,0.0,0.0,0.0,0.0,0.0,0.0,0,0,0,0,3,0,0,3,0,0,0,4,1,0,0
101440075,0.0216867,0.0282132,0.50918,0.0,0.0,0.0,0.0,0.0,0.0,0.0,0.0,0,0,0,0,3,0,0,3,0,0,0,4,1,0,0
101641490,0.0216867,0.0282132,0.50918,0.0,0.0,0.0,0.0,0.0,0.0,0.0,0.0,0,0,0,0,3,0,0,3,0,0,0,4,1,0,0
101842368,0.0216867,0.0344828,0.50918,0.0,0.0,0.0,0.0,0.0,0.0,0.0,0.0,0,0,0,0,3,0,0,3,0,0,0,4,1,0,0
102043830,0.159036,0.0532915,0.514076,0.0,0.0,0.0,0.0,0.0,0.0,0.0,0.0,0,0,0,0,3,0,0,3,0,0,0,4,1,0,0
102244752,0.226506,0.106583,0.512852,0.0,0.0,0.0,0.0,0.0,0.0,0.0,0.0,0,0,0,0,3,0,0,3,0,0,0,4,1,0,0
102443336,0.214458,0.0971787,0.512852,0.0,0.0,0.0,0.0,0.0,0.0,0.0,0.0,0,0,0,0,3,0,0,3,0,0,0,4,1,0,0
102644678,0.187952,0.0564263,0.512852,0.0,0.0,0.0,0.0,0.0,0.0,0.0,0.0,0,0,0,0,3,0,0,3,0,0,0,4,1,0,0
102845647,0.154217,0.0344828,0.512852,0.0,0.0,0.0,0.0,0.0,0.0,0.0,0.0,0,0,0,0,3,0,0,3,0,0,0,4,1,0,0
103046826,0.0409639,0.031348,0.516524,0.0,0.0,0.0,0.0,0.0,0.0,0.0,0.0,0,0,0,0,3,0,0,3,0,0,0,4,1,0,0
103247725,0.0192771,0.0250784,0.525092,0.0,0.0,0.0,0.0,0.0,0.0,0.0,0.0,0,0,0,0,3,0,0,3,0,0,0,4,1,0,0
103426494,0.0192771,0.0250784,0.544676,0.0,0.0,0.0,0.0,0.0,0.0,0.0,0.0,0,0,0,0,3,0,0,3,0,0,0,4,1,0,0
103650184,0.0192771,0.0250784,0.596083,-0.0139211,0.0,0.0,0.0,0.0,0.0,0.0,0.0,0,0,0,0,3,0,0,3,0,0,0,4,1,0,0
103851232,0.0192771,0.0250784,0.580171,0.0,0.0,0.0,0.0,0.0,0.0,0.0,0.0,0,0,0,0,3,0,0,3,0,0,0,4,1,0,0
104030147,0.086747,0.0344828,0.576499,0.0,0.0,0.0,0.0,0.0,0.0,0.0,0.0,0,0,0,0,3,0,0,3,0,0,0,4,1,0,0
104230976,0.2,0.159875,0.580171,0.0,0.0,0.0,0.0,0.0,0.0,0.0,0.0,0,0,0,0,3,0,0,3,0,0,0,4,1,0,0
104432843,0.20241,0.197492,0.581395,0.0,0.0,0.0,0.0,0.0,0.0,0.0,0.0,0,0,0,0,3,0,0,3,0,0,0,4,1,0,0
104631015,0.139759,0.153605,0.581395,0.0,0.0,0.0,0.0,0.0,0.0,0.0,0.0,0,0,0,0,3,0,0,3,0,0,0,4,1,0,0
104831860,0.0963855,0.0564263,0.581395,0.0,0.0,0.0,0.0,0.0,0.0,0.0,0.0,0,0,0,0,3,0,0,3,0,0,0,4,1,0,0
105028965,0.0192771,0.0250784,0.581395,0.0,0.0,0.0,0.0,0.0,0.0,0.0,0.0,0,0,0,0,3,0,0,3,0,0,0,4,1,0,0
105229218,0.0216867,0.0282132,0.582619,0.0,0.0,0.0,0.0,0.0,0.0,0.0,0.0,0,0,0,0,3,0,0,3,0,0,0,4,1,0,0
105430380,0.0216867,0.0344828,0.582619,0.0,0.0,0.0,0.0,0.0,0.0,0.0,0.0,0,0,0,0,3,0,0,3,0,0,0,4,1,0,0
105629664,0.0963855,0.188088,0.582619,0.0,0.0,0.0,0.0,0.0,0.0,0.0,0.0,0,0,0,0,3,0,0,3,0,0,0,4,1,0,0
105837745,0.0192771,0.0344828,0.563035,0.0,0.0,0.0,0.0,0.0,0.0,0.0,0.0,0,0,0,0,3,0,0,3,0,0,0,4,1,0,0
106031859,0.0385542,0.0344828,0.522644,0.0,0.0,0.0,0.0,0.0,0.0,0.0,0.0,0,0,0,0,3,0,0,3,0,0,0,4,1,0,0
106232288,0.0192771,0.031348,0.489596,0.0,0.0,0.0,0.0,0.0,0.0,0.0,0.0,0,0,0,0,3,0,0,3,0,0,0,4,1,0,0
106433587,0.0192771,0.0282132,0.505508,0.0,0.0,0.0,0.0,0.0,0.0,0.0,0.0,0,0,0,0,3,0,0,3,0,0,0,4,1,0,0
106634627,0.0457831,0.0971787,0.510404,0.0,0.0,0.0,0.0,0.0,0.0,0.0,0.0,0,0,0,0,3,0,0,3,0,0,0,4,1,0,0
106833266,0.103614,0.222571,0.50918,0.0,0.0,0.0,0.0,0.0,0.0,0.0,0.0,0,0,0,0,3,0,0,3,0,0,0,4,1,0,0
107031845,0.0795181,0.100313,0.505508,0.0,0.0,0.0,0.0,0.0,0.0,0.0,0.0,0,0,0,0,3,0,0,3,0,0,0,4,1,0,0
107233263,0.0722892,0.0909091,0.526316,0.0,0.0,0.0,0.0,0.0,0.0,0.0,0.0,0,0,0,0,3,0,0,3,0,0,0,4,1,0,0
107434102,0.0192771,0.031348,0.559364,-0.00696056,0.0,0.0,0.0,0.0,0.0,0.0,0.0,0,0,0,0,3,0,0,3,0,0,0,4,1,0,0
107635744,0.0192771,0.0250784,0.559364,0.0,0.0,0.0,0.0,0.0,0.0,0.0,0.0,0,0,0,0,3,0,0,3,0,0,0,4,1,0,0
107836275,0.0626506,0.0595611,0.564259,0.0,0.0,0.0,0.0,0.0,0.0,0.0,0.0,0,0,0,0,3,0,0,3,0,0,0,4,1,0,0
108038158,0.110843,0.257053,0.556916,0.0,0.0,0.0,0.0,0.0,0.0,0.0,0.0,0,0,0,0,3,0,0,3,0,0,0,4,1,0,0
108238452,0.144578,0.31348,0.559364,0.0,0.0,0.0,0.0,0.0,0.0,0.0,0.0,0,0,0,0,3,0,0,3,0,0,0,4,1,0,0
108439928,0.122892,0.216301,0.559364,0.0,0.0,0.0,0.0,0.0,0.0,0.0,0.0,0,0,0,0,3,0,0,3,0,0,0,4,1,0,0
108639140,0.0578313,0.031348,0.560588,0.0,0.0,0.0,0.0,0.0,0.0,0.0,0.0,0,0,0,0,3,0,0,3,0,0,0,4,1,0,0
108839433,0.0192771,0.0250784,0.560588,0.0,0.0,0.0,0.0,0.0,0.0,0.0,0.0,0,0,0,0,3,0,0,3,0,0,0,4,1,0,0
109041127,0.139759,0.0344828,0.560588,0.0,0.0,0.0,0.0,0.0,0.0,0.0,0.0,0,0,0,0,3,0,0,3,0,0,0,4,1,0,0
109241603,0.159036,0.031348,0.560588,0.0,0.0,0.0,0.0,0.0,0.0,0.0,0.0,0,0,0,0,3,0,0,3,0,0,0,4,1,0,0
109442899,0.173494,0.0344828,0.560588,0.0,0.0,0.0,0.0,0.0,0.0,0.0,0.0,0,0,0,0,3,0,0,3,0,0,0,4,1,0,0
109643951,0.2,0.0344828,0.53978,0.0,0.0,0.0,0.0,0.0,0.0,0.0,0.0,0,0,0,0,3,0,0,3,0,0,0,4,1,0,0
109845670,0.166265,0.0344828,0.5153,0.0,0.0,0.0,0.0,0.0,0.0,0.0,0.0,0,0,0,0,3,0,0,3,0,0,0,4,1,0,0
110046218,0.146988,0.0344828,0.5153,0.0,0.0,0.0,0.0,0.0,0.0,0.0,0.0,0,0,0,0,3,0,0,3,0,0,0,4,1,0,0
110244776,0.0313253,0.031348,0.523868,0.0,0.0,0.0,0.0,0.0,0.0,0.0,0.0,0,0,0,0,3,0,0,3,0,0,0,4,1,0,0
110446511,0.0192771,0.0250784,0.597307,0.0,0.0,0.0,0.0,0.0,0.0,0.0,0.0,0,0,0,0,3,0,0,3,0,0,0,4,1,0,0
110647157,0.0192771,0.0250784,0.599755,0.0,0.0,0.0,0.0,0.0,0.0,0.0,0.0,0,0,0,0,3,0,0,3,0,0,0,4,1,0,0
110848408,0.0192771,0.0282132,0.594859,0.0,0.0,0.0,0.0,0.0,0.0,0.0,0.0,0,0,0,0,3,0,0,3,0,0,0,4,1,0,0
111049466,0.0216867,0.031348,0.567931,0.0,0.0,0.0,0.0,0.0,0.0,0.0,0.0,0,0,0,0,3,0,0,3,0,0,0,4,1,0,0
111228157,0.0216867,0.0250784,0.571603,0.0,0.0,0.0,0.0,0.0,0.0,0.0,0.0,0,0,0,0,3,0,0,3,0,0,0,4,1,0,0
111429809,0.0313253,0.0344828,0.571603,0.0,0.0,0.0,0.0,0.0,0.0,0.0,0.0,0,0,0,0,3,0,0,3,0,0,0,4,1,0,0
111630190,0.0578313,0.0752351,0.563035,0.0,0.0,0.0,0.0,0.0,0.0,0.0,0.0,0,0,0,0,3,0,0,3,0,0,0,4,1,0,0
111832295,0.0698795,0.0846395,0.563035,0.0,0.0,0.0,0.0,0.0,0.0,0.0,0.0,0,0,0,0,3,0,0,3,0,0,0,4,1,0,0
112032676,0.0216867,0.0470219,0.564259,0.0,0.0,0.0,0.0,0.0,0.0,0.0,0.0,0,0,0,0,3,0,0,3,0,0,0,4,1,0,0
112233881,0.0313253,0.0344828,0.537332,0.0,0.0,0.0,0.0,0.0,0.0,0.0,0.0,0,0,0,0,3,0,0,3,0,0,0,4,1,0,0
112432480,0.0433735,0.0344828,0.538556,0.0,0.0,0.0,0.0,0.0,0.0,0.0,0.0,0,0,0,0,3,0,0,3,0,0,0,4,1,0,0
112633548,0.0795181,0.0971787,0.531212,0.0,0.0,0.0,0.0,0.0,0.0,0.0,0.0,0,0,0,0,3,0,0,3,0,0,0,4,1,0,0
112832023,0.0216867,0.0344828,0.5153,0.0,0.0,0.0,0.0,0.0,0.0,0.0,0.0,0,0,0,0,3,0,0,3,0,0,0,4,1,0,0
113033446,0.053012,0.0344828,0.510404,0.0,0.0,0.0,0.0,0.0,0.0,0.0,0.0,0,0,0,0,3,0,0,3,0,0,0,4,1,0,0
113234313,0.0216867,0.0470219,0.522644,0.0,0.0,0.0,0.0,0.0,0.0,0.0,0.0,0,0,0,0,3,0,0,3,0,0,0,4,1,0,0
113436270,0.026506,0.0344828,0.520196,0.0,0.0,0.0,0.0,0.0,0.0,0.0,0.0,0,0,0,0,3,0,0,3,0,0,0,4,1,0,0
113636442,0.060241,0.106583,0.517748,0.0,0.0,0.0,0.0,0.0,0.0,0.0,0.0,0,0,0,0,3,0,0,3,0,0,0,4,1,0,0
113837932,0.0216867,0.119122,0.517748,0.0,0.0,0.0,0.0,0.0,0.0,0.0,0.0,0,0,0,0,3,0,0,3,0,0,0,4,1,0,0
114045575,0.0216867,0.106583,0.526316,0.0,0.0,0.0,0.0,0.0,0.0,0.0,0.0,0,0,0,0,3,0,0,3,0,0,0,4,1,0,0
114241002,0.0626506,0.175549,0.555692,0.0,0.0,0.0,0.0,0.0,0.0,0.0,0.0,0,0,0,0,3,0,0,3,0,0,0,4,1,0,0
114440995,0.0216867,0.0721003,0.565483,0.0,0.0,0.0,0.0,0.0,0.0,0.0,0.0,0,0,0,0,3,0,0,3,0,0,0,4,1,0,0
114643027,0.0216867,0.0564263,0.578947,0.0,0.0,0.0,0.0,0.0,0.0,0.0,0.0,0,0,0,0,3,0,0,3,0,0,0,4,1,0,0
114843206,0.0216867,0.0815047,0.593635,0.0,0.0,0.0,0.0,0.0,0.0,0.0,0.0,0,0,0,0,3,0,0,3,0,0,0,4,1,0,0
115044676,0.0409639,0.166144,0.581395,0.0,0.0,0.0,0.0,0.0,0.0,0.0,0.0,0,0,0,0,3,0,0,3,0,0,0,4,1,0,0
115245442,0.0722892,0.159875,0.574051,0.0,0.0,0.0,0.0,0.0,0.0,0.0,0.0,0,0,0,0,3,0,0,3,0,0,0,4,1,0,0
115444324,0.0698795,0.134796,0.574051,0.0,0.0,0.0,0.0,0.0,0.0,0.0,0.0,0,0,0,0,3,0,0,3,0,0,0,4,1,0,0
115645439,0.0192771,0.031348,0.522644,0.0,0.0,0.0,0.0,0.0,0.0,0.0,0.0,0,0,0,0,3,0,0,3,0,0,0,4,1,0,0
115844203,0.0313253,0.0344828,0.50918,0.0,0.0,0.0,0.0,0.0,0.0,0.0,0.0,0,0,0,0,3,0,0,3,0,0,0,4,1,0,0
116044997,0.154217,0.0815047,0.507956,0.0,0.0,0.0,0.0,0.0,0.0,0.0,0.0,0,0,0,0,3,0,0,3,0,0,0,4,1,0,0
116247077,0.178313,0.15674,0.510404,0.0,0.0,0.0,0.0,0.0,0.0,0.0,0.0,0,0,0,0,3,0,0,3,0,0,0,4,1,0,0
116445716,0.163855,0.106583,0.517748,0.0,0.0,0.0,0.0,0.0,0.0,0.0,0.0,0,0,0,0,3,0,0,3,0,0,0,4,1,0,0
116645971,0.106024,0.0376176,0.520196,0.0,0.0,0.0,0.0,0.0,0.0,0.0,0.0,0,0,0,0,3,0,0,3,0,0,0,4,1,0,0
116847634,0.0216867,0.0282132,0.567931,0.00240385,0.0,0.0,0.0,0.0,0.0,0.0,0.0,0,0,0,0,3,0,0,3,0,0,0,4,1,0,0
117048283,0.0192771,0.0250784,0.575275,0.0,0.0,0.0,0.0,0.0,0.0,0.0,0.0,0,0,0,0,3,0,0,3,0,0,0,4,1,0,0
117226889,0.0192771,0.0250784,0.583843,0.0,0.0,0.0,0.0,0.0,0.0,0.0,0.0,0,0,0,0,3,0,0,3,0,0,0,4,1,0,0
117428795,0.0192771,0.0282132,0.582619,0.0,0.0,0.0,0.0,0.0,0.0,0.0,0.0,0,0,0,0,3,0,0,3,0,0,0,4,1,0,0
117651673,0.0722892,0.0344828,0.577723,0.0,0.0,0.0,0.0,0.0,0.0,0.0,0.0,0,0,0,0,3,0,0,3,0,0,0,4,1,0,0
117850750,0.137349,0.159875,0.541004,0.0,0.0,0.0,0.0,0.0,0.0,0.0,0.0,0,0,0,0,3,0,0,3,0,0,0,4,1,0,0
118049378,0.0578313,0.181818,0.495716,0.0,0.0,0.0,0.0,0.0,0.0,0.0,0.0,0,0,0,0,3,0,0,3,0,0,0,4,1,0,0
118249888,0.0192771,0.0282132,0.501836,0.0,0.0,0.0,0.0,0.0,0.0,0.0,0.0,0,0,0,0,3,0,0,3,0,0,0,4,1,0,0
118428955,0.0192771,0.0250784,0.529988,0.0,0.0,0.0,0.0,0.0,0.0,0.0,0.0,0,0,0,0,3,0,0,3,0,0,0,4,1,0,0
118630036,0.0192771,0.0250784,0.563035,0.0,0.0,0.0,0.0,0.0,0.0,0.0,0.0,0,0,0,0,3,0,0,3,0,0,0,4,1,0,0
118830885,0.0192771,0.0250784,0.569155,0.0,0.0,0.0,0.0,0.0,0.0,0.0,0.0,0,0,0,0,3,0,0,3,0,0,0,4,1,0,0
119029738,0.0192771,0.0282132,0.563035,0.0,0.0,0.0,0.0,0.0,0.0,0.0,0.0,0,0,0,0,3,0,0,3,0,0,0,4,1,0,0
119230887,0.0674699,0.231975,0.560588,0.0,0.0,0.0,0.0,0.0,0.0,0.0,0.0,0,0,0,0,3,0,0,3,0,0,0,4,1,0,0
119431752,0.0987952,0.244514,0.565483,0.0,0.0,0.0,0.0,0.0,0.0,0.0,0.0,0,0,0,0,3,0,0,3,0,0,0,4,1,0,0
119633329,0.106024,0.257053,0.565483,0.0,0.0,0.0,0.0,0.0,0.0,0.0,0.0,0,0,0,0,3,0,0,3,0,0,0,4,1,0,0
119834114,0.0939759,0.222571,0.566707,0.0,0.0,0.0,0.0,0.0,0.0,0.0,0.0,0,0,0,0,3,0,0,3,0,0,0,4,1,0,0
120032774,0.115663,0.272727,0.566707,0.0,0.0,0.0,0.0,0.0,0.0,0.0,0.0,0,0,0,0,3,0,0,3,0,0,0,4,1,0,0
120231508,0.0939759,0.23511,0.566707,0.0,0.0,0.0,0.0,0.0,0.0,0.0,0.0,0,0,0,0,3,0,0,3,0,0,0,4,1,0,0
120429875,0.0192771,0.0250784,0.602203,0.0,0.0,0.0,0.0,0.0,0.0,0.0,0.0,0,0,0,0,3,0,0,3,0,0,0,4,1,0,0
120632044,0.0192771,0.0250784,0.597307,0.0,0.0,0.0,0.0,0.0,0.0,0.0,0.0,0,0,0,0,3,0,0,3,0,0,0,4,1,0,0
120832137,0.0216867,0.031348,0.599755,0.0,0.0,0.0,0.0,0.0,0.0,0.0,0.0,0,0,0,0,3,0,0,3,0,0,0,4,1,0,0
121033685,0.0216867,0.119122,0.599755,0.0,0.0,0.0,0.0,0.0,0.0,0.0,0.0,0,0,0,0,3,0,0,3,0,0,0,4,1,0,0
121234660,0.0192771,0.0815047,0.597307,0.0,0.0,0.0,0.0,0.0,0.0,0.0,0.0,0,0,0,0,3,0,0,3,0,0,0,4,1,0,0
121433238,0.0216867,0.0282132,0.55202,0.0,0.0,0.0,0.0,0.0,0.0,0.0,0.0,0,0,0,0,3,0,0,3,0,0,0,4,1,0,0
121634411,0.0216867,0.0282132,0.529988,0.0,0.0,0.0,0.0,0.0,0.0,0.0,0.0,0,0,0,0,3,0,0,3,0,0,0,4,1,0,0
121835329,0.0216867,0.0344828,0.525092,0.00240385,0.0,0.0,0.0,0.0,0.0,0.0,0.0,0,0,0,0,3,0,0,3,0,0,0,4,1,0,0
122037381,0.0216867,0.0344828,0.538556,0.0,0.0,0.0,0.0,0.0,0.0,0.0,0.0,0,0,0,0,3,0,0,3,0,0,0,4,1,0,0
122244691,0.0240964,0.144201,0.538556,0.0,0.0,0.0,0.0,0.0,0.0,0.0,0.0,0,0,0,0,3,0,0,3,0,0,0,4,1,0,0
122438971,0.0216867,0.0971787,0.55814,0.0,0.0,0.0,0.0,0.0,0.0,0.0,0.0,0,0,0,0,3,0,0,3,0,0,0,4,1,0,0
122639810,0.0192771,0.119122,0.564259,0.0,0.0,0.0,0.0,0.0,0.0,0.0,0.0,0,0,0,0,3,0,0,3,0,0,0,4,1,0,0
122838464,0.0192771,0.0282132,0.563035,0.0,0.0,0.0,0.0,0.0,0.0,0.0,0.0,0,0,0,0,3,0,0,3,0,0,0,4,1,0,0
123040213,0.0216867,0.0282132,0.564259,0.0,0.0,0.0,0.0,0.0,0.0,0.0,0.0,0,0,0,0,3,0,0,3,0,0,0,4,1,0,0
123238892,0.0216867,0.031348,0.517748,0.0,0.0,0.0,0.0,0.0,0.0,0.0,0.0,0,0,0,0,3,0,0,3,0,0,0,4,1,0,0
123439326,0.0216867,0.031348,0.516524,0.0,0.0,0.0,0.0,0.0,0.0,0.0,0.0,0,0,0,0,3,0,0,3,0,0,0,4,1,0,0
123641189,0.0216867,0.0282132,0.494492,0.0,0.0,0.0,0.0,0.0,0.0,0.0,0.0,0,0,0,0,3,0,0,3,0,0,0,4,1,0,0
123839822,0.0313253,0.263323,0.498164,0.0,0.0,0.0,0.0,0.0,0.0,0.0,0.0,0,0,0,0,3,0,0,3,0,0,0,4,1,0,0
124038563,0.086747,0.401254,0.505508,0.0,0.0,0.0,0.0,0.0,0.0,0.0,0.0,0,0,0,0,3,0,0,3,0,0,0,4,1,0,0
124236983,0.0192771,0.0282132,0.605875,0.0,0.0,0.0,0.0,0.0,0.0,0.0,0.0,0,0,0,0,3,0,0,3,0,0,0,4,1,0,0
124437592,0.0216867,0.0250784,0.599755,0.0,0.0,0.0,0.0,0.0,0.0,0.0,0.0,0,0,0,0,3,0,0,3,0,0,0,4,1,0,0
124633969,0.0192771,0.0250784,0.596083,0.0,0.0,0.0,0.0,0.0,0.0,0.0,0.0,0,0,0,0,3,0,0,3,0,0,0,4,1,0,0
124834742,0.026506,0.0344828,0.596083,0.0,0.0,0.0,0.0,0.0,0.0,0.0,0.0,0,0,0,0,3,0,0,3,0,0,0,4,1,0,0
125033353,0.118072,0.0344828,0.596083,0.0,0.0,0.0,0.0,0.0,0.0,0.0,0.0,0,0,0,0,3,0,0,3,0,0,0,4,1,0,0
125232062,0.0216867,0.0250784,0.586291,0.0,0.0,0.0,0.0,0.0,0.0,0.0,0.0,0,0,0,0,3,0,0,3,0,0,0,4,1,0,0
125430783,0.0192771,0.0250784,0.511628,0.0,0.0,0.0,0.0,0.0,0.0,0.0,0.0,0,0,0,0,3,0,0,3,0,0,0,4,1,0,0
125632503,0.0216867,0.0250784,0.522644,0.0,0.0,0.0,0.0,0.0,0.0,0.0,0.0,0,0,0,0,3,0,0,3,0,0,0,4,1,0,0
125830614,0.0192771,0.0250784,0.523868,0.0,0.0,0.0,0.0,0.0,0.0,0.0,0.0,0,0,0,0,3,0,0,3,0,0,0,4,1,0,0
126051554,0.142169,0.0940439,0.522644,0.0,0.0,0.0,0.0,0.0,0.0,0.0,0.0,0,0,0,0,3,0,0,3,0,0,0,4,1,0,0
126250240,0.2,0.159875,0.522644,0.0,0.0,0.0,0.0,0.0,0.0,0.0,0.0,0,0,0,0,3,0,0,3,0,0,0,4,1,0,0
126448942,0.178313,0.109718,0.522644,0.0,0.0,0.0,0.0,0.0,0.0,0.0,0.0,0,0,0,0,3,0,0,3,0,0,0,4,1,0,0
126627443,0.0385542,0.031348,0.522644,0.0,0.0,0.0,0.0,0.0,0.0,0.0,0.0,0,0,0,0,3,0,0,3,0,0,0,4,1,0,0
126829273,0.0192771,0.0250784,0.565483,0.0,0.0,0.0,0.0,0.0,0.0,0.0,0.0,0,0,0,0,3,0,0,3,0,0,0,4,1,0,0
127028357,0.0192771,0.0250784,0.569155,0.0,0.0,0.0,0.0,0.0,0.0,0.0,0.0,0,0,0,0,3,0,0,3,0,0,0,4,1,0,0
127248288,0.0192771,0.0250784,0.566707,0.0,0.0,0.0,0.0,0.0,0.0,0.0,0.0,0,0,0,0,3,0,0,3,0,0,0,4,1,0,0
127450065,0.0216867,0.0282132,0.567931,0.0,0.0,0.0,0.0,0.0,0.0,0.0,0.0,0,0,0,0,3,0,0,3,0,0,0,4,1,0,0
127629277,0.0216867,0.0282132,0.569155,0.0,0.0,0.0,0.0,0.0,0.0,0.0,0.0,0,0,0,0,3,0,0,3,0,0,0,4,1,0,0
127847562,0.149398,0.0376176,0.569155,0.0,0.0,0.0,0.0,0.0,0.0,0.0,0.0,0,0,0,0,3,0,0,3,0,0,0,4,1,0,0
128047772,0.142169,0.0407524,0.569155,0.0,0.0,0.0,0.0,0.0,0.0,0.0,0.0,0,0,0,0,3,0,0,3,0,0,0,4,1,0,0
128249038,0.113253,0.0344828,0.569155,0.0,0.0,0.0,0.0,0.0,0.0,0.0,0.0,0,0,0,0,3,0,0,3,0,0,0,4,1,0,0
128428342,0.0192771,0.0250784,0.569155,0.0,0.0,0.0,0.0,0.0,0.0,0.0,0.0,0,0,0,0,3,0,0,3,0,0,0,4,1,0,0
128648621,0.0216867,0.0250784,0.565483,0.0,0.0,0.0,0.0,0.0,0.0,0.0,0.0,0,0,0,0,3,0,0,3,0,0,0,4,1,0,0
128849937,0.0216867,0.031348,0.52142,0.0,0.0,0.0,0.0,0.0,0.0,0.0,0.0,0,0,0,0,3,0,0,3,0,0,0,4,1,0,0
129048674,0.0192771,0.0250784,0.498164,0.0,0.0,0.0,0.0,0.0,0.0,0.0,0.0,0,0,0,0,3,0,0,3,0,0,0,4,1,0,0
129249457,0.0216867,0.0344828,0.511628,0.0,0.0,0.0,0.0,0.0,0.0,0.0,0.0,0,0,0,0,3,0,0,3,0,0,0,4,1,0,0
129428252,0.113253,0.206897,0.511628,0.0,0.0,0.0,0.0,0.0,0.0,0.0,0.0,0,0,0,0,3,0,0,3,0,0,0,4,1,0,0
129629491,0.175904,0.294671,0.511628,0.0,0.0,0.0,0.0,0.0,0.0,0.0,0.0,0,0,0,0,3,0,0,3,0,0,0,4,1,0,0
129830768,0.0192771,0.0250784,0.572827,0.0,0.0,0.0,0.0,0.0,0.0,0.0,0.0,0,0,0,0,3,0,0,3,0,0,0,4,1,0,0
130031863,0.0192771,0.0250784,0.593635,0.0,0.0,0.0,0.0,0.0,0.0,0.0,0.0,0,0,0,0,3,0,0,3,0,0,0,4,1,0,0
130232840,0.0192771,0.0250784,0.585067,0.0,0.0,0.0,0.0,0.0,0.0,0.0,0.0,0,0,0,0,3,0,0,3,0,0,0,4,1,0,0
130433968,0.086747,0.0532915,0.589963,0.0,0.0,0.0,0.0,0.0,0.0,0.0,0.0,0,0,0,0,3,0,0,3,0,0,0,4,1,0,0
130635002,0.163855,0.194357,0.591187,0.0,0.0,0.0,0.0,0.0,0.0,0.0,0.0,0,0,0,0,3,0,0,3,0,0,0,4,1,0,0
130836671,0.159036,0.144201,0.591187,0.0,0.0,0.0,0.0,0.0,0.0,0.0,0.0,0,0,0,0,3,0,0,3,0,0,0,4,1,0,0
131035386,0.0361446,0.0282132,0.591187,0.0,0.0,0.0,0.0,0.0,0.0,0.0,0.0,0,0,0,0,3,0,0,3,0,0,0,4,1,0,0
131234014,0.0192771,0.0250784,0.560588,0.0,0.0,0.0,0.0,0.0,0.0,0.0,0.0,0,0,0,0,3,0,0,3,0,0,0,4,1,0,0
131442819,0.0216867,0.031348,0.544676,0.00480769,0.0,0.0,0.0,0.0,0.0,0.0,0.0,0,0,0,0,3,0,0,3,0,0,0,4,1,0,0
131636474,0.0192771,0.0250784,0.548348,0.0,0.0,0.0,0.0,0.0,0.0,0.0,0.0,0,0,0,0,3,0,0,3,0,0,0,4,1,0,0
131836893,0.0216867,0.031348,0.548348,0.0,0.0,0.0,0.0,0.0,0.0,0.0,0.0,0,0,0,0,3,0,0,3,0,0,0,4,1,0,0
132033095,0.0216867,0.031348,0.548348,0.0,0.0,0.0,0.0,0.0,0.0,0.0,0.0,0,0,0,0,3,0,0,3,0,0,0,4,1,0,0
132234273,0.0216867,0.031348,0.5459,0.0,0.0,0.0,0.0,0.0,0.0,0.0,0.0,0,0,0,0,3,0,0,3,0,0,0,4,1,0,0
132432811,0.0626506,0.0407524,0.550796,0.0,0.0,0.0,0.0,0.0,0.0,0.0,0.0,0,0,0,0,3,0,0,3,0,0,0,4,1,0,0
132634059,0.187952,0.244514,0.553244,0.0,0.0,0.0,0.0,0.0,0.0,0.0,0.0,0,0,0,0,3,0,0,3,0,0,0,4,1,0,0
132834901,0.0819277,0.0595611,0.553244,0.0,0.0,0.0,0.0,0.0,0.0,0.0,0.0,0,0,0,0,3,0,0,3,0,0,0,4,1,0,0
133033523,0.0578313,0.0344828,0.553244,0.0,0.0,0.0,0.0,0.0,0.0,0.0,0.0,0,0,0,0,3,0,0,3,0,0,0,4,1,0,0
133234934,0.0626506,0.0407524,0.553244,0.0,0.0,0.0,0.0,0.0,0.0,0.0,0.0,0,0,0,0,3,0,0,3,0,0,0,4,1,0,0
133435790,0.0433735,0.0344828,0.553244,0.0,0.0,0.0,0.0,0.0,0.0,0.0,0.0,0,0,0,0,3,0,0,3,0,0,0,4,1,0,0
133634413,0.13012,0.153605,0.553244,0.0,0.0,0.0,0.0,0.0,0.0,0.0,0.0,0,0,0,0,3,0,0,3,0,0,0,4,1,0,0
133836256,0.127711,0.131661,0.553244,0.0,0.0,0.0,0.0,0.0,0.0,0.0,0.0,0,0,0,0,3,0,0,3,0,0,0,4,1,0,0
134036987,0.0746988,0.0752351,0.553244,0.0,0.0,0.0,0.0,0.0,0.0,0.0,0.0,0,0,0,0,3,0,0,3,0,0,0,4,1,0,0
134235242,0.0698795,0.0658307,0.553244,0.0,0.0,0.0,0.0,0.0,0.0,0.0,0.0,0,0,0,0,3,0,0,3,0,0,0,4,1,0,0
134434037,0.086747,0.0626959,0.553244,0.0,0.0,0.0,0.0,0.0,0.0,0.0,0.0,0,0,0,0,3,0,0,3,0,0,0,4,1,0,0
134632543,0.0457831,0.031348,0.553244,0.0,0.0,0.0,0.0,0.0,0.0,0.0,0.0,0,0,0,0,3,0,0,3,0,0,0,4,1,0,0
134831214,0.0192771,0.0250784,0.553244,0.0,0.0,0.0,0.0,0.0,0.0,0.0,0.0,0,0,0,0,3,0,0,3,0,0,0,4,1,0,0
135032605,0.0192771,0.0250784,0.553244,0.0,0.0,0.0,0.0,0.0,0.0,0.0,0.0,0,0,0,0,3,0,0,3,0,0,0,4,1,0,0
135233459,0.0192771,0.0250784,0.553244,0.0,0.0,0.0,0.0,0.0,0.0,0.0,0.0,0,0,0,0,3,0,0,3,0,0,0,4,1,0,0
135434839,0.0192771,0.0282132,0.553244,0.0,0.0,0.0,0.0,0.0,0.0,0.0,0.0,0,0,0,0,3,0,0,3,0,0,0,4,1,0,0
135635726,0.0939759,0.169279,0.553244,0.0,0.0,0.0,0.0,0.0,0.0,0.0,0.0,0,0,0,0,3,0,0,3,0,0,0,4,1,0,0
135834331,0.0626506,0.0595611,0.553244,0.0,0.0,0.0,0.0,0.0,0.0,0.0,0.0,0,0,0,0,3,0,0,3,0,0,0,4,1,0,0
136033084,0.0192771,0.0250784,0.553244,0.0,0.0,0.0,0.0,0.0,0.0,0.0,0.0,0,0,0,0,3,0,0,3,0,0,0,4,1,0,0
136234831,0.0192771,0.0250784,0.553244,0.0,0.0,0.0,0.0,0.0,0.0,0.0,0.0,0,0,0,0,3,0,0,3,0,0,0,4,1,0,0
136435464,0.0192771,0.0250784,0.553244,0.0,0.0,0.0,0.0,0.0,0.0,0.0,0.0,0,0,0,0,3,0,0,3,0,0,0,4,1,0,0
136636556,0.0795181,0.0438871,0.553244,0.0,0.0,0.0,0.0,0.0,0.0,0.0,0.0,0,0,0,0,3,0,0,3,0,0,0,4,1,0,0
136837518,0.113253,0.0595611,0.553244,0.0,0.0,0.0,0.0,0.0,0.0,0.0,0.0,0,0,0,0,3,0,0,3,0,0,0,4,1,0,0
137036187,0.0216867,0.0282132,0.553244,0.0,0.0,0.0,0.0,0.0,0.0,0.0,0.0,0,0,0,0,3,0,0,3,0,0,0,4,1,0,0
137234731,0.0192771,0.0250784,0.553244,0.0,0.0,0.0,0.0,0.0,0.0,0.0,0.0,0,0,0,0,3,0,0,3,0,0,0,4,1,0,0
137436644,0.0361446,0.106583,0.553244,0.0,0.0,0.0,0.0,0.0,0.0,0.0,0.0,0,0,0,0,3,0,0,3,0,0,0,4,1,0,0
137636978,0.122892,0.178683,0.553244,0.0,0.0,0.0,0.0,0.0,0.0,0.0,0.0,0,0,0,0,3,0,0,3,0,0,0,4,1,0,0
137835737,0.086747,0.119122,0.553244,0.0,0.0,0.0,0.0,0.0,0.0,0.0,0.0,0,0,0,0,3,0,0,3,0,0,0,4,1,0,0
138034350,0.0192771,0.031348,0.560588,0.0,0.0,0.0,0.0,0.0,0.0,0.0,0.0,0,0,0,0,3,0,0,3,0,0,0,4,1,0,0
138236050,0.0192771,0.0250784,0.560588,0.0,0.0,0.0,0.0,0.0,0.0,0.0,0.0,0,0,0,0,3,0,0,3,0,0,0,4,1,0,0
138436498,0.0192771,0.0250784,0.572827,0.0,0.0,0.0,0.0,0.0,0.0,0.0,0.0,0,0,0,0,3,0,0,3,0,0,0,4,1,0,0
138638026,0.0192771,0.0250784,0.577723,0.0,0.0,0.0,0.0,0.0,0.0,0.0,0.0,0,0,0,0,3,0,0,3,0,0,0,4,1,0,0
138833840,0.0192771,0.0250784,0.572827,0.0,0.0,0.0,0.0,0.0,0.0,0.0,0.0,0,0,0,0,3,0,0,3,0,0,0,4,1,0,0
139032505,0.0192771,0.0250784,0.572827,0.0,0.0,0.0,0.0,0.0,0.0,0.0,0.0,0,0,0,0,3,0,0,3,0,0,0,4,1,0,0
139231161,0.0192771,0.0250784,0.572827,0.0,0.0,0.0,0.0,0.0,0.0,0.0,0.0,0,0,0,0,3,0,0,3,0,0,0,4,1,0,0
