timestamp,timestamp_sample,xyz[0],xyz[1],xyz[2]
20847635,20847408,0.00714588,-0.00309899,-0.0466092
20848859,20848628,0.00510642,-0.000443434,-0.053728
20869969,20869731,-0.0150083,0.015285,0.0204447
20891071,20890837,-0.0052739,0.0183656,0.0869024
20910945,20910710,-0.00100219,0.00719691,-0.00692519
20929563,20929322,-0.0155543,-0.0043135,-0.0661634
20949425,20949186,0.00481046,-0.0202073,-0.00193749
20970524,20970292,-0.0062194,0.0245379,0.0609557
20987898,20987671,0.000662416,0.0121437,0.0139934
21009025,21008797,-0.00272727,-0.00827663,-0.0412916
21030243,21030006,-0.00349246,-0.00853862,0.00890697
21051222,21050991,0.0354412,-0.0275829,0.0384448
21068602,21068368,0.005029,0.00849299,-0.00707865
21089704,21089473,0.0167782,0.00969488,-0.0809658
21110803,21110578,0.00273797,0.0274262,0.0585254
21128189,21127960,0.0349077,-0.0438724,0.0326503
21149323,21149093,-0.0565172,0.0490623,-0.091407
21170401,21170170,0.0307843,0.0349967,0.020338
21187782,21187550,-0.0246962,-0.0457265,0.0314341
21208892,21208659,0.0264618,-0.00678699,-0.0492005
21229986,21229760,-0.017835,0.0543662,-0.0135432
21251115,21250884,-0.0141239,0.0170176,0.0610767
21268476,21268246,0.0168177,-0.059826,-0.0356497
21289708,21289474,0.0390317,0.000509141,-0.0179573
21310859,21310635,-0.0272313,0.0724492,0.0359448
21331794,21331562,-0.0314159,0.0512601,0.0276474
21349174,21348949,0.0242325,-0.0911493,-0.0340825
21370323,21370090,0.0444946,-0.0471842,0.0222806
21391387,21391153,-0.0433989,0.0829835,0.0488285
21408757,21408533,-0.00727886,0.0141491,-0.0444198
21429863,21429638,0.038884,-0.133321,-0.0239893
21450975,21450744,0.0304178,-0.101058,0.0341346
21472078,21471849,-0.0347843,0.0971484,0.0408633
21489456,21489228,0.00642209,0.0656141,-0.04355
21510567,21510335,0.0357957,-0.13133,-0.00787309
21530443,21530207,-0.00644412,-0.119863,0.0385596
21549075,21548848,-0.0380458,0.16412,-0.00660493
21569025,21568801,0.0403648,0.0797257,-0.0274005
21590033,21589801,0.0268036,-0.125052,0.0135308
21611140,21610896,-0.0309016,-0.147381,0.0185788
21628506,21628278,-0.0157484,0.130304,-0.0172974
21649610,21649380,0.045366,0.118496,0.000156736
21670714,21670487,0.0333946,-0.0192419,0.0270537
21688102,21687866,-0.0426691,-0.0991033,-0.0176272
21709243,21709010,-0.0233511,0.00430546,-0.029982
21730304,21730077,0.0533965,0.0639779,0.0159547
21751411,21751182,0.0355612,0.0527173,0.0466492
21768793,21768563,-0.0330135,-0.0330645,-0.0352785
21789895,21789669,-0.0224293,-0.0463421,-0.0452299
21811003,21810769,0.0405971,-0.0268235,0.023766
21828460,21828231,0.00362178,0.0641544,0.0299015
21849717,21849492,-0.0270551,0.0594341,-0.0426418
21870590,21870364,-0.0148343,-0.043383,-0.046806
21887974,21887744,0.0141316,-0.0735004,0.0618175
21909089,21908857,-0.0107056,0.0537333,0.0428213
21930188,21929959,-0.0050215,0.124041,-0.0339122
21947565,21947336,0.0354934,-0.0669591,-0.0177699
21968672,21968443,-0.0169048,-0.132067,0.0393501
21989777,21989546,-0.0485402,-0.0306285,0.0458144
22010881,22010651,-0.0139494,0.101686,-0.00809322
22031990,22031756,0.0538647,0.0958806,-0.0334448
22049363,22049137,0.00708942,-0.102222,0.0232351
22070475,22070251,-0.0687318,-0.0648544,0.0167187
22090369,22090145,-0.0535002,0.0630291,-0.0213771
22109096,22108866,0.0749852,0.0339872,0.018921
22130070,22129834,0.0531313,-0.0316205,0.0373057
22149925,22149699,-0.0391223,-0.0391328,-0.0139946
22171034,22170803,-0.0493449,0.00667446,-0.0425627
22188416,22188183,0.0392115,0.029271,0.0363439
22209513,22209288,0.0275787,-0.00391979,0.0398509
22230622,22230394,-0.0141096,-0.00210025,-0.0146383
22248000,22247774,-0.0111819,-0.0206388,-0.0226222
22269104,22268879,0.0134183,-0.0205482,0.0463125
22290221,22289985,0.00141274,0.0247677,0.0618271
22311364,22311138,0.0059653,0.067997,-0.0167356
22328698,22328472,0.0108325,-0.0407595,-0.0399608
22349803,22349575,0.00044611,-0.0906893,0.0423766
22371053,22370826,-0.0292075,-0.0238134,0.0717017
22388467,22388242,0.00566763,0.0940302,-0.0460672
22409396,22409166,0.0408555,0.00661949,-0.050316
22430497,22430272,0.0324201,-0.0929637,0.0076438
22451607,22451378,-0.0371005,-0.0547741,0.0505427
22469021,22468792,-0.0395998,0.094549,-0.00688984
22490125,22489899,0.0593234,0.018595,-0.037362
22511194,22510968,0.0638045,-0.0915768,-0.00136721
22528581,22528348,-0.054173,0.00100943,0.0207257
22549679,22549454,-0.0540294,0.102482,0.000139763
22570784,22570559,0.0109783,0.0707048,-0.00269372
22591891,22591665,0.0515099,-0.0370001,0.0180825
22609275,22609045,-0.0213193,-0.0517397,-0.013951
22630432,22630207,-0.0470711,0.0431184,-0.0354896
22650387,22650160,0.0121341,0.0522915,0.0233182
22668867,22668637,0.0270945,-0.044795,0.0490998
22689986,22689753,-0.00651931,-0.0404629,-0.018303
22711091,22710851,-0.0105755,-0.00377935,-0.0723149
22730935,22730710,0.00608234,0.0112746,0.00715454
22749562,22749333,-0.0178904,0.00592622,0.085619
22769431,22769202,0.0111449,0.00106233,-0.0181909
22790528,22790301,0.0165359,-0.0237653,-0.0770608
22807923,22807685,-0.00855074,-0.00327688,0.0319841
22829015,22828790,-0.0270367,0.0633901,0.0822177
22850118,22849893,-0.0224062,0.0744175,0.028268
22871248,22871000,0.0248854,-0.00804715,-0.0478528
22888616,22888390,0.0180493,-0.0939398,-0.00977921
22909807,22909582,-0.0366944,0.0285694,0.0463666
22930819,22930591,-0.0491975,0.12676,0.0365914
22948206,22947972,0.054497,-0.0614545,-0.013447
22969299,22969074,0.0557513,-0.161697,-0.00358071
22990411,22990179,-0.00710061,-0.0666588,0.00529915
23011511,23011286,-0.0844269,0.148662,-0.0267244
23028892,23028665,-0.0334363,0.113955,-0.0204875
23050048,23049813,0.0537102,-0.105286,0.0393983
23071102,23070876,0.110443,-0.284848,0.0930511
23088482,23088256,0.0779921,-0.114741,0.036417
23109603,23109361,0.0358266,0.0619869,-0.00822396
23130693,23130467,0.00664942,0.165613,-0.0244514
23151826,23151602,0.0506427,0.203144,-0.0113502
23169250,23169014,0.0603119,0.098703,-0.00893627
23190443,23190218,0.2672,-0.0705105,-0.00689534
23211389,23211164,0.0570801,0.0130834,0.00671361
23228779,23228547,-0.0669219,0.0436962,0.0256288
23249886,23249652,0.0718391,-0.0619016,-0.00441022
23270980,23270755,-0.0577694,0.0609436,-0.0150578
23288393,23288164,-0.120934,0.074182,0.0175358
23309469,23309240,0.108413,-0.0487136,-0.0292892
23330576,23330346,-0.0776083,0.0491703,0.0317976
23347962,23347726,-0.014941,-0.003546,0.0159544
23369063,23368832,-0.0124567,-0.000867054,-0.0156294
23388936,23388698,-0.0118246,-0.0101554,0.00410829
23410082,23409858,-0.00981616,0.0104994,0.0176099
23431215,23430987,0.0307651,0.00385663,-0.0133178
23448633,23448401,0.0410027,0.030457,-0.00781523
23469619,23469391,-0.0198241,-0.0206223,-0.00608212
23490723,23490496,0.0225488,0.0351964,-0.000567836
23508115,23507881,-0.055349,0.00181464,0.0318398
23529211,23528982,0.0448602,-0.0240062,0.00120272
23550313,23550087,-0.0597468,-0.00107207,0.0117328
23571441,23571208,0.0464199,-0.0183907,-0.00998599
23588799,23588574,0.00366391,0.0644821,0.00846892
23609909,23609681,-0.0149895,-0.0626459,-0.00205764
23632266,23632027,-0.00845995,0.0556754,-0.00348866
23648390,23648164,-0.0331164,-0.0135584,-0.00897123
23669506,23669282,0.00793285,0.0344279,0.0299958
23690605,23690376,-0.00474736,-0.0465299,-0.00864245
23711789,23711560,-0.00282763,0.0225914,0.0341082
23729242,23729013,-0.00325275,-0.0138516,0.0156271
23750230,23749987,-0.00750855,-0.0016521,0.0201211
23771300,23771073,0.038733,-0.00892515,-0.0179474
23788727,23788500,-0.0345954,0.0304557,-0.0175541
23809793,23809557,0.0257633,-0.0041225,0.0153154
23830894,23830663,-0.0269807,0.0308831,-0.00111871
23851991,23851767,0.0471677,-0.0544438,0.0168397
23869378,23869148,0.0481899,-0.0427788,-0.0265358
23890490,23890256,-0.0290918,-0.0180298,0.0180084
23911587,23911358,-0.0133415,0.0514972,-0.00728546
23928970,23928739,-0.0539439,0.0577778,0.0279141
23950080,23949846,0.025912,0.0304273,-0.00418039
23969970,23969741,-0.0390665,0.0209415,0.00674277
23991158,23990934,0.0595316,-0.00621955,-0.0310382
24008432,24008194,-0.0319253,-0.0407462,-0.01547
24029533,24029299,0.0214067,-0.0270754,0.000112913
24050632,24050404,-0.0175633,0.0143865,0.0487802
24069261,24069028,0.0202276,0.000992137,-0.011947
24089130,24088893,-0.0292444,0.0281217,0.00602923
24110228,24109995,0.00482868,0.00407949,-0.0332697
24131325,24131100,0.0189115,-0.0183214,0.0274417
24148712,24148482,0.0280908,-0.00505638,0.000559874
24169813,24169587,0.00842788,-0.0594521,-0.000278421
24190922,24190692,-0.0156911,-0.00116739,-0.00334645
24208314,24208082,0.0328254,-0.0207371,0.000690132
24229410,24229181,0.00949767,-0.019563,0.00602513
24250584,24250358,0.00452663,0.00210038,-0.0217169
24271800,24271572,-0.00280829,0.00274207,0.00787669
24288995,24288768,0.0111011,0.0163783,-0.0156577
24310100,24309874,0.0306855,0.0442567,-0.0271545
24331214,24330979,0.0249959,-0.00427329,-0.00032882
24348585,24348360,-0.00825143,-0.0159565,-0.0146576
24369688,24369465,0.0314403,-0.0116394,0.0118804
24390799,24390570,-0.00919565,-0.00815585,0.0120303
24411901,24411675,-0.00247181,0.0149742,-0.0066924
24429286,24429056,0.0170568,-0.0333022,-0.00973067
24450446,24450213,0.0236119,-0.0232529,0.00941233
24471527,24471293,0.00578395,-0.0296505,0.0148853
24488875,24488649,-0.0177882,-0.00625228,0.0667997
24510066,24509834,0.0049054,-0.0151887,0.0153079
24529969,24529739,-0.00236507,-0.0121618,-0.0262873
24550952,24550722,0.00901635,0.0141934,-0.0102973
24569576,24569344,0.0207548,0.035807,0.0127487
24589440,24589208,0.0118674,0.0516631,-0.00309394
24610538,24610312,-0.0491966,-0.0592744,-0.0189196
24627943,24627693,-0.0171834,0.0153642,-0.0259822
24649030,24648798,0.0191911,-8.28722e-06,0.0521184
24670152,24669912,-0.0641032,-0.0143783,0.0349171
24691241,24691012,0.00517094,-0.00663027,0.0177728
24708621,24708390,0.0197594,0.00984389,0.00159316
24729733,24729507,-0.0353621,0.0460845,0.00249879
24750824,24750600,0.0375295,0.0301917,0.0137939
24768252,24768021,-0.0279037,-0.0653808,-0.00466436
24789395,24789166,0.00678778,-0.0501317,-0.0167136
24810630,24810406,0.00436434,0.0342647,-0.0101663
24827806,24827571,-0.00984117,0.0431098,0.0490501
24848924,24848697,-0.0622207,0.0543757,0.023473
24870007,24869782,0.0301574,0.0325626,-0.0305521
24891118,24890887,0.0411877,-0.00111847,-0.0455949
24908503,24908269,-0.0380525,0.0058091,0.00126339
24929602,24929373,0.0158203,-0.00875153,0.00425797
24950705,24950479,0.00816318,-0.0228725,-0.00383672
24971814,24971584,-0.0303965,-0.0169119,0.00719082
24989191,24988964,0.0264903,-0.0192123,-0.0171559
25010296,25010069,0.0443596,-0.0302061,-0.0342677
25031411,25031174,0.0138709,0.033392,-0.0391192
25048828,25048599,-0.0686809,0.0564682,0.0374637
25070027,25069796,0.00334835,0.029833,0.00451555
25091004,25090766,-0.0173866,-0.0230327,-0.00464206
25112104,25111871,0.0134427,-0.0195134,-0.0304368
25129478,25129252,-0.00460889,0.0261236,-0.04978
25150594,25150357,-0.0181007,0.00751499,-0.0360122
25170454,25170221,-0.0659043,0.00868844,-0.0315406
25189067,25188838,0.0607039,0.0271245,-0.076475
25208938,25208706,0.0796241,-0.0275802,-0.0955549
25230051,25229821,0.0362397,-0.0575965,-0.0895576
25251149,25250918,3.81691e-05,-0.00619733,-0.0925156
25268523,25268298,-0.0231439,-0.0663754,-0.0636139
25289632,25289403,0.00138697,-0.0261995,-0.0666524
25310784,25310559,0.00234476,-0.0121879,-0.0589812
25328201,25327971,0.106076,-0.0221992,-0.088937
25349411,25349177,0.0662916,0.0292011,-0.0904244
25370333,25370099,0.00825309,0.0172235,-0.0505691
25391431,25391208,0.0433811,-0.0446945,-0.0179389
25408818,25408585,-0.00534001,-0.038978,-0.0290312
25429924,25429690,-0.0191372,0.0685955,-0.03896
25451022,25450795,0.0379226,0.0583948,-0.0636286
25468405,25468177,-0.0444164,0.138913,-0.0395056
25489509,25489282,-0.202774,0.0917105,-0.047732
25510610,25510386,-0.161841,-0.0155988,-0.0423651
25531721,25531492,-0.0930751,-0.00757378,-0.0530286
25549101,25548875,0.119155,-0.0331167,-0.0310178
25570270,25570046,0.19412,-0.00585648,-0.0426405
25591365,25591140,0.0480594,-0.0170689,-0.0277913
25608828,25608602,0.0728408,-0.0524583,-0.0227668
25629797,25629569,0.0352903,-0.0876325,-0.0255584
25650960,25650729,0.0528774,-0.131285,-0.00930124
25668288,25668055,-0.0244445,-0.176388,0.00179666
25689389,25689160,-0.0907585,-0.178964,0.0129306
25710490,25710265,-0.156422,-0.198635,0.0219616
25730354,25730129,-0.216612,-0.205455,0.0200347
25748979,25748752,-0.168033,-0.247133,-0.0118775
25768841,25768614,0.0175908,-0.271565,-0.0168342
25789951,25789725,0.0601658,-0.230743,0.0283768
25811058,25810826,0.112619,-0.134234,0.0307511
25828461,25828228,0.072056,-0.052096,-0.0291015
25849575,25849350,-0.00574631,-0.137728,-0.0214096
25870806,25870576,-0.0863382,-0.218707,-0.00770674
25888224,25887985,-0.0779098,-0.286387,0.0142356
25909132,25908902,-0.0489497,-0.304405,0.0174843
25930279,25930050,0.0579041,-0.250293,0.0275062
25951346,25951116,0.0614899,-0.149579,-0.0161176
25968718,25968493,0.0683227,-0.120944,0.0226536
25989836,25989598,0.109321,-0.10469,0.0203288
26010992,26010759,0.0452497,-0.0835406,0.0100996
26028331,26028089,-0.0488493,-0.00843995,-0.0259859
26049462,26049232,-0.0288643,-0.0496755,-0.0207558
26070527,26070296,0.0696238,0.00323287,-0.0143423
26091627,26091400,0.0110927,0.00204641,0.00496978
26109009,26108781,0.00409752,0.044003,0.0281879
26130186,26129958,-0.0831234,0.0611848,0.0458222
26151375,26151147,-0.00816753,0.0850418,0.0305662
26168607,26168377,-0.0589881,0.138975,0.0363206
26189705,26189477,-0.0210668,0.212898,-0.00569858
26210808,26210582,-0.0127749,0.269014,-0.0117736
26228204,26227968,0.00883448,0.291533,-0.00772553
26249300,26249069,-0.152465,0.431879,0.0107739
26270405,26270178,-0.164065,0.414936,0.0271587
26289051,26288801,-0.239743,0.366363,0.00307201
26308894,26308663,-0.197377,0.275377,0.0176985
26329994,26329765,-0.146597,0.22878,0.0383937
26349859,26349629,-0.0857533,0.199602,0.00508747
26370961,26370733,0.0859476,0.0926632,0.0180089
26388408,26388180,0.141699,0.0513778,0.0179259
26409556,26409330,0.25354,-0.0177934,-0.00496475
26430556,26430325,0.490658,0.0614157,-0.0849144
26447938,26447705,0.201815,-0.0331466,-0.0484595
26469045,26468810,-0.00712283,-0.00186817,0.0559156
26490154,26489922,-0.1679,0.150876,0.0401376
26511268,26511037,-0.301179,0.134589,-0.00170815
26528627,26528402,-0.177691,0.111865,0.0142358
26549734,26549507,-0.12598,0.180351,-0.0103282
26570848,26570616,-0.0435962,0.098668,-0.0031977
26588224,26587993,-0.0614877,0.0399122,0.0742244
26609329,26609100,0.0268892,-0.017946,0.0311053
26630439,26630208,0.0867371,0.00775809,0.00547855
26651577,26651348,0.05886,-0.0162875,-0.0039853
26669000,26668772,-0.0117138,-0.00403411,0.0145087
26690184,26689953,-0.00188253,-0.00284721,0.000852841
26711139,26710905,0.00517576,0.0090594,-0.00839763
26728505,26728280,0.0763213,0.0375541,-0.03277
26749615,26749386,0.0859686,0.00353443,-0.0507259
26770721,26770491,0.0860379,-0.00822399,-0.0347257
26791835,26791603,0.0704653,-0.0119067,-0.0378572
26809213,26808976,-0.00650535,-0.0323929,0.0195784
26830316,26830082,0.0481571,-0.101953,0.012951
26851435,26851210,0.0243235,-0.086865,0.00829028
26868799,26868568,0.0771497,-0.0590305,-0.0546408
26889903,26889675,0.014997,-0.0316472,-0.0439701
26911010,26910778,-0.113879,0.0823221,-0.0303848
26928469,26928240,-0.207401,0.18612,-0.03926
26948364,26948135,-0.152998,0.167536,-0.0269081
26969365,26969128,-0.145272,0.123102,-0.0242486
26988015,26987778,-0.00100059,0.0259309,-0.0574284
27009085,27008851,0.0469857,-0.0180833,-0.0553665
27028955,27028724,0.198966,-0.11241,-0.0673436
27048865,27048628,0.241797,-0.140303,-0.0528486
27071153,27070929,0.19992,-0.140948,-0.0519642
27088546,27088312,0.130118,0.24206,0.0794218
27109640,27109415,-0.0820701,0.0315254,-0.0831804
27130748,27130523,-0.00357172,0.065081,-0.0414556
27148132,27147901,-0.161318,0.101712,-0.0614917
27169239,27169007,-0.0790109,0.0189941,-0.0667605
27190392,27190161,-0.133398,-0.11737,-0.0643391
27211587,27211359,-0.0329372,-0.161165,-0.087226
27228989,27228762,0.0567306,-0.120161,-0.117259
27249930,27249702,-0.0176534,-0.050407,-0.132527
27271042,27270808,-0.0193754,-0.0229471,-0.12403
27288418,27288189,0.058843,-0.0316471,-0.105519
27309523,27309297,0.0711738,0.0179381,-0.115573
27330631,27330399,0.0349158,-0.00261593,-0.10761
27351730,27351504,-0.0495644,-0.0235565,-0.134898
27369111,27368886,-0.0866008,-0.0633975,-0.128069
27390242,27390001,-0.152353,-0.0522003,-0.144452
27411322,27411095,-0.177424,-0.0516973,-0.16748
27428701,27428476,-0.0310943,-0.0246182,-0.157134
27449830,27449598,-0.021078,-0.00112389,-0.186905
27470964,27470739,0.0791868,0.105175,-0.208893
27488409,27488184,0.0309007,0.186551,-0.192624
27509405,27509172,0.0085204,0.0914904,-0.210627
27530516,27530279,0.0411951,0.107651,-0.200787
27550372,27550142,0.00497345,0.0460589,-0.20609
27568993,27568763,0.0013482,-0.0709144,-0.197213
27590099,27589869,-0.00133556,-0.00400399,-0.163407
27609964,27609734,-0.00568453,-0.0877927,-0.139507
27628592,27628355,0.0582075,-0.0248015,-0.139716
27648449,27648219,0.0958032,-0.0878818,-0.131323
27669548,27669323,0.153783,-0.0723855,-0.143108
27690654,27690429,0.158699,-0.0247494,-0.161681
27708040,27707809,0.073688,0.0132312,-0.135706
27729180,27728955,0.0395724,0.0408942,-0.115891
27750339,27750113,-0.0717471,-0.0141663,-0.0605593
27771541,27771317,-0.140726,0.0364007,-0.083761
27788747,27788509,-0.154467,0.0166944,-0.0715038
27809835,27809611,-0.0796535,0.021003,-0.0792485
27830942,27830716,-0.0718224,-0.0743443,-0.0694288
27848334,27848103,-0.0956249,-0.194992,-0.0268772
27869433,27869207,-0.00541378,-0.333526,-0.0140162
27890536,27890308,0.0177901,-0.560881,0.000706407
27911662,27911434,0.0376132,-0.673588,0.0304344
27929018,27928793,-0.0206278,-0.655963,-0.0159165
27950129,27949898,0.0356172,-0.663,-0.00289313
27971244,27971004,0.0775114,-0.551705,-0.0275327
27988655,27988431,0.0851713,-0.528464,0.0181054
28009753,28009528,0.0608919,-0.472923,0.000861561
28030985,28030755,-0.0135787,-0.373326,-0.00654835
28051926,28051700,-0.118385,-0.302737,0.0226921
28069307,28069083,-0.0710893,-0.27028,-0.0337806
28090429,28090187,-0.0937309,-0.206881,-0.0055503
28111529,28111294,-0.0255544,-0.241058,0.0184704
28128896,28128672,0.0635283,-0.219587,0.0480039
28150064,28149821,0.084458,-0.206778,0.0458324
28169874,28169641,0.0976769,-0.216938,0.0526151
28188489,28188263,0.0536986,-0.213828,0.069549
28208351,28208127,-0.0141998,-0.167013,0.0412702
28229463,28229232,-0.00950806,-0.139399,0.0260066
28250568,28250338,-0.0137496,-0.0274613,0.0119007
28267952,28267724,-0.0122457,0.0585966,0.0244387
28289141,28288913,0.00379434,0.0351933,0.0206564
28310354,28310126,0.0576903,0.0793205,0.0284218
28331281,28331054,0.108272,0.0625208,0.0340738
28348646,28348418,0.0843176,3.8241e-05,0.0287955
28369749,28369519,0.024698,-0.02399,0.0515447
28390852,28390625,0.0210083,-0.0432512,0.0607534
28408239,28408005,0.0321947,-0.0780247,0.0426557
28429351,28429124,-0.0105078,-0.0194608,0.0632761
28450485,28450259,-0.0253265,0.0378737,0.0631142
28471546,28471321,-0.0154228,0.0763944,0.0248208
28488933,28488702,-0.0762648,0.11471,0.0711933
28510036,28509808,-0.040796,0.158529,0.0509964
28531173,28530945,-0.00104607,0.180589,0.032328
28548564,28548337,0.00333354,0.166369,0.0168497
28569780,28569548,-0.00889751,0.120568,0.0100207
28590734,28590506,0.0307448,0.0899134,0.00634002
28611891,28611663,0.0226875,0.096914,0.0161552
28629226,28628991,0.045312,0.0554922,0.00772088
28650324,28650095,0.0136187,0.0169068,0.008734
28671433,28671204,-0.00392356,0.111431,0.015101
28688805,28688582,0.12432,0.167457,-0.00898564
28709914,28709686,0.0936964,0.304445,0.00613613
28731032,28730791,0.162798,0.409029,0.00462386
28750884,28750655,0.125631,0.438233,-0.0282682
28769509,28769278,0.0848584,0.5196,-0.0197308
28789417,28789192,0.0127204,0.540447,-0.0325771
28810542,28810313,-0.0581397,0.497424,-0.0397356
28828003,28827773,-0.145011,0.495874,-0.00213397
28849156,28848931,-0.12991,0.565775,-0.00130004
28870065,28869837,-0.0527893,0.481527,0.0124362
28891174,28890943,-0.0558855,0.380709,0.041307
28908548,28908323,-0.0040268,0.278168,0.00506676
28929655,28929428,-0.0201397,0.229485,0.0253948
28950777,28950536,-0.00187569,0.237838,0.0353579
28968139,28967915,-0.0317908,0.212407,0.0268118
28989251,28989019,-0.0667842,0.203034,0.0483787
29010378,29010150,-0.00684497,0.169447,0.0676258
29031456,29031230,0.0130333,0.13668,0.047027
29048841,29048611,0.021363,0.109152,0.0497162
29069953,29069723,0.0375117,0.0371545,0.0444744
29091111,29090887,0.0675204,-0.00202446,0.0302099
29108580,29108349,-0.0677155,-0.0453156,0.0694568
29129534,29129308,-0.0918127,-0.0443918,0.0466499
29150639,29150412,-0.184829,-0.00397245,0.0425688
29171744,29171517,-0.164408,0.00398754,0.0374887
29189125,29188898,-0.122408,0.00671441,0.0312761
29210234,29210003,-0.0713742,0.106525,0.0138927
29231345,29231118,-0.0315307,0.145854,0.0162417
29248771,29248547,0.0555789,0.0579866,0.0199245
29269821,29269595,0.0946103,0.0499779,0.0158268
29290924,29290700,0.0564803,0.0390804,0.0119471
29312046,29311807,0.00249449,0.0267929,0.0262568
29329419,29329185,0.00553974,-0.0175241,0.0184577
29349292,29349065,0.0204307,-0.0199727,0.0386752
29370488,29370264,0.0318472,-0.0089532,0.0418368
29389013,29388780,0.0123485,0.0451477,0.0337823
29408867,29408640,-0.0127308,0.0417208,0.0424214
29429977,29429745,-0.00116447,0.0674159,0.0523862
29451078,29450851,0.00362023,0.0884497,0.0557992
29468460,29468233,0.0104727,0.0601818,0.0422908
29489562,29489336,0.0238567,0.058235,0.0537697
29510676,29510442,0.0526491,-0.00671503,0.0529865
29528054,29527831,0.0346204,-0.0576868,0.0543113
29549154,29548929,0.0221692,-0.0628701,0.06259
29570270,29570041,0.0299911,-0.034258,0.0610671
29591374,29591142,0.0571068,-0.100517,0.0704918
29608773,29608548,0.0179403,-0.0673409,0.0730793
29629980,29629751,0.0193136,-0.0100306,0.0829315
29651136,29650904,0.0169721,0.0169382,0.0809065
29668337,29668112,-0.0144575,-0.0451877,0.0416394
29689489,29689260,-0.0449864,-0.0332423,0.0804141
29710556,29710324,-0.067538,0.016069,0.0864263
29731654,29731426,-0.0732832,0.0178486,0.0675855
29749036,29748807,-0.0520748,-0.0367643,0.0450054
29770146,29769914,-0.0579476,-0.047915,0.0494609
29791245,29791018,-0.0898695,-0.0266536,0.0382116
29808631,29808398,-0.0601209,-0.0266268,0.0424925
29829737,29829506,-0.0588505,0.024838,0.0469391
29850832,29850608,-0.0395794,0.0064792,0.0461746
29868224,29867990,-0.0170712,0.0105635,0.045607
29889356,29889126,0.0174491,0.0155596,0.0431272
29910564,29910323,0.00471095,-0.00611623,0.0338077
29929054,29928821,-0.011477,-0.0158661,0.041583
29948920,29948686,-0.00413451,-0.0477689,0.0353962
29970027,29969791,0.0173671,-0.0343066,0.0398565
29989883,29989658,0.0213635,-0.028435,0.0304197
30008520,30008281,0.0264885,-0.0041356,0.0169272
30028420,30028189,0.00892604,0.029381,0.0246004
30049473,30049245,0.023555,0.00966388,0.0189094
30070575,30070351,0.0163437,-0.0103358,0.0201061
30087969,30087737,0.0384521,0.0583636,0.0174526
30109065,30108837,0.0672282,0.0303426,0.020054
30130174,30129944,0.10833,0.00615581,0.0145427
30151273,30151043,0.100582,-0.0452695,0.0220437
30168719,30168495,0.00381083,-0.039213,0.0453216
30189929,30189703,-0.0161079,-0.0428757,0.052271
30210866,30210638,-0.0211169,-0.0474785,0.0408938
30228279,30228055,-0.0193212,-0.0236088,0.048911
30249353,30249125,-0.0148466,-0.0806109,0.0329362
30271709,30271474,-0.0162709,-0.205322,0.0395432
30291570,30291339,-0.0671914,-0.380205,0.0508151
30308942,30308716,0.00440559,-0.513461,0.0305486
30330050,30329822,-0.0420602,-0.694533,0.0546148
30351160,30350927,-0.0339721,-0.776789,0.0507492
30368542,30368308,0.0576863,-0.793735,0.0380843
30389640,30389412,0.0225114,-0.762135,0.0456946
30410749,30410520,0.0268635,-0.561274,0.0256085
30431995,30431770,0.0165631,-0.378897,-0.0200113
30449366,30449133,-0.0624114,-0.285414,0.0403342
30470341,30470109,0.00418052,-0.201746,0.0148309
30491450,30491216,0.0549807,-0.101303,-0.0200628
30508825,30508594,-0.0503184,-0.120283,0.0114275
30529940,30529707,-0.0823158,-0.0539978,0.000416021
30551038,30550804,-0.0784236,0.033471,-0.0317995
30568423,30568188,-0.0523894,0.074235,0.00223033
30589547,30589311,-0.0265039,0.124073,-0.0106915
30609381,30609154,-0.00926782,0.124279,-0.00523379
30628029,30627793,-0.01114,0.151578,0.00190386
30649118,30648884,0.0345302,0.099743,-0.0139176
30670231,30669988,0.0617157,0.055495,-0.0271553
30690194,30689969,0.0453367,0.0369879,-0.0268588
30711270,30711046,0.0750617,0.00717103,-0.0433621
30728744,30728514,0.0289453,-0.0141509,-0.0118361
30749668,30749442,0.025116,-0.0504026,-0.0248877
30770785,30770557,0.0354002,-0.0499987,-0.0485276
30788158,30787929,-0.0542432,0.0103949,-0.00985885
30809257,30809031,-0.0533704,0.0559268,-0.0228672
30830367,30830140,0.0087797,0.0992767,-0.0379863
30851477,30851244,0.0395054,0.187893,-0.051865
30868853,30868626,-0.0154142,0.253883,-0.0359672
30889958,30889730,-0.0901698,0.259606,-0.0578544
30911065,30910834,-0.142362,0.287524,-0.0406448
30928485,30928258,-0.0680437,0.326366,-0.0676242
30949546,30949322,-0.0514076,0.364304,-0.078693
30970699,30970471,0.00974446,0.403378,-0.07807
30991911,30991685,0.0274027,0.41712,-0.0842023
31009138,31008913,0.039808,0.392189,-0.0161654
31030266,31030035,0.0885489,0.360335,-0.015788
31051362,31051124,0.0859061,0.351351,-0.0371653
31068742,31068508,0.0329694,0.360775,-0.0189421
31089842,31089608,-0.00934256,0.287323,-0.00843055
31110946,31110715,0.0017433,0.234623,0.00357641
31132049,31131814,0.00222786,0.187698,0.00739269
31149434,31149204,-0.0599293,0.182381,-0.0115335
31170541,31170305,-0.0792824,0.170084,-0.0106828
31190405,31190171,-0.00042996,0.132469,-0.0400717
31209031,31208791,0.0306812,0.118484,-0.0441087
31228946,31228716,-0.00104569,0.125053,-0.0451978
31250088,31249859,-0.0374599,0.151075,-0.0465805
31271094,31270867,-0.0483415,0.0833256,-0.0472048
31288476,31288245,-0.0382429,0.0309045,0.00493058
31309586,31309351,-0.0438615,0.039776,0.007291
31330680,31330456,0.00119431,0.00738525,0.0136259
31348067,31347837,-0.00162683,0.00926998,0.00109135
31369171,31368942,0.0346521,0.00667143,-0.00938328
31390275,31390047,0.0722905,-0.00640708,-0.0152644
31411380,31411156,0.0555039,-0.0101337,-0.0137513
31428763,31428533,-0.00911014,0.00716523,-0.0118009
31449864,31449638,-0.0140218,0.000742695,-0.00786498
31470967,31470743,-0.0826042,-0.0167997,-0.000989499
31488357,31488129,-0.0520209,-0.0220328,-0.0370671
31509504,31509277,-0.0435803,-0.0144648,-0.0317584
31530705,31530480,-0.0433143,-0.0152421,-0.0125242
31551670,31551440,-0.0259102,0.0156919,-0.00108448
31569047,31568821,0.021623,-0.0406721,-0.0172162
31590154,31589926,0.0315049,-0.0570947,-0.0211686
31611262,31611032,0.042265,-0.0375158,-0.0208408
31628640,31628412,0.00211782,-0.0326962,0.0343257
31649741,31649517,-0.0493024,-0.00543405,0.0334032
31670850,31670622,-0.0424556,-0.0162487,0.0312059
31691963,31691730,-0.0506245,-0.0345789,0.0295501
31709333,31709108,-0.00369353,-0.0897406,0.00279024
31730460,31730229,0.038114,-0.173743,0.0117247
31751557,31751319,0.0663338,-0.291405,0.0242074
31768981,31768757,0.0894438,-0.442078,0.0162296
31788883,31788657,0.0720799,-0.536862,0.012986
31809898,31809671,0.062588,-0.613656,0.0231386
31831008,31830778,-0.0118139,-0.645523,0.0276446
31848380,31848154,-0.0705349,-0.562082,0.0579412
31869489,31869259,-0.0768579,-0.493167,0.0549251
31890598,31890366,-0.0289639,-0.389852,0.0546536
31907971,31907745,0.0470471,-0.31126,-0.00225052
31929080,31928851,0.107488,-0.248565,0.00841464
31950183,31949956,0.159948,-0.211933,0.0111629
31971288,31971062,0.25661,-0.17133,0.00224729
31988670,31988442,0.271719,-0.176412,0.0272833
32009777,32009548,0.307683,-0.174903,0.0223756
32030880,32030652,0.303945,-0.15485,0.0176348
32048369,32048139,0.28993,-0.133404,0.0146699
32069581,32069350,0.221214,-0.0745061,0.0286233
32090471,32090244,0.131855,-0.0309814,0.0235554
32111572,32111348,0.0643412,-0.0183734,0.0295657
32129020,32128795,-0.0388577,-0.014141,0.0315958
32150060,32149834,-0.107282,-0.0311688,0.0124035
32171171,32170942,-0.116367,-0.0264908,-0.0158547
32188551,32188321,-0.0341139,-0.040397,0.0331145
32209649,32209426,0.0531409,-0.061695,0.0256377
32230759,32230533,0.131667,-0.0416799,0.0125178
32251869,32251636,0.190623,-0.0255814,0.0050418
32269248,32269017,0.194442,-0.00771927,-0.00088073
32290347,32290122,0.191843,-0.0230707,0.00065242
32311488,32311256,0.129493,-0.0510369,0.00478077
32328939,32328713,0.0877628,-0.0493364,0.000218105
32349941,32349713,0.00939378,-0.0484121,-0.00672428
32371057,32370819,-0.0286945,-0.0501244,-0.00649775
32390919,32390683,0.0252528,-0.0251551,-0.00715213
32409538,32409305,-0.00740069,0.0154454,-0.00313316
32429396,32429171,-0.0416067,0.0315615,0.0388097
32451752,32451517,-0.0082375,0.0303541,0.0183175
32467914,32467688,-0.136642,0.0534318,0.00929284
32488993,32488760,-0.264659,0.12504,0.0137162
32510093,32509866,-0.349172,0.242613,0.0132883
32531208,32530970,-0.373995,0.389128,0.0129452
32548576,32548351,-0.284583,0.515703,-0.0135393
32569684,32569456,-0.25287,0.634908,-0.0178037
32590879,32590643,-0.175719,0.710589,-0.0252782
32608324,32608099,-0.191296,0.731785,-0.00696824
32629277,32629047,-0.109158,0.641752,-0.000502379
32650383,32650153,-0.0552346,0.524357,-0.0123137
32671488,32671259,-0.032497,0.38846,-0.0205549
32688871,32688638,-0.105425,0.24953,-0.00903427
32709973,32709744,-0.0637574,0.158569,-0.0063458
32731075,32730849,-0.135657,0.143157,-0.00665321
32748457,32748230,-0.140915,0.137203,-0.0142799
32769572,32769336,-0.0709656,0.113185,-0.0284022
32790665,32790440,-0.0096479,0.101402,-0.0295026
32809334,32809095,0.0613011,0.0901064,-0.0411429
32829209,32828976,0.100497,0.0725591,-0.0402338
32850344,32850119,0.0987059,0.0463293,-0.0398142
32871550,32871319,0.0740464,0.00400513,-0.0252809
32888753,32888517,0.0710238,-0.00322014,-0.0390854
32909848,32909623,-0.00608473,0.0159098,-0.0423402
32930964,32930727,-0.049887,0.0204303,-0.0281135
32952074,32951833,-0.0513078,0.00396234,-0.014807
32969439,32969214,-0.00448434,0.017123,-0.0414131
32990555,32990319,0.0255352,0.031376,-0.0131246
33010409,33010183,0.0534191,-0.0118056,-0.00788739
33029063,33028824,0.0936529,-0.0769493,-0.00817025
33048898,33048669,0.108213,-0.203531,0.00854121
33070002,33069775,0.0919116,-0.317994,0.0220628
33091122,33090893,0.0644752,-0.369759,-0.000855613
33108490,33108260,0.0293862,-0.330098,0.022675
33129722,33129497,0.00756295,-0.282084,0.0128875
33150873,33150645,0.0299159,-0.248184,0.00570031
33168083,33167851,0.0367588,-0.261595,0.0293588
33189180,33188956,0.0349107,-0.301695,0.0117408
33210297,33210061,0.0433196,-0.326329,-0.00203812
33231397,33231166,0.00524947,-0.371234,0.0116303
33248776,33248552,0.0179528,-0.370662,0.00347349
33269884,33269653,0.0260688,-0.42584,0.00856429
33290984,33290758,-0.00851245,-0.466584,0.0149328
33308366,33308139,0.0247702,-0.499197,0.0103039
33329474,33329244,-0.0169276,-0.480345,0.00957118
33350573,33350349,-0.0453621,-0.414594,0.0321749
33371683,33371454,-0.0712255,-0.342027,0.0433338
33389099,33388869,-0.0387821,-0.260379,0.0176598
33410349,33410124,-0.0662172,-0.200273,0.0239016
33431271,33431045,-0.0425969,-0.135505,0.0176528
33448682,33448444,-0.0492827,-0.0576778,0.0201762
33469759,33469531,-0.0278532,-0.0294874,0.00564649
33490862,33490636,-0.000988205,-0.0322544,0.0117458
33508252,33508017,0.0235028,-0.0193405,0.00506922
33529357,33529123,0.054106,0.0103074,-0.00119766
33550453,33550228,0.0113534,0.0713973,0.0044271
33571558,33571333,-0.0514949,0.198977,0.0311167
33588944,33588714,-0.0109293,0.378178,0.00154893
33610056,33609819,-0.0455327,0.596678,0.0232943
33629916,33629683,-0.0483715,0.741195,0.0134029
33648545,33648312,-0.0464725,0.868825,0.0159569
33668488,33668259,-0.0521518,0.862151,0.0128325
33689680,33689455,-0.044006,0.741049,-0.00591473
33710604,33710379,-0.036773,0.567165,0.00331419
33727987,33727760,-0.0524046,0.430333,0.0547979
33749089,33748865,-0.0263901,0.283748,0.0576438
33770205,33769970,0.00798418,0.184639,0.0460672
33791310,33791077,0.0405165,0.130145,0.0539604
33808706,33808480,-0.019884,0.141988,0.0462797
33829788,33829561,-0.0011595,0.167891,0.0475666
33850896,33850667,-0.00875,0.158824,0.0399933
33868280,33868048,-0.0114637,0.151476,0.0650204
33889377,33889153,0.0282672,0.134878,0.0583608
33910538,33910310,0.0932162,0.0906323,0.0558944
33931643,33931418,0.125937,0.089596,0.048124
33949100,33948874,0.065133,0.0729383,0.0880642
33970077,33969849,0.0412147,0.0231054,0.083244
33991230,33990992,0.0225684,0.000501381,0.0780356
34008563,34008335,0.0233267,-0.00824287,0.0324123
34029671,34029440,-0.0150095,-0.0102183,0.0352162
34050772,34050546,-0.0300394,0.00565113,0.0497748
34071880,34071652,-0.0252922,0.00790725,0.0630846
34089265,34089032,-0.014507,0.0133061,0.0485463
34110365,34110140,-0.019026,0.0395586,0.0420945
34131466,34131242,0.0264498,0.0372619,0.0357934
34148895,34148666,0.00891628,0.0616335,0.0419823
34169955,34169728,0.0205726,-0.0147062,0.063578
34191066,34190840,0.0616793,-0.0505758,0.0818548
34208538,34208301,0.076445,-0.0729763,0.0209178
34228508,34228277,0.0851233,-0.0580525,0.00764536
34249421,34249185,0.0914298,-0.0504104,-0.000480475
34270515,34270288,0.0365398,-0.0518521,0.00233587
34287900,34287669,-0.0831245,0.00446728,0.074622
34309001,34308774,-0.102624,-0.00578985,0.0736037
34330126,34329900,-0.0963724,0.013623,0.0721436
34351215,34350984,-0.0759397,0.0363494,0.0547659
34368595,34368365,-0.008675,0.0101977,0.0107218
34389733,34389503,0.0105503,-0.00707001,0.0204467
34410803,34410576,0.00236683,-0.0394777,0.0176322
34428193,34427959,-0.0710209,-0.0437931,0.0254696
34449294,34449062,-0.041084,-0.0482868,0.0293284
34470451,34470227,-0.0284759,-0.076369,0.0300188
34491675,34491446,-0.0300123,-0.193107,0.0305495
34508877,34508653,-0.0146218,-0.281834,-0.0100853
34529984,34529758,-0.0386679,-0.435557,-0.00516838
34551092,34550863,-0.0706832,-0.523813,0.0122094
34568470,34568244,-0.0938143,-0.600564,0.0372541
34589574,34589350,-0.0585158,-0.616527,0.0421574
34610691,34610455,-0.0501864,-0.552469,0.031044
34631786,34631560,-0.00441761,-0.463522,0.0206367
34649169,34648941,0.0455773,-0.379176,-0.0178202
34670276,34670046,0.0547393,-0.32524,-0.0231227
34691383,34691151,0.0544895,-0.274468,-0.0216417
34708761,34708534,0.0429931,-0.267507,-0.0236332
34729936,34729708,0.0449589,-0.278654,-0.0189359
34751082,34750851,0.0237518,-0.275763,-0.0157096
34768548,34768315,0.0283868,-0.2997,-0.00252997
34789460,34789229,0.014235,-0.295104,-0.00470663
34810572,34810337,0.0109535,-0.258123,-0.0183088
34830443,34830206,0.0175299,-0.226647,-0.0444282
34849060,34848820,-0.0347157,-0.207971,-0.0198617
34868914,34868683,-0.0554299,-0.110662,-0.0194094
34890023,34889791,-0.0644412,-0.0909175,-0.0336924
34911117,34910893,-0.0181975,-0.0742803,-0.0352733
34928503,34928274,0.0165251,-0.0961814,-0.0139858
34949609,34949380,0.0497151,-0.0774622,-0.00212573
34970711,34970485,0.077398,-0.0370467,-0.00367158
34988104,34987866,0.0779953,-0.00620577,-0.0437671
35009321,35009091,0.0783247,0.0386982,-0.049148
35030473,35030245,0.0721805,0.0311205,-0.0619254
35047686,35047457,0.00356918,0.0229538,-0.0152573
35068796,35068563,-0.00925128,0.0491652,-0.006832
35089898,35089667,-0.0175329,0.0752565,-0.0145225
35110998,35110772,0.00558134,0.103339,-0.0317879
35128387,35128156,-0.00525056,0.129796,-0.0154097
35149487,35149259,0.0220643,0.121636,-0.00354698
35170589,35170364,0.00204542,0.10321,0.0118971
35191744,35191517,-0.0711585,0.0932421,0.0165989
35209079,35208850,-0.0725222,0.0629463,-0.0340807
35230184,35229955,-0.122212,0.0837807,-0.0597029
35251338,35251106,-0.192348,0.0471874,-0.0511898
35268699,35268474,-0.120511,0.0961702,-0.0138846
35289942,35289714,-0.00418827,0.0926924,-0.0307437
35310879,35310651,0.0497891,0.0918935,-0.05099
35331987,35331757,0.0635451,0.0730301,-0.048473
35349365,35349137,0.0903724,0.00408011,-0.0164427
35370476,35370243,0.0565136,0.0385621,-0.0332898
35391585,35391352,-0.00481419,0.0222694,-0.0303391
35408965,35408731,0.0604158,0.0533435,-0.10332
35428825,35428592,0.0695495,0.0416152,-0.0617645
35449929,35449698,-0.0163271,-0.0312668,-0.0566725
35468556,35468321,-0.0437188,-0.0069022,-0.0379793
35488411,35488183,-0.0557887,0.021316,-0.048781
35509521,35509290,-0.0118546,0.00406193,-0.0366463
35530622,35530390,0.0344015,-0.0499307,-0.0334948
35548060,35547835,0.0522162,-0.0362369,-0.0503298
35569279,35569043,0.119319,-0.0152584,-0.0839778
35590253,35590011,0.0833956,-0.0587645,-0.0539766
35611324,35611090,0.0747481,-0.0699097,-0.0275129
35628702,35628471,0.16023,-0.0485736,-0.0301724
35649811,35649580,0.104056,-0.0334905,-0.0621407
35670910,35670682,0.0920971,-0.0224765,-0.0441852
35689536,35689305,-0.108206,-0.000218996,0.00136491
35709448,35709219,-0.0879358,0.00290073,-0.00289037
35730498,35730273,-0.0952531,0.0221516,-0.0434017
35747886,35747658,-0.0874833,0.0175417,0.0165896
35768998,35768763,-0.0842218,-0.0474728,0.00975035
35790096,35789867,-0.00506179,-0.0629546,0.0201342
35811287,35811056,0.055485,0.0111217,-0.00703245
35828710,35828480,0.118708,-0.0345966,-0.00779618
35849682,35849455,0.159568,-0.00384784,-0.0189662
35870789,35870561,0.11279,-0.00978519,-0.0105392
35891928,35891694,0.124318,0.0716005,-0.00752818
35909271,35909046,0.114577,0.0645331,0.00558947
35930383,35930153,0.00613475,0.165485,0.000296354
35951490,35951257,-0.126208,0.229075,-0.00319375
35968875,35968638,-0.111134,0.288534,-0.00471414
35989977,35989743,-0.0965201,0.299588,0.019715
36011082,36010848,-0.120395,0.29978,0.0131533
36030947,36030712,-0.0902211,0.265869,0.0327338
36049583,36049353,-0.00993264,0.200253,0.0113451
36069427,36069203,0.00710246,0.196515,-0.0212994
36090619,36090391,0.0114284,0.134099,-0.0228796
36108082,36107849,0.0334831,0.112509,0.0168473
36129015,36128789,-0.0403113,0.0852304,0.00645971
36150129,36149894,-0.000757407,0.0582177,0.00658192
36171229,36170998,0.027772,0.0259781,0.0124655
36188612,36188380,0.0343171,-0.020206,-0.0251356
36209717,36209486,0.0597461,0.00207415,0.00297945
36230823,36230591,-0.00849177,0.0879099,-0.0235801
36248199,36247972,0.0124125,0.0560719,0.00694653
36269310,36269077,0.0158729,0.0506057,-0.011421
36290412,36290184,0.0631944,-0.00820784,-0.0144505
36311515,36311290,0.113961,-0.115191,-0.0207323
36328949,36328718,0.0876779,-0.144337,-0.0072854
36350034,36349807,0.079474,-0.248234,-0.000123149
36371273,36371047,0.0715216,-0.287229,0.0280454
36388488,36388260,0.115632,-0.350362,0.0270007
36409604,36409378,-0.00426977,-0.286089,0.00391955
36430710,36430470,0.0267982,-0.223627,0.0185188
36451805,36451575,0.00446898,-0.124229,-0.00857726
36469187,36468956,-0.0191749,0.0194528,0.046259
36490298,36490073,0.022825,0.0253443,0.0545274
36511392,36511167,0.0574929,0.0967994,0.0399793
36528772,36528547,0.114056,0.066902,0.051619
36549880,36549652,0.0903266,0.0610367,0.0473445
36570983,36570758,0.111833,-0.0195754,0.0617493
36590849,36590621,0.117629,-0.0361548,0.0697798
36609527,36609294,0.163296,-0.030777,0.0908826
36629438,36629208,0.212073,-0.0357885,0.0694661
36650639,36650410,0.262007,0.0286195,0.0593055
36669066,36668835,0.313068,-0.00459746,0.0346261
36688925,36688699,0.338378,-0.00385656,0.00827535
36710031,36709803,0.372753,0.00260652,0.0176579
36731144,36730913,0.258445,0.0434889,0.000559572
36748514,36748289,0.218462,0.0467969,-0.0229844
36769620,36769395,-0.00305525,0.120849,0.0119905
36790730,36790500,-0.237022,0.158366,0.0230559
36808110,36807878,-0.473622,0.220059,0.0323892
36829239,36829009,-0.606315,0.223054,0.0565217
36850321,36850092,-0.591817,0.282202,0.0420822
36871430,36871202,-0.419013,0.369594,0.0339844
36888841,36888617,-0.322336,0.472413,0.0347728
36910090,36909859,-0.140189,0.508838,0.0266412
36931014,36930788,-0.0129328,0.485951,0.00792205
36948398,36948172,0.0177554,0.459953,0.0196836
36969505,36969274,0.0213078,0.400214,0.00823549
36990643,36990418,-0.0226709,0.282614,0.0042506
37011708,37011484,-0.0486814,0.154685,0.00861033
37029098,37028866,-0.184388,0.0984196,0.0571488
37050209,37049972,-0.0822715,0.0719698,0.0508031
37071302,37071076,0.0020185,0.0327957,0.0424801
37088686,37088456,0.0366457,-0.00180485,0.0585807
37109795,37109563,0.0117059,-0.00323099,0.0584819
37130895,37130668,-0.0333395,0.00219264,0.0412699
37152015,37151785,-0.0114963,0.0340516,0.0309713
37169474,37169248,-0.0358393,0.0951975,0.0245025
37189432,37189207,-0.0199543,0.0862622,0.0245003
37207878,37207640,-0.0408501,0.0469517,0.0538509
37228976,37228745,-0.0519406,0.0412641,0.0423683
37250076,37249849,-0.0451766,-0.0161697,0.0308316
37268713,37268473,-0.0759257,-0.0391899,0.0481497
37288574,37288339,-0.0368204,-0.00242452,0.0505178
37308437,37308207,-0.0164358,0.0212756,0.0485629
37329532,37329304,0.0568025,0.0325791,0.0171992
37350637,37350410,0.0822591,0.011421,0.0041956
37368019,37367791,-0.0025344,-0.0153614,0.0139739
37389125,37388895,-0.0147966,-0.0353667,0.0118809
37410264,37410025,-0.0257848,-0.0741499,-0.00166477
37431396,37431167,0.0253349,-0.124757,-0.021423
37448849,37448624,0.00962983,-0.140135,0.0336794
37469815,37469592,0.0523951,-0.134404,0.0193297
37490933,37490698,0.0657867,-0.112964,0.00977085
37508316,37508088,0.0450378,-0.0704475,0.00647859
37529407,37529183,-0.0103859,-0.0125914,0.00043408
37550518,37550289,-0.006497,0.0440131,-0.0134823
37571620,37571394,-0.0215996,0.0464852,-0.0309051
37589002,37588774,-0.0364903,0.087542,-3.36516e-05
37610111,37609879,0.0188568,0.0826206,-0.00344578
37631216,37630986,0.10702,0.0626789,-0.0120857
37648593,37648367,0.240335,-0.0037674,-0.0438231
37669734,37669504,0.481133,-0.0650245,-0.0585115
37690825,37690600,0.584759,-0.0942022,-0.0727937
37712024,37711792,0.652991,-0.145689,-0.0700376
37729293,37729065,0.723466,-0.0908676,-0.0384977
37750400,37750168,0.648406,-0.0986062,-0.0466663
37771511,37771273,0.425985,-0.0695573,-0.0496236
37788882,37788653,0.261935,-0.0998148,-0.0483296
37809993,37809762,0.0758245,-0.0333426,-0.0574541
37831096,37830864,-0.0838676,0.00698884,-0.0698327
37849723,37849489,-0.16778,0.0635766,-0.033809
37869586,37869353,-0.216403,0.087195,-0.0455686
37889468,37889239,-0.183389,0.0909973,-0.0328636
37909318,37909085,-0.153918,0.138668,-0.0452925
37929176,37928943,-0.117597,0.138829,-0.0539711
37949035,37948806,-0.166156,0.151097,-0.0443459
37970247,37970022,-0.293284,0.138533,-0.0325959
37991405,37991179,-0.427104,0.162674,0.00702763
38008629,38008396,-0.466657,0.0561584,-0.0136133
38029730,38029501,-0.424131,0.0313788,-0.0228154
38050833,38050606,-0.380804,0.0388169,-0.0258375
38068223,38067988,-0.315688,-0.0199091,-0.00811222
38089322,38089093,-0.202308,-0.0319287,-0.0153382
38110426,38110202,-0.107204,-0.0625305,-0.02468
38131539,38131303,-0.152539,-0.0478119,-0.0154702
38148911,38148684,-0.10566,-0.0113167,-0.0073195
38170014,38169789,-0.0371746,-0.0195122,-0.0176065
38191124,38190894,-0.0637271,0.0175468,-0.0268519
38208565,38208340,-0.0433067,0.0775499,-0.0169039
38229683,38229457,-0.00844409,0.0488304,-0.00302614
38250833,38250601,0.0353671,-0.0015567,0.00979799
38271817,38271591,0.0119072,-0.0586095,0.0330205
38289205,38288971,-0.0299022,-0.138745,0.0342697
38310302,38310073,-0.0012004,-0.276394,0.0410202
38331414,38331183,-0.0424033,-0.367489,0.0456903
38348788,38348564,-0.0145628,-0.392453,0.0246642
38369900,38369668,-0.0635529,-0.352536,0.0222144
38391013,38390774,-0.0793506,-0.217444,0.0152737
38410874,38410642,-0.020709,-0.0787766,0.00185121
38430744,38430508,-0.0149798,0.093994,-0.0104167
38450618,38450385,-0.0168676,0.209101,0.0152352
38470459,38470229,-0.0601747,0.274139,0.0571655
38487857,38487633,-0.0538677,0.284973,0.0321059
38509008,38508778,-0.0848141,0.251103,0.0198543
38530222,38529989,-0.015613,0.175365,0.019087
38551158,38550929,0.0524678,0.100468,0.0262735
38568534,38568305,0.0377921,0.0614987,0.0394061
38589641,38589413,0.0153884,0.0108127,0.0396009
38610747,38610516,-0.0103895,-0.00235818,0.0443548
38628134,38627896,0.0133189,-0.0059826,0.0606254
38649240,38649004,0.00787817,-0.0114546,0.0513035
38670333,38670108,0.0210117,0.00136998,0.0456221
38688975,38688733,0.0353459,-0.0093506,0.0268193
38708829,38708594,0.0214621,0.0240955,0.0311333
38729943,38729715,0.0224786,0.0603724,0.0194361
38751028,38750804,0.0626217,0.0621321,0.0279327
38768494,38768268,0.0421783,0.0116408,0.0232868
38789635,38789410,0.0660868,-0.0204209,0.0274314
38810619,38810395,0.166839,-0.109416,0.031165
38831731,38831501,0.371522,-0.229886,0.0206972
38849112,38848884,0.491086,-0.31901,0.0503324
38870213,38869986,0.629655,-0.385161,0.0631268
38891325,38891092,0.665501,-0.355894,0.0266072
38908698,38908472,0.727427,-0.33849,-0.000526752
38929801,38929577,0.544411,-0.286343,-0.0217198
38950910,38950682,0.359426,-0.203606,-0.0265001
38972024,38971788,0.134165,-0.120574,-0.0276585
38989395,38989169,-0.118499,-0.0216463,0.0312463
39010526,39010292,-0.209318,0.0992768,0.00864946
39030369,39030139,-0.349001,0.221569,0.00113863
39049062,39048833,-0.474372,0.268061,0.0173489
39069075,39068846,-0.558579,0.346348,-0.00829021
39089958,39089729,-0.578867,0.38074,-0.0193853
39108579,39108351,-0.476857,0.357098,-0.0890622
39128441,39128216,-0.344828,0.311452,-0.0743398
39149550,39149320,-0.242043,0.208058,-0.0678231
39170652,39170425,-0.0795674,0.148977,-0.0523152
39188067,39187842,-0.000638387,0.094889,-0.0311643
39209140,39208913,-0.00812574,0.0332574,-0.0251392
39230248,39230017,-0.0352126,-0.00334524,-0.00951541
39251349,39251122,-0.119836,0.0164036,-0.000722816
39268735,39268502,-0.156069,0.027902,-0.0270577
39289830,39289606,-0.289777,0.0486926,0.00425495
39310984,39310757,-0.193558,0.0862922,-0.0111776
39328448,39328219,-0.160232,0.0943725,-0.0253911
39349435,39349205,-0.113311,0.0743569,-0.000681819
39370536,39370305,-0.0641244,0.0764887,0.00745862
39391637,39391409,-0.017121,0.083794,0.00509978
39409015,39408790,0.058098,0.0607623,-0.0447865
39430121,39429895,0.0352377,0.0503122,-0.0126318
39451231,39451002,-0.0487944,0.0287172,0.00499204
39468616,39468388,0.0354861,0.00667587,-0.01096
39489712,39489487,0.10769,0.0321008,0.00182888
39510816,39510592,0.0998648,0.040161,-0.00942534
39531933,39531698,0.132547,-0.0286745,0.00946411
39549320,39549094,0.0594824,-0.0857488,-0.0118369
39570416,39570186,0.0393527,-0.0707389,-0.0084416
39590363,39590138,0.0497054,-0.0590535,-0.0118103
39609076,39608847,0.0568863,-0.0205154,-0.0175774
39630013,39629778,0.0446767,-0.0852311,-0.0101228
39651111,39650879,0.00360533,-0.122398,0.00996662
39670980,39670743,0.0360606,-0.130477,0.0115811
39688351,39688124,0.15251,-0.258387,0.000873735
39709458,39709229,0.230064,-0.400202,-0.000751676
39730562,39730334,0.292199,-0.464454,0.0115987
39747944,39747716,0.239886,-0.463436,0.00960174
39769047,39768821,0.226824,-0.472294,0.0012577
39790157,39789926,0.195845,-0.376152,-0.0094441
39811295,39811068,0.112125,-0.263402,-0.0224939
39828637,39828408,0.0390887,-0.188062,-0.0039421
39849845,39849616,0.0098659,-0.0983707,-0.0198203
39870989,39870763,0.00621181,-0.0736735,-0.0196899
39888239,39888008,0.0160521,-0.0754625,-0.0155171
39909341,39909111,0.0476931,-0.12304,-0.0163987
39930453,39930217,0.115762,-0.157682,-0.0237833
39951549,39951319,0.114395,-0.179945,-0.0358634
39970173,39969942,0.0585648,-0.150894,-0.0201193
39990041,39989808,-0.00194667,-0.102008,-0.0111958
40011139,40010911,-0.0949966,-0.0257591,-0.00901567
40028520,40028291,-0.167015,-0.0387255,-0.00151692
40049629,40049397,-0.212397,-0.0119865,0.00104124
40070726,40070503,-0.266368,0.0985027,0.00971027
40089355,40089124,-0.238934,0.139165,-0.0209224
40109235,40108999,-0.206677,0.172141,-0.029962
40130423,40130191,-0.168735,0.213948,-0.0107817
40147880,40147652,-0.118152,0.134127,-0.00405426
40168812,40168580,-0.0436133,0.104086,-0.00169978
40189911,40189684,-0.016732,0.0889333,-0.00870894
40208540,40208308,-0.00811993,0.0562296,0.00744885
40230880,40230653,-0.00443336,-0.00854218,0.00954687
40249513,40249278,-0.0250235,0.0133169,-0.00314122
40269363,40269139,-0.0328503,-0.00647648,-0.00162107
40290468,40290244,-0.0593504,-0.0153317,0.00351852
40309100,40308867,-0.0461741,-0.0015163,-0.00225751
40328959,40328731,-0.135718,0.0507644,-0.017213
40350065,40349838,-0.115342,0.0814907,-0.0189876
40371192,40370964,-0.098314,0.111811,-0.0157364
40388599,40388373,-0.00786538,0.135703,0.00616464
40409793,40409570,0.0783097,0.120965,-0.00712612
40430767,40430532,0.108672,0.14573,-0.0160444
40448143,40447917,0.0892107,0.184663,0.0308185
40469246,40469017,0.0962207,0.194271,0.0177979
40490353,40490123,0.0801518,0.167948,0.013819
40511459,40511229,0.00770145,0.152938,0.00631892
40528834,40528610,-0.0356746,0.145633,0.0225052
40549949,40549714,-0.0417532,0.082765,0.0118405
40571048,40570819,-0.0609418,0.0616209,0.00993934
40588436,40588205,-0.0271068,0.0927983,-0.00245271
40609537,40609308,-0.00906505,0.0613643,0.00135335
40630641,40630411,0.0104907,0.0262762,-0.020049
40651760,40651537,-0.00580487,0.0455144,-0.00986286
40669229,40668996,0.00947783,0.0682443,0.00763356
40690240,40690005,0.02348,0.0315321,0.00677785
40711378,40711153,0.0497439,0.0276644,0.00412959
40728718,40728488,-0.000133499,0.0468526,0.0298526
40749819,40749593,-0.0232633,0.0206411,0.0308579
40770928,40770700,-0.00312829,-0.0500372,0.0410173
40788319,40788089,0.0340261,-0.200322,0.0144885
40809474,40809246,0.0493201,-0.347415,0.0144805
40830520,40830290,0.0531219,-0.486397,0.0376396
40847900,40847671,0.0612456,-0.604563,0.0218281
40869050,40868809,0.0291775,-0.604114,0.023147
40888868,40888641,-0.0119169,-0.588932,0.0326571
40908737,40908505,-0.026653,-0.595345,0.031366
40931193,40930967,-0.010498,-0.503324,0.0265887
40948625,40948393,-0.0344093,-0.458727,0.0310518
40969561,40969336,0.0156498,-0.407342,0.0288969
40990664,40990441,0.0363492,-0.348471,0.0185548
41008056,41007825,0.0450589,-0.298179,0.0347323
41029158,41028927,0.0774166,-0.251393,0.0278689
41050260,41050035,0.0943309,-0.216189,0.0187961
41071367,41071138,0.10351,-0.188403,0.014371
41088793,41088566,0.0726707,-0.154414,0.0218339
41109848,41109624,0.0241797,-0.114265,0.0139861
41130957,41130729,-0.0103864,-0.0751489,0.0231649
41148342,41148110,0.0210029,-0.0298622,-0.00612058
41169444,41169215,0.013827,0.0323285,-0.0141816
41190618,41190389,0.00383161,0.0678231,-0.0123857
41211777,41211551,-0.00462338,0.0903366,-0.0151278
41229039,41228806,0.0478978,0.114663,-0.0246647
41250143,41249913,0.00811502,0.113134,-0.0351874
41271253,41271018,-0.0120893,0.117527,-0.0295856
41288623,41288398,-0.0350403,0.127125,-0.0161707
41309746,41309508,-0.0411063,0.0965047,-0.00633714
41330844,41330608,-0.0429611,0.0753394,-0.0196412
41351941,41351713,0.0408161,0.0760537,-0.0366097
41369322,41369094,0.00815417,0.0889532,-0.00847311
41390437,41390207,-0.0203206,0.0830906,-0.019858
41411540,41411305,0.000965811,0.129167,-0.0247303
41428918,41428685,-0.0633099,0.179382,-0.0112234
41450051,41449810,-0.0311312,0.176712,-0.0144117
41469982,41469754,-0.00847105,0.191273,-0.0175817
41491166,41490939,0.000237833,0.154308,-0.0260149
41508371,41508141,-0.00271203,0.111797,-0.000432014
41529481,41529249,-0.0113283,0.0856304,0.00726363
41550632,41550404,-0.0244181,0.0548895,-0.0058227
41567963,41567732,-0.0233284,0.0522889,0.00661107
41589067,41588837,0.0212155,0.030806,0.0175988
41610166,41609942,-0.0045366,-0.0247995,0.0196766
41631274,41631049,-0.0315824,-0.0290369,0.0111668
41648664,41648432,0.0325983,0.0673778,-0.0103189
41669764,41669535,0.0174117,0.131994,-0.0113321
41688384,41688157,0.0348631,0.194098,-0.0321273
41708253,41708015,-0.00488206,0.335779,-0.0197792
41729394,41729167,-0.0481512,0.54523,-0.0156226
41750594,41750362,-0.03794,0.622859,-0.0217655
41771564,41771335,-0.0332884,0.621115,-0.0312684
41788975,41788747,-0.0134698,0.57422,-0.0220617
41810052,41809821,-0.047861,0.431502,-0.00708511
41831159,41830926,-0.0366125,0.313761,-0.00561874
41848540,41848307,-0.0298335,0.177798,-0.0243978
41869635,41869412,-0.0335183,0.0919562,-0.00451684
41890746,41890518,-0.0699924,0.056014,0.00116792
41911885,41911653,-0.0467428,0.0676125,0.00387757
41929239,41929005,-0.00197847,0.040429,-0.0505085
41950340,41950109,-0.093944,0.0782797,-0.0378531
41971445,41971214,-0.0800348,0.0943903,-0.0233386
41988854,41988631,0.0120955,0.0433439,-0.0496304
42010019,42009782,0.0628352,-0.0584555,-0.0401512
42029976,42029744,0.162111,-0.213323,-0.0201751
42050898,42050669,0.317943,-0.389146,-0.00777817
42069526,42069291,0.475672,-0.450169,-0.000220982
42089386,42089156,0.636588,-0.521689,0.015508
42110487,42110260,0.765247,-0.535635,0.00913316
42127875,42127641,0.802101,-0.489552,-0.0292011
42148975,42148746,0.679216,-0.434305,-0.0161649
42170078,42169853,0.590194,-0.326577,-0.0154874
42191184,42190958,0.459056,-0.221828,-0.0303662
42208567,42208338,0.285981,-0.134399,0.00401039
42229672,42229444,0.167898,-0.0550999,-0.0104229
42250807,42250581,0.0876331,-0.00454809,-0.0236997
42268193,42267964,-0.0867256,0.0787571,0.018063
42289396,42289168,-0.130819,0.125169,0.005835
42310371,42310144,-0.177132,0.169118,-0.00302424
42331483,42331246,-0.264384,0.216661,-0.0205047
42348856,42348626,-0.334253,0.288061,-0.0276595
42369960,42369730,-0.465933,0.298449,-0.0320505
42391061,42390836,-0.595385,0.388485,-0.0155911
42408461,42408228,-0.643447,0.404725,0.0111452
42429564,42429335,-0.622483,0.435773,0.00237583
42450652,42450427,-0.499066,0.388316,-0.0143563
42471760,42471532,-0.308691,0.279065,-0.017119
42489149,42488920,-0.279597,0.278684,-0.00184587
42510248,42510020,-0.129826,0.213342,-0.00501965
42531356,42531127,-0.0571852,0.130957,-0.00438311
42548872,42548647,-0.0500779,0.105631,-0.0176776
42570028,42569798,-0.0934247,0.0503128,-0.011024
42590946,42590713,-0.123843,0.0517979,-0.0107117
42608320,42608097,-0.170361,0.0400943,-0.00836252
42629435,42629205,-0.196598,0.027177,-0.00633424
42650547,42650306,-0.201614,0.0414933,-0.00553987
42670402,42670170,-0.183826,0.046522,-0.00643254
42689026,42688792,-0.0736943,0.0252992,-0.0291002
42708883,42708656,0.0130902,0.0574925,-0.0577493
42730028,42729800,0.062192,0.058246,-0.0664706
42751094,42750867,0.0458379,0.0260035,-0.0425939
42768499,42768275,0.0366773,0.0581066,0.0204969
42789594,42789366,0.0666064,-0.00164516,0.0243971
42810735,42810506,0.0708362,-0.0365374,0.027456
42828210,42827975,0.0645673,-0.0435879,0.0296075
42849173,42848943,0.0884091,-0.0256438,0.0310895
42870283,42870051,0.029373,-0.0408745,0.0369065
42891379,42891154,-0.0426563,-0.0465246,0.0498463
42908808,42908581,-0.0968667,0.042706,0.0105891
42929873,42929643,-0.100026,0.0625878,0.0191226
42950980,42950750,-0.0630453,0.0267579,0.00680707
42968357,42968126,0.0178185,0.0255014,0.0134868
42989466,42989235,0.0524575,0.0207735,0.00450559
43010562,43010337,0.101372,0.012096,0.0141948
43029208,43028962,0.112845,0.0474292,0.0495734
43049059,43048824,0.118227,-0.00853689,0.0130559
43070160,43069936,0.102422,-0.118035,0.0178144
43088875,43088641,0.101115,-0.193454,-0.0113218
43108832,43108604,0.033167,-0.216201,0.0203595
43129745,43129519,0.045647,-0.223055,0.0188066
43150851,43150625,0.0657613,-0.207505,0.0168369
43171967,43171730,0.0633751,-0.179295,0.0151986
43189336,43189111,0.00755846,-0.0944203,0.0309734
43210441,43210216,0.1286,-0.0590828,0.0335381
43231563,43231321,0.210029,-0.0285453,0.0196858
43248928,43248702,0.310381,-0.0640904,-0.00105267
43270038,43269807,0.388744,-0.121837,0.005866
43289900,43289671,0.39602,-0.162562,0.0161622
43311007,43310776,0.394781,-0.207891,0.0197251
43328389,43328161,0.32781,-0.15662,0.0208453
43349543,43349314,0.23176,-0.144602,0.0215693
43370754,43370522,0.154378,-0.124274,0.0341042
43387975,43387749,0.0404048,-0.0727347,0.0241666
43409078,43408853,0.0163909,-0.0410368,0.021202
43430192,43429959,-0.20879,0.0441168,0.0440314
43451295,43451064,-0.362303,0.165865,0.0539432
43468718,43468494,-0.451213,0.256953,-0.0121146
43489778,43489550,-0.58456,0.388805,0.00360265
43510892,43510657,-0.595663,0.452439,0.0184928
43528270,43528036,-0.57062,0.398106,0.0231447
43549375,43549141,-0.376311,0.335717,0.0195871
43570515,43570286,-0.278471,0.237512,0.027152
43591578,43591354,-0.129722,0.171605,0.0380326
43608971,43608742,-0.00567087,0.0602634,-0.000686575
43630189,43629958,0.0664527,-0.0138248,0.0132426
43651169,43650943,0.0945682,-0.0838708,-0.0203079
43668555,43668324,0.125889,-0.118513,0.0480165
43689665,43689430,0.0406272,-0.052642,0.025155
43710761,43710534,-0.044643,-2.13874e-05,0.0221807
43728148,43727916,-0.0789187,0.033032,0.0225994
43749255,43749022,-0.110039,0.0622459,-0.021415
43770351,43770126,-0.0919513,0.05893,-0.0226641
43787737,43787507,-0.124286,0.0745988,0.0367925
43808858,43808626,-0.104503,0.0691128,0.0510681
43829943,43829717,-0.0678503,0.0185874,0.0506181
43851083,43850856,0.0447765,-0.0173763,0.063545
43870944,43870719,0.112683,-0.105689,0.0264988
43888370,43888137,0.196611,-0.187682,0.0118403
43909562,43909332,0.152694,-0.251179,0.0246758
43930547,43930318,0.108036,-0.306353,0.0532113
43947884,43947658,0.115474,-0.34409,0.00386018
43968990,43968763,0.191152,-0.374828,0.00261574
43990094,43989868,0.316835,-0.416604,0.00599632
44011209,44010974,0.331024,-0.388443,0.00250043
44028588,44028355,0.385523,-0.366939,0.0172403
44049683,44049460,0.353419,-0.294161,-0.00281559
44070791,44070561,0.262283,-0.213077,-0.0166402
44088177,44087947,0.243369,-0.168488,-0.00845939
44109278,44109051,0.152829,-0.0662026,-0.0198836
44130391,44130158,0.038131,0.0165199,-0.0328063
44151534,44151303,-0.0445043,0.0254731,-0.0319118
44168975,44168750,-0.15123,0.0669308,0.0318542
44189978,44189747,-0.200487,0.106134,0.0242854
44211089,44210856,-0.182885,0.10022,0.0196002
44228466,44228233,-0.0229701,0.104985,-0.03006
44249610,44249382,-0.0163211,0.066784,-0.00535578
44270692,44270466,-0.0224534,0.0214133,0.0137213
44291775,44291549,0.0215548,-0.0177474,0.0168484
44309161,44308930,0.0253679,-0.0583903,-0.0144609
44330276,44330040,0.0719775,-0.0966231,-0.0214209
44351366,44351141,0.0876909,-0.10472,-0.0301122
44368754,44368521,-0.0562162,-0.051416,0.0362713
44389861,44389630,-0.17867,-0.0103368,0.0403732
44410957,44410732,-0.204757,0.0285757,0.0298247
44428461,44428234,0.00423384,0.00628728,-0.0433715
44449628,44449396,-0.0519562,0.0191797,-0.048139
44470557,44470323,-0.0878929,0.0314728,-0.0300548
44489177,44488946,-0.169305,0.037236,-0.00232705
44509058,44508812,-0.227549,0.0414482,0.00430618
44528912,44528674,-0.229345,0.01501,-0.0300497
44550008,44549778,-0.219779,0.0570654,-0.0423679
44568639,44568407,-0.181977,0.116386,-0.0354899
44588527,44588297,-0.166267,0.222188,-0.0304316
44609598,44609370,-0.0966623,0.260577,-0.0416394
44630700,44630475,-0.0505236,0.31477,-0.0501468
44648093,44647856,-0.0462167,0.371536,-0.0298137
44669208,44668969,-0.0428178,0.352826,-0.0359404
44690371,44690139,-0.0736935,0.275362,-0.0308213
44711535,44711306,-0.129909,0.233592,-0.0108665
44728777,44728552,-0.133089,0.224314,-0.0595751
44749886,44749658,-0.151216,0.134168,-0.0457117
44770997,44770762,-0.0744871,0.0892817,-0.0339636
