timestamp,timestamp_sample,accel_device_id,gyro_device_id,delta_angle[0],delta_angle[1],delta_angle[2],delta_velocity[0],delta_velocity[1],delta_velocity[2],delta_angle_dt,delta_velocity_dt,delta_velocity_clipping
20845941,20845813,4259850,4325386,9.46943e-05,-3.63011e-05,-0.000456108,-0.00187834,-0.000155072,-0.0481622,4994,4960,0
20851151,20850795,4259850,4325386,-0.000191054,0.000154982,-0.000309674,-0.00272779,-0.00076661,-0.0487746,4982,4985,0
21349678,21349526,4259850,4325386,-0.00030032,-0.00020618,-0.000226083,0.0058961,-0.00212494,-0.0483039,4988,4971,0
21848612,21848465,4259850,4325386,-1.14942e-05,0.000915974,1.04656e-05,-0.00170989,0.00218398,-0.0500473,4965,4932,0
22347267,22347136,4259850,4325386,0.000148596,-0.000725528,2.52374e-05,0.00181788,0.00166714,-0.0478386,5045,4937,0
22846644,22846442,4259850,4325386,-0.000150131,0.000746868,0.000338177,-0.00173269,-0.000829398,-0.04879,4964,4926,0
23350064,23349950,4259850,4325386,0.00142915,-0.000559321,-0.000604481,-0.000263861,-0.00299157,-0.0505655,4985,4925,0
23848916,23848803,4259850,4325386,0.000592117,-0.0007798,0.000158276,0.0184055,-6.81639e-05,-0.0368344,4979,4778,0
24347544,24347415,4259850,4325386,-0.000238783,5.29295e-05,-0.000186906,-0.00388332,-0.00432244,-0.0450639,4925,4652,0
24845815,24845685,4259850,4325386,4.64291e-05,0.000263999,-0.000624662,-0.00976989,-0.021435,-0.05294,5016,4903,0
25349704,25349455,4259850,4325386,0.000780859,-0.000324937,-0.00107472,-0.0028076,-0.0189287,-0.0677456,4998,5914,0
25848467,25848355,4259850,4325386,-0.000652813,7.33916e-05,-2.24905e-05,-0.0119521,-0.0146258,-0.0556116,4984,4926,0
26347083,26346970,4259850,4325386,0.000149957,0.000826521,0.00018631,0.000479778,0.0189039,-0.050504,4942,4732,0
26850392,26850236,4259850,4325386,-0.000973292,-0.000179356,0.00059968,-0.00727548,0.0136851,-0.0458893,4970,4969,0
27348968,27348855,4259850,4325386,-0.00120376,0.000518548,-0.000287664,-0.000200257,0.0182259,-0.0514687,4988,4927,0
27848036,27847593,4259850,4325386,0.000596439,-0.00114362,-0.00053033,0.00753825,0.0121298,-0.0564134,4991,5912,0
28346520,28346405,4259850,4325386,0.000144734,-0.000304927,-0.00021356,-0.0038254,-0.00232343,-0.0498055,4974,4927,0
28850705,28850490,4259850,4325386,-0.00152739,0.00258161,0.00066714,0.00109985,0.0114718,-0.0537133,5036,5037,0
29349485,29349334,4259850,4325386,0.00102898,-0.000154057,-9.35968e-05,-0.0023057,-0.00956651,-0.0523977,4985,4983,0
29848160,29848012,4259850,4325386,-0.000686179,0.000402611,0.000849182,-0.00158706,0.00203974,-0.0517384,4979,4978,0
30347014,30346860,4259850,4325386,0.000322579,-0.00399797,-2.06461e-05,-0.00720324,-0.009991,-0.0577999,4995,4976,0
30850534,30850425,4259850,4325386,0.000933282,0.000809018,-0.000914457,0.0015353,-0.00282225,-0.0494469,4936,4925,0
31349501,31349357,4259850,4325386,0.000154736,-0.00034455,0.000669073,0.00718848,0.00264333,-0.0386736,4960,4925,0
31847637,31847476,4259850,4325386,-0.00193479,-0.00260815,0.00121463,-0.0027894,0.00233209,-0.0468833,5017,4899,0
32346662,32346460,4259850,4325386,0.0010402,-0.000357361,-0.000585488,-0.00366213,-0.0201864,-0.0462226,4997,5010,0
32850227,32850065,4259850,4325386,-0.000222442,0.000483314,-0.000324401,-0.0121925,0.00163704,-0.0597821,4988,4927,0
33349218,33349090,4259850,4325386,-0.000204459,-0.0016685,0.000241666,-0.0117518,-0.000780036,-0.0588114,4945,4927,0
33847494,33847380,4259850,4325386,0.000329477,0.000975229,0.000109727,0.000730078,0.00384255,-0.0431083,4993,4972,0
34350724,34350606,4259850,4325386,-0.00176298,0.000678621,0.00132553,-0.00410465,0.00447974,-0.0456495,5043,4930,0
34850012,34849390,4259850,4325386,0.000546439,-0.000991147,-0.00042322,-0.00132535,0.00308419,-0.0525689,4989,5917,0
35348303,35348176,4259850,4325386,0.000578661,0.000134588,0.000237352,-0.00565503,-0.00684277,-0.0475301,4956,4918,0
35846875,35846757,4259850,4325386,0.00115735,-0.000302865,-5.85173e-05,0.00193412,-0.00373192,-0.0430696,4988,5016,0
36350600,36350480,4259850,4325386,0.00137843,-0.00145855,-0.000736058,0.00523662,-0.0124271,-0.0412404,4988,4929,0
36848904,36848763,4259850,4325386,-0.00282212,0.0015957,0.000912943,0.00310409,-0.00209089,-0.0413235,5033,4919,0
37347981,37347608,4259850,4325386,-0.000310376,0.000287132,0.000632533,0.000844057,0.0204761,-0.0582129,4994,5742,0
37846337,37846187,4259850,4325386,-0.000500331,0.000104617,0.000295483,0.00865015,-0.00716579,-0.0402135,4983,4963,0
38345331,38345171,4259850,4325386,0.000481565,-0.00213799,7.62547e-06,0.0016304,-0.00272257,-0.0393697,5024,4909,0
38848755,38848646,4259850,4325386,0.00282131,-0.00153976,0.00097367,0.00325945,0.023017,-0.0429646,4988,4984,0
39347576,39347381,4259850,4325386,-0.0015627,0.000679664,0.000621579,-0.0127265,0.0215526,-0.06655,4987,5918,0
39846237,39846118,4259850,4325386,-0.00026363,-0.000544328,9.74381e-05,0.00219406,-0.00689042,-0.0445335,4980,4931,0
40350307,40350113,4259850,4325386,-4.97534e-05,0.000517482,-0.000373335,-0.0104392,-0.0173121,-0.0653613,5261,6110,0
40849361,40849252,4259850,4325386,0.000388231,-0.00257537,1.01856e-05,-0.00579603,-0.0116401,-0.052337,5016,4910,0
41347925,41347809,4259850,4325386,-0.000195884,0.000275643,0.000973377,0.00198333,0.00831776,-0.0438304,4987,4926,0
41847125,41846549,4259850,4325386,0.000602757,0.000909674,-0.000172049,-0.00187782,-0.0162399,-0.0499309,4990,4952,0
42345487,42345375,4259850,4325386,-0.00148765,0.00166226,0.000213087,-0.000271688,-0.00414032,-0.0473853,4975,4927,0
42849964,42849416,4259850,4325386,0.000216148,0.000123964,0.000476623,-0.000528874,-0.0146634,-0.0448504,4896,5006,0
43347908,43347740,4259850,4325386,-0.000361994,-0.000509547,0.000948026,-0.00311199,0.00629205,-0.0505658,4987,4927,0
43846596,43846486,4259850,4325386,-0.000512505,-0.000239428,-9.46475e-05,-0.0111369,-0.00213659,-0.0500545,4998,4957,0
44350317,44350204,4259850,4325386,0.00196614,-0.00130397,-0.00116072,-0.00420264,-0.0268133,-0.0416606,4973,4929,0
44848699,44848561,4259850,4325386,0.00115457,0.000279798,-0.000110693,0.00359549,-0.00212118,-0.044842,4993,4997,0
45347324,45347172,4259850,4325386,-0.0002346,-0.000814188,0.000604594,-0.00186481,0.0118968,-0.0507303,4986,4925,0
45846294,45846161,4259850,4325386,-0.000113587,1.67201e-05,0.000931931,0.00166616,-0.00627945,-0.0497555,5194,4923,0
46349741,46349630,4259850,4325386,0.000424096,-0.000460886,-7.36235e-05,-0.00953009,-0.0142991,-0.0528057,4988,4927,0
46848478,46848366,4259850,4325386,-0.00128805,0.000314687,0.000645004,-0.00923563,0.0253254,-0.0551639,4987,4927,0
47347330,47347124,4259850,4325386,-0.000326882,0.000461824,0.000551513,-0.00602547,-0.00118144,-0.063555,4960,5913,0
47850962,47850829,4259850,4325386,-0.000338161,0.000565838,0.000891647,0.00452472,0.0238477,-0.0422324,4992,4927,0
48349669,48349560,4259850,4325386,0.0012118,-0.000605899,-0.000319127,0.00317533,0.000357499,-0.040341,4987,4671,0
48848967,48848797,4259850,4325386,-2.88249e-05,-0.000687017,-0.000224232,0.00339908,-0.00673019,-0.0474032,4975,4932,0
49347643,49347531,4259850,4325386,0.000995554,-8.1656e-05,0.000333433,0.00834967,0.0106876,-0.0413452,4986,4948,0
49846931,49846817,4259850,4325386,-0.000771628,-8.3598e-05,0.000276888,-0.00162241,0.0052989,-0.055067,4991,4876,0
50350653,50350538,4259850,4325386,0.000786171,0.000547081,-0.000294305,0.00957369,-0.00588867,-0.0403964,4989,4927,0
50849543,50849405,4259850,4325386,-0.000593933,0.000183238,0.000936741,-0.00237925,-0.00919062,-0.0479515,4962,4968,0
51348139,51348008,4259850,4325386,-0.000625589,0.000624008,0.000826773,-0.0109791,0.0104407,-0.0544475,4979,4963,0
51851913,51851804,4259850,4325386,-0.000851652,0.000481121,0.000873799,-0.00228463,0.0187598,-0.0537043,5031,4929,0
52345878,52345669,4259850,4325386,-0.000304375,-0.00047355,0.00042382,-0.00326155,-0.00568301,-0.0565292,4994,5908,0
52849601,52849395,4259850,4325386,-1.01444e-05,0.000862857,0.000754026,-0.00144221,-0.00366405,-0.0547394,4979,4979,0
53348055,53347942,4259850,4325386,0.000917163,-0.000109711,0.00102032,0.0107662,5.26389e-05,-0.0401906,4990,4930,0
53846789,53846675,4259850,4325386,-0.000372401,-0.000587795,-5.30209e-05,-0.00625793,-0.0270859,-0.0458453,4987,4766,0
54350552,54350413,4259850,4325386,0.000670792,-0.00070081,-1.68543e-05,-0.00920267,0.00399473,-0.0544902,4999,4891,0
54849262,54849134,4259850,4325386,-0.00133806,0.00134896,6.09918e-05,-0.00907021,-0.0160844,-0.0497079,4987,4925,0
55347983,55347870,4259850,4325386,-0.000537233,0.000239696,1.72924e-05,0.00764564,0.0115661,-0.0432217,4987,4730,0
55846775,55846664,4259850,4325386,-0.000792932,-0.000515756,0.000219291,0.00560318,-0.00679157,-0.0419919,4987,4968,0
56345901,56345793,4259850,4325386,0.000234764,-0.000888147,0.000906387,0.00438366,-0.00680371,-0.0452397,4953,4928,0
56849850,56849733,4259850,4325386,0.000318707,0.00280778,-0.000843876,-0.00959099,-0.00129963,-0.0519531,5023,4798,0
57348512,57348385,4259850,4325386,0.000649749,-0.0010813,-0.000149252,0.00195777,0.00863483,-0.0534186,5028,5912,0
57847175,57846990,4259850,4325386,-0.00160187,0.000722434,0.000303632,0.000648063,-0.00325901,-0.0451411,4989,4929,0
58345895,58345725,4259850,4325386,-0.00153722,4.45962e-05,-0.000145176,-0.0153799,-0.00401294,-0.0657119,4988,5868,0
58849677,58849540,4259850,4325386,-0.00120984,0.000649797,-0.000285914,-0.00640336,-0.013416,-0.0489312,4967,4966,0
59348337,59348184,4259850,4325386,0.000293285,-0.000759366,-0.000350309,-0.00331239,-0.021597,-0.0510857,4980,4958,0
59847072,59846930,4259850,4325386,0.00137292,-0.0008449,9.77792e-05,-0.00462821,-0.015487,-0.0458865,4995,4884,0
60350038,60349649,4259850,4325386,0.000789249,-7.28353e-05,-0.000749569,0.00660734,-0.00123689,-0.0403808,4990,4955,0
60848541,60848433,4259850,4325386,-0.000637884,0.000656171,5.15935e-05,-0.00544736,-0.0113153,-0.0500659,5037,4929,0
61347526,61347364,4259850,4325386,-0.000136838,0.000150351,-0.00116042,-0.00418732,-0.0165435,-0.0454216,4965,4986,0
61850498,61850343,4259850,4325386,0.00144034,-0.00266642,0.000783556,-0.0116958,0.0209224,-0.0440542,4987,4643,0
62349438,62349246,4259850,4325386,-0.000282055,-0.00123055,0.000111757,-0.0153998,0.0052939,-0.0538069,4967,4996,0
62848179,62847819,4259850,4325386,0.00196798,-0.00118876,0.000359011,-0.00888158,0.00700946,-0.0460804,4983,4920,0
63346301,63346168,4259850,4325386,-0.00144342,-0.000369823,-0.000692004,-0.00909696,-0.00141293,-0.0482571,4988,4933,0
63849401,63849284,4259850,4325386,-0.00204813,-0.000124487,0.000231752,-0.00800147,0.00785493,-0.0461392,4994,4927,0
64348275,64348156,4259850,4325386,0.00102023,-0.00064957,-0.000685875,0.0013298,-0.000788472,-0.0472959,4949,4755,0
64846937,64846812,4259850,4325386,0.000642456,0.000118574,-0.000958909,-0.00850823,0.000744357,-0.0577367,4993,4996,0
65350805,65350652,4259850,4325386,0.000314999,0.000364139,0.00031201,0.000157615,0.00234151,-0.0498566,4988,4985,0
65849827,65849707,4259850,4325386,0.0022818,-0.00108109,-0.000542388,-0.00168995,0.00856719,-0.047077,4987,4929,0
66349013,66348444,4259850,4325386,-0.000488866,-0.000248726,-0.000271896,-0.00884166,-0.00306388,-0.0550719,4987,5643,0
66847492,66847339,4259850,4325386,0.000190945,5.83309e-05,-0.00121951,-0.00879938,-0.0242407,-0.0549383,4966,4968,0
67346043,67345916,4259850,4325386,-2.17421e-05,0.000324116,0.000797045,-0.00437865,-0.0100008,-0.0494687,4988,4919,0
67849814,67849640,4259850,4325386,-0.00117887,8.98038e-05,-4.89123e-05,-0.00615555,-0.0216247,-0.0500776,4987,4994,0
68349537,68349398,4259850,4325386,0.000520738,-0.00103947,-0.000835161,-0.00560684,-0.0277139,-0.0519766,4957,4958,0
68848245,68848110,4259850,4325386,-0.000996951,3.47413e-05,0.00068945,-0.00510597,0.0138393,-0.0525712,4988,4927,0
69352029,69351833,4259850,4325386,6.0227e-05,-0.000790423,-0.000890722,-0.00788703,-0.00695193,-0.0519168,4987,4937,0
69845824,69845710,4259850,4325386,-0.00042372,0.00204199,-8.08609e-05,0.00236509,-0.0177166,-0.0483286,4992,4925,0
70349544,70349383,4259850,4325386,-0.00041991,9.30605e-05,0.000367211,-0.00677204,-0.000809181,-0.0506804,4962,4927,0
70848166,70848042,4259850,4325386,-0.000735447,5.19854e-05,0.00014794,0.00276807,0.00304174,-0.0402027,4985,4925,0
71346884,71346778,4259850,4325386,0.00206633,-0.0017854,-0.000159969,-0.00445716,-0.000292998,-0.0482106,4984,4926,0
71850144,71850020,4259850,4325386,-0.000548816,0.000332486,0.000770861,-0.0052068,-0.00182412,-0.0583421,4988,4939,0
72349045,72348926,4259850,4325386,0.00200844,-0.00135866,2.45479e-05,0.000102021,0.0249408,-0.0470142,4996,4939,0
72847598,72847476,4259850,4325386,-0.00112333,0.00221779,0.000550604,0.00150967,-0.00827482,-0.0487082,4986,4933,0
73346446,73346334,4259850,4325386,0.00138738,8.45831e-05,-0.00066538,0.000156214,-0.00255264,-0.0421911,4963,4922,0
73845056,73844948,4259850,4325386,0.000199279,7.79175e-05,0.000912205,-0.00175733,0.0143801,-0.0402642,4987,4958,0
74349082,74348707,4259850,4325386,-0.00167099,0.000246651,0.00040362,0.00247582,0.0155732,-0.0397002,5021,4907,0
74847526,74847415,4259850,4325386,-0.000311121,-3.43666e-06,0.000782241,-0.00178201,-0.0108325,-0.0472796,4983,4926,0
75351490,75351342,4259850,4325386,0.00104648,0.00155209,-0.000779868,0.00373447,-0.0026784,-0.0491797,4970,4926,0
75845584,75845474,4259850,4325386,-0.00095892,-0.000626814,1.09775e-05,-0.00581014,-0.0129033,-0.0599275,4944,4668,0
76349245,76349103,4259850,4325386,-0.000237276,-0.00152292,0.000147616,0.00445449,0.0262848,-0.0475845,4987,4731,0
76847952,76847839,4259850,4325386,-0.000265988,0.000306235,0.000379824,-0.0042458,0.0120864,-0.0428956,4984,4686,0
77347233,77347122,4259850,4325386,-0.00187601,0.00124004,0.000486202,-0.0045654,0.000611598,-0.0465397,4977,4925,0
77850605,77850466,4259850,4325386,-5.19836e-05,-0.000350195,-0.000750333,-0.00371553,-0.0133567,-0.0511741,4977,4932,0
78349812,78349679,4259850,4325386,-0.00255075,-0.000300121,0.000854741,-0.00578632,-0.00985454,-0.051336,5604,4929,0
78848518,78848320,4259850,4325386,0.000333722,0.000650944,0.000147519,-0.000557464,0.00145495,-0.0500327,4987,4929,0
79347338,79347190,4259850,4325386,-0.00119729,-0.000473521,0.000244381,0.00114764,-0.00334134,-0.0474157,4959,4926,0
79851394,79851232,4259850,4325386,-0.000626826,-0.00104051,0.00117591,-0.00501145,0.0191999,-0.0545016,4989,4999,0
80350165,80350028,4259850,4325386,0.000835965,-8.13317e-05,0.000639393,0.0054048,0.00781413,-0.0385339,4979,4984,0
80849127,80848888,4259850,4325386,-0.000941836,6.68442e-05,0.000392646,-0.00493271,-0.00265118,-0.0461977,4945,4653,0
81347563,81347439,4259850,4325386,0.000753081,-0.000182817,-0.000651343,-0.010854,-0.0218508,-0.0529812,4952,4927,0
81846286,81846175,4259850,4325386,0.000441621,-0.00174217,-0.000810572,0.00205536,-0.0160367,-0.0466055,4987,4925,0
82350020,82349904,4259850,4325386,-0.00178888,-0.000574899,0.000874035,-0.00702858,0.0256585,-0.0531148,4990,4959,0
82848328,82848215,4259850,4325386,0.00135645,0.00216493,-0.000308951,0.00613688,0.00716617,-0.0474984,4998,4963,0
83352206,83352089,4259850,4325386,-0.00270213,0.00255053,0.000951166,-0.00248312,0.0126819,-0.0457874,4925,4728,0
83845771,83845659,4259850,4325386,-0.000481539,0.000107373,-3.40763e-05,-0.00614717,0.00647421,-0.054792,4989,4923,0
84349819,84349654,4259850,4325386,-0.000199532,0.0016813,-0.000195607,-0.00295551,-0.00826893,-0.0493641,5253,4925,0
84848295,84848118,4259850,4325386,0.00154664,-0.00173939,-0.000138585,-0.01387,-0.0194883,-0.0535365,4988,4962,0
85346966,85346855,4259850,4325386,-0.00103912,0.000475349,0.00034494,-0.00158244,0.0114269,-0.0494836,4983,4934,0
85850766,85850653,4259850,4325386,-0.000369012,0.000861118,-0.000620404,-0.00169766,-0.0213236,-0.0518214,4998,4991,0
86349447,86349310,4259850,4325386,-0.000829901,4.46758e-05,-0.000324343,-0.00939885,0.00359733,-0.0563361,4981,4870,0
86848464,86848112,4259850,4325386,0.000649582,-0.00245187,-3.55812e-06,0.00695711,0.0126254,-0.0423015,4996,4928,0
87346913,87346786,4259850,4325386,0.00217529,0.000291633,-0.000655543,0.00499527,-0.0145307,-0.040915,4987,4696,0
87845083,87844976,4259850,4325386,-0.000126501,0.000126091,-0.000438375,-0.00993891,0.00348903,-0.0544798,4990,4926,0
88348898,88348708,4259850,4325386,0.00083346,-0.000468316,-0.000507647,0.00638678,-0.00184164,-0.0543682,5001,5928,0
88848130,88847985,4259850,4325386,0.000698512,2.44694e-06,-0.000124108,-0.00136866,0.0113726,-0.0439413,4986,4975,0
89346837,89346721,4259850,4325386,0.00103241,7.87277e-05,-0.000476283,0.00122967,-0.00503196,-0.0408284,4985,4670,0
89850876,89850675,4259850,4325386,0.0013596,-0.000272224,-0.00112219,-0.00945373,-0.0232353,-0.0520807,4956,4926,0
90349288,90349179,4259850,4325386,-0.000284138,4.01951e-05,0.0012697,-0.00279894,0.0162064,-0.0541436,4986,4925,0
90848138,90848014,4259850,4325386,0.000445289,-1.87245e-05,-0.000317564,-0.00111526,-0.0177087,-0.0406377,4937,4734,0
91346836,91346672,4259850,4325386,-1.97295e-05,-0.000544913,-0.00053322,-0.00590802,-0.0155324,-0.0481043,4965,4924,0
91845524,91845388,4259850,4325386,0.000820303,-0.00101145,-7.95029e-05,0.00363615,-0.00456304,-0.0425198,4987,4924,0
92349232,92349115,4259850,4325386,-0.00203464,0.000231072,0.00127755,-0.00717084,0.0152567,-0.046478,4990,4721,0
92847970,92847849,4259850,4325386,-0.00264844,0.00146081,0.00117554,0.00149892,0.0228761,-0.0447189,4975,4931,0
93351822,93351685,4259850,4325386,0.000443465,-0.0015842,0.000478836,-0.0107511,0.00218952,-0.056778,4978,4996,0
93850561,93850312,4259850,4325386,0.00217988,-0.000890805,-0.000346054,-0.00853952,0.00333034,-0.0564927,4990,4925,0
94349243,94349047,4259850,4325386,-0.000193452,8.99459e-05,-0.000699987,0.00147481,0.000353215,-0.0449043,4988,4931,0
94848505,94848236,4259850,4325386,-0.000747463,-0.000174883,0.000271666,-2.65987e-05,-0.0141454,-0.0474355,4990,4958,0
95347130,95346986,4259850,4325386,0.00210728,-0.000411153,-0.00032895,0.0066211,-0.00679758,-0.0401664,4963,4768,0
95846403,95846211,4259850,4325386,-0.00406285,0.00220139,-0.000325528,-0.000144307,-0.00567119,-0.0436296,4998,4925,0
96350078,96349928,4259850,4325386,-0.00158143,-0.000132889,0.000445829,-0.000242377,0.0191422,-0.0469306,4985,4949,0
96848803,96848668,4259850,4325386,-0.00132029,7.35454e-05,0.000463227,-0.00807957,0.00671889,-0.0577122,4991,4926,0
97347547,97347404,4259850,4325386,0.00336903,-0.00135084,-0.000629843,0.0089497,-0.013916,-0.0405567,4989,4926,0
97846478,97846297,4259850,4325386,-0.00116766,-0.000348071,-0.000247933,-0.00878829,-0.00568421,-0.051041,4995,4929,0
98345135,98345005,4259850,4325386,0.000166914,0.000274444,0.000624005,0.0138025,0.0135902,-0.0339628,5027,4910,0
98848148,98847939,4259850,4325386,0.000844361,-0.000571627,-0.000594377,-0.00106553,-0.00702333,-0.0407944,4969,4956,0
99346505,99346384,4259850,4325386,0.000995304,0.000285511,0.000456324,0.00734552,0.0123976,-0.040266,4987,4940,0
99850286,99850108,4259850,4325386,0.00185995,-0.000656593,-0.000931022,-0.00135685,-0.015415,-0.0610348,4987,5792,0
100348470,100348321,4259850,4325386,0.00109919,-0.000536007,-0.00107068,0.00319215,-0.0276799,-0.049808,4993,4999,0
100852288,100852154,4259850,4325386,-0.00160244,-1.91233e-05,-0.00050998,-0.00593113,-0.0104914,-0.0527303,4991,4924,0
101350902,101350758,4259850,4325386,-0.000892827,0.00032724,0.000688219,-0.00535378,-0.018424,-0.052231,4981,4924,0
101849105,101848997,4259850,4325386,-0.000443669,-0.000639144,0.000707286,-0.00320122,-0.00269738,-0.048666,4988,4983,0
102347856,102347743,4259850,4325386,-0.000276599,-0.000991401,-0.000204229,-0.000134113,-0.00176596,-0.0411233,4951,4950,0
102846900,102846767,4259850,4325386,0.000413128,0.000809806,-0.00114595,0.00635805,0.00217806,-0.03597,4997,4927,0
103350509,103350386,4259850,4325386,0.00112493,0.000299939,-0.00186192,0.00876309,-0.0125479,-0.0412432,4993,4926,0
103848670,103848467,4259850,4325386,0.00131992,0.000324347,-3.80042e-05,-0.00159478,-0.00563936,-0.0670854,4975,5916,0
104352299,104352157,4259850,4325386,0.00251078,-0.00135752,0.00110898,0.00697142,-0.00532671,-0.0446605,4990,4933,0
104846014,104845904,4259850,4325386,-0.00142573,0.000707657,0.000596905,-0.0080881,0.0166743,-0.0603115,4980,4975,0
105349910,105349768,4259850,4325386,-0.00151332,0.000475698,0.000426154,-0.00657758,0.0124038,-0.0546568,5050,4940,0
105848626,105848495,4259850,4325386,-0.00241067,0.00140811,7.33336e-05,-0.00418047,-0.0141697,-0.0523415,4952,4925,0
106347271,106347106,4259850,4325386,0.00102516,-0.000167429,-0.000108937,-0.0014171,-0.0052228,-0.0473753,4993,4991,0
106850014,106849874,4259850,4325386,0.000840446,-0.0012423,0.000520632,-0.00730809,0.00383612,-0.0487099,4987,4933,0
107348729,107348614,4259850,4325386,-9.28786e-05,0.000124825,-2.91939e-05,0.00544918,0.0169751,-0.0404353,4990,4974,0
107847499,107847351,4259850,4325386,0.00111214,-0.00101018,-0.000368878,-0.00460025,-0.0227385,-0.0505275,4989,4792,0
108346219,108346084,4259850,4325386,0.000750709,-0.000452606,-0.000510787,-0.00715689,0.005254,-0.0544836,4978,4926,0
108844962,108844821,4259850,4325386,-0.000643298,0.00125256,-0.000581985,-0.00594376,0.00114322,-0.0545354,4982,4923,0
109349074,109348547,4259850,4325386,-0.000715894,-6.26372e-05,0.000921702,0.000393229,0.0163585,-0.0440694,4992,4960,0
109847728,109847549,4259850,4325386,-0.00130716,0.000598482,0.00106341,-0.000445264,0.0182874,-0.0444527,5006,5007,0
110351273,110351145,4259850,4325386,-4.31278e-05,0.00262587,0.00174885,-0.00288534,0.0238604,-0.0442895,4989,4926,0
110849333,110849217,4259850,4325386,0.00103826,-0.000357756,-0.000909738,-0.0027748,0.00055355,-0.059217,4962,4984,0
111348081,111347932,4259850,4325386,-0.00150121,0.000178159,0.00125917,-0.00172824,0.0295885,-0.0512964,4988,4935,0
111846823,111846667,4259850,4325386,-0.00105161,-0.000238811,0.000706679,0.00274607,0.0164411,-0.0466938,4984,4960,0
112345593,112345484,4259850,4325386,0.00153029,-0.000491234,-0.000803416,0.00549878,-0.0237344,-0.03923,4994,4964,0
112849460,112849305,4259850,4325386,-0.00218114,0.00106734,0.000437273,-0.00906713,0.00464417,-0.0502514,5008,4903,0
113347997,113347865,4259850,4325386,0.00159696,0.000302988,-0.000281854,0.00762135,0.00347711,-0.0395122,4988,4997,0
113846725,113846615,4259850,4325386,0.000841736,0.000105646,-0.000753817,-0.00962257,-0.026115,-0.0503588,5001,4889,0
114350503,114350325,4259850,4325386,-0.00197778,0.00047763,0.000864293,-0.00343132,0.00961601,-0.0514984,4979,4924,0
114849431,114849297,4259850,4325386,0.000284539,0.000188526,0.00052689,0.00133516,-0.00692165,-0.0544913,4930,4915,0
115348204,115347800,4259850,4325386,0.000615817,-0.000798243,-0.000542317,-0.00410617,0.00102787,-0.0620129,4989,5783,0
115846659,115846535,4259850,4325386,0.00166888,-0.000434389,-0.000768179,0.00341234,0.00166863,-0.0363024,4987,4988,0
116346146,116345510,4259850,4325386,0.0010737,-0.000325132,-0.000845917,-0.00155545,-0.00952685,-0.0513123,4936,5660,0
116849129,116848995,4259850,4325386,0.000563643,0.00101094,-0.000829385,0.0116918,-0.0071418,-0.042293,4985,4926,0
117347851,117347733,4259850,4325386,-6.85993e-05,0.000637792,-4.70879e-05,-0.0047891,-0.0202434,-0.0552706,4987,4985,0
117851579,117851458,4259850,4325386,0.00252152,-0.00116728,0.000159301,-0.00833227,-0.0170041,-0.0515463,4990,4967,0
118350474,118350347,4259850,4325386,-0.00238618,5.90262e-05,0.000473418,0.00348227,0.00567359,-0.0413034,4973,4967,0
118849257,118848930,4259850,4325386,-0.0010479,0.000443518,0.000461454,-0.00314415,0.00220656,-0.0530586,4987,4928,0
119347773,119347665,4259850,4325386,0.000700626,0.00132139,0.000579747,-0.00906968,-0.0065044,-0.0771803,4985,4743,0
119847233,119846529,4259850,4325386,-0.001085,0.000835344,-0.000487506,-0.00708326,-0.0110328,-0.0534683,5024,4923,0
120350607,120350483,4259850,4325386,-0.00148437,0.000844276,-0.000199839,0.00919463,-0.0041097,-0.0350117,4942,4929,0
120849067,120848862,4259850,4325386,-0.000658419,0.000526746,0.000353543,-0.00800064,0.0239408,-0.0714923,4987,5672,0
121351727,121351591,4259850,4325386,-0.00331556,0.000241615,0.00048544,-0.00904288,-0.0129634,-0.0548065,4990,4930,0
121850437,121850325,4259850,4325386,-0.000609408,0.000242415,0.000564992,-0.00416739,-0.00204949,-0.0477649,4987,4986,0
122348262,122348114,4259850,4325386,0.00241263,-0.000610925,-0.000620175,0.000673142,-0.0214341,-0.0435828,4956,4926,0
122847174,122846980,4259850,4325386,-0.000844847,-0.000168219,-0.000270628,-0.00509832,-0.00537075,-0.0627542,4978,5910,0
123345693,123345585,4259850,4325386,-0.00130842,0.000552322,-0.000326958,-0.0082906,-0.00898912,-0.0519833,4988,4927,0
123849872,123849313,4259850,4325386,0.00372197,4.65641e-05,-0.000570988,0.00235501,0.00434295,-0.0361965,4980,4768,0
124348166,124348043,4259850,4325386,-0.00706865,0.00155345,0.000607033,-0.00894511,0.00831176,-0.0598123,4983,4982,0
124852126,124851979,4259850,4325386,0.000803148,-0.000512947,-0.000333734,0.00209138,-0.00740116,-0.0487357,4931,4926,0
125350646,125350502,4259850,4325386,0.00214356,0.000759559,-0.000994329,-0.000530671,-0.0239238,-0.0448419,4934,4744,0
125849622,125849405,4259850,4325386,-0.000113722,0.000240176,0.000472789,-0.00325295,-0.00191421,-0.0460761,4990,4990,0
126348538,126348430,4259850,4325386,0.000951149,-0.00080441,-0.00035348,0.00255547,1.99004e-05,-0.0455724,4987,4959,0
126847781,126847666,4259850,4325386,-0.000770852,0.000364342,-0.000218543,0.00223093,0.00684973,-0.0484182,4988,4975,0
127346579,127346440,4259850,4325386,0.000512608,-0.000335783,-0.000509335,0.00210858,-0.00652143,-0.0462021,5024,4910,0
127850433,127850246,4259850,4325386,0.0021434,-0.00230316,-0.00121862,0.00297318,-0.0165448,-0.049419,4979,4935,0
128349044,128348870,4259850,4325386,-0.00131695,0.000643806,0.00132646,-0.00155263,-0.00333246,-0.0530577,4984,4930,0
128847953,128847764,4259850,4325386,-0.00255997,0.000521091,0.00105752,-0.00384609,0.012978,-0.0492431,4992,4946,0
129352053,129351327,4259850,4325386,-0.00168765,0.000702723,0.00120043,-0.00502444,0.0208531,-0.0539005,4981,5913,0
129849711,129849564,4259850,4325386,-0.00463795,0.00231657,-0.000235009,-0.0124588,-0.0209494,-0.0577153,4991,4928,0
130348458,130348299,4259850,4325386,0.000121651,0.000304431,0.000119056,-0.0060856,-0.00561962,-0.0543501,4987,4953,0
130847518,130847407,4259850,4325386,0.000968209,-0.000365345,-0.000759712,-0.00555181,-0.0226974,-0.0567892,5014,4784,0
131350884,131350758,4259850,4325386,-0.00168376,0.000344381,0.000408384,-0.00703469,0.00630311,-0.0555721,4986,4925,0
131850027,131849499,4259850,4325386,-0.000643732,0.000360723,0.00019631,-0.00306235,-0.00182827,-0.0497209,4981,4950,0
132348342,132348232,4259850,4325386,-0.000799309,-7.12066e-05,0.000644375,0.00252813,0.0101752,-0.0445613,4987,4924,0
132847302,132847151,4259850,4325386,0.000268879,0.000451978,-0.000666917,0.00541869,-0.00274365,-0.0395841,4963,4927,0
133345821,133345705,4259850,4325386,0.000186593,-9.03445e-05,-4.78571e-05,-0.00605983,0.00856498,-0.0517897,4987,4786,0
133849538,133849428,4259850,4325386,-0.00153688,0.000626126,0.000391943,-0.00311843,0.0152934,-0.0511213,4987,4963,0
134348401,134348288,4259850,4325386,0.000444116,7.50113e-05,-0.000343931,-0.00449407,-0.01339,-0.053904,4938,4936,0
134847134,134846998,4259850,4325386,-0.000655478,0.000319802,0.000552151,-0.00214678,0.0100466,-0.0479164,4992,4926,0
135351358,135351244,4259850,4325386,0.00126689,-0.00113005,-0.000367893,0.00489411,0.00418836,-0.0404991,4966,4929,0
135849977,135849861,4259850,4325386,-0.00146318,0.000201707,0.000539563,0.00279737,0.000687503,-0.0481921,4987,4989,0
136348834,136348679,4259850,4325386,-0.00100309,0.000596365,8.96878e-05,-0.00821287,0.00906647,-0.0571848,4981,4943,0
136847465,136847335,4259850,4325386,0.000802493,-0.00168459,-0.00102456,-0.00896975,-0.028351,-0.0517974,4988,4927,0
137346485,137346311,4259850,4325386,-3.11816e-05,0.000527255,-0.000792611,-0.00317682,-0.00790524,-0.0475673,4959,4927,0
137849514,137849374,4259850,4325386,-0.0012014,0.000606412,0.000252072,0.00169814,0.00619827,-0.0438289,5029,4919,0
138348651,138348532,4259850,4325386,-0.00120722,0.000192413,0.000504458,0.000128256,0.0111968,-0.0537607,4987,4999,0
138847405,138847291,4259850,4325386,-0.00074533,0.000370427,0.000912369,-0.00579912,0.00504288,-0.0492545,4935,4924,0
139351138,139351013,4259850,4325386,-0.00138143,0.000167753,0.000664247,0.00737204,0.0264918,-0.0437505,5007,4906,0
139849947,139849755,4259850,4325386,0.00104843,-0.000743529,-0.00117397,0.00203622,-0.0184944,-0.0469085,4994,5001,0
140348696,140348584,4259850,4325386,-0.00126859,-0.000115699,-0.000290733,-0.00997737,0.00095521,-0.0579795,4987,4966,0
140847523,140847370,4259850,4325386,-0.00148072,0.00033919,0.000921726,-0.00203062,0.0098187,-0.0554051,5024,4922,0
141350545,141350429,4259850,4325386,-8.49111e-05,-0.000108532,0.000625863,0.00548712,-0.00632671,-0.0421242,4986,4927,0
141849484,141849303,4259850,4325386,0.000335395,0.000731064,-0.000267717,-0.00314152,-0.0169321,-0.0530131,4966,4967,0
142348521,142348407,4259850,4325386,0.000127067,-0.000194107,0.000418692,0.00473442,0.00168052,-0.0382686,4991,4972,0
142847486,142847353,4259850,4325386,0.00284908,-0.00137506,-0.00103904,0.00189826,-0.0233935,-0.0419723,4968,4953,0
143346230,143345890,4259850,4325386,-0.00207083,0.00090247,5.33132e-05,0.00333992,0.0139304,-0.0401319,5004,4890,0
143849758,143849607,4259850,4325386,0.0015944,-0.00156926,-0.000722472,0.00825606,-0.00949112,-0.0407922,4980,4927,0
144349175,144348513,4259850,4325386,0.0014333,-0.000373317,-0.000590824,-0.000742378,-0.0121754,-0.0452078,4964,4963,0
144847203,144847074,4259850,4325386,-0.000536695,-0.00045896,-0.000368413,-0.0131311,0.0098023,-0.0612459,4989,4927,0
145350953,145350795,4259850,4325386,-0.000981994,0.000679257,0.00112716,0.00177286,0.0362982,-0.0536272,4988,4938,0
145844661,145844549,4259850,4325386,7.6696e-05,0.000528912,-0.000476235,-0.00922691,-0.0174671,-0.0615044,4943,4925,0
146347963,146347824,4259850,4325386,-0.000529786,0.000424067,0.000704302,-0.0037787,0.00690287,-0.048156,4986,4957,0
146847126,146847005,4259850,4325386,-0.000880607,0.000672124,0.0003811,-0.0155001,-0.0260624,-0.0559765,4987,4996,0
147345850,147345741,4259850,4325386,-0.000931876,-0.000279502,0.000909826,-0.0105551,-0.000754316,-0.0494249,4987,4969,0
147850074,147849514,4259850,4325386,-0.000208176,-0.00221808,0.000142684,0.0020195,0.00775883,-0.0430081,4978,4925,0
148348609,148348440,4259850,4325386,3.13603e-05,-0.000613326,0.000163815,-0.00594676,-0.0137177,-0.0589521,4967,4969,0
148847059,148846941,4259850,4325386,0.000753447,-0.000310096,-0.000449354,0.0070662,0.00118824,-0.0443111,4990,4980,0
149349842,149349714,4259850,4325386,3.55385e-05,0.000203853,-0.000260502,0.00226726,0.0149545,-0.0500499,4988,4921,0
149848690,149848450,4259850,4325386,-9.05521e-05,0.000400987,0.000172737,0.00578185,0.0106405,-0.0493956,4987,5878,0
150352316,150352175,4259850,4325386,0.000970024,0.000223637,0.000546037,-0.00544047,-0.00719059,-0.0484619,4985,4924,0
150846065,150845923,4259850,4325386,-0.00135067,0.000123937,0.000304182,-0.00941971,-0.0155626,-0.0522918,4987,4925,0
151349757,151349647,4259850,4325386,0.000533025,0.000139951,-0.00106555,0.000408824,0.0110135,-0.0469005,4987,4757,0
151848502,151848384,4259850,4325386,7.94387e-05,0.000597414,0.000487888,0.000130577,0.00405128,-0.0485713,4987,4930,0
152347762,152347578,4259850,4325386,0.00118453,2.54618e-05,-4.61556e-05,0.00184206,-0.0183807,-0.0484541,4994,4975,0
152851421,152851297,4259850,4325386,0.000172067,-0.00023585,-0.0001674,-0.00481589,-0.010737,-0.0519482,4985,4921,0
153350159,153350033,4259850,4325386,-0.000177927,7.57446e-05,0.000555504,0.00655574,0.022913,-0.0383189,4985,4748,0
153848915,153848803,4259850,4325386,-0.000906848,0.000340145,0.00052047,0.00145304,0.00751344,-0.0449445,4977,4979,0
154347752,154347643,4259850,4325386,0.000148041,0.000464926,-0.00114515,-0.00315336,0.000224409,-0.0502777,4979,4976,0
154846564,154846348,4259850,4325386,-0.00192572,0.000372942,-0.00233231,-0.0180329,-0.0124482,-0.069714,4962,6009,0
155350089,155349966,4259850,4325386,-0.000131525,0.000304006,-0.00414969,-0.00730328,0.00428513,-0.0549649,4987,4939,0
155848811,155848703,4259850,4325386,0.000675747,-0.000887398,-0.000243179,0.00694101,-0.0153546,-0.0328765,4988,4928,0
156352831,156352429,4259850,4325386,-5.01829e-05,-0.000397783,0.00109094,0.00278462,0.00733206,-0.0347283,4989,4675,0
156846517,156846384,4259850,4325386,-0.00054642,-6.16686e-05,0.000527408,0.00577734,0.0272195,-0.0443925,4968,4993,0
157346133,157344915,4259850,4325386,0.0014929,-0.000962525,-0.00140854,-0.0019779,-0.0226909,-0.0518939,4988,4947,0
157848870,157848664,4259850,4325386,-0.000597506,0.000789929,-0.00101942,-0.00695737,-0.0223609,-0.0652205,4988,5913,0
158348269,158347591,4259850,4325386,-0.00197346,0.000583917,0.00122719,-0.00236176,0.0249772,-0.0429882,5011,4712,0
158846233,158846110,4259850,4325386,-0.00102919,5.66044e-06,0.00086076,0.0024247,0.0170849,-0.0470726,4982,4926,0
159349997,159349834,4259850,4325386,0.00249266,-0.00135864,-0.000542017,0.00638109,-0.0115833,-0.0394612,4987,4944,0
159848721,159848575,4259850,4325386,0.000900929,3.32781e-05,0.000263638,0.0108042,0.000621136,-0.0377623,4991,4932,0
160347035,160346884,4259850,4325386,-0.000490715,0.000321898,0.00019796,0.00289955,0.00438373,-0.0490759,4988,4945,0
160845428,160845283,4259850,4325386,-0.00234869,0.000881732,0.000614304,-0.00289871,0.00415051,-0.0570029,4977,4977,0
161348892,161348772,4259850,4325386,0.00140476,-7.19948e-06,-0.00645995,-0.00699562,-0.0415643,-0.0554642,4989,4968,0
161847621,161847511,4259850,4325386,0.000304206,-0.000765927,-0.000332118,-0.00743892,-0.0116388,-0.0558343,4973,4925,0
162351723,162351351,4259850,4325386,0.000723053,6.31469e-06,8.83956e-05,0.00158263,-0.00359426,-0.044183,4973,4974,0
162850575,162850400,4259850,4325386,0.00093959,9.05386e-05,-0.000259655,-0.00224871,-0.0159972,-0.0398737,4960,4762,0
163348887,163348709,4259850,4325386,0.0027399,-0.00234528,0.000621991,0.00691922,0.00735758,-0.0378788,4991,4931,0
163847602,163847443,4259850,4325386,0.000115466,0.000355654,-0.000106023,0.0010113,-0.00597006,-0.046932,4988,5329,0
164346416,164346276,4259850,4325386,-5.97505e-05,0.000177452,0.000370432,0.00990697,-0.000196344,-0.042498,4966,4966,0
164849616,164849436,4259850,4325386,-0.00098616,0.000649217,0.000109814,-0.000678867,-0.011419,-0.0531397,4987,4929,0
165348283,165348145,4259850,4325386,0.000698097,-8.85435e-05,-0.000888268,0.00239087,0.0101899,-0.0395639,4793,4927,0
165847005,165846878,4259850,4325386,0.000973502,-0.000181571,-0.000651143,-0.002511,0.000756583,-0.0513887,4986,4972,0
166350711,166350601,4259850,4325386,-0.000572022,0.00117206,0.000199419,-0.0142633,-0.0136502,-0.0631096,4987,4962,0
166849462,166849340,4259850,4325386,-0.000485508,0.000553708,0.000225524,0.00484562,-0.000537824,-0.0323705,4987,4055,0
167348272,167348150,4259850,4325386,-0.00200489,-0.000111931,0.000308848,-0.0140906,-0.0165097,-0.0601707,4968,4940,0
167846923,167846812,4259850,4325386,-0.000936044,-0.0017024,0.00105599,-0.00729066,-0.00464905,-0.0506378,4987,4931,0
168345684,168345550,4259850,4325386,0.000140991,0.00189016,0.000345227,0.0046937,0.00564847,-0.0437278,4985,4664,0
168849512,168849358,4259850,4325386,-5.38968e-05,0.000217763,-8.8551e-05,-0.00459094,-0.0115567,-0.0533854,4996,4926,0
169348330,169348199,4259850,4325386,-0.000970979,0.0025851,0.000447246,-0.000977967,-0.00910161,-0.0512416,4980,4932,0
169846858,169846746,4259850,4325386,-0.000408727,-0.0003756,-0.000950681,-0.00107903,0.00425525,-0.0493047,4987,4906,0
170350601,170350471,4259850,4325386,-0.000108992,0.000107677,-0.00191719,0.0026721,-0.0047735,-0.035578,4986,4057,0
170848916,170848758,4259850,4325386,0.00355568,-0.00204369,-0.000905441,-0.0082359,-0.0205265,-0.0517346,4988,4976,0
171347683,171347572,4259850,4325386,-0.00236439,0.00113836,-0.000450161,-0.0108872,-0.00507812,-0.0534935,4988,4921,0
171851553,171851170,4259850,4325386,0.000347147,9.18996e-05,0.000651806,-0.00639023,-0.00580466,-0.0519532,4981,4924,0
172349516,172349407,4259850,4325386,-0.00168643,0.000180957,0.000115055,-0.00926106,0.00453418,-0.0563034,4986,4984,0
172848759,172848191,4259850,4325386,0.00122211,-0.00235484,-0.000526195,-0.00374609,0.00315041,-0.0505828,4970,4969,0
173347380,173347191,4259850,4325386,0.00126455,0.000292204,0.000264812,0.0022805,0.00342717,-0.0461661,4990,5002,0
173850916,173850796,4259850,4325386,-0.00151364,0.00116233,0.00050452,0.00137271,0.0107382,-0.0441437,4987,4926,0
174349454,174349342,4259850,4325386,-0.000600212,-0.000208779,0.00018325,-0.0052775,0.00186188,-0.0463971,4987,4928,0
174848203,174848086,4259850,4325386,0.00092411,-0.000296539,-0.000902962,-0.00683109,-0.0241504,-0.0500445,4993,4925,0
175347234,175347064,4259850,4325386,0.00145593,-0.0008783,-0.000517249,0.00475665,-0.0161936,-0.0411722,4949,4955,0
175845721,175845612,4259850,4325386,-0.000368607,0.000243871,-1.59248e-05,-0.0150041,-0.0240586,-0.0559673,5047,4933,0
176349103,176348938,4259850,4325386,-0.001196,0.00178445,0.00121353,-0.0100505,0.0318676,-0.0592929,4960,4926,0
176847680,176847564,4259850,4325386,0.000960762,-7.47626e-05,-0.00100372,-0.00294689,-0.00414676,-0.053944,4989,4918,0
177351399,177351286,4259850,4325386,0.00313158,-0.00162747,0.000478636,-0.000922529,0.00563192,-0.0504346,4987,4986,0
177845154,177845039,4259850,4325386,-0.000614865,0.000181226,-1.84189e-05,0.00394674,-0.0113865,-0.0491059,4990,4924,0
178349169,178348984,4259850,4325386,0.000777549,9.34088e-05,-0.000579019,0.00295942,-0.00903755,-0.045153,4970,4977,0
178848706,178847514,4259850,4325386,0.000181521,-0.000260008,-0.00231067,0.00405889,-0.0102923,-0.0426562,4997,4878,0
179350407,179350179,4259850,4325386,-0.00135957,0.000473498,0.000844997,-0.010533,-0.0128655,-0.0444231,4991,4971,0
179849077,179848918,4259850,4325386,-0.000831346,-9.60367e-05,0.000212448,-0.0128185,-0.0162487,-0.0471179,4986,4982,0
180348423,180348150,4259850,4325386,0.000392296,0.000382716,0.000284949,0.00417711,0.0171574,-0.0317664,4987,4967,0
180847047,180846912,4259850,4325386,0.00024809,-0.000341304,0.000757508,0.0140782,0.00250802,-0.0404932,4975,4985,0
181350812,181350615,4259850,4325386,0.00176859,-0.00294317,-9.29254e-05,0.012985,-0.00131309,-0.0448419,4993,4905,0
181844562,181844387,4259850,4325386,-0.00116909,0.000127925,0.000614514,0.00499891,0.00635267,-0.0462894,4992,4965,0
182348589,182348280,4259850,4325386,0.000616231,0.000673374,-0.00117719,0.00111766,-0.00981916,-0.0512764,5002,4927,0
182847089,182846900,4259850,4325386,0.000234304,0.00010388,-0.0028186,-0.00127259,-0.00176463,-0.0650193,4973,5923,0
183350691,183350545,4259850,4325386,-0.00128622,5.55076e-05,-0.00709199,-0.0115135,-0.0099385,-0.0561657,4989,4926,0
183849414,183849281,4259850,4325386,0.000641974,-0.000155082,-0.00112334,0.00401873,-0.0176667,-0.0463252,4988,4972,0
184348139,184348019,4259850,4325386,0.000827556,0.000343132,0.000362759,-0.00436979,0.00419027,-0.0444789,4985,4999,0
184851375,184851243,4259850,4325386,-0.0011223,0.000133538,0.000108157,-0.00994483,-0.030421,-0.0530366,4983,4957,0
185345687,185345491,4259850,4325386,0.00112086,-0.000706961,-0.000774551,0.00615892,-0.0236909,-0.0460493,4987,4918,0
185849771,185849286,4259850,4325386,0.00771593,0.00021368,-0.000285212,-0.000617266,-0.0124856,-0.0389993,4937,4733,0
186348090,186347952,4259850,4325386,-0.00279892,0.000861808,0.000632433,-0.00572333,0.000446709,-0.0471841,4985,4926,0
186846813,186846689,4259850,4325386,-0.0015638,0.000126063,0.000126037,0.000473908,0.000421737,-0.0468801,4988,4925,0
187350588,187350414,4259850,4325386,0.000617766,0.0001084,-0.000586476,0.000309761,0.0127923,-0.0496945,4988,5418,0
187849085,187848884,4259850,4325386,-0.000683656,0.000390564,0.000775183,-0.00425632,0.000438015,-0.0593362,4987,5912,0
188348119,188347953,4259850,4325386,-0.000462508,-0.00141802,0.000342344,-0.00381186,-0.00332156,-0.0527689,4971,4937,0
188846763,188846624,4259850,4325386,0.00176892,-0.000272602,-0.0010772,0.00227638,-0.0221863,-0.041939,4988,4927,0
189345639,189345365,4259850,4325386,4.81699e-05,0.0035223,0.000816571,-0.00747593,0.014741,-0.0498087,4991,4927,0
189849313,189849193,4259850,4325386,0.000147688,0.000101491,0.000334486,-0.00317223,-0.0136243,-0.0534329,4935,4736,0
190348150,190347980,4259850,4325386,-0.00115711,-0.00124547,-0.00380151,-0.00931452,0.0100339,-0.0563964,4967,4926,0
190847357,190847246,4259850,4325386,0.000187762,-0.000930798,-0.00272651,0.00442547,-0.00172117,-0.0405736,5657,4925,0
191351290,191351140,4259850,4325386,0.000423181,-0.000224145,-7.88589e-05,0.00783089,0.00478897,-0.0417732,5258,4926,0
191849702,191849569,4259850,4325386,-0.0027231,0.000675104,0.00130028,0.00318841,-0.00116632,-0.0473568,4989,4926,0
192348415,192348304,4259850,4325386,0.00374112,-0.000424706,0.000246576,-0.000338009,0.0229674,-0.0453713,4984,4958,0
192847222,192847104,4259850,4325386,-0.000688774,-9.42081e-06,-0.000268463,-0.00789795,-0.0301003,-0.0548152,4954,4926,0
193345891,193345778,4259850,4325386,-0.00163641,-6.06429e-06,0.000555094,-0.00780936,-0.0081604,-0.054067,4988,4926,0
193849934,193849506,4259850,4325386,0.00137065,-0.000472128,-0.000807656,-0.00114704,-0.0068906,-0.0492833,4990,4970,0
194348457,194348318,4259850,4325386,0.00135328,-0.00226251,-0.000680966,-0.00281948,-0.0117069,-0.0460979,4963,4968,0
194847346,194847201,4259850,4325386,0.000936395,0.00054658,-0.00124304,0.00608178,-0.0145111,-0.0402187,4951,4760,0
195351010,195350842,4259850,4325386,-0.0021743,-0.00146632,0.00113913,-0.0115605,0.00864825,-0.0559764,5037,4931,0
195845047,195844901,4259850,4325386,8.11511e-05,-0.000364241,0.000458659,-0.0024367,0.00164263,-0.052722,4986,4927,0
196348747,196348626,4259850,4325386,0.000428046,-0.00113606,0.000822918,0.00333492,-0.00694895,-0.0437347,4987,4654,0
196847638,196847485,4259850,4325386,-0.00204185,0.00161744,-0.000342143,-0.00169857,-2.68894e-05,-0.0465551,4989,4926,0
197346400,197346268,4259850,4325386,0.00163635,-0.000521835,-0.000586267,-0.0012359,-0.0186204,-0.047326,4958,4927,0
197849961,197849825,4259850,4325386,-0.00317063,0.000541569,0.00102292,-0.00489691,0.00906965,-0.0489967,4989,4950,0
198349003,198348564,4259850,4325386,0.00256839,-0.00125455,-0.000427981,0.014681,-0.0109031,-0.0437107,4990,5613,0
198852402,198852288,4259850,4325386,-0.000574919,0.000798203,0.0010492,-0.00469293,0.00146162,-0.0483357,4990,4925,0
199346516,199346308,4259850,4325386,-0.000739478,0.000283413,0.00174076,-0.00990634,0.023074,-0.0446738,5260,4743,0
199849880,199849762,4259850,4325386,0.00267487,-0.00138488,-0.000266371,-0.0122168,-0.0190922,-0.051136,4990,4990,0
200348660,200348501,4259850,4325386,0.00110966,0.000794795,-0.000812051,0.00214661,-0.00411387,-0.0433394,4987,4952,0
200847608,200847490,4259850,4325386,-0.00259791,0.000486844,-0.000464186,-0.00199418,0.0162964,-0.0474812,4996,4925,0
201346111,201345972,4259850,4325386,-0.000147047,-0.000282203,0.000597907,-0.000610344,-0.00977299,-0.0455008,4988,4968,0
201850222,201849699,4259850,4325386,0.00322638,-0.00159679,0.00062135,0.00307898,0.0129557,-0.0445508,4991,4952,0
202348552,202348432,4259850,4325386,-0.00067544,0.000179449,0.000426941,-0.00147238,-0.0105776,-0.0479958,4986,4925,0
202847525,202847310,4259850,4325386,-0.000486336,-0.000426927,-0.000160475,-0.00852662,-0.0199031,-0.0539366,4965,4927,0
203346093,203345907,4259850,4325386,0.000769548,-0.0012902,-0.000734476,-0.0029867,-0.0142044,-0.0532718,4985,5763,0
203849741,203849631,4259850,4325386,-0.00154507,0.00622896,0.00106021,-0.0121901,0.0144675,-0.0524654,4987,4968,0
204349014,204348867,4259850,4325386,-0.00138577,-0.000335036,-6.29554e-05,-0.0130856,-0.0109088,-0.0595271,4988,4925,0
204847770,204847639,4259850,4325386,-0.00102092,-0.000680014,-0.000890408,-0.00720879,-0.0248774,-0.0527484,5023,4915,0
205351653,205351538,4259850,4325386,0.00151577,-5.81449e-05,-0.000883137,-0.000650879,-0.0205225,-0.0507189,5005,4995,0
205850245,205850097,4259850,4325386,-0.00231433,9.46737e-06,0.000491829,-0.00627071,-0.00620601,-0.0510081,4988,4926,0
206349376,206349009,4259850,4325386,0.000515211,2.83079e-05,-0.000166259,-0.00928639,-0.0171518,-0.0581168,5003,5802,0
206847646,206847540,4259850,4325386,0.000677308,0.00138603,0.000178222,0.00905982,0.0106573,-0.0364505,4984,4961,0
207350448,207350316,4259850,4325386,-0.00088554,0.000573678,-7.54315e-05,-0.0155983,0.00685932,-0.0557184,4987,4967,0
207849423,207849291,4259850,4325386,-0.00033949,0.000453784,0.000542169,0.00231086,0.0136416,-0.0427025,4980,4928,0
208347908,208347798,4259850,4325386,0.000404442,0.000191789,-0.000539574,0.00360997,-0.0147837,-0.0392082,4996,4884,0
208851658,208851516,4259850,4325386,-0.00189912,0.00107885,0.00101562,-0.0131328,0.0227672,-0.0565373,4980,4928,0
209350362,209350253,4259850,4325386,-0.000324187,8.29133e-05,-0.00157067,0.00257309,-0.00363867,-0.0447084,4961,4967,0
209849126,209848988,4259850,4325386,0.00162819,-0.00183136,-0.00130288,-0.00258013,-0.00273164,-0.0447922,4986,4927,0
210347860,210347726,4259850,4325386,-0.000883753,0.00106826,0.00072301,-0.000319555,-0.0118481,-0.0533873,4993,4927,0
210846709,210846566,4259850,4325386,0.000611614,-0.00167643,-0.000365077,0.00960093,-0.00909996,-0.0393079,4989,4924,0
211350754,211350640,4259850,4325386,-0.00119987,0.00118511,-0.00109103,-0.00092595,0.00264695,-0.0486091,4990,4928,0
211849741,211849557,4259850,4325386,0.00091623,4.59941e-05,-0.000381402,-0.00671141,-0.0087226,-0.0557006,4960,4958,0
212348402,212348247,4259850,4325386,-0.000906201,-0.000465609,0.000200796,-0.0129571,0.0130743,-0.0620845,4995,4928,0
212851977,212851836,4259850,4325386,0.00068157,-0.000162352,-0.000783618,-0.00413683,-0.0135769,-0.046704,4940,4922,0
213346361,213345589,4259850,4325386,0.00167025,-0.000596619,-0.000702644,0.00890989,-0.0191234,-0.0365277,4975,4971,0
213849549,213849402,4259850,4325386,0.000668493,0.000796461,-0.000155245,-0.00501179,0.000901571,-0.0515421,4973,4941,0
214347465,214347256,4259850,4325386,8.1417e-05,0.000219473,0.000444957,-0.00741456,0.0097061,-0.0517828,4971,4972,0
214850941,214850288,4259850,4325386,0.000414867,0.000145355,0.000332366,-0.00696384,-0.0011753,-0.0516569,4962,4966,0
215349503,215349315,4259850,4325386,0.00140424,5.17432e-06,-0.000705367,0.00343224,-0.00291904,-0.0403645,4984,4984,0
215848443,215848295,4259850,4325386,-0.00091437,0.000668348,0.000341129,-0.00235762,-0.0023608,-0.0487546,4995,4926,0
216347120,216346992,4259850,4325386,-0.00191109,0.00023191,-0.000205056,-0.00414735,-0.00623475,-0.052853,4993,4929,0
216845336,216845225,4259850,4325386,-9.01388e-05,0.000844606,-4.28306e-05,-0.00228597,-0.00757735,-0.0496798,4988,4926,0
217349340,217349179,4259850,4325386,-0.000735827,0.000858646,0.000195282,0.0116033,0.0054734,-0.0422174,4972,4970,0
217847828,217847686,4259850,4325386,-0.00167812,0.00247909,0.000108443,-0.00486587,-0.00241331,-0.0469881,4987,4925,0
218346870,218346426,4259850,4325386,-0.000121897,-0.000178981,-0.000195903,-0.0105529,-0.00148868,-0.0586117,4990,5915,0
218849287,218849089,4259850,4325386,-0.00132773,-9.7884e-07,0.000303705,-0.00401384,0.00323281,-0.0525182,4953,4953,0
219347641,219347437,4259850,4325386,-0.00254969,0.000108726,9.51433e-05,-0.0109367,-0.00850031,-0.0595725,4988,5653,0
219851281,219851162,4259850,4325386,0.000476442,6.45058e-05,-0.000371461,-0.00597887,-0.0184886,-0.0549325,4985,4926,0
220344474,220344364,4259850,4325386,0.000890549,0.000405752,-0.000110651,0.0101293,-0.00240948,-0.0403831,4978,4981,0
220848331,220848216,4259850,4325386,0.000121207,0.000146908,2.1244e-05,0.00228776,-0.00463678,-0.0474535,4959,4925,0
221346984,221346829,4259850,4325386,-0.000593061,-0.000213772,-0.000574378,-6.32329e-05,0.000809392,-0.0464939,4981,4923,0
221850170,221850053,4259850,4325386,-0.00144053,0.000675886,0.00126829,0.00036307,0.0237313,-0.0460911,4987,4924,0
222349546,222348895,4259850,4325386,0.00402537,-0.00270063,-0.000880526,0.00178299,0.000494845,-0.0401905,5017,4905,0
222851735,222851623,4259850,4325386,-0.00208138,0.00115259,-0.000461521,0.00390558,6.01629e-05,-0.0426996,4978,4987,0
223350379,223350262,4259850,4325386,-0.000384374,0.000346741,-0.000700987,-0.012091,-0.0149315,-0.058273,4996,4878,0
223849308,223849091,4259850,4325386,-0.00101037,3.91633e-05,-0.00011205,0.000979563,-0.00870237,-0.0470799,4995,4928,0
224347911,224347729,4259850,4325386,0.00043581,3.37637e-05,-0.000202036,-0.0062071,-0.0110449,-0.0499574,4988,4968,0
224846719,224846539,4259850,4325386,0.0012363,-0.000621211,-0.000819782,-0.00427166,-0.023937,-0.0523112,4975,4931,0
225350336,225350191,4259850,4325386,0.000389582,0.00126205,-0.000631768,-0.000667879,-0.00958546,-0.042052,4976,4973,0
225849036,225848927,4259850,4325386,0.000469254,-2.11747e-05,-0.000716771,-0.00409267,-0.00533318,-0.0475502,4987,4965,0
226352775,226352654,4259850,4325386,0.000168481,-0.000293123,-6.1234e-06,-0.00285181,0.000310188,-0.0461645,4989,4932,0
226851752,226851549,4259850,4325386,0.000512689,-0.000107781,-0.000584161,0.00105004,0.00623918,-0.0433924,4970,4966,0
227345318,227345177,4259850,4325386,-0.00135202,0.00133471,-1.97258e-05,-0.00597887,0.013809,-0.0536577,5024,4909,0
227849207,227849003,4259850,4325386,0.000491308,-0.000502223,0.000735205,0.00463178,-0.00352167,-0.040788,4987,4927,0
228347779,228347603,4259850,4325386,-0.000325111,0.00059284,0.000869729,-0.00348563,0.00870296,-0.0496566,4988,4927,0
228850490,228850360,4259850,4325386,0.000601626,-4.03566e-05,0.000679683,0.0077113,0.0297741,-0.042493,4929,4922,0
229349235,229349102,4259850,4325386,0.00171885,-0.000950028,-0.000494604,0.00732584,-0.00453727,-0.042929,5018,4896,0
229848238,229847804,4259850,4325386,-0.00108231,0.00046274,0.000245214,-0.00794931,0.0218033,-0.0564861,4987,4926,0
230351692,230351529,4259850,4325386,0.0018229,-0.000147152,-0.00114834,-0.00257896,-0.0132419,-0.05193,4988,4969,0
230844996,230844885,4259850,4325386,-0.00585948,0.00300124,0.00111988,-0.0182415,-0.00758622,-0.0579916,4984,4924,0
231348650,231348503,4259850,4325386,-0.000157961,-0.000390876,0.000168571,0.00229532,-0.00342612,-0.0422321,4987,4973,0
231847440,231847307,4259850,4325386,-0.00165974,0.000965146,0.00162878,-0.00321693,0.0152714,-0.0460242,4972,4927,0
232351224,232350966,4259850,4325386,0.00036838,0.000519113,0.000689569,-0.00159614,0.0169061,-0.0434181,4989,4958,0
232849812,232849702,4259850,4325386,-0.00106882,-0.000286493,0.000739472,0.000586907,0.00753797,-0.0464706,4987,5005,0
233348563,233348444,4259850,4325386,-0.000716751,-0.00021704,0.000601466,-0.00336668,-0.00202418,-0.0493617,4991,4928,0
233852476,233852366,4259850,4325386,0.00278761,-0.00106067,-8.50184e-05,-0.00409842,0.0159776,-0.0412414,5022,4915,0
234351547,234351403,4259850,4325386,-0.000258907,0.000671438,0.000216723,-0.00437557,0.0269814,-0.0412922,4979,4776,0
234845296,234845150,4259850,4325386,-0.00102673,0.000384244,-0.000367457,-0.00300053,0.00388453,-0.0486352,4987,4928,0
235348983,235348876,4259850,4325386,-0.00103923,0.00115044,0.0003824,-0.00681125,0.0117067,-0.0601669,4938,4922,0
235847786,235847648,4259850,4325386,0.00178421,-0.00204805,-0.00109872,-0.00289819,-0.0106188,-0.0526129,4975,4772,0
236346780,236346663,4259850,4325386,-0.000679288,0.000447279,-3.90505e-05,-0.00825614,0.00173018,-0.056939,4964,4926,0
236850226,236850073,4259850,4325386,0.00105014,-0.000406579,-0.000654425,0.00910505,-0.00733084,-0.0385449,4983,4987,0
237348923,237348811,4259850,4325386,-0.000463423,-0.00118635,0.0011206,3.1588e-05,-0.00153102,-0.0457598,4988,4926,0
237848428,237847550,4259850,4325386,-0.00122112,0.00232198,0.000712828,-0.00362272,-0.0133665,-0.0505217,4987,4925,0
238345964,238345819,4259850,4325386,0.00200761,-0.000109738,-0.000683804,-0.000924394,-0.011759,-0.0489061,4983,4955,0
238849651,238849515,4259850,4325386,-0.000433105,0.000405526,0.00074125,-7.61678e-05,-0.00525936,-0.0520837,4988,4926,0
239348587,239348455,4259850,4325386,-0.000247425,0.000866,-0.000166141,-0.00337669,-0.000463643,-0.0492013,4974,4970,0
239847098,239846985,4259850,4325386,4.18726e-05,0.000200975,0.00111649,-0.00214425,0.0047668,-0.05082,4986,4923,0
240350888,240350716,4259850,4325386,-0.000273785,-0.000181705,-0.000335092,-0.0055552,0.0101071,-0.0504784,4941,4923,0
240849555,240849448,4259850,4325386,0.00095316,-0.000754753,-0.000119697,0.00938356,-0.00334927,-0.0388128,4988,4972,0
241348631,241348434,4259850,4325386,-0.000238652,0.000237657,-0.000633245,-0.00915233,-0.00950236,-0.0514554,4961,4969,0
241847037,241846923,4259850,4325386,-0.00054571,0.00104517,3.82994e-05,-0.000737284,-0.00483991,-0.04649,4989,4926,0
242346275,242346159,4259850,4325386,0.000244902,-0.000516995,-0.000365938,-0.00869344,-0.0302403,-0.0544133,4987,4975,0
242849994,242849883,4259850,4325386,-0.00122226,0.000273846,0.000219555,-0.00416602,0.0195532,-0.051576,4987,4951,0
243348846,243348732,4259850,4325386,-0.000181106,0.00012108,0.000179158,-0.00286446,0.00570171,-0.0466138,4973,4970,0
243847806,243847694,4259850,4325386,0.00022216,-0.000280992,0.00102302,-0.00766485,0.00314262,-0.053197,4994,4931,0
244346226,244346094,4259850,4325386,0.000392328,-0.000169039,-0.000369966,-0.00301383,-0.0223454,-0.0494953,4987,4927,0
244844946,244844832,4259850,4325386,-0.000829778,0.00025879,-0.000173246,0.0032133,0.00849986,-0.0403068,4985,4925,0
245348678,245348568,4259850,4325386,-0.000473626,0.000601281,0.000476625,0.00153035,0.0135897,-0.0462522,4999,4890,0
245847414,245847293,4259850,4325386,-0.000157371,0.000555693,0.000577449,0.00335812,0.0190937,-0.0437336,4986,4993,0
246350769,246350655,4259850,4325386,0.00132111,-0.000866685,-0.000721947,0.000338882,-9.68736e-05,-0.0422343,5003,4927,0
246849637,246849487,4259850,4325386,-0.00366482,0.00181858,0.00116433,-0.0119688,0.00466113,-0.0582685,4963,4925,0
247348886,247348719,4259850,4325386,-0.000471314,-8.95855e-05,0.000317397,-0.00657114,0.00815734,-0.0533126,4997,5008,0
247847454,247847329,4259850,4325386,0.000231825,-0.000474036,0.000434377,0.00249403,0.016507,-0.0522568,4988,4926,0
248346310,248345971,4259850,4325386,-0.000320068,0.000354128,0.000861094,-0.00246347,0.00273353,-0.0644564,4991,6028,0
248849809,248849695,4259850,4325386,-0.000337774,-1.68849e-05,-0.000303305,-9.48186e-05,-0.0158283,-0.0408843,4991,4923,0
249348875,249348610,4259850,4325386,0.00196511,-0.000954394,-0.000610985,0.00759201,-0.0217704,-0.0385821,4973,4944,0
249846620,249846443,4259850,4325386,0.00052119,-8.43397e-05,0.000254429,0.00123492,0.0118887,-0.0500048,5254,5991,0
250350007,250349893,4259850,4325386,0.00057896,-0.000133386,-0.000675479,0.000263194,-0.0169607,-0.0503059,4983,4974,0
250848766,250848634,4259850,4325386,0.00168884,-0.00123979,-0.0012043,-0.007424,-0.0281727,-0.0522519,4988,4999,0
251347560,251347452,4259850,4325386,0.000539614,0.000453874,-9.126e-05,-0.00315812,0.00657471,-0.051474,4961,4961,0
251846264,251846106,4259850,4325386,0.00138052,-0.000593869,-0.000584272,0.0090847,-0.0111338,-0.0375524,4988,4992,0
252345096,252344904,4259850,4325386,-1.64244e-05,0.000146225,-0.000129452,0.00227003,-0.0173025,-0.0459024,4990,4931,0
252849185,252849066,4259850,4325386,-0.000821863,-0.00017456,0.000429434,-0.00535441,0.0028624,-0.0537256,4988,4928,0
253347919,253347804,4259850,4325386,-0.000579025,-7.85511e-06,0.000700168,-0.00850455,-0.0127716,-0.0529492,4988,4988,0
253851192,253851032,4259850,4325386,0.000711442,-0.000831007,-0.000812188,-0.00848763,-0.0167337,-0.0491347,4991,4962,0
254349935,254349768,4259850,4325386,-0.000987121,0.000379815,0.000964359,0.000403813,-0.00907584,-0.0491996,4972,4927,0
254848628,254848510,4259850,4325386,0.00060572,-0.00042946,-0.000972448,0.00755522,-0.00852148,-0.0445447,4993,4926,0
255352655,255352458,4259850,4325386,-0.00180369,-0.00122575,0.000652773,-0.00779824,0.00323332,-0.0560677,4969,4973,0
255846093,255845978,4259850,4325386,-0.00474233,0.000663862,-0.000426208,-0.00481756,0.00714326,-0.0515657,4988,4928,0
256349913,256349801,4259850,4325386,0.00314581,0.000234845,0.000430289,0.000657534,0.0122202,-0.0512702,4947,4927,0
256848266,256847944,4259850,4325386,0.000182375,-0.000109081,7.40501e-05,-0.00355569,-0.012381,-0.0510822,4988,4915,0
257346678,257346484,4259850,4325386,-0.000828284,0.00018313,0.000721,-0.00901838,0.000133619,-0.0572003,4964,4963,0
257850119,257849952,4259850,4325386,-0.000473962,0.000684521,0.000674449,-0.00347007,0.00301259,-0.0483359,4987,4927,0
258348366,258348184,4259850,4325386,0.000451969,0.000110693,0.000558564,0.000385059,-0.00105599,-0.0535007,4964,5912,0
258847031,258846892,4259850,4325386,0.00212511,-0.000470495,-0.000816451,-0.0073761,-0.0034941,-0.0491779,4999,4892,0
259345798,259345688,4259850,4325386,-0.00164508,0.000161534,0.000407873,-0.00929224,-0.00886869,-0.0535683,4976,4966,0
259849524,259849343,4259850,4325386,-0.000900397,0.000132587,-0.000502237,-0.00454007,-0.0309533,-0.0584962,4988,5933,0
260348432,260348222,4259850,4325386,-2.63593e-05,-0.000895078,0.000999806,0.000139052,0.00110072,-0.044832,4952,4925,0
260846990,260846817,4259850,4325386,0.00119528,0.000186351,-0.000654128,0.00604983,-0.0149126,-0.0473469,4987,5546,0
261351729,261350292,4259850,4325386,0.000979966,0.00246168,-0.000652647,0.000978348,-0.0205376,-0.0499211,4738,4927,0
261849086,261848927,4259850,4325386,0.00184606,-7.24555e-05,-0.00100967,0.00874114,-0.00843063,-0.0444071,5001,4969,0
262347659,262347518,4259850,4325386,-4.29845e-05,-0.000171633,-0.000414171,0.00133224,-0.00909949,-0.0460582,4988,4935,0
262846379,262846262,4259850,4325386,0.00121353,-8.888e-05,-0.000301365,-0.00637217,0.00855975,-0.0548832,4992,4987,0
263350258,263350139,4259850,4325386,-0.00299714,0.000585487,6.71429e-05,-0.00831939,-0.0305064,-0.0575502,4967,4925,0
263848835,263848717,4259850,4325386,0.00211005,0.000177231,0.000988396,-0.00167756,-0.017251,-0.0513347,4988,4927,0
264347635,264347454,4259850,4325386,-0.0003463,1.57018e-05,0.000533013,0.00419502,0.0109311,-0.0422182,4987,4929,0
264851504,264851383,4259850,4325386,0.00123411,-0.000184696,-0.000913952,0.000350366,-0.0195203,-0.042481,5009,5017,0
265350432,265350320,4259850,4325386,0.000893654,-0.000333082,-0.00101007,0.00497902,-0.0010923,-0.0392799,5369,4917,0
265848811,265848667,4259850,4325386,0.00295688,-0.00160649,0.000605049,-0.00741015,0.00110355,-0.0498306,5001,4890,0
266347532,266347394,4259850,4325386,0.000299056,0.000274707,-0.000123733,-0.00530031,-0.00333557,-0.0465441,4988,4925,0
266846294,266846180,4259850,4325386,0.000214197,0.000286623,-0.000292326,0.0016482,-0.00717325,-0.0516071,4959,4926,0
267349995,267349853,4259850,4325386,0.000247993,-9.41552e-05,-0.000162384,-0.00740435,-0.0152102,-0.053212,4987,4926,0
267848726,267848592,4259850,4325386,0.000854368,0.000183089,-0.000815536,0.00268125,-0.013892,-0.0437445,4989,4793,0
268347470,268347353,4259850,4325386,0.00329968,-0.000379721,-0.000866557,0.00545414,0.0020993,-0.0454396,4969,4925,0
268850289,268850093,4259850,4325386,-0.00128848,0.000310608,0.000299021,-0.0126163,0.0130293,-0.0589995,4986,4938,0
269349182,269349069,4259850,4325386,-0.000107742,-0.000149377,-0.000838874,0.0077675,0.00401857,-0.0397634,4997,4973,0
269847773,269847619,4259850,4325386,-0.00185567,-0.000552076,0.000317788,-0.00292939,0.00883742,-0.0471197,4988,4919,0
270346434,270346301,4259850,4325386,-8.01163e-05,-0.000343508,0.000322467,0.0109275,0.0219315,-0.0355523,5020,4908,0
270850180,270850047,4259850,4325386,-4.69407e-05,0.00134663,-0.00057405,-0.00801844,0.00698135,-0.0513788,4969,4692,0
271348904,271348735,4259850,4325386,0.000567805,-0.00049461,-3.3637e-05,0.00440388,-0.00508199,-0.0429674,4991,4988,0
271847578,271847467,4259850,4325386,0.00198358,-2.03133e-05,-8.87741e-05,0.0090895,-0.0015592,-0.0401642,4988,4764,0
272351800,272351120,4259850,4325386,-0.00192607,0.000834396,0.000414698,-0.011955,0.0142767,-0.0540887,4911,4926,0
