timestamp,roll_body,pitch_body,yaw_body,yaw_sp_move_rate,q_d[0],q_d[1],q_d[2],q_d[3],thrust_body[0],thrust_body[1],thrust_body[2],roll_reset_integral,pitch_reset_integral,yaw_reset_integral,fw_control_yaw,apply_flaps
20845495,0.0,-0.0117757,-1.46863,0.0,0.742277,-0.00394531,-0.00437047,-0.670068,0.0,0.0,-0.0,0,0,0,0,0
20850474,0.0,-0.0117757,-1.46899,0.0,0.742158,-0.00394608,-0.00436977,-0.670199,0.0,0.0,-0.0,0,0,0,0,0
20949763,0.0,-0.0117757,-1.46871,0.0,0.74225,-0.00394548,-0.00437032,-0.670097,0.0,0.0,-0.0,0,0,0,0,0
21049090,0.00574508,-0.0117757,-1.4676,0.0,0.742632,-0.0018098,-0.00629616,-0.669668,0.0,0.0,-0.0,0,0,0,0,0
21148394,0.0153202,-0.0117753,-1.46785,0.0,0.742548,0.00174455,-0.00950223,-0.669723,0.0,0.0,-0.0,0,0,0,0,0
21247613,0.0153202,-0.0117753,-1.46622,0.0,0.743093,0.00175229,-0.0095008,-0.669119,0.0,0.0,-0.0,0,0,0,0,0
21347067,0.0153202,-0.0117753,-1.46502,0.0,0.743495,0.001758,-0.00949975,-0.668672,0.0,0.0,-0.0,0,0,0,0,0
21451302,0.0153202,-0.0117753,-1.46285,0.0,0.74422,0.0017683,-0.00949784,-0.667865,0.0,0.0,-0.0,0,0,0,0,0
21545697,0.0153202,-0.0117753,-1.46152,0.0,0.744663,0.0017746,-0.00949666,-0.667371,0.0,0.0,-0.0,0,0,0,0,0
21650004,0.0153202,-0.0117753,-1.45963,0.0,0.745291,0.00178355,-0.00949498,-0.666669,0.0,0.0,-0.0,0,0,0,0,0
21749204,0.0153202,-0.0117753,-1.45772,0.0,0.745931,0.00179266,-0.00949327,-0.665953,0.0,0.0,-0.0,0,0,0,0,0
21848737,0.0153202,-0.0117753,-1.45693,0.0,0.746191,0.00179637,-0.00949257,-0.665662,0.0,0.0,-0.0,0,0,0,0,0
21947864,0.0153202,-0.0117753,-1.45545,0.0,0.746685,0.00180342,-0.00949123,-0.665108,0.0,0.0,-0.0,0,0,0,0,0
22047219,0.0153202,-0.0117753,-1.45372,0.0,0.747261,0.00181164,-0.00948966,-0.664461,0.0,0.0,-0.0,0,0,0,0,0
22146584,0.0153202,-0.0117753,-1.45289,0.0,0.747536,0.00181557,-0.00948891,-0.664151,0.0,0.0,-0.0,0,0,0,0,0
22245826,0.0153202,-0.0117753,-1.45145,0.0,0.748014,0.0018224,-0.0094876,-0.663613,0.0,0.0,-0.0,0,0,0,0,0
22350148,0.0172355,-0.013247,-1.45,0.0,0.748493,0.00205805,-0.010672,-0.663054,0.0,0.0,-0.0,0,0,0,0,0
22449427,0.0172355,-0.013247,-1.4486,0.0,0.748955,0.00206549,-0.0106706,-0.662531,0.0,0.0,-0.0,0,0,0,0,0
22548730,0.0172355,-0.013247,-1.44791,0.0,0.749185,0.0020692,-0.0106698,-0.662271,0.0,0.0,-0.0,0,0,0,0,0
22648245,0.0153204,-0.0132472,-1.44649,0.0,0.749656,0.0013589,-0.0100348,-0.66175,0.0,0.0,-0.0,0,0,0,0,0
22747397,0.0153204,-0.0132472,-1.44528,0.0,0.750059,0.00136501,-0.010034,-0.661294,0.0,0.0,-0.0,0,0,0,0,0
22846782,0.0153204,-0.0132472,-1.44502,0.0,0.750144,0.0013663,-0.0100338,-0.661197,0.0,0.0,-0.0,0,0,0,0,0
22946157,0.0153204,-0.0132472,-1.444,0.0,0.75048,0.0013714,-0.0100331,-0.660816,0.0,0.0,-0.0436964,0,0,0,0,0
23050372,0.0153204,-0.0132472,-1.44294,0.0,0.75083,0.00137672,-0.0100324,-0.660418,0.0,0.0,-0.0799021,0,0,0,0,0
23149622,0.0153204,-0.0132472,-1.44175,0.0,0.751225,0.00138272,-0.0100315,-0.659969,0.0,0.0,-0.253684,0,0,0,0,0
23248933,0.0153204,-0.0132472,-1.44175,0.0,0.751225,0.00138272,-0.0100315,-0.659969,0.0,0.0,-0.286316,0,0,0,0,0
23348260,0.0153204,-0.0132472,-1.44175,0.0,0.751225,0.00138272,-0.0100315,-0.659969,0.0,0.0,-0.285263,0,0,0,0,0
23447664,0.0153204,-0.0132472,-1.44175,0.0,0.751225,0.00138272,-0.0100315,-0.659969,0.0,0.0,-0.285263,0,0,0,0,0
23546934,0.0153204,-0.0132472,-1.44175,0.0,0.751225,0.00138272,-0.0100315,-0.659969,0.0,0.0,-0.285263,0,0,0,0,0
23646139,0.0153204,-0.0132472,-1.44175,0.0,0.751225,0.00138272,-0.0100315,-0.659969,0.0,0.0,-0.282105,0,0,0,0,0
23750615,0.0153204,-0.0132472,-1.44175,0.0,0.751225,0.00138272,-0.0100315,-0.659969,0.0,0.0,-0.304211,0,0,0,0,0
23849879,0.0153204,-0.0132472,-1.44175,0.0,0.751225,0.00138272,-0.0100315,-0.659969,0.0,0.0,-0.313684,0,0,0,0,0
23949122,0.0153204,-0.0132472,-1.44175,0.0,0.751225,0.00138272,-0.0100315,-0.659969,0.0,0.0,-0.336842,0,0,0,0,0
24048539,0.0153204,-0.0132472,-1.44175,0.0,0.751225,0.00138272,-0.0100315,-0.659969,0.0,0.0,-0.358947,0,0,0,0,0
24147751,0.0153204,-0.0132472,-1.44175,0.0,0.751225,0.00138272,-0.0100315,-0.659969,0.0,0.0,-0.387368,0,0,0,0,0
24247194,0.0153204,-0.0132472,-1.44175,0.0,0.751225,0.00138272,-0.0100315,-0.659969,0.0,0.0,-0.411579,0,0,0,0,0
24346592,0.0153204,-0.0132472,-1.44175,0.0,0.751225,0.00138272,-0.0100315,-0.659969,0.0,0.0,-0.413684,0,0,0,0,0
24450738,0.0153204,-0.0132472,-1.44175,0.0,0.751225,0.00138272,-0.0100315,-0.659969,0.0,0.0,-0.412632,0,0,0,0,0
24550042,0.0153204,-0.0132472,-1.44175,0.0,0.751225,0.00138272,-0.0100315,-0.659969,0.0,0.0,-0.412632,0,0,0,0,0
24649263,0.0153204,-0.0132472,-1.44175,0.0,0.751225,0.00138272,-0.0100315,-0.659969,0.0,0.0,-0.413684,0,0,0,0,0
24748703,0.0153204,-0.0132472,-1.44175,0.0,0.751225,0.00138272,-0.0100315,-0.659969,0.0,0.0,-0.414737,0,0,0,0,0
24848053,0.0153204,-0.0132472,-1.44175,0.0,0.751225,0.00138272,-0.0100315,-0.659969,0.0,0.0,-0.422105,0,0,0,0,0
24947283,0.0153204,-0.0132472,-1.44175,0.0,0.751225,0.00138272,-0.0100315,-0.659969,0.0,0.0,-0.48,0,0,0,0,0
25046727,0.0153204,-0.0132472,-1.44175,0.0,0.751225,0.00138272,-0.0100315,-0.659969,0.0,0.0,-0.491579,0,0,0,0,0
25151046,0.0153204,-0.0132472,-1.44175,0.0,0.751225,0.00138272,-0.0100315,-0.659969,0.0,0.0,-0.493684,0,0,0,0,0
25250228,0.0153204,-0.0132472,-1.44175,0.0,0.751225,0.00138272,-0.0100315,-0.659969,0.0,0.0,-0.495789,0,0,0,0,0
25349860,0.0153204,-0.0132472,-1.44175,0.0,0.751225,0.00138272,-0.0100315,-0.659969,0.0,0.0,-0.511799,0,0,0,0,0
25448804,0.0153204,-0.0132472,-1.44175,0.0,0.751225,0.00138272,-0.0100315,-0.659969,0.0,0.0,-0.516597,0,0,0,0,0
25548138,0.0172355,-0.013247,-1.44176,0.0,0.751219,0.00210201,-0.0106634,-0.659964,0.0,0.0,-0.516597,0,0,0,0,0
25647467,0.0191627,-0.0456281,-1.44208,0.0,0.751033,-0.00786434,-0.0234573,-0.659801,0.0,0.0,-0.514198,0,0,0,0,0
25746768,0.0191854,-0.0750656,-1.44236,0.0,0.7507,-0.0175758,-0.0345094,-0.659508,0.0,0.0,-0.512999,0,0,0,0,0
25846097,0.0191977,-0.0868406,-1.44248,0.0,0.750521,-0.0214591,-0.0389286,-0.65935,0.0,0.0,-0.511799,0,0,0,0,0
25950441,0.019201,-0.0897843,-1.44251,0.0,0.750472,-0.0224298,-0.0400332,-0.659307,0.0,0.0,-0.509474,0,0,0,0,0
26049751,0.0172632,-0.0706508,-1.44225,0.0,0.750767,-0.0168385,-0.0322203,-0.659566,0.0,0.0,-0.5106,0,0,0,0,0
26149157,0.0172357,-0.0147189,-1.44177,0.0,0.751215,0.00161627,-0.0112163,-0.65996,0.0,0.0,-0.526193,0,0,0,0,0
26248466,0.0153202,-0.0117753,-1.44173,0.0,0.751228,0.00186846,-0.00947864,-0.659972,0.0,0.0,-0.5,0,0,0,0,0
26347630,0.0153202,-0.0117753,-1.44173,0.0,0.751228,0.00186846,-0.00947864,-0.659972,0.0,0.0,-0.501053,0,0,0,0,0
26446979,0.0153202,-0.0117753,-1.44183,-0.00607423,0.751198,0.00186803,-0.00947872,-0.660006,0.0,0.0,-0.504211,0,0,0,0,0
26546378,0.0153202,-0.0117753,-1.443,-0.0242969,0.75081,0.00186246,-0.00947982,-0.660448,0.0,0.0,-0.507368,0,0,0,0,0
26650579,0.0153202,-0.0117753,-1.44762,-0.0607423,0.749284,0.00184058,-0.00948409,-0.662178,0.0,0.0,-0.509474,0,0,0,0,0
26750017,0.0153202,-0.0117753,-1.45365,-0.0546681,0.747283,0.00181196,-0.0094896,-0.664435,0.0,0.0,-0.509474,0,0,0,0,0
26849293,0.0153202,-0.0117753,-1.45989,-0.078965,0.745205,0.00178233,-0.00949521,-0.666765,0.0,0.0,-0.5106,0,0,0,0,0
26948599,0.0153202,-0.0117753,-1.46865,-0.0971877,0.742279,0.00174073,-0.00950293,-0.670022,0.0,0.0,-0.517797,0,0,0,0,0
27047984,0.0153202,-0.0117753,-1.47941,-0.127559,0.738664,0.00168959,-0.00951215,-0.674005,0.0,0.0,-0.527393,0,0,0,0,0
27147162,0.0153202,-0.0117753,-1.49295,-0.139707,0.734083,0.00162514,-0.00952338,-0.678991,0.0,0.0,-0.53459,0,0,0,0,0
27246584,0.0153202,-0.0117753,-1.50674,-0.133633,0.729385,0.00155946,-0.00953435,-0.684035,0.0,0.0,-0.535789,0,0,0,0,0
27350790,0.0153202,-0.0117753,-1.52067,-0.133633,0.724601,0.00149298,-0.00954499,-0.689101,0.0,0.0,-0.539388,0,0,0,0,0
27450120,0.0153202,-0.0117753,-1.53395,-0.133633,0.720011,0.0014296,-0.00955469,-0.693895,0.0,0.0,-0.539388,0,0,0,0,0
27549522,0.0153202,-0.0117753,-1.5452,-0.0850392,0.716097,0.00137583,-0.00956258,-0.697934,0.0,0.0,-0.546585,0,0,0,0,0
27648668,0.0153202,-0.0117753,-1.55111,-0.0364454,0.71403,0.00134755,-0.0095666,-0.700048,0.0,0.0,-0.547785,0,0,0,0,0
27748171,0.0172355,-0.013247,-1.55346,0.0,0.713208,0.00150349,-0.0107641,-0.700868,0.0,0.0,-0.541787,0,0,0,0,0
27847347,0.0172957,-0.103032,-1.55424,0.0,0.712277,-0.0299501,-0.0427662,-0.699954,0.0,0.0,-0.535789,0,0,0,0,0
27946680,0.0173501,-0.141302,-1.55457,0.0,0.711444,-0.0433394,-0.0563864,-0.699135,0.0,0.0,-0.535789,0,0,0,0,0
28050969,0.0173811,-0.158964,-1.55473,0.0,0.710971,-0.0495135,-0.0626665,-0.698671,0.0,0.0,-0.535789,0,0,0,0,0
28150328,0.0173895,-0.16338,-1.55477,0.0,0.710845,-0.0510565,-0.0642359,-0.698546,0.0,0.0,-0.535789,0,0,0,0,0
28249647,0.0173895,-0.16338,-1.55477,0.0,0.710845,-0.0510565,-0.0642359,-0.698546,0.0,0.0,-0.535789,0,0,0,0,0
28349030,0.0173811,-0.158964,-1.55473,0.0,0.710971,-0.0495135,-0.0626665,-0.698671,0.0,0.0,-0.535789,0,0,0,0,0
28448322,0.0173575,-0.145717,-1.55461,0.0,0.711331,-0.0448833,-0.0579568,-0.699024,0.0,0.0,-0.53339,0,0,0,0,0
28547582,0.0173429,-0.136886,-1.55453,0.0,0.711553,-0.0417953,-0.0548157,-0.699243,0.0,0.0,-0.541787,0,0,0,0,0
28646928,0.0172872,-0.0956729,-1.55417,0.0,0.712407,-0.0273737,-0.0401451,-0.700082,0.0,0.0,-0.553782,0,0,0,0,0
28751222,0.0172442,-0.041213,-1.5537,0.0,0.713072,-0.00829708,-0.0207365,-0.700735,0.0,0.0,-0.557381,0,0,0,0,0
28845778,0.0153204,-0.0132472,-1.55345,0.0,0.713213,0.000820589,-0.0100931,-0.700874,0.0,0.0,-0.548984,0,0,0,0,0
28949815,0.0153202,-0.0117753,-1.55343,0.0,0.713217,0.00133644,-0.00956816,-0.700877,0.0,0.0,-0.548984,0,0,0,0,0
29049169,0.0153202,-0.0117753,-1.55343,0.0,0.713217,0.00133644,-0.00956816,-0.700877,0.0,0.0,-0.547785,0,0,0,0,0
29148506,0.0153202,-0.0117753,-1.55343,0.0,0.713217,0.00133644,-0.00956816,-0.700877,0.0,0.0,-0.548984,0,0,0,0,0
29247744,0.0153202,-0.0117753,-1.55343,0.0,0.713217,0.00133644,-0.00956816,-0.700877,0.0,0.0,-0.548984,0,0,0,0,0
29347042,0.0153202,-0.0117753,-1.55343,0.0,0.713217,0.00133644,-0.00956816,-0.700877,0.0,0.0,-0.548984,0,0,0,0,0
29451412,0.0153202,-0.0117753,-1.55343,0.0,0.713217,0.00133644,-0.00956816,-0.700877,0.0,0.0,-0.548984,0,0,0,0,0
29545714,0.0153202,-0.0117753,-1.55343,0.0,0.713217,0.00133644,-0.00956816,-0.700877,0.0,0.0,-0.548984,0,0,0,0,0
29650202,0.0153204,-0.0132472,-1.55345,0.0,0.713213,0.000820589,-0.0100931,-0.700874,0.0,0.0,-0.548984,0,0,0,0,0
29749347,0.0172355,-0.013247,-1.55346,0.0,0.713208,0.00150349,-0.0107641,-0.700868,0.0,0.0,-0.548984,0,0,0,0,0
29848588,0.0153204,-0.0132472,-1.55345,0.0,0.713213,0.000820589,-0.0100931,-0.700874,0.0,0.0,-0.548984,0,0,0,0,0
29948012,0.0153204,-0.0132472,-1.55345,0.0,0.713213,0.000820589,-0.0100931,-0.700874,0.0,0.0,-0.548984,0,0,0,0,0
30047390,0.0153204,-0.0132472,-1.55345,0.0,0.713213,0.000820589,-0.0100931,-0.700874,0.0,0.0,-0.548984,0,0,0,0,0
30151581,0.0153204,-0.0132472,-1.55345,0.0,0.713213,0.000820589,-0.0100931,-0.700874,0.0,0.0,-0.550184,0,0,0,0,0
30246068,0.0211349,-0.100086,-1.5544,0.0,0.712317,-0.0275542,-0.0430592,-0.699993,0.0,0.0,-0.551383,0,0,0,0,0
30350245,0.0212272,-0.151601,-1.55496,0.0,0.711162,-0.0455767,-0.0613909,-0.698858,0.0,0.0,-0.551383,0,0,0,0,0
30449736,0.0212272,-0.151601,-1.55496,0.0,0.711162,-0.0455767,-0.0613909,-0.698858,0.0,0.0,-0.550184,0,0,0,0,0
30548821,0.0211697,-0.122164,-1.55464,0.0,0.71188,-0.0352815,-0.0509194,-0.699564,0.0,0.0,-0.548984,0,0,0,0,0
30648220,0.0211802,-0.128051,-1.5547,0.0,0.711749,-0.0373413,-0.0530146,-0.699435,0.0,0.0,-0.548984,0,0,0,0,0
30747476,0.0211697,-0.122164,-1.55464,0.0,0.71188,-0.0352815,-0.0509194,-0.699564,0.0,0.0,-0.550184,0,0,0,0,0
30851831,0.0172764,-0.0853697,-1.55408,0.0,0.712574,-0.023766,-0.0364749,-0.700245,0.0,0.0,-0.550184,0,0,0,0,0
30946114,0.017241,-0.0338535,-1.55364,0.0,0.713121,-0.00571814,-0.0181124,-0.700783,0.0,0.0,-0.502105,0,0,0,0,0
31050533,0.0153204,-0.0132472,-1.55345,0.0,0.713213,0.000820589,-0.0100931,-0.700874,0.0,0.0,-0.506316,0,0,0,0,0
31149731,0.0153202,-0.0117753,-1.55343,0.0,0.713217,0.00133644,-0.00956816,-0.700877,0.0,0.0,-0.508421,0,0,0,0,0
31249167,0.0153202,-0.0117753,-1.55343,0.0,0.713217,0.00133644,-0.00956816,-0.700877,0.0,0.0,-0.512999,0,0,0,0,0
31348448,0.0191505,-0.0132469,-1.55347,0.0,0.713202,0.00218638,-0.0114352,-0.700862,0.0,0.0,-0.514198,0,0,0,0,0
31447621,0.0191505,-0.0132469,-1.55347,0.0,0.713202,0.00218638,-0.0114352,-0.700862,0.0,0.0,-0.511799,0,0,0,0,0
31552060,0.0172355,-0.013247,-1.55346,0.0,0.713208,0.00150349,-0.0107641,-0.700868,0.0,0.0,-0.506316,0,0,0,0,0
31646261,0.0191508,-0.0147187,-1.55349,0.0,0.713198,0.00167054,-0.0119601,-0.700859,0.0,0.0,-0.524994,0,0,0,0,0
31750575,0.021137,-0.101558,-1.55442,0.0,0.712291,-0.0280695,-0.0435834,-0.699967,0.0,0.0,-0.501053,0,0,0,0,0
31845060,0.0230915,-0.12069,-1.55474,0.0,0.711904,-0.0340839,-0.0510661,-0.699588,0.0,0.0,-0.506316,0,0,0,0,0
31949286,0.0636166,-0.141214,-1.55785,0.0,0.711115,-0.0269592,-0.072468,-0.698811,0.0,0.0,-0.503158,0,0,0,0,0
32048695,0.0655085,-0.135324,-1.55779,0.0,0.711238,-0.024217,-0.0710449,-0.698933,0.0,0.0,-0.503158,0,0,0,0,0
32147998,0.0713276,-0.141189,-1.55839,0.0,0.711023,-0.0242292,-0.0751465,-0.698722,0.0,0.0,-0.503158,0,0,0,0,0
32252152,0.0790167,-0.138221,-1.55882,0.0,0.710995,-0.0204695,-0.0767783,-0.698694,0.0,0.0,-0.504211,0,0,0,0,0
32346786,0.0732251,-0.136771,-1.55836,0.0,0.711108,-0.0220019,-0.0742467,-0.698805,0.0,0.0,-0.504211,0,0,0,0,0
32450819,0.0172905,-0.0986167,-1.5542,0.0,0.712357,-0.0284043,-0.0411936,-0.700032,0.0,0.0,-0.504211,0,0,0,0,0
32545190,0.0153202,-0.0117753,-1.55343,0.0,0.713217,0.00133644,-0.00956816,-0.700877,0.0,0.0,-0.566977,0,0,0,0,0
32649567,0.0153202,-0.0117753,-1.55343,0.0,0.713217,0.00133644,-0.00956816,-0.700877,0.0,0.0,-0.58257,0,0,0,0,0
32748682,0.0153204,-0.0132472,-1.55345,0.0,0.713213,0.000820589,-0.0100931,-0.700874,0.0,0.0,-0.587368,0,0,0,0,0
32848144,0.0153204,-0.0132472,-1.55345,0.0,0.713213,0.000820589,-0.0100931,-0.700874,0.0,0.0,-0.586169,0,0,0,0,0
32952455,0.0210662,-0.0161904,-1.55352,0.0,0.713187,0.00183758,-0.013156,-0.700848,0.0,0.0,-0.581371,0,0,0,0,0
33046735,0.0230045,-0.0574016,-1.55401,0.0,0.712909,-0.0119216,-0.0285213,-0.700575,0.0,0.0,-0.58257,0,0,0,0,0
33151181,0.0230633,-0.1045,-1.51705,0.0,0.725227,-0.0275629,-0.0458271,-0.68643,0.0,0.0,-0.58377,0,0,0,0,0
33245329,0.0250867,-0.151597,-1.51775,0.0,0.724124,-0.0430279,-0.0635492,-0.685386,0.0,0.0,-0.58377,0,0,0,0,0
33349597,0.0231822,-0.161902,-1.51772,0.0,0.72384,-0.0472544,-0.0666209,-0.685116,0.0,0.0,-0.584969,0,0,0,0,0
33449042,0.0212336,-0.154545,-1.51749,0.0,0.724059,-0.0454268,-0.0633002,-0.685324,0.0,0.0,-0.586169,0,0,0,0,0
33548419,0.0172488,-0.0500443,-1.51627,0.0,0.726012,-0.0109417,-0.0240944,-0.687173,0.0,0.0,-0.586169,0,0,0,0,0
33647538,0.0153204,-0.0132472,-1.51594,0.0,0.726229,0.00100969,-0.0100759,-0.687378,0.0,0.0,-0.586169,0,0,0,0,0
33747044,0.0153202,-0.0117753,-1.51593,0.0,0.726233,0.00151561,-0.00954142,-0.687381,0.0,0.0,-0.541787,0,0,0,0,0
33851187,0.0191508,-0.0147187,-1.51598,0.0,0.726214,0.00189449,-0.0119267,-0.687363,0.0,0.0,-0.53459,0,0,0,0,0
33945729,0.0191505,-0.0132469,-1.51597,0.0,0.726217,0.00240041,-0.0113922,-0.687367,0.0,0.0,-0.53339,0,0,0,0,0
34049851,0.0191505,-0.0132469,-1.51597,0.0,0.726217,0.00240041,-0.0113922,-0.687367,0.0,0.0,-0.511799,0,0,0,0,0
34149133,0.0191511,-0.0161906,-1.516,0.0,0.726209,0.00138858,-0.0124612,-0.687359,0.0,0.0,-0.502105,0,0,0,0,0
34248554,0.0191511,-0.0161906,-1.516,0.0,0.726209,0.00138858,-0.0124612,-0.687359,0.0,0.0,-0.501053,0,0,0,0,0
34347858,0.0191505,-0.0132469,-1.51597,0.0,0.726217,0.00240041,-0.0113922,-0.687367,0.0,0.0,-0.501053,0,0,0,0,0
34447037,0.0210938,-0.0647616,-1.51653,0.0,0.725845,-0.0146087,-0.0307528,-0.687015,0.0,0.0,-0.507368,0,0,0,0,0
34551426,0.0192452,-0.122166,-1.51702,0.0,0.724879,-0.0350156,-0.0509144,-0.6861,0.0,0.0,-0.508421,0,0,0,0,0
34645670,0.0192833,-0.144244,-1.51724,0.0,0.724345,-0.0425892,-0.0589126,-0.685595,0.0,0.0,-0.508421,0,0,0,0,0
34750206,0.0193279,-0.166322,-1.51745,0.0,0.723723,-0.050157,-0.0669042,-0.685006,0.0,0.0,-0.508421,0,0,0,0,0
34849326,0.0212643,-0.167791,-1.51763,0.0,0.723671,-0.0499666,-0.0680939,-0.684957,0.0,0.0,-0.508421,0,0,0,0,0
34948606,0.0193154,-0.160434,-1.5174,0.0,0.723898,-0.0481395,-0.0647738,-0.685171,0.0,0.0,-0.508421,0,0,0,0,0
35048018,0.0192917,-0.148659,-1.51728,0.0,0.724228,-0.0441032,-0.0605115,-0.685484,0.0,0.0,-0.508421,0,0,0,0,0
35147252,0.0192946,-0.150131,-1.51729,0.0,0.724188,-0.0446079,-0.0610444,-0.685446,0.0,0.0,-0.508421,0,0,0,0,0
35251618,0.0192917,-0.148659,-1.51728,0.0,0.724228,-0.0441032,-0.0605115,-0.685484,0.0,0.0,-0.508421,0,0,0,0,0
35346032,0.0192861,-0.145715,-1.51725,0.0,0.724306,-0.0430939,-0.0594456,-0.685558,0.0,0.0,-0.508421,0,0,0,0,0
35450261,0.0192833,-0.144244,-1.51724,0.0,0.724345,-0.0425892,-0.0589126,-0.685595,0.0,0.0,-0.508421,0,0,0,0,0
35544759,0.0212178,-0.147185,-1.51741,0.0,0.72426,-0.0429037,-0.060636,-0.685514,0.0,0.0,-0.508421,0,0,0,0,0
35648829,0.0212209,-0.148657,-1.51742,0.0,0.724221,-0.0434084,-0.0611689,-0.685477,0.0,0.0,-0.508421,0,0,0,0,0
35748200,0.0212178,-0.147185,-1.51741,0.0,0.72426,-0.0429037,-0.060636,-0.685514,0.0,0.0,-0.508421,0,0,0,0,0
35847548,0.0212027,-0.139826,-1.51733,0.0,0.724452,-0.04038,-0.0579709,-0.685696,0.0,0.0,-0.508421,0,0,0,0,0
35951886,0.0211308,-0.0971424,-1.51687,0.0,0.72537,-0.0257312,-0.0425007,-0.686564,0.0,0.0,-0.545386,0,0,0,0,0
36046127,0.0211288,-0.0956706,-1.51685,0.0,0.725395,-0.0252258,-0.0419669,-0.686589,0.0,0.0,-0.551383,0,0,0,0,0
36150566,0.0211249,-0.0927269,-1.51682,0.0,0.725446,-0.0242149,-0.0408992,-0.686636,0.0,0.0,-0.552583,0,0,0,0,0
36244811,0.0249931,-0.108914,-1.51721,0.0,0.725133,-0.0283837,-0.0480857,-0.686341,0.0,0.0,-0.552583,0,0,0,0,0
36349101,0.0346674,-0.130979,-1.51866,0.0,0.724415,-0.0325017,-0.0593651,-0.686034,0.0,0.0,-0.551383,0,0,0,0,0
36448431,0.0365529,-0.117731,-1.51854,0.0,0.724701,-0.0272595,-0.0552245,-0.686305,0.0,0.0,-0.551383,0,0,0,0,0
36547662,0.0596251,-0.114745,-1.51981,0.0,0.724564,-0.0179098,-0.0620479,-0.686175,0.0,0.0,-0.553782,0,0,0,0,0
36647148,0.101939,-0.114615,-1.52412,-0.0425196,0.723306,-0.00269706,-0.0764978,-0.686272,0.0,0.0,-0.574174,0,0,0,0,0
36746392,0.0172669,-0.0750665,-1.52249,-0.0121485,0.723664,-0.0196384,-0.0331171,-0.689078,0.0,0.0,-0.574174,0,0,0,0,0
36850542,0.0172365,-0.0191346,-1.52234,0.0,0.724026,-0.000359363,-0.0128709,-0.689652,0.0,0.0,-0.572974,0,0,0,0,0
36945068,0.0153202,-0.0117753,-1.52227,0.0,0.724052,0.00148538,-0.00954617,-0.689677,0.0,0.0,-0.572974,0,0,0,0,0
37049186,0.0153202,-0.0117753,-1.52227,0.0,0.724052,0.00148538,-0.00954617,-0.689677,0.0,0.0,-0.572974,0,0,0,0,0
37148607,0.0153204,-0.0132472,-1.52228,0.0,0.724049,0.000977777,-0.0100791,-0.689674,0.0,0.0,-0.570575,0,0,0,0,0
37247941,0.0191505,-0.0132469,-1.5223,0.0,0.724037,0.00236432,-0.0113997,-0.689663,0.0,0.0,-0.571775,0,0,0,0,0
37347205,0.0210731,-0.0353245,-1.52255,0.0,0.723933,-0.00455623,-0.0200527,-0.689564,0.0,0.0,-0.540587,0,0,0,0,0
37446742,0.0229905,-0.0382677,-1.52262,0.0,0.723906,-0.00487808,-0.0217785,-0.689538,0.0,0.0,-0.538188,0,0,0,0,0
37550785,0.0344779,-0.0279618,-1.52266,0.0,0.723908,0.00283432,-0.0220103,-0.68954,0.0,0.0,-0.538188,0,0,0,0,0
37645204,0.111134,-0.0425992,-1.52455,0.0,0.722805,0.025475,-0.0537246,-0.688489,0.0,0.0,-0.551383,0,0,0,0,0
37749586,0.116877,-0.0411213,-1.52458,0.0,0.722698,0.0280595,-0.0551692,-0.688387,0.0,0.0,-0.551383,0,0,0,0,0
37848865,0.0919385,-0.0264581,-1.52339,0.0,0.723258,0.0241317,-0.0412747,-0.688921,0.0,0.0,-0.551383,0,0,0,0,0
37948139,0.0172355,-0.013247,-1.52229,0.0,0.724043,0.00167105,-0.0107394,-0.689669,0.0,0.0,-0.551383,0,0,0,0,0
38047410,0.0153204,-0.0132472,-1.52228,0.0,0.724049,0.000977777,-0.0100791,-0.689674,0.0,0.0,-0.552583,0,0,0,0,0
38146750,0.0210655,-0.0132467,-1.52232,0.0,0.72403,0.00305758,-0.0120601,-0.689656,0.0,0.0,-0.53339,0,0,0,0,0
38251115,0.0249275,-0.0632879,-1.52297,0.0,0.723667,-0.0128122,-0.0314941,-0.689311,0.0,0.0,-0.5,0,0,0,0,0
38345505,0.0191561,-0.0323812,-1.52249,0.0,0.723958,-0.00423436,-0.0183268,-0.689588,0.0,0.0,-0.502105,0,0,0,0,0
38449632,0.0153204,-0.0132472,-1.52228,0.0,0.724049,0.000977777,-0.0100791,-0.689674,0.0,0.0,-0.503158,0,0,0,0,0
38548996,0.0153202,-0.0117753,-1.52227,0.0,0.724052,0.00148538,-0.00954617,-0.689677,0.0,0.0,-0.503158,0,0,0,0,0
38648362,0.0191503,-0.011775,-1.52229,0.0,0.72404,0.00287193,-0.0108668,-0.689666,0.0,0.0,-0.5,0,0,0,0,0
38747596,0.0651758,-0.0558951,-1.524,0.0,0.723419,0.00428122,-0.0426904,-0.689074,0.0,0.0,-0.501053,0,0,0,0,0
38847022,0.105482,-0.067585,-1.52575,0.0,0.722668,0.0147711,-0.060795,-0.688358,0.0,0.0,-0.501053,0,0,0,0,0
38951140,0.0786125,-0.0617589,-1.52461,0.0,0.723182,0.00710214,-0.0494372,-0.688849,0.0,0.0,-0.501053,0,0,0,0,0
39045660,0.0172355,-0.013247,-1.52229,0.0,0.724043,0.00167105,-0.0107394,-0.689669,0.0,0.0,-0.527393,0,0,0,0,0
39149952,0.0153202,-0.0117753,-1.52263,-0.0242969,0.723927,0.00148366,-0.00954644,-0.689808,0.0,0.0,-0.551383,0,0,0,0,0
39249187,0.0153202,-0.0117753,-1.52405,0.0,0.723438,0.00147689,-0.00954749,-0.690321,0.0,0.0,-0.566977,0,0,0,0,0
39348622,0.0153202,-0.0117753,-1.52405,0.0,0.723438,0.00147689,-0.00954749,-0.690321,0.0,0.0,-0.566977,0,0,0,0,0
39447739,0.0191505,-0.0132469,-1.52432,0.0,0.72334,0.0023528,-0.0114021,-0.690394,0.0,0.0,-0.551383,0,0,0,0,0
39547242,0.0210655,-0.0132467,-1.52434,0.0,0.723333,0.0030454,-0.0120631,-0.690387,0.0,0.0,-0.557381,0,0,0,0,0
39651531,0.0440971,-0.060331,-1.52553,0.0,0.722884,-0.00490279,-0.0370246,-0.689959,0.0,0.0,-0.55858,0,0,0,0,0
39745737,0.0575649,-0.0779711,-1.52644,0.0,0.72254,-0.00615099,-0.0480308,-0.689631,0.0,0.0,-0.55978,0,0,0,0,0
39850073,0.0576029,-0.0897403,-1.52678,0.0,0.722362,-0.0102138,-0.052284,-0.68946,0.0,0.0,-0.55978,0,0,0,0,0
39949497,0.0326227,-0.079472,-1.52549,0.0,0.722722,-0.0156608,-0.0399757,-0.689804,0.0,0.0,-0.55978,0,0,0,0,0
40048743,0.0210863,-0.0559305,-1.52479,0.0,0.723066,-0.0116892,-0.027499,-0.690133,0.0,0.0,-0.55978,0,0,0,0,0
40148184,0.0210875,-0.0574024,-1.5248,0.0,0.723051,-0.0121972,-0.0280311,-0.690118,0.0,0.0,-0.55978,0,0,0,0,0
40247356,0.021083,-0.0515149,-1.52474,0.0,0.723109,-0.0101652,-0.0259025,-0.690174,0.0,0.0,-0.55978,0,0,0,0,0
40346568,0.0191602,-0.0412125,-1.52459,0.0,0.723202,-0.00730141,-0.0215161,-0.690263,0.0,0.0,-0.55978,0,0,0,0,0
40446048,0.0153202,-0.0117753,-1.52429,0.0,0.723355,0.00147574,-0.00954767,-0.690409,0.0,0.0,-0.55978,0,0,0,0,0
40550224,0.0153202,-0.0117753,-1.52429,0.0,0.723355,0.00147574,-0.00954767,-0.690409,0.0,0.0,-0.55978,0,0,0,0,0
40649645,0.0153202,-0.0117753,-1.52429,0.0,0.723355,0.00147574,-0.00954767,-0.690409,0.0,0.0,-0.55978,0,0,0,0,0
40748958,0.0210899,-0.0603461,-1.52483,0.0,0.723019,-0.0132131,-0.0290953,-0.690088,0.0,0.0,-0.55978,0,0,0,0,0
40848263,0.0231146,-0.132465,-1.52573,0.0,0.721755,-0.0373941,-0.055807,-0.688881,0.0,0.0,-0.55978,0,0,0,0,0
40947704,0.0231675,-0.156014,-1.52601,0.0,0.721141,-0.0455055,-0.0643008,-0.688295,0.0,0.0,-0.55978,0,0,0,0,0
41046870,0.023164,-0.154543,-1.52599,0.0,0.721182,-0.0449987,-0.0637701,-0.688335,0.0,0.0,-0.55978,0,0,0,0,0
41146121,0.0211856,-0.130995,-1.52559,0.0,0.721797,-0.0375791,-0.0546155,-0.688922,0.0,0.0,-0.55978,0,0,0,0,0
41250536,0.0211598,-0.116277,-1.52543,0.0,0.722126,-0.0325063,-0.0493028,-0.689236,0.0,0.0,-0.55978,0,0,0,0,0
41349843,0.0211526,-0.111861,-1.52538,0.0,0.722217,-0.030984,-0.0477086,-0.689323,0.0,0.0,-0.55978,0,0,0,0,0
41449128,0.0211413,-0.104502,-1.5253,0.0,0.722361,-0.0284465,-0.045051,-0.68946,0.0,0.0,-0.55978,0,0,0,0,0
41548507,0.0211392,-0.10303,-1.52529,0.0,0.722389,-0.0279389,-0.0445194,-0.689487,0.0,0.0,-0.55978,0,0,0,0,0
41647651,0.0172554,-0.0603475,-1.52472,0.0,0.723033,-0.0145982,-0.0277736,-0.690101,0.0,0.0,-0.55978,0,0,0,0,0
41747204,0.0153202,-0.0117753,-1.52429,0.0,0.723355,0.00147574,-0.00954767,-0.690409,0.0,0.0,-0.55978,0,0,0,0,0
41846321,0.0153202,-0.0117753,-1.52429,0.0,0.723355,0.00147574,-0.00954767,-0.690409,0.0,0.0,-0.55978,0,0,0,0,0
41950621,0.0210682,-0.0235497,-1.52444,0.0,0.723299,-0.000511567,-0.0157896,-0.690355,0.0,0.0,-0.55978,0,0,0,0,0
42049947,0.126808,-0.0998262,-1.53054,0.0,0.72104,0.0111467,-0.0797478,-0.688199,0.0,0.0,-0.554982,0,0,0,0,0
42149248,0.153801,-0.108498,-1.53256,0.0,0.720196,0.0177803,-0.092148,-0.687394,0.0,0.0,-0.553782,0,0,0,0,0
42248538,0.105519,-0.0749312,-1.52816,0.0,0.721877,0.01217,-0.0634674,-0.688998,0.0,0.0,-0.554982,0,0,0,0,0
42347943,0.0153202,-0.0117753,-1.52429,0.0,0.723355,0.00147574,-0.00954767,-0.690409,0.0,0.0,-0.554982,0,0,0,0,0
42447273,0.0153202,-0.0117753,-1.52429,0.0,0.723355,0.00147574,-0.00954767,-0.690409,0.0,0.0,-0.562179,0,0,0,0,0
42546647,0.0153202,-0.0117753,-1.52429,0.0,0.723355,0.00147574,-0.00954767,-0.690409,0.0,0.0,-0.551383,0,0,0,0,0
42650889,0.0191505,-0.0132469,-1.52432,0.0,0.72334,0.0023528,-0.0114021,-0.690394,0.0,0.0,-0.521395,0,0,0,0,0
42750079,0.0191505,-0.0132469,-1.52432,0.0,0.72334,0.0023528,-0.0114021,-0.690394,0.0,0.0,-0.521395,0,0,0,0,0
42849561,0.0191505,-0.0132469,-1.52432,0.0,0.72334,0.0023528,-0.0114021,-0.690394,0.0,0.0,-0.524994,0,0,0,0,0
42948741,0.0210655,-0.0132467,-1.52434,0.0,0.723333,0.0030454,-0.0120631,-0.690387,0.0,0.0,-0.523794,0,0,0,0,0
43048112,0.0306551,-0.0397368,-1.52481,0.0,0.723161,-0.00263787,-0.0249494,-0.690223,0.0,0.0,-0.526193,0,0,0,0,0
43147534,0.0555743,-0.0470786,-1.52551,0.0,0.722909,0.00382434,-0.0362,-0.689983,0.0,0.0,-0.526193,0,0,0,0,0
43246690,0.0978244,-0.0705418,-1.52765,0.0,0.722075,0.0109258,-0.0592342,-0.689187,0.0,0.0,-0.524994,0,0,0,0,0
43346125,0.0747824,-0.0632356,-1.52656,0.0,0.722522,0.00515967,-0.0486558,-0.689614,0.0,0.0,-0.528592,0,0,0,0,0
43450399,0.0172355,-0.013247,-1.52431,0.0,0.723346,0.0016602,-0.0107411,-0.6904,0.0,0.0,-0.530991,0,0,0,0,0
43549695,0.0153202,-0.0117753,-1.52429,0.0,0.723355,0.00147574,-0.00954767,-0.690409,0.0,0.0,-0.530991,0,0,0,0,0
43649120,0.0153202,-0.0117753,-1.52429,0.0,0.723355,0.00147574,-0.00954767,-0.690409,0.0,0.0,-0.502105,0,0,0,0,0
43748279,0.0153202,-0.0117753,-1.52429,0.0,0.723355,0.00147574,-0.00954767,-0.690409,0.0,0.0,-0.503158,0,0,0,0,0
43847622,0.0229932,-0.0426832,-1.52469,0.0,0.723176,-0.00642432,-0.0233703,-0.690238,0.0,0.0,-0.506316,0,0,0,0,0
43946932,0.0729636,-0.0897103,-1.52747,0.0,0.722181,-0.00467503,-0.0575653,-0.689288,0.0,0.0,-0.504211,0,0,0,0,0
44046387,0.0748837,-0.0897061,-1.52756,0.0,0.722156,-0.00398275,-0.0582253,-0.689264,0.0,0.0,-0.504211,0,0,0,0,0
44150553,0.0613718,-0.0676679,-1.52627,0.0,0.722635,-0.00121067,-0.045629,-0.689721,0.0,0.0,-0.504211,0,0,0,0,0
44249942,0.0633118,-0.0750201,-1.52657,0.0,0.722518,-0.00305799,-0.0489483,-0.68961,0.0,0.0,-0.504211,0,0,0,0,0
44349161,0.0518006,-0.0750367,-1.52614,0.0,0.722638,-0.00721246,-0.0449859,-0.689724,0.0,0.0,-0.504211,0,0,0,0,0
44448690,0.0210938,-0.0647616,-1.52488,0.0,0.722969,-0.014737,-0.0306916,-0.690041,0.0,0.0,-0.507368,0,0,0,0,0
44547797,0.0191602,-0.0412125,-1.52459,0.0,0.723202,-0.00730141,-0.0215161,-0.690263,0.0,0.0,-0.536989,0,0,0,0,0
44647156,0.0153202,-0.0117753,-1.52429,0.0,0.723355,0.00147574,-0.00954767,-0.690409,0.0,0.0,-0.560979,0,0,0,0,0
44746479,0.0153202,-0.0117753,-1.52429,0.0,0.723355,0.00147574,-0.00954767,-0.690409,0.0,0.0,-0.55978,0,0,0,0,0
44845844,0.0210746,-0.0382682,-1.5246,0.0,0.723216,-0.00559267,-0.0211126,-0.690276,0.0,0.0,-0.554982,0,0,0,0,0
44950071,0.0288413,-0.110382,-1.52579,0.0,0.722213,-0.027707,-0.0498192,-0.689318,0.0,0.0,-0.554982,0,0,0,0,0
45049518,0.0462172,-0.129487,-1.52719,0.0,0.721681,-0.0280723,-0.0626678,-0.688811,0.0,0.0,-0.554982,0,0,0,0,0
45148635,0.0404298,-0.126555,-1.52676,0.0,0.721794,-0.0291346,-0.0596252,-0.688919,0.0,0.0,-0.554982,0,0,0,0,0
45248176,0.0520648,-0.144188,-1.52796,0.0,0.721267,-0.0310677,-0.0699559,-0.688415,0.0,0.0,-0.556181,0,0,0,0,0
45347525,0.0713079,-0.138248,-1.52914,0.0,0.721205,-0.022117,-0.0744305,-0.688356,0.0,0.0,-0.556181,0,0,0,0,0
45446592,0.0713376,-0.14266,-1.5293,0.0,0.721093,-0.0236387,-0.0760222,-0.688249,0.0,0.0,-0.556181,0,0,0,0,0
45550989,0.0694395,-0.147079,-1.52931,0.0,0.721001,-0.0258523,-0.0769541,-0.688162,0.0,0.0,-0.556181,0,0,0,0,0
45650248,0.0655536,-0.142679,-1.52888,0.0,0.721163,-0.0257152,-0.0740435,-0.688317,0.0,0.0,-0.556181,0,0,0,0,0
45749606,0.0829908,-0.15291,-1.53056,0.0,0.720658,-0.023036,-0.0836905,-0.687835,0.0,0.0,-0.556181,0,0,0,0,0
45848986,0.0829536,-0.148499,-1.53037,0.0,0.720779,-0.0215147,-0.0820999,-0.68795,0.0,0.0,-0.556181,0,0,0,0,0
45948166,0.0655262,-0.138266,-1.52874,0.0,0.721275,-0.0241936,-0.0724517,-0.688424,0.0,0.0,-0.556181,0,0,0,0,0
46047606,0.0616718,-0.138277,-1.52847,0.0,0.721319,-0.025578,-0.0711322,-0.688465,0.0,0.0,-0.556181,0,0,0,0,0
46146845,0.0635733,-0.133859,-1.52846,0.0,0.721406,-0.0233639,-0.0701998,-0.688549,0.0,0.0,-0.556181,0,0,0,0,0
46251155,0.0732761,-0.144124,-1.52949,0.0,0.72103,-0.0234537,-0.0772122,-0.688189,0.0,0.0,-0.556181,0,0,0,0,0
46345536,0.0752044,-0.144117,-1.52963,0.0,0.721004,-0.0227616,-0.0778716,-0.688165,0.0,0.0,-0.556181,0,0,0,0,0
46449886,0.0771109,-0.141169,-1.52965,0.0,0.721054,-0.021055,-0.0774701,-0.688212,0.0,0.0,-0.556181,0,0,0,0,0
46549078,0.0847868,-0.13673,-1.53001,0.0,0.721054,-0.0167647,-0.0785161,-0.688212,0.0,0.0,-0.556181,0,0,0,0,0
46648546,0.0655173,-0.136795,-1.52869,0.0,0.721312,-0.0236863,-0.071921,-0.688459,0.0,0.0,-0.556181,0,0,0,0,0
46747792,0.0693256,-0.12943,-1.52869,0.0,0.721443,-0.0197652,-0.0705867,-0.688583,0.0,0.0,-0.556181,0,0,0,0,0
46847117,0.0751123,-0.130882,-1.52912,0.0,0.721334,-0.018196,-0.0730964,-0.688479,0.0,0.0,-0.556181,0,0,0,0,0
46951400,0.0732055,-0.13383,-1.5291,0.0,0.721289,-0.0199029,-0.0734982,-0.688436,0.0,0.0,-0.556181,0,0,0,0,0
47045656,0.0692742,-0.120605,-1.52838,0.0,0.721642,-0.0167206,-0.0674013,-0.688774,0.0,0.0,-0.556181,0,0,0,0,0
47150020,0.0653664,-0.108848,-1.52776,0.0,0.721933,-0.0140447,-0.0618328,-0.689051,0.0,0.0,-0.556181,0,0,0,0,0
47249319,0.0634507,-0.110324,-1.5277,0.0,0.721926,-0.0152446,-0.061704,-0.689045,0.0,0.0,-0.556181,0,0,0,0,0
47348663,0.0537627,-0.0897467,-1.52661,0.0,0.7224,-0.0115986,-0.0509634,-0.689497,0.0,0.0,-0.556181,0,0,0,0,0
47448021,0.053758,-0.0882754,-1.52657,0.0,0.722424,-0.0110908,-0.0504318,-0.68952,0.0,0.0,-0.556181,0,0,0,0,0
47547191,0.0460416,-0.0735723,-1.52589,0.0,0.722708,-0.00878192,-0.0424726,-0.689791,0.0,0.0,-0.556181,0,0,0,0,0
47651639,0.0172357,-0.0147189,-1.52432,0.0,0.723342,0.00115206,-0.0112735,-0.690397,0.0,0.0,-0.556181,0,0,0,0,0
47745940,0.0153202,-0.0117753,-1.52429,0.0,0.723355,0.00147574,-0.00954767,-0.690409,0.0,0.0,-0.550184,0,0,0,0,0
47850143,0.0191505,-0.0132469,-1.52432,0.0,0.72334,0.0023528,-0.0114021,-0.690394,0.0,0.0,-0.506316,0,0,0,0,0
47949670,0.0210692,-0.0264934,-1.52448,0.0,0.723285,-0.00152782,-0.0168543,-0.690342,0.0,0.0,-0.504211,0,0,0,0,0
48048811,0.0210724,-0.0338527,-1.52455,0.0,0.723245,-0.00406838,-0.0195158,-0.690304,0.0,0.0,-0.501053,0,0,0,0,0
48148174,0.0210658,-0.0147186,-1.52435,0.0,0.723329,0.00253726,-0.0125955,-0.690384,0.0,0.0,-0.503158,0,0,0,0,0
48247542,0.0210669,-0.0191341,-1.5244,0.0,0.723316,0.00101283,-0.0141926,-0.690371,0.0,0.0,-0.503158,0,0,0,0,0
48351776,0.0210738,-0.0367964,-1.52458,0.0,0.723226,-0.00508458,-0.0205803,-0.690286,0.0,0.0,-0.524994,0,0,0,0,0
48446056,0.0210738,-0.0367964,-1.52458,0.0,0.723226,-0.00508458,-0.0205803,-0.690286,0.0,0.0,-0.524994,0,0,0,0,0
48550375,0.0191567,-0.0338531,-1.52452,0.0,0.723252,-0.00476097,-0.0188548,-0.69031,0.0,0.0,-0.523794,0,0,0,0,0
48649827,0.0191521,-0.0206062,-1.52439,0.0,0.723317,-0.000187898,-0.0140639,-0.690373,0.0,0.0,-0.522595,0,0,0,0,0
48749257,0.0210698,-0.0279653,-1.52449,0.0,0.723278,-0.00203594,-0.0173866,-0.690335,0.0,0.0,-0.521395,0,0,0,0,0
48848363,0.0191517,-0.0191344,-1.52438,0.0,0.723323,0.000320237,-0.0135316,-0.690378,0.0,0.0,-0.523794,0,0,0,0,0
48947748,0.0153204,-0.0132472,-1.5243,0.0,0.723352,0.000967593,-0.01008,-0.690405,0.0,0.0,-0.526193,0,0,0,0,0
49051980,0.0172355,-0.013247,-1.52431,0.0,0.723346,0.0016602,-0.0107411,-0.6904,0.0,0.0,-0.526193,0,0,0,0,0
49146370,0.0191505,-0.0132469,-1.52432,0.0,0.72334,0.0023528,-0.0114021,-0.690394,0.0,0.0,-0.521395,0,0,0,0,0
49250500,0.0191508,-0.0147187,-1.52434,0.0,0.723336,0.00184466,-0.0119345,-0.69039,0.0,0.0,-0.524994,0,0,0,0,0
49349984,0.0191517,-0.0191344,-1.52438,0.0,0.723323,0.000320237,-0.0135316,-0.690378,0.0,0.0,-0.517797,0,0,0,0,0
49449176,0.0191517,-0.0191344,-1.52438,0.0,0.723323,0.000320237,-0.0135316,-0.690378,0.0,0.0,-0.517797,0,0,0,0,0
49548652,0.0191521,-0.0206062,-1.52488,0.0,0.72315,-0.0001913,-0.0140639,-0.690548,0.0,0.0,-0.514198,0,0,0,0,0
49647814,0.0191505,-0.0132469,-1.52481,0.0,0.723173,0.00235004,-0.0114027,-0.690569,0.0,0.0,-0.520196,0,0,0,0,0
49752065,0.0191539,-0.0264937,-1.52493,0.0,0.723125,-0.00222433,-0.0161927,-0.690524,0.0,0.0,-0.517797,0,0,0,0,0
49846471,0.0210698,-0.0279653,-1.52498,0.0,0.723111,-0.00204015,-0.0173861,-0.69051,0.0,0.0,-0.517797,0,0,0,0,0
49950833,0.0210655,-0.0132467,-1.52482,0.0,0.723166,0.00304248,-0.0120639,-0.690562,0.0,0.0,-0.520196,0,0,0,0,0
50045060,0.0172355,-0.013247,-1.52479,0.0,0.723179,0.0016576,-0.0107415,-0.690575,0.0,0.0,-0.521395,0,0,0,0,0
50149439,0.0153202,-0.0117753,-1.52477,0.0,0.723188,0.00147343,-0.00954802,-0.690584,0.0,0.0,-0.521395,0,0,0,0,0
50248710,0.0153204,-0.0132472,-1.52478,0.0,0.723185,0.000965154,-0.0100803,-0.69058,0.0,0.0,-0.521395,0,0,0,0,0
50348200,0.0172355,-0.013247,-1.52479,0.0,0.723179,0.0016576,-0.0107415,-0.690575,0.0,0.0,-0.503158,0,0,0,0,0
50452307,0.0172355,-0.013247,-1.53327,-0.127559,0.720247,0.00161208,-0.0107484,-0.693633,0.0,0.0,-0.527393,0,0,0,0,0
50546625,0.0172355,-0.013247,-1.54144,0.0,0.717405,0.00156813,-0.0107549,-0.696571,0.0,0.0,-0.539388,0,0,0,0,0
50651006,0.0153204,-0.0132472,-1.54143,0.0,0.717411,0.000881211,-0.010088,-0.696576,0.0,0.0,-0.539388,0,0,0,0,0
50745328,0.0153204,-0.0132472,-1.54143,0.0,0.717411,0.000881211,-0.010088,-0.696576,0.0,0.0,-0.539388,0,0,0,0,0
50849679,0.0153204,-0.0132472,-1.54143,0.0,0.717411,0.000881211,-0.010088,-0.696576,0.0,0.0,-0.535789,0,0,0,0,0
50949094,0.0153204,-0.0132472,-1.54143,0.0,0.717411,0.000881211,-0.010088,-0.696576,0.0,0.0,-0.53339,0,0,0,0,0
51048289,0.021071,-0.030909,-1.54165,0.0,0.717322,-0.00321011,-0.0184244,-0.69649,0.0,0.0,-0.53339,0,0,0,0,0
51147615,0.0711043,-0.102951,-1.54499,0.0,0.716046,-0.0104652,-0.0616003,-0.695251,0.0,0.0,-0.53339,0,0,0,0,0
51246934,0.0884366,-0.108784,-1.54615,0.0,0.715689,-0.00633522,-0.0696984,-0.694904,0.0,0.0,-0.53339,0,0,0,0,0
51351270,0.0307037,-0.0794736,-1.54255,0.0,0.716797,-0.0166895,-0.0391735,-0.69598,0.0,0.0,-0.532191,0,0,0,0,0
51445669,0.0249467,-0.0794779,-1.54232,0.0,0.716826,-0.0187499,-0.0371736,-0.696008,0.0,0.0,-0.532191,0,0,0,0,0
51549802,0.0403151,-0.0868224,-1.54308,0.0,0.716627,-0.0158173,-0.0451431,-0.695815,0.0,0.0,-0.532191,0,0,0,0,0
51649096,0.0596528,-0.12063,-1.54493,0.0,0.715826,-0.0207303,-0.0639267,-0.695037,0.0,0.0,-0.532191,0,0,0,0,0
51748542,0.0557784,-0.114754,-1.54453,0.0,0.71599,-0.0200555,-0.0604878,-0.695196,0.0,0.0,-0.532191,0,0,0,0,0
51847774,0.0384348,-0.103012,-1.54331,0.0,0.716365,-0.0221388,-0.0502764,-0.69556,0.0,0.0,-0.532191,0,0,0,0,0
51947074,0.0269044,-0.103025,-1.54272,0.0,0.716432,-0.0262591,-0.0462779,-0.695625,0.0,0.0,-0.532191,0,0,0,0,0
52051410,0.0326663,-0.101548,-1.54299,0.0,0.716428,-0.0236868,-0.0477501,-0.695622,0.0,0.0,-0.532191,0,0,0,0,0
52145782,0.0538033,-0.101517,-1.54406,0.0,0.716265,-0.0161329,-0.0550793,-0.695464,0.0,0.0,-0.532191,0,0,0,0,0
52250162,0.0442,-0.103004,-1.54361,0.0,0.716322,-0.0200786,-0.0522753,-0.695519,0.0,0.0,-0.532191,0,0,0,0,0
52349310,0.0442639,-0.122133,-1.54404,0.0,0.715936,-0.0267353,-0.0591255,-0.695144,0.0,0.0,-0.532191,0,0,0,0,0
52448673,0.0365659,-0.122146,-1.54357,0.0,0.715991,-0.0294819,-0.0564609,-0.695198,0.0,0.0,-0.532191,0,0,0,0,0
52548041,0.0461036,-0.0971153,-1.54357,0.0,0.716412,-0.017343,-0.0508331,-0.695607,0.0,0.0,-0.532191,0,0,0,0,0
52647207,0.0576581,-0.104452,-1.54434,0.0,0.716173,-0.0157839,-0.0574655,-0.695374,0.0,0.0,-0.532191,0,0,0,0,0
52751567,0.0749182,-0.097059,-1.54497,0.0,0.716102,-0.00704297,-0.0608242,-0.695305,0.0,0.0,-0.532191,0,0,0,0,0
52845897,0.117274,-0.108677,-1.54772,0.0,0.715161,0.0039594,-0.0796755,-0.694392,0.0,0.0,-0.532191,0,0,0,0,0
52950247,0.130718,-0.107149,-1.54835,0.0,0.714893,0.00927383,-0.0838015,-0.694132,0.0,0.0,-0.532191,0,0,0,0,0
53044608,0.150074,-0.118784,-1.55027,0.0,0.714175,0.0120343,-0.0946509,-0.693434,0.0,0.0,-0.532191,0,0,0,0,0
53148991,0.144114,-0.101215,-1.54864,0.0,0.714675,0.0161234,-0.0863464,-0.69392,0.0,0.0,-0.532191,0,0,0,0,0
53248095,0.140257,-0.0997666,-1.54834,0.0,0.714799,0.0152642,-0.0844917,-0.69404,0.0,0.0,-0.532191,0,0,0,0,0
53347464,0.130626,-0.0968743,-1.54767,0.0,0.715082,0.0128595,-0.0801167,-0.694315,0.0,0.0,-0.532191,0,0,0,0,0
53451828,0.0940602,-0.0852484,-1.54534,0.0,0.716005,0.00392088,-0.0632655,-0.695211,0.0,0.0,-0.532191,0,0,0,0,0
53546084,0.065199,-0.0647206,-1.54344,0.0,0.716692,0.00079694,-0.0458946,-0.695878,0.0,0.0,-0.532191,0,0,0,0,0
53650433,0.0191505,-0.0132469,-1.54146,0.0,0.717399,0.00225504,-0.0114218,-0.696565,0.0,0.0,-0.532191,0,0,0,0,0
53744736,0.0153202,-0.0117753,-1.54142,0.0,0.717414,0.0013939,-0.00955996,-0.69658,0.0,0.0,-0.532191,0,0,0,0,0
53849138,0.0153202,-0.0117753,-1.54142,0.0,0.717414,0.0013939,-0.00955996,-0.69658,0.0,0.0,-0.532191,0,0,0,0,0
53948527,0.0153202,-0.0117753,-1.54142,0.0,0.717414,0.0013939,-0.00955996,-0.69658,0.0,0.0,-0.532191,0,0,0,0,0
54047646,0.0153202,-0.0117753,-1.54142,0.0,0.717414,0.0013939,-0.00955996,-0.69658,0.0,0.0,-0.532191,0,0,0,0,0
54147061,0.0248988,-0.023549,-1.54162,0.0,0.717343,0.000727002,-0.0171184,-0.69651,0.0,0.0,-0.532191,0,0,0,0,0
54246324,0.0594352,-0.0603151,-1.54312,0.0,0.716805,0.000274415,-0.0423131,-0.695988,0.0,0.0,-0.532191,0,0,0,0,0
54350728,0.0690942,-0.0823646,-1.54418,0.0,0.716413,-0.00397933,-0.0535553,-0.695607,0.0,0.0,-0.532191,0,0,0,0,0
54444985,0.0921894,-0.0940727,-1.54567,0.0,0.715895,0.000160298,-0.0657616,-0.695104,0.0,0.0,-0.532191,0,0,0,0,0
54549216,0.123042,-0.108652,-1.54803,0.0,0.715038,0.00601767,-0.0816696,-0.694272,0.0,0.0,-0.532191,0,0,0,0,0
54648701,0.10765,-0.107247,-1.54711,0.0,0.715382,0.00104064,-0.0758244,-0.694606,0.0,0.0,-0.532191,0,0,0,0,0
54747905,0.0961164,-0.107289,-1.54649,0.0,0.715591,-0.00307731,-0.0718333,-0.694809,0.0,0.0,-0.532191,0,0,0,0,0
54847180,0.0172355,-0.013247,-1.54144,0.0,0.717405,0.00156813,-0.0107549,-0.696571,0.0,0.0,-0.532191,0,0,0,0,0
54946670,0.0153202,-0.0117753,-1.54142,0.0,0.717414,0.0013939,-0.00955996,-0.69658,0.0,0.0,-0.532191,0,0,0,0,0
55050850,0.0153202,-0.0117753,-1.54142,0.0,0.717414,0.0013939,-0.00955996,-0.69658,0.0,0.0,-0.574174,0,0,0,0,0
55145089,0.0153202,-0.0117753,-1.5416,-0.0121485,0.717351,0.00139303,-0.00956008,-0.696645,0.0,0.0,-0.574174,0,0,0,0,0
55249522,0.0153202,-0.0117753,-1.54211,0.0,0.717172,0.00139058,-0.00956044,-0.696829,0.0,0.0,-0.578972,0,0,0,0,0
55348745,0.0153202,-0.0117753,-1.54211,0.0,0.717172,0.00139058,-0.00956044,-0.696829,0.0,0.0,-0.580171,0,0,0,0,0
55448179,0.0153202,-0.0117753,-1.54211,0.0,0.717172,0.00139058,-0.00956044,-0.696829,0.0,0.0,-0.576573,0,0,0,0,0
55547452,0.0191508,-0.0147187,-1.54217,0.0,0.717154,0.00173821,-0.0119505,-0.696811,0.0,0.0,-0.575373,0,0,0,0,0
55646701,0.0191673,-0.0529875,-1.54253,0.0,0.716921,-0.011595,-0.0256715,-0.696585,0.0,0.0,-0.575373,0,0,0,0,0
55751165,0.0172632,-0.0706508,-1.54263,0.0,0.716732,-0.0184337,-0.0313349,-0.696401,0.0,0.0,-0.575373,0,0,0,0,0
55845459,0.0172632,-0.0706508,-1.54263,0.0,0.716732,-0.0184337,-0.0313349,-0.696401,0.0,0.0,-0.575373,0,0,0,0,0
55949678,0.0192099,-0.0971437,-1.54296,0.0,0.716327,-0.0269719,-0.0414934,-0.696008,0.0,0.0,-0.575373,0,0,0,0,0
56049089,0.0192214,-0.105975,-1.54304,0.0,0.716166,-0.0300456,-0.0446559,-0.695851,0.0,0.0,-0.575373,0,0,0,0,0
56148211,0.0192255,-0.108919,-1.54307,0.0,0.71611,-0.0310701,-0.0457099,-0.695796,0.0,0.0,-0.575373,0,0,0,0,0
56247648,0.0211969,-0.136882,-1.54348,0.0,0.715487,-0.0401118,-0.0563845,-0.695191,0.0,0.0,-0.575373,0,0,0,0,0
56346992,0.0212538,-0.163376,-1.54376,0.0,0.714774,-0.0493199,-0.0658564,-0.694499,0.0,0.0,-0.575373,0,0,0,0,0
56451136,0.0212678,-0.169263,-1.54383,0.0,0.714599,-0.0513649,-0.0679598,-0.694328,0.0,0.0,-0.575373,0,0,0,0,0
56545665,0.0212643,-0.167791,-1.54381,0.0,0.714643,-0.0508537,-0.067434,-0.694372,0.0,0.0,-0.575373,0,0,0,0,0
56649783,0.0212503,-0.161904,-1.54375,0.0,0.714817,-0.0488086,-0.0653304,-0.69454,0.0,0.0,-0.575373,0,0,0,0,0
56749159,0.0192255,-0.108919,-1.54307,0.0,0.71611,-0.0310701,-0.0457099,-0.695796,0.0,0.0,-0.575373,0,0,0,0,0
56848507,0.017238,-0.0250222,-1.54224,0.0,0.717123,-0.0025385,-0.0149779,-0.696781,0.0,0.0,-0.574174,0,0,0,0,0
56947837,0.0153204,-0.0132472,-1.54213,0.0,0.717169,0.000877705,-0.0100883,-0.696826,0.0,0.0,-0.551383,0,0,0,0,0
57047135,0.0153204,-0.0132472,-1.54213,0.0,0.717169,0.000877705,-0.0100883,-0.696826,0.0,0.0,-0.548984,0,0,0,0,0
57151432,0.0210655,-0.0132467,-1.54216,0.0,0.71715,0.00293775,-0.0120898,-0.696807,0.0,0.0,-0.538188,0,0,0,0,0
57245851,0.021071,-0.030909,-1.54235,0.0,0.71708,-0.00321652,-0.0184232,-0.69674,0.0,0.0,-0.53339,0,0,0,0,0
57350036,0.0594127,-0.0500174,-1.54351,0.0,0.716665,0.00384897,-0.0386211,-0.696336,0.0,0.0,-0.523794,0,0,0,0,0
57449412,0.0709154,-0.0514756,-1.54385,0.0,0.716518,0.00745488,-0.0431482,-0.696193,0.0,0.0,-0.523794,0,0,0,0,0
57548643,0.0651909,-0.0617788,-1.54404,0.0,0.716483,0.00180641,-0.0448403,-0.696159,0.0,0.0,-0.523794,0,0,0,0,0
57648135,0.0383289,-0.0485629,-1.54296,0.0,0.716863,-0.00319041,-0.0307586,-0.696528,0.0,0.0,-0.523794,0,0,0,0,0
57747327,0.0153202,-0.0117753,-1.54211,0.0,0.717172,0.00139058,-0.00956044,-0.696829,0.0,0.0,-0.526193,0,0,0,0,0
57846573,0.0153202,-0.0117753,-1.54211,0.0,0.717172,0.00139058,-0.00956044,-0.696829,0.0,0.0,-0.529792,0,0,0,0,0
57945988,0.0153202,-0.0117753,-1.54211,0.0,0.717172,0.00139058,-0.00956044,-0.696829,0.0,0.0,-0.508421,0,0,0,0,0
58050210,0.0153202,-0.0117753,-1.54211,0.0,0.717172,0.00139058,-0.00956044,-0.696829,0.0,0.0,-0.505263,0,0,0,0,0
58149574,0.0153202,-0.0117753,-1.54211,0.0,0.717172,0.00139058,-0.00956044,-0.696829,0.0,0.0,-0.504211,0,0,0,0,0
58248875,0.0172352,-0.0117751,-1.54213,0.0,0.717167,0.00207726,-0.0102276,-0.696823,0.0,0.0,-0.517797,0,0,0,0,0
58348213,0.0268266,-0.0441536,-1.54262,0.0,0.716967,-0.00577185,-0.0251738,-0.696629,0.0,0.0,-0.517797,0,0,0,0,0
58447719,0.113295,-0.0910671,-1.54719,0.0,0.715316,0.00870937,-0.0720296,-0.695025,0.0,0.0,-0.517797,0,0,0,0,0
58546783,0.109495,-0.0969561,-1.54734,0.0,0.715292,0.0052874,-0.0728051,-0.695002,0.0,0.0,-0.516597,0,0,0,0,0
58646129,0.101812,-0.0969823,-1.54697,0.0,0.715437,0.00254321,-0.0701433,-0.695143,0.0,0.0,-0.516597,0,0,0,0,0
58750411,0.0691056,-0.0853061,-1.54497,0.0,0.716127,-0.0050231,-0.054608,-0.695813,0.0,0.0,-0.523794,0,0,0,0,0
58849806,0.0556504,-0.0794451,-1.54424,0.0,0.716363,-0.00777797,-0.0478347,-0.696043,0.0,0.0,-0.538188,0,0,0,0,0
58949050,0.0229932,-0.0426832,-1.54251,0.0,0.716995,-0.00663237,-0.0233121,-0.696657,0.0,0.0,-0.53459,0,0,0,0,0
59048483,0.0172355,-0.013247,-1.54214,0.0,0.717163,0.00156439,-0.0107555,-0.69682,0.0,0.0,-0.532191,0,0,0,0,0
59147624,0.0153202,-0.0117753,-1.54211,0.0,0.717172,0.00139058,-0.00956044,-0.696829,0.0,0.0,-0.532191,0,0,0,0,0
59247214,0.0191505,-0.0132469,-1.54215,0.0,0.717157,0.00225107,-0.0114226,-0.696814,0.0,0.0,-0.530991,0,0,0,0,0
59346511,0.0613933,-0.0750231,-1.54433,0.0,0.716364,-0.00418065,-0.0482526,-0.696044,0.0,0.0,-0.530991,0,0,0,0,0
59450547,0.0902287,-0.0867283,-1.54594,0.0,0.715804,0.00201391,-0.0624619,-0.695499,0.0,0.0,-0.530991,0,0,0,0,0
59549979,0.113405,-0.105755,-1.54803,0.0,0.715056,0.00358466,-0.0772941,-0.694772,0.0,0.0,-0.529792,0,0,0,0,0
59649340,0.132599,-0.102737,-1.54885,0.0,0.71469,0.0114676,-0.0828909,-0.694417,0.0,0.0,-0.530991,0,0,0,0,0
59748611,0.123138,-0.118929,-1.54936,0.0,0.714586,0.00240292,-0.0853541,-0.694316,0.0,0.0,-0.530991,0,0,0,0,0
59848033,0.132774,-0.120348,-1.55004,0.0,0.714336,0.00531938,-0.089203,-0.694073,0.0,0.0,-0.530991,0,0,0,0,0
59947224,0.138667,-0.130587,-1.55111,0.0,0.713965,0.00379074,-0.0948756,-0.693713,0.0,0.0,-0.530991,0,0,0,0,0
60046724,0.132889,-0.130621,-1.55073,0.0,0.714104,0.00173384,-0.092883,-0.693848,0.0,0.0,-0.530991,0,0,0,0,0
60150832,0.130865,-0.121826,-1.55002,0.0,0.714349,0.00412144,-0.0890644,-0.694086,0.0,0.0,-0.530991,0,0,0,0,0
60250255,0.125033,-0.115984,-1.54929,0.0,0.714606,0.00411335,-0.0849669,-0.694336,0.0,0.0,-0.530991,0,0,0,0,0
60349492,0.123068,-0.111588,-1.54891,0.0,0.714739,0.00496454,-0.082724,-0.694464,0.0,0.0,-0.530991,0,0,0,0,0
60448839,0.121172,-0.114533,-1.54898,0.0,0.714721,0.00325403,-0.0831113,-0.694447,0.0,0.0,-0.530991,0,0,0,0,0
60548091,0.121159,-0.113065,-1.54889,0.0,0.714751,0.00376636,-0.0825852,-0.694476,0.0,0.0,-0.530991,0,0,0,0,0
60647491,0.121288,-0.12628,-1.5497,0.0,0.714466,-0.000844146,-0.0873189,-0.694199,0.0,0.0,-0.530991,0,0,0,0,0
60746678,0.119249,-0.114542,-1.54887,0.0,0.714762,0.00256817,-0.0824464,-0.694487,0.0,0.0,-0.530991,0,0,0,0,0
60846133,0.113359,-0.0998799,-1.5477,0.0,0.715164,0.00563441,-0.0751886,-0.694878,0.0,0.0,-0.530991,0,0,0,0,0
60950425,0.0941842,-0.105825,-1.54702,0.0,0.71541,-0.00327605,-0.0706402,-0.695117,0.0,0.0,-0.530991,0,0,0,0,0
61049634,0.0884559,-0.111724,-1.54697,0.0,0.715389,-0.00738415,-0.0707491,-0.695096,0.0,0.0,-0.530991,0,0,0,0,0
61149062,0.0615213,-0.108857,-1.54538,0.0,0.715806,-0.0159681,-0.0603728,-0.695501,0.0,0.0,-0.530991,0,0,0,0,0
61248244,0.019196,-0.0853687,-1.54284,0.0,0.71652,-0.0228726,-0.0372757,-0.696195,0.0,0.0,-0.530991,0,0,0,0,0
61347710,0.0153204,-0.0132472,-1.54213,0.0,0.717169,0.000877705,-0.0100883,-0.696826,0.0,0.0,-0.529792,0,0,0,0,0
61447000,0.0153202,-0.0117753,-1.54211,0.0,0.717172,0.00139058,-0.00956044,-0.696829,0.0,0.0,-0.529792,0,0,0,0,0
61546255,0.0153202,-0.0117753,-1.54211,0.0,0.717172,0.00139058,-0.00956044,-0.696829,0.0,0.0,-0.530991,0,0,0,0,0
61650613,0.0153202,-0.0117753,-1.54211,0.0,0.717172,0.00139058,-0.00956044,-0.696829,0.0,0.0,-0.530991,0,0,0,0,0
61749989,0.0191627,-0.0456281,-1.54246,0.0,0.716986,-0.00903126,-0.0230333,-0.696648,0.0,0.0,-0.530991,0,0,0,0,0
61849162,0.021137,-0.101558,-1.5431,0.0,0.716241,-0.0278224,-0.0437415,-0.695924,0.0,0.0,-0.532191,0,0,0,0,0
61948619,0.0211435,-0.105974,-1.54315,0.0,0.716159,-0.0293592,-0.0453227,-0.695845,0.0,0.0,-0.532191,0,0,0,0,0
62047743,0.0211329,-0.0986143,-1.54307,0.0,0.716294,-0.0267977,-0.0426874,-0.695976,0.0,0.0,-0.530991,0,0,0,0,0
62147105,0.0230808,-0.114803,-1.54335,0.0,0.715977,-0.0317459,-0.049151,-0.695668,0.0,0.0,-0.530991,0,0,0,0,0
62246531,0.0230943,-0.122162,-1.54344,0.0,0.715821,-0.0343063,-0.0517849,-0.695516,0.0,0.0,-0.530991,0,0,0,0,0
62350704,0.0230834,-0.116275,-1.54337,0.0,0.715947,-0.032258,-0.0496778,-0.695638,0.0,0.0,-0.530991,0,0,0,0,0
62450123,0.0230834,-0.116275,-1.54337,0.0,0.715947,-0.032258,-0.0496778,-0.695638,0.0,0.0,-0.530991,0,0,0,0,0
62549371,0.0230586,-0.101557,-1.5432,0.0,0.716234,-0.0271359,-0.0444083,-0.695917,0.0,0.0,-0.530991,0,0,0,0,0
62648707,0.0365094,-0.101543,-1.54388,0.0,0.716163,-0.0223304,-0.0490751,-0.695848,0.0,0.0,-0.530991,0,0,0,0,0
62748274,0.0962607,-0.126394,-1.54812,0.0,0.714948,-0.00976212,-0.0786737,-0.694668,0.0,0.0,-0.530991,0,0,0,0,0
62847355,0.107925,-0.138098,-1.5495,0.0,0.71446,-0.00974272,-0.0868714,-0.694194,0.0,0.0,-0.530991,0,0,0,0,0
62946656,0.109882,-0.141026,-1.54979,0.0,0.714349,-0.0100808,-0.0885876,-0.694086,0.0,0.0,-0.530991,0,0,0,0,0
63051008,0.111841,-0.143954,-1.5501,0.0,0.714236,-0.0104189,-0.0903035,-0.693976,0.0,0.0,-0.530991,0,0,0,0,0
63150189,0.133014,-0.140894,-1.55142,0.0,0.713853,-0.0018509,-0.0965613,-0.693604,0.0,0.0,-0.530991,0,0,0,0,0
63249602,0.106072,-0.145453,-1.54976,0.0,0.71431,-0.0129887,-0.0888347,-0.694047,0.0,0.0,-0.530991,0,0,0,0,0
63348976,0.102186,-0.142534,-1.54933,0.0,0.714456,-0.0133368,-0.0864537,-0.69419,0.0,0.0,-0.530991,0,0,0,0,0
63448255,0.0654495,-0.125028,-1.54612,0.0,0.715423,-0.0202299,-0.0674969,-0.695129,0.0,0.0,-0.530991,0,0,0,0,0
63547750,0.0172376,-0.0235503,-1.54223,0.0,0.717129,-0.00202565,-0.0144501,-0.696787,0.0,0.0,-0.530991,0,0,0,0,0
63646933,0.0153204,-0.0132472,-1.54213,0.0,0.717169,0.000877705,-0.0100883,-0.696826,0.0,0.0,-0.529792,0,0,0,0,0
63751171,0.0153202,-0.0117753,-1.54211,0.0,0.717172,0.00139058,-0.00956044,-0.696829,0.0,0.0,-0.55978,0,0,0,0,0
63850498,0.0153202,-0.0117753,-1.54211,0.0,0.717172,0.00139058,-0.00956044,-0.696829,0.0,0.0,-0.580171,0,0,0,0,0
63949746,0.0153202,-0.0117753,-1.54211,0.0,0.717172,0.00139058,-0.00956044,-0.696829,0.0,0.0,-0.581371,0,0,0,0,0
64049158,0.0153204,-0.0132472,-1.54213,0.0,0.717169,0.000877705,-0.0100883,-0.696826,0.0,0.0,-0.581371,0,0,0,0,0
64148412,0.0153202,-0.0117753,-1.54211,0.0,0.717172,0.00139058,-0.00956044,-0.696829,0.0,0.0,-0.58377,0,0,0,0,0
64247694,0.0153202,-0.0117753,-1.54211,0.0,0.717172,0.00139058,-0.00956044,-0.696829,0.0,0.0,-0.58257,0,0,0,0,0
64347173,0.0210655,-0.0132467,-1.54216,0.0,0.71715,0.00293775,-0.0120898,-0.696807,0.0,0.0,-0.580171,0,0,0,0,0
64451412,0.0344799,-0.0309051,-1.54256,0.0,0.717014,0.00159007,-0.0230928,-0.696675,0.0,0.0,-0.578972,0,0,0,0,0
64545708,0.0998718,-0.0940496,-1.54673,0.0,0.715522,0.0028821,-0.0684244,-0.695225,0.0,0.0,-0.578972,0,0,0,0,0
64650003,0.155827,-0.117283,-1.55119,0.0,0.713808,0.0145696,-0.0961211,-0.69356,0.0,0.0,-0.578972,0,0,0,0,0
64749368,0.155792,-0.114351,-1.55096,0.0,0.71387,0.0155942,-0.0950698,-0.69362,0.0,0.0,-0.578972,0,0,0,0,0
64848550,0.149924,-0.105586,-1.54996,0.0,0.714201,0.0166124,-0.0899229,-0.693942,0.0,0.0,-0.578972,0,0,0,0,0
64947965,0.061342,-0.0558996,-1.54374,0.0,0.716589,0.00248441,-0.0413976,-0.696262,0.0,0.0,-0.578972,0,0,0,0,0
65047304,0.0172352,-0.0117751,-1.54213,0.0,0.717167,0.00207726,-0.0102276,-0.696823,0.0,0.0,-0.578972,0,0,0,0,0
65151579,0.0153202,-0.0117753,-1.54211,0.0,0.717172,0.00139058,-0.00956044,-0.696829,0.0,0.0,-0.578972,0,0,0,0,0
65245973,0.0153202,-0.0117753,-1.54211,0.0,0.717172,0.00139058,-0.00956044,-0.696829,0.0,0.0,-0.578972,0,0,0,0,0
65350189,0.0191505,-0.0132469,-1.54215,0.0,0.717157,0.00225107,-0.0114226,-0.696814,0.0,0.0,-0.577772,0,0,0,0,0
65449546,0.0210789,-0.0456275,-1.54251,0.0,0.716979,-0.0083446,-0.0237003,-0.696641,0.0,0.0,-0.557381,0,0,0,0,0
65548982,0.0210875,-0.0574024,-1.54263,0.0,0.71687,-0.0124466,-0.0279213,-0.696536,0.0,0.0,-0.547785,0,0,0,0,0
65648047,0.023016,-0.0691762,-1.54282,0.0,0.716729,-0.0158613,-0.0328084,-0.696399,0.0,0.0,-0.552583,0,0,0,0,0
65747483,0.065261,-0.0838425,-1.54476,0.0,0.716195,-0.00588337,-0.0527483,-0.695879,0.0,0.0,-0.565777,0,0,0,0,0
65851766,0.094146,-0.0999462,-1.54674,0.0,0.715519,-0.0012263,-0.068534,-0.695222,0.0,0.0,-0.565777,0,0,0,0,0
65946135,0.0517724,-0.0632662,-1.54366,0.0,0.716607,-0.0035118,-0.0407013,-0.69628,0.0,0.0,-0.565777,0,0,0,0,0
66050469,0.0191503,-0.011775,-1.54214,0.0,0.71716,0.00276394,-0.0108948,-0.696817,0.0,0.0,-0.565777,0,0,0,0,0
66149622,0.0153202,-0.0117753,-1.54211,0.0,0.717172,0.00139058,-0.00956044,-0.696829,0.0,0.0,-0.565777,0,0,0,0,0
66249251,0.0153202,-0.0117753,-1.54211,0.0,0.717172,0.00139058,-0.00956044,-0.696829,0.0,0.0,-0.564578,0,0,0,0,0
66348311,0.0153202,-0.0117753,-1.54211,0.0,0.717172,0.00139058,-0.00956044,-0.696829,0.0,0.0,-0.564578,0,0,0,0,0
66447669,0.0191505,-0.0132469,-1.54215,0.0,0.717157,0.00225107,-0.0114226,-0.696814,0.0,0.0,-0.564578,0,0,0,0,0
66551953,0.0210662,-0.0161904,-1.54219,0.0,0.717142,0.00191201,-0.0131454,-0.6968,0.0,0.0,-0.556181,0,0,0,0,0
66646214,0.0249029,-0.0323799,-1.54243,0.0,0.717056,-0.00235601,-0.0202852,-0.696716,0.0,0.0,-0.552583,0,0,0,0,0
66750561,0.0383289,-0.0485629,-1.54296,0.0,0.716863,-0.00319041,-0.0307586,-0.696528,0.0,0.0,-0.544186,0,0,0,0,0
66849884,0.0249021,-0.0309081,-1.54241,0.0,0.717065,-0.00184318,-0.0197575,-0.696724,0.0,0.0,-0.53459,0,0,0,0,0
66949240,0.0363923,-0.0264895,-1.54251,0.0,0.717024,0.00381522,-0.0221767,-0.696685,0.0,0.0,-0.53339,0,0,0,0,0
67048638,0.0594043,-0.0456041,-1.54338,0.0,0.716703,0.00538731,-0.0370386,-0.696373,0.0,0.0,-0.508421,0,0,0,0,0
67147856,0.0440456,-0.0117719,-1.54228,0.0,0.717019,0.0116901,-0.0195672,-0.69668,0.0,0.0,-0.516597,0,0,0,0,0
67252114,0.0287254,-0.0117741,-1.54219,0.0,0.717119,0.00619726,-0.0142306,-0.696778,0.0,0.0,-0.538188,0,0,0,0,0
67346548,0.0670268,-0.0132378,-1.54247,0.0,0.716787,0.0194149,-0.028098,-0.696455,0.0,0.0,-0.541787,0,0,0,0,0
67450878,0.162779,-0.0131893,-1.5431,0.0,0.714816,0.0536941,-0.0613964,-0.69454,0.0,0.0,-0.562179,0,0,0,0,0
67545096,0.160864,-0.0131906,-1.54309,0.0,0.714872,0.0530095,-0.0607314,-0.694594,0.0,0.0,-0.560979,0,0,0,0,0
67649450,0.135967,-0.0117395,-1.54282,0.0,0.715537,0.0446182,-0.0515556,-0.69524,0.0,0.0,-0.55978,0,0,0,0,0
67748703,0.111072,-0.0117515,-1.54268,0.0,0.716088,0.0357071,-0.0428994,-0.695775,0.0,0.0,-0.55858,0,0,0,0,0
67848179,0.0134052,-0.0117754,-1.5421,0.0,0.717177,0.000703886,-0.00889325,-0.696834,0.0,0.0,-0.557381,0,0,0,0,0
67952299,0.0153202,-0.0117753,-1.54211,0.0,0.717172,0.00139058,-0.00956044,-0.696829,0.0,0.0,-0.557381,0,0,0,0,0
68046676,0.0153202,-0.0117753,-1.54211,0.0,0.717172,0.00139058,-0.00956044,-0.696829,0.0,0.0,-0.55978,0,0,0,0,0
68151002,0.0210698,-0.0279653,-1.54232,0.0,0.717096,-0.00219084,-0.0173677,-0.696755,0.0,0.0,-0.55858,0,0,0,0,0
68245337,0.0210746,-0.0382682,-1.54243,0.0,0.717035,-0.00578063,-0.0210619,-0.696695,0.0,0.0,-0.560979,0,0,0,0,0
68349660,0.0210662,-0.0161904,-1.54219,0.0,0.717142,0.00191201,-0.0131454,-0.6968,0.0,0.0,-0.562179,0,0,0,0,0
68448965,0.0153204,-0.0132472,-1.54213,0.0,0.717169,0.000877705,-0.0100883,-0.696826,0.0,0.0,-0.55978,0,0,0,0,0
68548319,0.0153202,-0.0117753,-1.54211,0.0,0.717172,0.00139058,-0.00956044,-0.696829,0.0,0.0,-0.554982,0,0,0,0,0
68647687,0.0153202,-0.0117753,-1.54211,0.0,0.717172,0.00139058,-0.00956044,-0.696829,0.0,0.0,-0.55978,0,0,0,0,0
68746991,0.0153202,-0.0117753,-1.54211,0.0,0.717172,0.00139058,-0.00956044,-0.696829,0.0,0.0,-0.562179,0,0,0,0,0
68851097,0.0153202,-0.0117753,-1.54211,0.0,0.717172,0.00139058,-0.00956044,-0.696829,0.0,0.0,-0.560979,0,0,0,0,0
68945590,0.0172355,-0.013247,-1.54214,0.0,0.717163,0.00156439,-0.0107555,-0.69682,0.0,0.0,-0.557381,0,0,0,0,0
69049854,0.0345216,-0.0676969,-1.54319,0.0,0.716688,-0.011229,-0.0362824,-0.696359,0.0,0.0,-0.553782,0,0,0,0,0
69149120,0.105605,-0.0896234,-1.54676,0.0,0.715489,0.00647792,-0.0688412,-0.695194,0.0,0.0,-0.563378,0,0,0,0,0
69248564,0.109408,-0.083735,-1.54661,0.0,0.715507,0.00990018,-0.0680654,-0.695211,0.0,0.0,-0.563378,0,0,0,0,0
69347685,0.12299,-0.102779,-1.54836,0.0,0.714909,0.00803892,-0.0795668,-0.69463,0.0,0.0,-0.563378,0,0,0,0,0
69447200,0.136484,-0.107121,-1.54935,0.0,0.714515,0.0113016,-0.0857985,-0.694247,0.0,0.0,-0.563378,0,0,0,0,0
69551446,0.130651,-0.0998098,-1.54856,0.0,0.714789,0.0118068,-0.0811737,-0.694513,0.0,0.0,-0.563378,0,0,0,0,0
69645709,0.0690778,-0.0779522,-1.54472,0.0,0.716234,-0.00246012,-0.0519726,-0.695918,0.0,0.0,-0.563378,0,0,0,0,0
69750053,0.0172355,-0.013247,-1.54214,0.0,0.717163,0.00156439,-0.0107555,-0.69682,0.0,0.0,-0.563378,0,0,0,0,0
69849336,0.0153202,-0.0117753,-1.54211,0.0,0.717172,0.00139058,-0.00956044,-0.696829,0.0,0.0,-0.563378,0,0,0,0,0
69948670,0.0153202,-0.0117753,-1.54211,0.0,0.717172,0.00139058,-0.00956044,-0.696829,0.0,0.0,-0.565777,0,0,0,0,0
70047948,0.0191505,-0.0132469,-1.54215,0.0,0.717157,0.00225107,-0.0114226,-0.696814,0.0,0.0,-0.53459,0,0,0,0,0
70147256,0.0191505,-0.0132469,-1.54215,0.0,0.717157,0.00225107,-0.0114226,-0.696814,0.0,0.0,-0.527393,0,0,0,0,0
70251626,0.0191505,-0.0132469,-1.54215,0.0,0.717157,0.00225107,-0.0114226,-0.696814,0.0,0.0,-0.527393,0,0,0,0,0
70345951,0.0191505,-0.0132469,-1.54215,0.0,0.717157,0.00225107,-0.0114226,-0.696814,0.0,0.0,-0.524994,0,0,0,0,0
70450233,0.0191505,-0.0132469,-1.54215,0.0,0.717157,0.00225107,-0.0114226,-0.696814,0.0,0.0,-0.524994,0,0,0,0,0
70544747,0.0191505,-0.0132469,-1.54215,0.0,0.717157,0.00225107,-0.0114226,-0.696814,0.0,0.0,-0.526193,0,0,0,0,0
70649032,0.0191508,-0.0147187,-1.54217,0.0,0.717154,0.00173821,-0.0119505,-0.696811,0.0,0.0,-0.527393,0,0,0,0,0
70748166,0.0191505,-0.0132469,-1.54215,0.0,0.717157,0.00225107,-0.0114226,-0.696814,0.0,0.0,-0.526193,0,0,0,0,0
70847515,0.0191505,-0.0132469,-1.54215,0.0,0.717157,0.00225107,-0.0114226,-0.696814,0.0,0.0,-0.502105,0,0,0,0,0
70951857,0.0153204,-0.0132472,-1.54213,0.0,0.717169,0.000877705,-0.0100883,-0.696826,0.0,0.0,-0.502105,0,0,0,0,0
71046100,0.0191505,-0.0132469,-1.54215,0.0,0.717157,0.00225107,-0.0114226,-0.696814,0.0,0.0,-0.504211,0,0,0,0,0
71150451,0.021104,-0.0750646,-1.54282,0.0,0.716661,-0.0185983,-0.0342512,-0.696332,0.0,0.0,-0.509474,0,0,0,0,0
71244676,0.0616388,-0.132393,-1.54611,0.0,0.715297,-0.0241631,-0.0687966,-0.695006,0.0,0.0,-0.527393,0,0,0,0,0
71349164,0.0944604,-0.1411,-1.5487,0.0,0.714628,-0.0155692,-0.0832677,-0.694357,0.0,0.0,-0.522595,0,0,0,0,0
71448424,0.0191787,-0.0677062,-1.54267,0.0,0.716762,-0.0167219,-0.030947,-0.69643,0.0,0.0,-0.551383,0,0,0,0,0
71547705,0.0172472,-0.0471005,-1.54243,0.0,0.71698,-0.0102307,-0.0228938,-0.696642,0.0,0.0,-0.58377,0,0,0,0,0
71647021,0.0172359,-0.0161908,-1.54216,0.0,0.717156,0.000538655,-0.0118111,-0.696813,0.0,0.0,-0.602962,0,0,0,0,0
71746256,0.0153202,-0.0117753,-1.54211,0.0,0.717172,0.00139058,-0.00956044,-0.696829,0.0,0.0,-0.605361,0,0,0,0,0
71850564,0.0153202,-0.0117753,-1.54211,0.0,0.717172,0.00139058,-0.00956044,-0.696829,0.0,0.0,-0.604162,0,0,0,0,0
71945050,0.0210655,-0.0132467,-1.54216,0.0,0.71715,0.00293775,-0.0120898,-0.696807,0.0,0.0,-0.593366,0,0,0,0,0
72049169,0.028772,-0.0706446,-1.54304,0.0,0.716684,-0.0143141,-0.0353366,-0.696355,0.0,0.0,-0.599364,0,0,0,0,0
72148667,0.0441546,-0.0868177,-1.54394,0.0,0.716356,-0.0144599,-0.046471,-0.696036,0.0,0.0,-0.599364,0,0,0,0,0
72247897,0.105822,-0.119008,-1.54833,0.0,0.714938,-0.00377049,-0.0793694,-0.694658,0.0,0.0,-0.600563,0,0,0,0,0
72347167,0.0904303,-0.119067,-1.54742,0.0,0.715206,-0.00925947,-0.0740465,-0.694918,0.0,0.0,-0.600563,0,0,0,0,0
72446578,0.078954,-0.129399,-1.54714,0.0,0.71515,-0.0169622,-0.0737365,-0.694864,0.0,0.0,-0.601763,0,0,0,0,0
72550745,0.0925071,-0.138168,-1.54843,0.0,0.714733,-0.0152313,-0.0815509,-0.694459,0.0,0.0,-0.601763,0,0,0,0,0
72645220,0.0711043,-0.102951,-1.54569,0.0,0.715804,-0.0104866,-0.0615967,-0.6955,0.0,0.0,-0.601763,0,0,0,0,0
72749479,0.0153202,-0.0117753,-1.54211,0.0,0.717172,0.00139058,-0.00956044,-0.696829,0.0,0.0,-0.58257,0,0,0,0,0
72848822,0.0153202,-0.0117753,-1.54211,0.0,0.717172,0.00139058,-0.00956044,-0.696829,0.0,0.0,-0.539388,0,0,0,0,0
72948056,0.0191505,-0.0132469,-1.54215,0.0,0.717157,0.00225107,-0.0114226,-0.696814,0.0,0.0,-0.504211,0,0,0,0,0
73047481,0.0172355,-0.013247,-1.54214,0.0,0.717163,0.00156439,-0.0107555,-0.69682,0.0,0.0,-0.506316,0,0,0,0,0
73146685,0.0191505,-0.0132469,-1.54209,0.00629325,0.717179,0.00225143,-0.0114226,-0.696792,0.0,0.0,-0.512999,0,0,0,0,0
73251039,0.0210655,-0.0132467,-1.54201,0.0,0.717205,0.0029387,-0.0120896,-0.696751,0.0,0.0,-0.511799,0,0,0,0,0
73345351,0.0210662,-0.0161904,-1.54204,0.0,0.717197,0.00191304,-0.0131453,-0.696744,0.0,0.0,-0.511799,0,0,0,0,0
73449604,0.0287261,-0.0147176,-1.54208,0.0,0.717167,0.00517273,-0.0152858,-0.696715,0.0,0.0,-0.511799,0,0,0,0,0
73549033,0.103509,-0.0543656,-1.54468,0.0,0.716036,0.0180995,-0.0555275,-0.695616,0.0,0.0,-0.511799,0,0,0,0,0
73648271,0.126579,-0.0675299,-1.54615,0.0,0.715418,0.0217167,-0.0682577,-0.695016,0.0,0.0,-0.511799,0,0,0,0,0
73747575,0.140074,-0.0777597,-1.54733,0.0,0.714964,0.0229282,-0.0765997,-0.694574,0.0,0.0,-0.511799,0,0,0,0,0
73847029,0.138144,-0.0762993,-1.54715,0.0,0.715032,0.0227552,-0.0754083,-0.694641,0.0,0.0,-0.511799,0,0,0,0,0
