timestamp,yaw_composite,yaw_variance,yaw[0],yaw[1],yaw[2],yaw[3],yaw[4],innov_vn[0],innov_vn[1],innov_vn[2],innov_vn[3],innov_vn[4],innov_ve[0],innov_ve[1],innov_ve[2],innov_ve[3],innov_ve[4],weight[0],weight[1],weight[2],weight[3],weight[4]
23531465,-1.06249,3.58949,-2.51161,-1.25505,0.00151341,1.25818,2.51492,-0.0516072,-0.0317812,0.0444429,0.07173,0.0123672,0.0362299,-0.0374765,-0.0413989,0.0298829,0.0778625,0.2,0.200031,0.200019,0.199981,0.199969
23541397,-1.06269,3.58955,-2.51197,-1.25541,0.00115134,1.25782,2.51456,-0.0516072,-0.0317812,0.0444429,0.07173,0.0123672,0.0362299,-0.0374765,-0.0413989,0.0298829,0.0778625,0.2,0.200031,0.200019,0.199981,0.199969
23730266,-2.52603,3.55085,-2.51128,-1.25494,0.00180337,1.25879,2.51555,-0.0683553,-0.0344195,0.082939,0.121559,0.0280447,0.0154201,-0.0969559,-0.0994196,0.0114411,0.0824286,0.200138,0.200039,0.199886,0.19989,0.200047
23938673,-2.20974,3.64191,-2.51058,-1.25408,0.002557,1.25933,2.51605,-0.128606,-0.0717488,0.0624754,0.0885569,-0.0295711,0.0282689,-0.094356,-0.0781866,0.0544928,0.120265,0.200043,0.200026,0.199973,0.199958,0.200001
24137308,2.77102,3.61327,-2.50963,-1.25299,0.00407545,1.26098,2.51735,-0.112759,-0.0666705,0.072301,0.112115,-0.00227595,0.00366554,-0.127476,-0.124181,0.00902133,0.088038,0.2001,0.199873,0.199821,0.200017,0.200189
24335947,2.61071,3.55701,-2.50845,-1.25176,0.00524367,1.26205,2.51843,-0.145234,-0.0798253,0.0896511,0.128888,-0.0162719,0.0366254,-0.12028,-0.106524,0.0589023,0.147312,0.200059,0.199876,0.199864,0.20004,0.200161
24534731,2.82206,3.63683,-2.50858,-1.25196,0.00543019,1.26255,2.51874,-0.151469,-0.0812796,0.115311,0.166532,0.00166697,0.0263283,-0.157543,-0.147571,0.0424674,0.149889,0.200196,0.19979,0.199674,0.200009,0.200331
24733221,2.08433,3.73408,-2.50695,-1.2499,0.00730879,1.26389,2.51993,-0.189652,-0.113801,0.0886658,0.137728,-0.034274,0.0479551,-0.14019,-0.126115,0.0707842,0.178226,0.199962,0.199723,0.199867,0.200195,0.200254
24936822,1.78652,3.81759,-2.50751,-1.25045,0.00657341,1.26302,2.51917,-0.181064,-0.105313,0.111284,0.169231,-0.0113601,0.0567753,-0.146345,-0.136969,0.0718484,0.19151,0.199903,0.199769,0.199955,0.200203,0.20017
25135459,1.90218,3.91994,-2.50713,-1.24971,0.00775381,1.26411,2.51976,-0.210429,-0.117559,0.12808,0.186913,-0.0221911,0.0346684,-0.193465,-0.175547,0.0635169,0.1934,0.199862,0.19955,0.19986,0.200364,0.200365
25334211,2.10496,3.69935,-2.51188,-1.2539,0.00463961,1.2611,2.51573,-0.189065,-0.116801,0.10555,0.17045,-0.0114623,0.0156111,-0.194711,-0.190805,0.0217261,0.149187,0.199906,0.199102,0.199538,0.200613,0.200841
25532733,1.59666,3.64979,-2.5226,-1.26404,-0.00613243,1.24937,2.50404,-0.208954,-0.11607,0.0898353,0.123668,-0.0606809,0.0484504,-0.137856,-0.10675,0.0984237,0.194094,0.19948,0.199114,0.199971,0.200869,0.200565
25736340,1.84519,3.8833,-2.53268,-1.27313,-0.0136454,1.24184,2.49492,-0.160531,-0.0995127,0.0699077,0.113306,-0.0287962,-0.0373798,-0.195797,-0.186458,-0.0227132,0.0693361,0.199466,0.198407,0.199545,0.201315,0.201266
25930050,1.70306,3.72177,-2.5359,-1.2745,-0.014097,1.24011,2.49148,-0.217994,-0.16424,0.0198278,0.0790382,-0.0674405,0.0132093,-0.162875,-0.165641,0.00813469,0.118317,0.198894,0.197643,0.19964,0.202144,0.201679
26128695,1.41743,3.52734,-2.53658,-1.27299,-0.0129829,1.2388,2.48905,-0.269187,-0.13276,0.0682762,0.0554175,-0.152055,-0.028303,-0.19587,-0.117105,0.0975022,0.152298,0.197797,0.19714,0.200424,0.203139,0.201499
26327282,0.92013,3.58003,-2.53175,-1.26627,-0.00967062,1.23813,2.48932,-0.351782,-0.131782,0.104247,0.030415,-0.24967,-0.0303227,-0.208494,-0.0534898,0.217395,0.23247,0.195995,0.197545,0.202498,0.204008,0.199954
26530884,0.67807,3.76703,-2.52814,-1.26081,-0.00727229,1.23681,2.48873,-0.35798,-0.120191,0.142987,0.070245,-0.237588,-0.0357553,-0.237696,-0.0737931,0.225649,0.251281,0.194267,0.197859,0.204452,0.204881,0.198541
26729521,0.839311,3.60344,-2.5306,-1.26125,-0.00582309,1.23742,2.48694,-0.265049,-0.16401,0.10917,0.17861,-0.0499873,0.00627238,-0.250959,-0.233478,0.0294669,0.179559,0.193855,0.196736,0.204161,0.205845,0.199403
26938157,0.946314,3.51162,-2.53026,-1.25761,-0.000708217,1.24017,2.48676,-0.283503,-0.219618,0.0137276,0.0943088,-0.0865284,0.0275613,-0.199344,-0.207275,0.00977177,0.155983,0.192748,0.195364,0.204416,0.2074,0.200072
27136728,1.03464,3.46034,-2.53466,-1.26087,-0.00236967,1.23835,2.48326,-0.190028,-0.174935,0.03062,0.141175,0.00813709,0.0489913,-0.164143,-0.213431,-0.0360048,0.126345,0.192649,0.194567,0.204005,0.207967,0.200813
27335365,1.17985,3.39946,-2.54546,-1.26801,-0.00607007,1.23312,2.47369,-0.279239,-0.2582,-0.0239378,0.0977044,-0.0561238,0.0236355,-0.217898,-0.269743,-0.0663452,0.114881,0.191915,0.192517,0.203426,0.209723,0.202419
27534009,1.3349,3.39614,-2.56877,-1.28944,-0.023238,1.21666,2.45348,-0.215269,-0.213684,0.000890918,0.128104,-0.00125117,-0.0117605,-0.238331,-0.303336,-0.122989,0.0561131,0.192211,0.190746,0.201962,0.210654,0.204427
27732702,1.42008,3.42529,-2.60726,-1.3267,-0.0571443,1.18356,2.41758,-0.181466,-0.209156,-0.0272245,0.107503,0.0157791,0.0146304,-0.185893,-0.270511,-0.126746,0.0471649,0.192563,0.189414,0.200725,0.211268,0.20603
27936243,1.46306,3.4417,-2.63883,-1.35575,-0.0829112,1.15728,2.38777,-0.219163,-0.263851,-0.0926377,0.0512899,-0.0236816,0.0539663,-0.139964,-0.238529,-0.108961,0.0686271,0.192299,0.187726,0.19987,0.212496,0.207609
28134880,1.46326,3.43387,-2.64481,-1.36044,-0.0866598,1.15286,2.38197,-0.192047,-0.194873,0.0184291,0.145451,0.0200226,0.0965067,-0.128681,-0.195972,-0.0179488,0.159409,0.191936,0.187057,0.19979,0.21315,0.208068
28333516,1.53638,3.47615,-2.64313,-1.3594,-0.0839237,1.15723,2.38571,-0.232579,-0.0969114,0.217646,0.269787,-2.00421e-05,0.0196089,-0.270476,-0.224379,0.0817424,0.230989,0.192663,0.186708,0.198818,0.212899,0.208911
28532169,0.94343,3.44727,-2.62035,-1.34787,-0.0892151,1.1529,2.39832,-0.449904,-0.116324,0.376584,0.340282,-0.156148,0.225257,-0.192288,0.00612916,0.523845,0.659128,0.193064,0.194983,0.203847,0.207446,0.200661
28735758,-0.802833,3.59219,-2.5844,-1.33704,-0.106143,1.14383,2.42133,-0.590532,-0.0628788,0.578663,0.454258,-0.259562,0.232901,-0.279962,0.0657082,0.775336,0.885817,0.196784,0.212222,0.210561,0.194286,0.186146
28929428,-1.10707,2.77377,-2.5098,-1.32307,-0.166663,1.0974,2.45758,-0.767357,-0.103657,0.626975,0.44369,-0.434299,0.589877,0.0368009,0.478454,1.32412,1.40667,0.201577,0.262108,0.23017,0.160037,0.146109
29133031,-1.18909,2.33015,-2.46072,-1.32144,-0.212647,1.06881,2.48763,-0.658945,-0.00600159,0.693019,0.557864,-0.360348,0.395014,-0.103729,0.290293,1.1479,1.24256,0.2074,0.304049,0.23811,0.131523,0.118918
29331664,-1.14765,2.10072,-2.42532,-1.30322,-0.224026,1.05583,2.50292,-0.688785,-0.161043,0.476283,0.460141,-0.371504,0.261167,-0.205009,0.0538009,0.83502,1.00559,0.202336,0.328626,0.248811,0.118603,0.101624
29530306,-1.12432,1.96799,-2.40394,-1.29077,-0.22764,1.05128,2.51276,-0.544401,-0.145289,0.387312,0.449316,-0.227694,0.223795,-0.186136,-0.0334464,0.607004,0.82128,0.198417,0.343756,0.255195,0.110928,0.0917048
29728943,-1.14447,1.86405,-2.38472,-1.2855,-0.229646,1.05723,2.53119,-0.274297,0.00568262,0.466514,0.610571,0.0719566,0.23559,-0.153743,-0.101622,0.422796,0.697982,0.200926,0.357013,0.253727,0.102569,0.0857651
29937535,-1.14199,1.81338,-2.36891,-1.27536,-0.222292,1.06758,2.54636,-0.248398,-0.0806628,0.300595,0.500078,0.101874,0.19024,-0.161922,-0.193434,0.210875,0.517367,0.20136,0.363776,0.253555,0.0986788,0.0826303
30136150,-1.11936,1.78681,-2.36036,-1.26601,-0.216572,1.07071,2.55034,-0.306382,-0.224917,0.103521,0.353543,0.0609528,0.249517,-0.0865902,-0.185351,0.131187,0.473997,0.198151,0.366895,0.257053,0.0978072,0.0800936
30329822,-1.11968,1.74617,-2.35217,-1.26318,-0.217053,1.07167,2.55662,-0.0900612,-0.0745937,0.189876,0.453814,0.261339,0.244207,-0.0542674,-0.190892,0.0370755,0.37726,0.197868,0.372209,0.257505,0.0949342,0.0774848
30538390,-1.09063,1.71288,-2.33998,-1.25151,-0.211377,1.07384,2.56135,-0.237503,-0.196531,0.0723006,0.31286,0.095161,0.339015,0.0489753,-0.0632535,0.181651,0.49953,0.19345,0.375829,0.262412,0.0940034,0.0743059
30737036,-1.09754,1.6938,-2.33968,-1.253,-0.212476,1.07452,2.56307,-0.233708,-0.0997332,0.212143,0.390781,0.0659106,0.0965075,-0.195879,-0.231017,0.0980601,0.365442,0.194014,0.378749,0.261657,0.0923012,0.0732789
30935664,-1.10854,1.63753,-2.33822,-1.25723,-0.22198,1.06733,2.56293,-0.332182,-0.0418605,0.337897,0.400166,-0.104607,0.10778,-0.178296,-0.0788194,0.390328,0.556812,0.193854,0.386558,0.261642,0.0881353,0.0698099
31129335,-1.11938,1.5421,-2.33519,-1.26408,-0.241217,1.04964,2.5601,-0.404039,-0.0607438,0.359815,0.405262,-0.176857,0.189888,-0.114469,0.0188379,0.552613,0.711444,0.191824,0.399626,0.263264,0.081664,0.0636215
31332948,-1.11773,1.44669,-2.32586,-1.26356,-0.256195,1.0343,2.56072,-0.405086,-0.0836773,0.281674,0.3001,-0.231065,0.242942,-0.00700498,0.128891,0.608021,0.72224,0.188116,0.412925,0.266204,0.0755429,0.057213
31531732,-1.11145,1.3854,-2.3196,-1.26286,-0.266349,1.02281,2.55903,-0.295149,-0.0981509,0.186923,0.276838,-0.0945216,0.311619,0.0856283,0.125739,0.471062,0.638025,0.18418,0.42143,0.269554,0.0719425,0.0528932
31730229,-1.10624,1.36637,-2.3179,-1.26215,-0.269044,1.01902,2.55722,-0.163109,-0.0956477,0.0947251,0.240616,0.0505616,0.220846,0.0317741,-0.0175406,0.175376,0.377675,0.182148,0.42396,0.271446,0.0710159,0.05143
31938782,-1.09938,1.35553,-2.31361,-1.25925,-0.267413,1.01992,2.55931,-0.0717477,-0.0932178,0.0353667,0.220075,0.154062,0.214041,0.0464084,-0.063962,0.0261738,0.254301,0.180671,0.42524,0.272916,0.0706055,0.0505674
32132455,-1.08617,1.34093,-2.30309,-1.2501,-0.260971,1.02517,2.56645,-0.0290493,-0.0491361,0.0713832,0.245144,0.18361,0.243335,0.0858417,-0.0178294,0.066385,0.281053,0.178959,0.427016,0.274603,0.0699719,0.0494496
32331216,-1.07378,1.33498,-2.29333,-1.2399,-0.251596,1.03392,2.57521,-0.178281,-0.0903817,0.0652752,0.146538,-0.0379197,0.0769578,-0.0589275,-0.0646854,0.111623,0.237135,0.178048,0.427835,0.275438,0.0697235,0.0489561
32529732,-1.05931,1.30543,-2.2859,-1.23299,-0.2512,1.03082,2.57722,-0.37104,-0.153407,0.0143224,-0.0534426,-0.364439,0.0339598,-0.0380895,0.0924459,0.355055,0.325302,0.174461,0.431542,0.278832,0.0684335,0.046731
32738298,-1.10206,1.25304,-2.28199,-1.24315,-0.266305,1.02948,2.58854,-0.0548812,0.239776,0.424087,0.282776,-0.112435,0.18734,0.141209,0.344978,0.667499,0.563139,0.180808,0.44237,0.269599,0.0623515,0.0448712
32936935,-1.09553,1.18952,-2.27273,-1.24056,-0.276994,1.01607,2.59019,-0.451265,-0.160722,0.0128527,-0.14322,-0.530759,0.0771716,0.0463642,0.254309,0.57027,0.443693,0.176276,0.451911,0.272534,0.0585559,0.0407238
33135674,-1.09623,1.16724,-2.27269,-1.24146,-0.283805,1.00867,2.58743,-0.258147,-0.086677,0.0245597,-0.0536718,-0.28983,0.0781389,0.0509551,0.163791,0.358163,0.298837,0.174796,0.455473,0.273297,0.0571276,0.0393064
33334211,-1.09579,1.15422,-2.26995,-1.2413,-0.286024,1.00745,2.58897,-0.210065,-0.114827,-0.0521137,-0.0939352,-0.223869,0.16117,0.146427,0.20556,0.313483,0.282208,0.173955,0.45756,0.273719,0.0562731,0.0384931
33532847,-1.09771,1.13317,-2.26391,-1.23914,-0.287846,1.00778,2.59431,-0.157674,-0.00871281,0.0908833,0.0280592,-0.180661,0.163525,0.136474,0.231391,0.403683,0.357677,0.173917,0.461423,0.272751,0.05455,0.03736
33736450,-1.09148,1.08649,-2.2516,-1.23318,-0.291994,1.00244,2.60154,-0.365803,-0.109796,0.0470344,-0.0800782,-0.434347,0.0900325,0.0602044,0.236859,0.524855,0.420506,0.17094,0.469056,0.273923,0.0515516,0.03453
33935163,-1.07767,1.0277,-2.23445,-1.22379,-0.296187,0.994134,2.60982,-0.451896,-0.1631,0.0405428,-0.0631726,-0.488623,0.128373,0.0608706,0.241297,0.590924,0.520368,0.165613,0.478379,0.27701,0.048116,0.0308832
34133725,-1.07128,0.991639,-2.21696,-1.21183,-0.293626,0.998459,2.62476,-0.209131,-0.0176015,0.135127,0.0952427,-0.202725,0.259236,0.192842,0.296555,0.543559,0.531004,0.164692,0.485288,0.275722,0.0453399,0.0289586
34337329,-1.04953,0.984613,-2.20377,-1.19687,-0.282519,1.00658,2.63356,-0.399149,-0.332564,-0.256127,-0.235996,-0.354602,0.19166,0.140154,0.156296,0.259597,0.29784,0.161767,0.48552,0.278959,0.0454537,0.0283006
34535966,-1.03436,0.988249,-2.1948,-1.18594,-0.272209,1.01598,2.64005,-0.0908841,-0.13714,-0.128402,-0.0535586,-0.00814818,0.322242,0.281449,0.218875,0.191624,0.277946,0.160611,0.484099,0.280833,0.0460773,0.0283797
34734688,-1.02091,0.977122,-2.18301,-1.17791,-0.265524,1.01956,2.64708,0.262094,0.162732,0.151864,0.269537,0.38276,0.18474,0.132926,0.0254418,-0.0533788,0.0770334,0.158275,0.48518,0.283172,0.045788,0.0275847
34938208,-1.0194,0.985953,-2.18628,-1.17852,-0.265051,1.0203,2.64401,-0.172478,-0.259662,-0.261073,-0.145859,-0.0513117,0.228518,0.172033,0.0716611,0.00830805,0.138234,0.158232,0.48314,0.283972,0.0465977,0.0280589
35136844,-1.0161,0.973775,-2.1844,-1.17824,-0.268226,1.01539,2.64191,-0.0436219,-0.0149338,0.0744041,0.166558,0.0762521,0.315298,0.21821,0.183597,0.271133,0.394067,0.156318,0.48471,0.285664,0.0460538,0.0272536
35330515,-1.02641,0.947616,-2.18275,-1.18298,-0.278267,1.0072,2.64278,-0.101857,0.0548672,0.217025,0.245491,-0.0289772,0.224249,0.118511,0.174622,0.407115,0.473758,0.15612,0.49012,0.283928,0.0438675,0.0259639
35529155,-1.04554,0.892921,-2.17678,-1.19076,-0.297804,0.990966,2.64765,-0.210914,0.0526118,0.288135,0.28271,-0.158361,0.272296,0.143912,0.266325,0.631681,0.673864,0.155582,0.50168,0.28002,0.0393979,0.0233206
35737723,-1.07047,0.817135,-2.1683,-1.20235,-0.327499,0.964386,2.65345,-0.284741,0.0379482,0.323814,0.317537,-0.231986,0.328702,0.1774,0.327823,0.778803,0.825237,0.153787,0.518208,0.27483,0.0334996,0.019675
35936359,-1.1247,0.74515,-2.15849,-1.22098,-0.360061,0.951134,2.6779,-0.0663595,0.306551,0.636996,0.638438,-0.0157444,0.270054,0.0995009,0.269693,0.799729,0.854441,0.161164,0.538761,0.256552,0.0264524,0.0170701
36134996,-1.18027,0.659117,-2.13883,-1.23867,-0.397559,0.937355,2.7155,-0.0377626,0.352997,0.701586,0.702543,-0.00944844,0.403186,0.233167,0.411059,0.984641,1.02418,0.169472,0.563839,0.233796,0.0190062,0.0138872
36333652,-1.1821,0.596168,-2.11468,-1.23676,-0.417421,0.917318,2.73469,-0.388696,-0.00521632,0.345865,0.35737,-0.382262,0.255161,0.0917449,0.260196,0.851951,0.88044,0.16448,0.580657,0.228641,0.0152795,0.0109435
36532271,-1.18132,0.540952,-2.09007,-1.23424,-0.43734,0.895723,2.7529,-0.379821,-0.0250852,0.313789,0.36379,-0.356584,0.323147,0.157285,0.295073,0.862262,0.926111,0.158462,0.596579,0.224271,0.0122193,0.00846994
36735875,-1.18683,0.491182,-2.06076,-1.23123,-0.456068,0.882165,2.78284,-0.242589,0.092051,0.409985,0.468247,-0.232754,0.408372,0.258709,0.383924,0.926254,0.988828,0.155979,0.613196,0.214947,0.0093243,0.00655337
36934512,-1.19738,0.456647,-2.03775,-1.23012,-0.469999,0.878299,2.81293,-0.184903,0.15804,0.443237,0.424399,-0.281815,0.249641,0.163599,0.327286,0.869806,0.815764,0.157337,0.626189,0.203722,0.00730562,0.00544702
37133150,-1.20592,0.429849,-2.0253,-1.23262,-0.489517,0.863833,2.82663,-0.251926,0.0343083,0.257697,0.204767,-0.385583,0.306071,0.26477,0.41584,0.870898,0.76551,0.156056,0.636514,0.196927,0.00596246,0.00454006
37336753,-1.20205,0.414283,-2.00748,-1.22658,-0.49381,0.863135,2.84301,-0.187533,-0.000457078,0.156908,0.145728,-0.259471,0.38084,0.343402,0.428253,0.738265,0.69466,0.154688,0.642576,0.19346,0.00525439,0.00402264
37535391,-1.19711,0.409985,-1.99731,-1.22112,-0.491503,0.86858,2.85086,-0.0147081,0.0520248,0.118005,0.130688,-0.0212828,0.374015,0.352609,0.368944,0.485006,0.494166,0.154424,0.644086,0.192531,0.00506892,0.00388954
37738994,-1.19618,0.410086,-1.99771,-1.22181,-0.493457,0.867726,2.84617,-0.0857603,-0.105226,-0.0977655,-0.0505248,-0.0239039,0.369842,0.347187,0.307388,0.285094,0.357903,0.153601,0.64341,0.193963,0.00513868,0.00388729
37937631,-1.20556,0.411628,-2.00663,-1.23053,-0.501719,0.862902,2.83667,-0.0132172,-0.0905231,-0.157353,-0.174627,0.0107165,0.298224,0.328336,0.28866,0.152612,0.154433,0.154559,0.642208,0.194014,0.00522783,0.0039911
38136269,-1.21126,0.411428,-2.01019,-1.23483,-0.506182,0.86133,2.83446,0.0939825,-0.0482059,-0.186422,-0.246096,0.10342,0.207244,0.278272,0.225946,-0.0312279,-0.0698541,0.155739,0.64158,0.193363,0.0052509,0.00406711
38329940,-1.22253,0.411465,-2.01438,-1.24036,-0.510796,0.86552,2.83669,0.0688242,-0.124605,-0.326054,-0.436255,0.0509805,0.287863,0.401534,0.346511,-0.0110464,-0.102616,0.159904,0.640634,0.189969,0.00521838,0.00427402
38528734,-1.23055,0.41172,-2.01438,-1.24373,-0.511127,0.873634,2.84245,0.0763555,-0.162145,-0.378261,-0.427214,0.135424,0.34593,0.43311,0.331205,-0.0925484,-0.0928365,0.163984,0.639125,0.187128,0.00524219,0.00452068
38737151,-1.22815,0.401413,-2.00261,-1.23878,-0.511835,0.873917,2.8591,0.180683,-0.103702,-0.326478,-0.290285,0.337422,0.136126,0.183668,0.0247866,-0.460884,-0.340811,0.164347,0.642171,0.184335,0.00486439,0.0042827
38935784,-1.22546,0.394673,-1.99275,-1.23317,-0.509303,0.879354,2.87339,0.135359,-0.170667,-0.391087,-0.302041,0.357675,0.274791,0.293412,0.101821,-0.413099,-0.213986,0.165711,0.643496,0.18193,0.00465315,0.00421055
39134422,-1.2336,0.388422,-1.9921,-1.2345,-0.514659,0.880401,2.88241,0.0821374,-0.220679,-0.451994,-0.396933,0.27515,0.242798,0.280034,0.104622,-0.416121,-0.256473,0.169275,0.644894,0.177263,0.00436911,0.00419886
39333210,-1.23627,0.375155,-1.98613,-1.23681,-0.524836,0.868065,2.89111,0.270538,-0.0520595,-0.314378,-0.2935,0.444941,0.139647,0.201221,0.0311477,-0.537873,-0.409542,0.167717,0.649262,0.175255,0.00395461,0.00381138
39531698,-1.26479,0.362667,-1.99415,-1.2548,-0.548169,0.855439,2.89816,0.0717914,-0.284056,-0.553068,-0.47753,0.323482,0.178644,0.211456,0.00200272,-0.618888,-0.401931,0.173459,0.653091,0.166386,0.00340081,0.0036639
39735301,-1.26766,0.345454,-1.985,-1.25692,-0.560853,0.840655,2.91156,0.290333,-0.104744,-0.397448,-0.288315,0.60215,0.213925,0.234793,-0.00699002,-0.704321,-0.416034,0.171523,0.65929,0.1631,0.00290935,0.00317801
39928976,-1.28754,0.324855,-1.97514,-1.26715,-0.58108,0.830048,2.9395,0.152085,-0.253651,-0.557949,-0.45849,0.479752,0.0789338,0.101358,-0.142575,-0.870904,-0.574326,0.176015,0.667044,0.15199,0.00220191,0.00274992
40127693,-1.30128,0.307812,-1.96775,-1.27485,-0.600057,0.816003,2.96007,0.185701,-0.180773,-0.470446,-0.417916,0.471134,0.0328492,0.069183,-0.13688,-0.820414,-0.573521,0.177948,0.674076,0.143913,0.00170937,0.00235317
40336234,-1.31016,0.297305,-1.96338,-1.28019,-0.612723,0.806365,2.97272,0.154176,-0.140546,-0.381696,-0.363323,0.381495,0.0275991,0.0653567,-0.0923043,-0.658585,-0.470828,0.17906,0.678513,0.138869,0.00144125,0.00211756
40534817,-1.31462,0.293218,-1.96105,-1.28129,-0.615502,0.807584,2.98026,0.0680413,-0.181276,-0.378546,-0.34119,0.288495,0.181876,0.200094,0.0571575,-0.425768,-0.22798,0.181368,0.679473,0.135741,0.00134046,0.0020774
40738425,-1.31651,0.288903,-1.9558,-1.27987,-0.616169,0.810829,2.99087,0.05046,-0.192243,-0.369833,-0.284809,0.306952,0.157022,0.149506,-0.00863683,-0.474963,-0.216594,0.183589,0.680614,0.132533,0.00123734,0.00202561
40937161,-1.31696,0.281599,-1.94789,-1.2788,-0.620775,0.807294,3.00352,0.145765,-0.108854,-0.282527,-0.149154,0.452675,0.0764984,0.0458366,-0.136907,-0.623603,-0.29228,0.183677,0.683876,0.1295,0.00108991,0.0018578
41135695,-1.30765,0.278221,-1.93837,-1.27119,-0.615826,0.80923,3.01122,0.145188,-0.0698748,-0.201088,-0.0362321,0.452302,0.251472,0.19811,0.0227982,-0.386368,-0.0326529,0.181695,0.685544,0.129941,0.0010546,0.00176534
41329367,-1.29554,0.275317,-1.92662,-1.26167,-0.609931,0.810888,3.02011,0.249536,0.145577,0.110794,0.282563,0.475265,0.149663,0.0772409,-0.0452496,-0.231929,0.0596094,0.17881,0.68763,0.130884,0.00102095,0.0016556
41528004,-1.29669,0.275168,-1.92802,-1.26298,-0.61132,0.809213,3.01857,-0.111466,-0.100636,-0.0502324,0.083716,-0.0084567,0.0424908,-0.025719,-0.0757009,-0.038415,0.130036,0.178645,0.687687,0.130994,0.0010218,0.00165285
41736634,-1.29912,0.272522,-1.92851,-1.26599,-0.617432,0.80104,3.01918,-0.0487956,0.0348941,0.141759,0.259853,-0.0185451,0.220331,0.151076,0.144037,0.32527,0.424803,0.177512,0.689378,0.130564,0.000974086,0.00157231
41935212,-1.30216,0.271525,-1.93103,-1.26924,-0.621467,0.796463,3.01708,-0.140848,-0.0449175,0.0725623,0.193866,-0.119685,-0.0304079,-0.102131,-0.103849,0.101937,0.196685,0.177168,0.689838,0.130478,0.00096302,0.00155243
42133848,-1.29842,0.26838,-1.92999,-1.26752,-0.62672,0.785338,3.01742,-0.130867,-0.0479118,0.0662379,0.213455,-0.0786247,0.368491,0.285408,0.267287,0.450053,0.586764,0.173783,0.692552,0.131327,0.000914348,0.00142394
42337452,-1.30506,0.267272,-1.93441,-1.27337,-0.633848,0.77887,3.01468,0.0695974,0.128441,0.196745,0.260275,0.0735083,0.10878,0.0710497,0.073899,0.197787,0.242337,0.174221,0.693077,0.130409,0.000888706,0.00140465
42536113,-1.3042,0.267472,-1.93434,-1.27298,-0.633187,0.779147,3.01398,0.00858045,0.0586654,0.0850473,0.0315843,-0.0748218,-0.20069,-0.178838,-0.134591,-0.0405483,-0.143091,0.173899,0.692956,0.130837,0.000898581,0.00140884
42734734,-1.30271,0.266534,-1.93168,-1.27142,-0.632598,0.779337,3.01788,-0.10535,-0.0825854,-0.103267,-0.239108,-0.231779,-0.040141,0.0257961,0.0885087,0.118873,-0.0721132,0.173727,0.693552,0.130456,0.000879737,0.00138497
42928398,-1.30537,0.267252,-1.93537,-1.27403,-0.634364,0.777734,3.01337,0.156375,0.116672,0.0667606,0.00789234,0.146018,0.238054,0.271963,0.273146,0.18625,0.139301,0.173968,0.692991,0.130739,0.000895302,0.0014064
43136975,-1.29996,0.267966,-1.93155,-1.2687,-0.627805,0.784308,3.01614,-0.0333169,-0.142921,-0.212461,-0.140618,0.121557,0.291888,0.267862,0.182834,-0.0304736,0.141673,0.174146,0.692277,0.131227,0.000916999,0.00143342
43335656,-1.29896,0.263854,-1.92263,-1.26759,-0.627684,0.784914,3.02799,0.117014,-0.0396834,-0.139927,-0.0396901,0.334313,-0.0396659,-0.0727537,-0.192524,-0.496509,-0.255759,0.17415,0.694307,0.129344,0.000845125,0.00135451
43539215,-1.3027,0.262005,-1.92386,-1.26783,-0.631566,0.784319,3.03201,-0.0127045,-0.185587,-0.308627,-0.239194,0.196511,0.0910938,0.0744851,-0.0414868,-0.38373,-0.168234,0.176218,0.694784,0.126857,0.000797964,0.00134268
43737847,-1.29313,0.255978,-1.90963,-1.25998,-0.630416,0.781289,3.04788,0.266815,0.0733701,-0.0595931,0.0365795,0.516289,-0.0370197,-0.064669,-0.201283,-0.584461,-0.316978,0.173345,0.698714,0.126038,0.000713293,0.00118998
43931520,-1.2977,0.250748,-1.90338,-1.26289,-0.634933,0.779285,3.06004,0.0782113,-0.138123,-0.28529,-0.173417,0.367505,0.0415147,0.00623763,-0.148568,-0.580546,-0.268519,0.174603,0.700934,0.122714,0.000632137,0.00111677
44130158,-1.29863,0.242713,-1.8913,-1.26111,-0.641391,0.774713,3.08214,0.157315,-0.0751389,-0.21816,-0.041327,0.517211,-0.0768514,-0.14304,-0.33116,-0.795782,-0.378887,0.175416,0.705227,0.117865,0.000511632,0.000979992
44328794,-1.2998,0.235549,-1.88296,-1.26169,-0.649896,0.765099,3.09714,0.198247,-0.0319651,-0.177655,-0.0118903,0.556021,-0.0115214,-0.0739355,-0.256807,-0.727473,-0.313175,0.174445,0.70948,0.114794,0.000426603,0.000854198
44537364,-1.3129,0.232546,-1.88527,-1.26888,-0.658495,0.76542,3.1059,-0.120996,-0.310233,-0.434882,-0.314326,0.168687,-0.011656,-0.0570773,-0.201839,-0.596616,-0.266334,0.179819,0.70943,0.109522,0.000375166,0.000854245
44736002,-1.31028,0.225613,-1.87717,-1.27019,-0.670386,0.745283,3.11512,0.498302,0.335348,0.230922,0.351612,0.761259,-0.227671,-0.273738,-0.404464,-0.747899,-0.436885,0.174205,0.71548,0.1093,0.000316455,0.000697949
44934638,-1.32971,0.221978,-1.8863,-1.28556,-0.689158,0.732647,3.11594,-0.0122074,-0.174872,-0.271409,-0.12183,0.281385,-0.132803,-0.194836,-0.336882,-0.684341,-0.324633,0.177702,0.71651,0.104845,0.000272424,0.000670273
45133276,-1.33692,0.219726,-1.88953,-1.29135,-0.696571,0.727117,3.11635,-0.0171584,-0.181152,-0.264084,-0.0505814,0.327145,0.143134,0.0526288,-0.113675,-0.467003,-0.0151169,0.178849,0.71711,0.103133,0.000254767,0.000653696
45336881,-1.33942,0.216597,-1.88516,-1.29179,-0.700353,0.726205,3.12692,0.0468897,-0.0851936,-0.132165,0.121312,0.385147,-0.0127147,-0.122153,-0.286348,-0.570171,-0.0957878,0.180481,0.718266,0.100402,0.000226999,0.000623287
45535520,-1.33441,0.215064,-1.87828,-1.28701,-0.697873,0.727809,3.13483,0.102004,0.0595357,0.0778517,0.298325,0.313627,0.0820192,-0.0148104,-0.119063,-0.208269,0.130429,0.179904,0.719351,0.0999296,0.000216771,0.000599252
45734155,-1.32815,0.214127,-1.87012,-1.28026,-0.692482,0.733693,-3.13857,0.0320488,0.0641887,0.134253,0.314228,0.127481,0.0412842,-0.0393649,-0.0889831,-0.013842,0.191448,0.180237,0.719747,0.0992179,0.000209471,0.000589371
45937759,-1.3254,0.21239,-1.86174,-1.27489,-0.68902,0.741089,-3.1242,0.0747308,0.199725,0.330806,0.445619,0.0133758,-0.00937247,-0.0630896,-0.039282,0.241923,0.258876,0.182831,0.719651,0.0967398,0.000193379,0.000584402
46136396,-1.32801,0.208793,-1.85445,-1.27357,-0.691769,0.743689,-3.10596,0.0448872,0.237815,0.405917,0.440175,-0.15702,0.0282593,0.00908726,0.0987665,0.533127,0.36403,0.186664,0.719998,0.092609,0.000165141,0.000563342
46335217,-1.33998,0.202065,-1.8548,-1.28406,-0.711096,0.723986,-3.09353,-0.136217,0.120647,0.324249,0.281784,-0.474572,0.02938,0.0434827,0.195519,0.779922,0.425903,0.187372,0.723281,0.0887296,0.00012887,0.000489273
46538638,-1.36006,0.193772,-1.85577,-1.29883,-0.736197,0.705554,-3.07249,-0.0423603,0.255382,0.478227,0.371432,-0.489476,0.0311788,0.0758909,0.274293,0.963712,0.453803,0.192737,0.725182,0.0815652,8.86597e-05,0.0004267
46737275,-1.37282,0.18443,-1.84981,-1.30838,-0.758395,0.686345,-3.04455,-0.115148,0.202469,0.431651,0.268388,-0.642399,-0.00591028,0.0652982,0.295462,1.05378,0.40893,0.195979,0.728379,0.075234,5.78368e-05,0.000350881
46930949,-1.39606,0.174119,-1.85202,-1.32839,-0.792871,0.655319,-3.02118,-0.117455,0.225285,0.468626,0.260794,-0.729387,-0.032858,0.0609741,0.321809,1.16917,0.385673,0.199828,0.731507,0.0683515,3.43407e-05,0.000278715
47129697,-1.4196,0.16172,-1.85173,-1.35146,-0.836572,0.609255,-2.99108,-0.234227,0.120384,0.36316,0.0835609,-0.933959,0.0391195,0.165953,0.459544,1.37603,0.421391,0.200553,0.737575,0.0616625,1.70758e-05,0.000192784
47338154,-1.44282,0.150684,-1.85176,-1.37354,-0.877549,0.568603,-2.96068,-0.178883,0.168253,0.404839,0.0989273,-0.921105,0.00283432,0.146148,0.446676,1.39796,0.337025,0.203098,0.741585,0.0551716,8.25674e-06,0.000137653
47536792,-1.44235,0.138854,-1.82993,-1.37786,-0.907534,0.524377,-2.91081,-0.428156,-0.0974798,0.131132,-0.176935,-1.17761,0.102297,0.249868,0.543103,1.504,0.38927,0.197027,0.751684,0.0512046,3.5888e-06,8.03736e-05
47730463,-1.46581,0.132464,-1.83225,-1.39519,-0.934187,0.514377,-2.88187,0.111869,0.403677,0.606218,0.310275,-0.610465,0.0194848,0.167981,0.437803,1.3504,0.230994,0.209316,0.746417,0.044192,1.82135e-06,7.30486e-05
47929228,-1.47526,0.127433,-1.82908,-1.4025,-0.957073,0.497553,-2.85503,-0.117156,0.113577,0.272945,-0.0172816,-0.724805,0.151026,0.284413,0.513502,1.27864,0.275025,0.213835,0.745855,0.0402485,1.0027e-06,6.02319e-05
48137671,-1.48934,0.123505,-1.83092,-1.41662,-0.981583,0.476652,-2.84003,-0.239022,-0.0789887,0.0254524,-0.258359,-0.712846,0.278361,0.396781,0.579597,1.15151,0.308219,0.216345,0.745916,0.0376865,6.23262e-07,5.09784e-05
48336309,-1.50689,0.121862,-1.8398,-1.43175,-1.00006,0.469486,-2.83666,0.0116959,0.106539,0.158766,-0.119392,-0.330291,0.323754,0.42694,0.566266,0.943948,0.273466,0.222742,0.741879,0.0353277,4.69956e-07,5.09577e-05
48530031,-1.51678,0.121121,-1.84613,-1.4405,-1.00999,0.465044,-2.83857,0.0379248,0.0862981,0.100065,-0.175911,-0.202119,0.139417,0.230296,0.338488,0.564813,0.0365603,0.225726,0.739878,0.0343445,4.18649e-07,5.12541e-05
48738639,-1.52224,0.120273,-1.84655,-1.44647,-1.0126,0.464296,-2.83822,-0.00528437,-0.00221795,-0.021598,-0.247914,-0.124249,0.115721,0.181673,0.246112,0.308573,-0.0110674,0.227249,0.738797,0.033902,3.98284e-07,5.15855e-05
48937187,-1.52185,0.119954,-1.84374,-1.44511,-1.01197,0.469881,-2.83326,-0.078827,-0.109782,-0.158241,-0.375073,-0.119913,0.223379,0.279459,0.319656,0.263157,0.0633042,0.22978,0.736856,0.0333106,3.79054e-07,5.29515e-05
49135825,-1.51743,0.120044,-1.84074,-1.43901,-1.01101,0.473972,-2.82728,-0.0509363,-0.120972,-0.19981,-0.382039,0.00868344,0.106937,0.144529,0.149741,-0.0498407,-0.0782593,0.231439,0.735617,0.0328902,3.62013e-07,5.35166e-05
49334484,-1.51377,0.119301,-1.83591,-1.43549,-1.00879,0.475099,-2.81999,0.0918784,-0.0193637,-0.133372,-0.302672,0.246614,0.145558,0.170948,0.146426,-0.199541,-0.079105,0.231569,0.73563,0.0327473,3.47806e-07,5.27909e-05
49533190,-1.50676,0.118021,-1.82662,-1.42856,-1.0042,0.478289,-2.80598,0.0817108,-0.0680683,-0.217953,-0.398295,0.315311,0.171947,0.192678,0.147121,-0.331215,-0.101706,0.23214,0.735437,0.0323715,3.1815e-07,5.14458e-05
49736704,-1.50576,0.116065,-1.82189,-1.42799,-1.00798,0.470619,-2.79296,0.0885559,-0.0876811,-0.25789,-0.41297,0.393417,0.0885997,0.0956906,0.0255795,-0.552803,-0.198746,0.232463,0.735748,0.0317404,2.65792e-07,4.80635e-05
49930376,-1.51191,0.113723,-1.82309,-1.43433,-1.01948,0.455716,-2.78353,0.0683707,-0.128077,-0.316663,-0.477678,0.419961,0.0987459,0.101578,0.0193651,-0.633778,-0.209475,0.233621,0.735519,0.0308152,2.09583e-07,4.45832e-05
50138946,-1.51449,0.110219,-1.8188,-1.44075,-1.0291,0.432185,-2.76952,0.250912,0.0408061,-0.161438,-0.337549,0.633079,0.0382063,0.0401202,-0.0477839,-0.753952,-0.286498,0.229552,0.739733,0.0306774,1.61502e-07,3.72032e-05
50337655,-1.52209,0.108489,-1.82469,-1.44646,-1.04246,0.421222,-2.76496,0.00155491,-0.214978,-0.419352,-0.575407,0.417909,0.281387,0.272191,0.171944,-0.569134,-0.029843,0.232717,0.73767,0.029577,1.30332e-07,3.63209e-05
50536221,-1.52542,0.104693,-1.81938,-1.45294,-1.05276,0.398982,-2.74692,0.18884,-0.0416271,-0.259179,-0.4194,0.640649,0.0739059,0.0608844,-0.0482228,-0.848898,-0.24772,0.230481,0.740537,0.0289515,9.20597e-08,3.03872e-05
50734859,-1.52509,0.100662,-1.81196,-1.45622,-1.06769,0.365802,-2.7209,0.297079,0.0642919,-0.14881,-0.259939,0.788226,-0.123737,-0.155813,-0.283394,-1.11871,-0.408285,0.225597,0.746046,0.0283341,5.57264e-08,2.27465e-05
50933498,-1.51774,0.0971675,-1.79641,-1.4501,-1.07104,0.353192,-2.68641,0.127647,-0.102864,-0.307538,-0.373006,0.651941,-0.0238715,-0.0750105,-0.218452,-1.0787,-0.26214,0.225906,0.747072,0.0270035,3.344e-08,1.88825e-05
51132134,-1.49641,0.093746,-1.77043,-1.43213,-1.06202,0.345847,-2.64754,0.265267,0.039075,-0.157797,-0.186277,0.808797,0.129728,0.0646306,-0.0894792,-0.968012,-0.0674853,0.220449,0.752627,0.0269099,2.2907e-08,1.46793e-05
51335738,-1.48663,0.0905206,-1.75328,-1.42425,-1.06377,0.331774,-2.61272,0.196225,-0.0131708,-0.188921,-0.161859,0.735054,-0.0390612,-0.119211,-0.280425,-1.12888,-0.176734,0.218986,0.755052,0.0259506,1.37173e-08,1.18075e-05
51534376,-1.48499,0.0886206,-1.7464,-1.42278,-1.06742,0.324947,-2.59424,0.0310074,-0.138653,-0.280006,-0.254222,0.480495,0.0187422,-0.0516647,-0.186476,-0.895602,-0.0766251,0.220631,0.754366,0.0249931,9.73063e-09,1.08233e-05
51738031,-1.49478,0.0877531,-1.75347,-1.432,-1.07839,0.315609,-2.59584,-0.102229,-0.22206,-0.315058,-0.233005,0.243508,0.0846284,0.0158274,-0.0986529,-0.633333,0.0594174,0.223028,0.752624,0.0243363,8.22121e-09,1.07425e-05
51936666,-1.49596,0.0871098,-1.75179,-1.43261,-1.08101,0.314309,-2.58853,-0.0434543,-0.126738,-0.182823,-0.0427331,0.228655,-0.0945694,-0.165205,-0.268393,-0.674909,-0.0634443,0.225495,0.750827,0.0236673,6.91834e-09,1.06635e-05
52135255,-1.49879,0.0865981,-1.75321,-1.43585,-1.08632,0.305963,-2.58688,0.169627,0.126024,0.109498,0.306076,0.35828,-0.0167592,-0.0873125,-0.176185,-0.438451,0.0704114,0.225165,0.751334,0.0234907,6.2126e-09,1.02043e-05
52328927,-1.5025,0.0863344,-1.75586,-1.43939,-1.09076,0.301395,-2.58761,-0.00495669,-0.0164494,-0.000710964,0.243517,0.1167,-0.0363977,-0.107372,-0.18517,-0.330111,0.0968161,0.225989,0.750749,0.023252,5.81624e-09,1.0153e-05
52527767,-1.50202,0.0860464,-1.75419,-1.43864,-1.09096,0.301162,-2.5837,-0.014177,-0.000909626,0.0416711,0.344493,0.0630412,-0.0560185,-0.132737,-0.207758,-0.269277,0.124069,0.227103,0.749925,0.0229622,5.4037e-09,1.01383e-05
52731171,-1.5051,0.0857848,-1.75645,-1.44155,-1.09452,0.297488,-2.58442,-0.0835837,-0.0513943,0.00842893,0.322055,-0.0532691,-0.0607237,-0.132695,-0.196127,-0.180354,0.13554,0.227858,0.749364,0.0227682,5.14279e-09,1.013e-05
52939738,-1.51192,0.0855208,-1.76201,-1.44788,-1.10153,0.291269,-2.58774,-0.00948943,0.0446029,0.122884,0.431496,-0.0397824,-0.13024,-0.192196,-0.237502,-0.12486,0.0747214,0.229547,0.748024,0.0224186,4.79405e-09,1.02493e-05
53138375,-1.5193,0.0856851,-1.77261,-1.45456,-1.11321,0.279324,-2.59728,-0.151725,-0.085683,-0.00670049,0.198969,-0.251987,-0.0635647,-0.0935885,-0.101442,0.103914,0.0890047,0.22873,0.748766,0.0224941,4.72927e-09,1.00258e-05
53337031,-1.51941,0.0853633,-1.772,-1.45482,-1.11435,0.276453,-2.5947,-0.033785,0.0426427,0.116178,0.166336,-0.218691,-0.0515816,-0.0366399,0.00602371,0.317613,0.0183424,0.2287,0.748889,0.0224012,4.48728e-09,9.83919e-06
53535657,-1.50768,0.0847087,-1.75893,-1.44359,-1.10497,0.282081,-2.57755,-0.0663613,0.0153332,0.0770499,-0.0497509,-0.330051,-0.0565302,0.0070765,0.10233,0.507636,-0.0846486,0.228178,0.74954,0.0222729,4.02708e-09,9.37803e-06
53734289,-1.50752,0.0838393,-1.75581,-1.44295,-1.1065,0.279503,-2.56746,0.0805116,0.164464,0.215636,-0.0475282,-0.239159,0.00498986,0.105569,0.240184,0.712633,-0.100825,0.230644,0.74773,0.0216161,3.29274e-09,9.23767e-06
53932927,-1.5058,0.0827657,-1.75005,-1.44292,-1.10348,0.277053,-2.55901,0.038977,0.0979185,0.126424,-0.147209,-0.216415,-0.166912,-0.073509,0.0450327,0.415434,-0.292064,0.229554,0.748814,0.0216235,3.0573e-09,8.80054e-06
54131707,-1.49872,0.0825317,-1.74219,-1.43581,-1.09705,0.282831,-2.54909,0.00195147,0.0274216,0.0331191,-0.166994,-0.137128,0.00863582,0.0697579,0.142838,0.336719,-0.0916823,0.229993,0.748526,0.0214717,2.88535e-09,8.7153e-06
54335168,-1.49437,0.0824622,-1.73782,-1.43153,-1.09289,0.286667,-2.54455,0.10654,0.0911287,0.0621341,-0.123872,0.0832955,-0.00782651,0.0331504,0.0709978,0.0776361,-0.119027,0.229835,0.748675,0.0214814,2.87159e-09,8.67287e-06
54533806,-1.49496,0.0822747,-1.73743,-1.43213,-1.09435,0.284632,-2.54171,-0.166062,-0.202622,-0.249607,-0.428027,-0.129385,-0.140944,-0.110417,-0.0908476,-0.181415,-0.257576,0.230305,0.748371,0.0213159,2.67833e-09,8.55954e-06
54737422,-1.50074,0.0821152,-1.7421,-1.43753,-1.10024,0.279574,-2.54394,-0.110154,-0.141436,-0.189532,-0.431996,-0.109983,0.0803078,0.129457,0.170454,0.129883,-0.0698135,0.231731,0.74723,0.0210302,2.49105e-09,8.61778e-06
54936180,-1.50848,0.0819463,-1.74956,-1.4452,-1.10806,0.27178,-2.55072,0.159778,0.155998,0.129395,-0.143114,0.0752197,0.00420392,0.0721933,0.142523,0.237567,-0.150298,0.232041,0.746992,0.0209576,2.44079e-09,8.61844e-06
55129720,-1.515,0.0815263,-1.75558,-1.45241,-1.11652,0.259748,-2.5545,-0.0295679,-0.0247062,-0.046065,-0.344579,-0.146612,-0.152019,-0.0737767,0.0103197,0.155124,-0.317365,0.230665,0.748297,0.0210299,2.3068e-09,8.21464e-06
55328358,-1.5083,0.0811087,-1.74727,-1.44581,-1.11154,0.262869,-2.54197,-0.166007,-0.174058,-0.207751,-0.517879,-0.251852,-0.0131882,0.0627876,0.14009,0.233039,-0.191061,0.231207,0.748016,0.020769,2.03864e-09,7.98346e-06
55536927,-1.5103,0.0808105,-1.74804,-1.4479,-1.11489,0.25816,-2.53956,-0.158403,-0.189832,-0.240161,-0.50708,-0.164511,-0.0813979,-0.0264744,0.0207843,-0.00946289,-0.244249,0.231627,0.747791,0.0205745,1.85435e-09,7.81156e-06
55735657,-1.51986,0.0805565,-1.75694,-1.45765,-1.12547,0.246221,-2.54665,0.0168751,-0.0351527,-0.10085,-0.33693,0.0785375,-0.0512309,-0.0130532,0.00962853,-0.127346,-0.20443,0.231528,0.747963,0.0205016,1.75532e-09,7.65833e-06
55934208,-1.52369,0.0802501,-1.76011,-1.46185,-1.13076,0.238668,-2.54792,0.0524345,-0.00705162,-0.0779817,-0.298945,0.140226,-0.0959195,-0.0648941,-0.0522329,-0.229793,-0.24313,0.230949,0.748565,0.0204784,1.65575e-09,7.42297e-06
56137848,-1.52838,0.0800773,-1.76427,-1.46672,-1.13635,0.231849,-2.55067,0.0169623,-0.0303671,-0.0833463,-0.220933,0.100554,-0.106809,-0.0921741,-0.0926304,-0.250685,-0.201858,0.230788,0.748774,0.0204305,1.58499e-09,7.29395e-06
56336444,-1.52735,0.0800867,-1.76297,-1.46553,-1.13521,0.233589,-2.54892,-0.129165,-0.145854,-0.159549,-0.15411,-0.080676,-0.102951,-0.111944,-0.126979,-0.20677,-0.105533,0.231304,0.748338,0.0203502,1.56187e-09,7.34077e-06
56535155,-1.52041,0.0800071,-1.75638,-1.45892,-1.12867,0.239054,-2.54279,-0.231575,-0.200298,-0.157064,0.0197117,-0.256622,-0.00818086,-0.040512,-0.0640235,0.00199533,0.103727,0.230362,0.749144,0.0204866,1.59166e-09,7.23879e-06
56733720,-1.5186,0.079554,-1.75202,-1.45634,-1.12758,0.240879,-2.53296,0.161456,0.243601,0.34452,0.671854,0.0478112,-0.0413964,-0.0905582,-0.114687,0.119136,0.174534,0.233531,0.746602,0.0198598,1.33538e-09,7.32225e-06
56932369,-1.52392,0.0782551,-1.75315,-1.46183,-1.13727,0.225858,-2.52344,0.0334165,0.167226,0.325687,0.795488,-0.176093,0.0708841,0.00828815,-0.0128837,0.399365,0.383338,0.235349,0.745466,0.019178,9.58593e-10,6.85489e-06
57135961,-1.53415,0.0768443,-1.75958,-1.4718,-1.15047,0.210095,-2.52101,-0.0803192,0.0657372,0.245485,0.847779,-0.285429,-0.159849,-0.248219,-0.293417,0.121298,0.224685,0.238115,0.743402,0.0184763,7.15913e-10,6.64249e-06
57334668,-1.52495,0.0757987,-1.75091,-1.46275,-1.15079,0.20257,-2.50348,-0.11233,0.00879367,0.166802,0.779956,-0.249599,0.0930332,-0.00698221,-0.073489,0.222152,0.470734,0.236515,0.745218,0.0182616,5.4005e-10,5.89161e-06
57533239,-1.51107,0.0743425,-1.73265,-1.45181,-1.13815,0.203522,-2.48069,-0.193796,-0.112561,0.00339304,0.54455,-0.247785,0.182349,0.0842563,0.00604212,0.143,0.505678,0.232498,0.748985,0.0185121,4.77112e-10,5.20323e-06
57736841,-1.4987,0.0740865,-1.72271,-1.43922,-1.13256,0.205886,-2.46736,-0.0756648,-0.018603,0.0679034,0.515204,-0.0936078,0.141348,0.0561795,-0.0163536,0.0452363,0.406022,0.230769,0.750682,0.0185439,4.26207e-10,4.8415e-06
57935531,-1.50271,0.073852,-1.72675,-1.44372,-1.1377,0.198402,-2.47093,-0.159345,-0.122451,-0.0669115,0.219291,-0.172925,0.0828757,0.0288386,-0.017073,0.023138,0.251926,0.229468,0.751864,0.0186636,4.20804e-10,4.68666e-06
58134165,-1.52153,0.0737477,-1.74522,-1.46257,-1.15697,0.17869,-2.48832,0.0139646,0.0324633,0.0652782,0.270444,0.0268959,0.0118037,-0.0307467,-0.0702733,-0.0808028,0.131768,0.229605,0.751787,0.0186033,4.06695e-10,4.65286e-06
58327789,-1.53742,0.0732612,-1.75743,-1.47973,-1.1695,0.163182,-2.4997,0.000495039,-0.00606479,-0.000522263,0.139639,0.0642955,0.0629873,0.0246967,-0.0182794,-0.119692,0.141822,0.229342,0.752041,0.0186127,4.00988e-10,4.60604e-06
58536358,-1.53613,0.0731265,-1.75553,-1.47841,-1.16872,0.163492,-2.49616,0.031534,0.00734568,-0.00328674,0.128852,0.143408,-0.0483587,-0.09313,-0.148648,-0.332739,0.0231957,0.229777,0.751721,0.0184969,3.80528e-10,4.5785e-06
58730030,-1.52892,0.0734243,-1.75179,-1.4703,-1.16595,0.167434,-2.49233,0.0432234,0.0167851,0.000668928,0.089281,0.147499,0.0989445,0.0639675,0.0181913,-0.155853,0.145469,0.229199,0.752253,0.0185436,3.76197e-10,4.50432e-06
58938600,-1.51439,0.0729824,-1.73353,-1.45696,-1.14785,0.182625,-2.47273,0.108043,0.0921149,0.0825818,0.137705,0.171391,-0.0539031,-0.0754586,-0.103535,-0.209446,-0.0247771,0.229171,0.752307,0.0185179,3.68292e-10,4.47323e-06
59137238,-1.50531,0.0729929,-1.72441,-1.44788,-1.13884,0.191535,-2.46335,0.0933174,0.0864949,0.0809017,0.0847644,0.114013,-0.116592,-0.120939,-0.127717,-0.163388,-0.115325,0.229156,0.752327,0.0185124,3.66403e-10,4.46503e-06
59335877,-1.49379,0.0729899,-1.71277,-1.43634,-1.12736,0.202957,-2.45129,0.0185084,0.00601346,-0.00221814,0.031514,0.0651337,-0.0582303,-0.0727782,-0.0922759,-0.170768,-0.0407507,0.229285,0.752227,0.0184841,3.62371e-10,4.46313e-06
59534517,-1.48004,0.0728694,-1.69878,-1.42286,-1.11448,0.214221,-2.4362,0.158632,0.128056,0.104579,0.146845,0.260097,-0.0173931,-0.0428456,-0.0797511,-0.251696,0.00241244,0.228716,0.752774,0.0185057,3.52126e-10,4.3696e-06
59733151,-1.47347,0.0727941,-1.69188,-1.41619,-1.10798,0.220754,-2.42838,-0.062044,-0.0989232,-0.128277,-0.0901009,0.0564224,0.0169996,-0.010561,-0.0517091,-0.253097,0.0338582,0.229179,0.752395,0.0184215,3.42393e-10,4.3778e-06
59936759,-1.4677,0.0727336,-1.68592,-1.41059,-1.10276,0.224918,-2.4216,0.172474,0.150276,0.131841,0.1449,0.240531,-0.0989518,-0.113088,-0.135219,-0.251616,-0.094402,0.22885,0.752718,0.0184273,3.35174e-10,4.31879e-06
60135393,-1.45893,0.0727545,-1.67719,-1.40182,-1.09398,0.2337,-2.41292,0.0372669,0.0435441,0.0479246,0.032652,0.0140704,-0.0820842,-0.0752483,-0.0659124,-0.0272021,-0.0899728,0.228804,0.752756,0.0184357,3.36048e-10,4.31763e-06
60338997,-1.44745,0.0726798,-1.66586,-1.39049,-1.08276,0.244184,-2.40167,0.0491598,0.0786302,0.098464,0.0203442,-0.0610955,-0.164507,-0.130655,-0.0850479,0.10006,-0.205274,0.228303,0.753194,0.0184986,3.38166e-10,4.27678e-06
60537635,-1.45411,0.0726486,-1.67532,-1.39655,-1.09503,0.231386,-2.41067,0.00753705,0.0569561,0.086566,-0.0900553,-0.191915,-0.143399,-0.0751784,0.0135365,0.346946,-0.237924,0.227383,0.754082,0.0185308,3.2092e-10,4.12316e-06
60736274,-1.45199,0.0717275,-1.66959,-1.3962,-1.09082,0.228732,-2.40188,0.0434756,0.1027,0.137968,-0.0764926,-0.196799,-0.223117,-0.140418,-0.0331499,0.36948,-0.33898,0.225687,0.755655,0.0186544,3.05821e-10,3.90955e-06
60934912,-1.45328,0.0707855,-1.66847,-1.39846,-1.09674,0.214337,-2.39341,-0.203696,-0.137558,-0.0988925,-0.347379,-0.47558,-0.0165501,0.0784407,0.200955,0.657375,-0.152563,0.224443,0.757071,0.0184831,2.42027e-10,3.54459e-06
61133721,-1.45639,0.0699339,-1.66986,-1.40214,-1.10286,0.202812,-2.38968,0.0155661,0.0830838,0.121101,-0.154121,-0.269696,-0.120482,-0.0174371,0.114036,0.598345,-0.275254,0.223897,0.757766,0.0183335,2.04913e-10,3.33135e-06
61327248,-1.45029,0.0690147,-1.66209,-1.39721,-1.10119,0.195736,-2.37609,-0.145111,-0.0782416,-0.0390631,-0.293967,-0.422527,-0.123708,-0.0256202,0.100274,0.575565,-0.269137,0.221641,0.760007,0.0183497,1.71206e-10,2.99814e-06
61530824,-1.45191,0.0683989,-1.6624,-1.39951,-1.10568,0.185743,-2.37218,-0.108272,-0.049472,-0.0126134,-0.206351,-0.343773,-0.0743715,0.00501108,0.108191,0.515295,-0.187752,0.220529,0.761166,0.018302,1.4965e-10,2.80784e-06
61729462,-1.45248,0.0682857,-1.66287,-1.40024,-1.10669,0.183736,-2.37225,0.0297769,0.0548747,0.0682095,-0.0471936,-0.0813549,-0.108106,-0.065868,-0.0128922,0.180668,-0.176579,0.220126,0.76154,0.0183317,1.47894e-10,2.77139e-06
61938188,-1.44901,0.0682871,-1.65907,-1.39664,-1.10327,0.18725,-2.36787,-0.216467,-0.234493,-0.254688,-0.314305,-0.181444,-0.0932026,-0.0880101,-0.0878833,-0.147866,-0.127457,0.220694,0.761063,0.0182398,1.44033e-10,2.78649e-06
62136678,-1.43745,0.0681633,-1.64728,-1.38523,-1.09229,0.197003,-2.35522,0.0211346,-0.0136377,-0.039264,0.0242396,0.144534,0.066954,0.0325118,-0.0150425,-0.229814,0.105143,0.220413,0.761342,0.0182425,1.40787e-10,2.74969e-06
62335307,-1.44491,0.0679356,-1.65351,-1.39239,-1.10026,0.188619,-2.35864,-0.0358874,-0.0720493,-0.0919137,0.06496,0.120784,-0.101548,-0.160001,-0.233802,-0.507859,-0.00872087,0.221931,0.760111,0.0179546,1.26838e-10,2.76471e-06
62533946,-1.44629,0.0675991,-1.65431,-1.39405,-1.10283,0.183632,-2.35752,-0.0689364,-0.0893923,-0.0873319,0.18066,0.0748378,0.0954021,0.0179236,-0.0716984,-0.326935,0.252034,0.221509,0.760558,0.0179307,1.19748e-10,2.69245e-06
62732683,-1.45369,0.0671653,-1.66009,-1.40139,-1.11168,0.172623,-2.35905,0.0253393,0.0215826,0.0443687,0.395711,0.144694,-0.0362757,-0.125371,-0.222527,-0.438496,0.168042,0.222645,0.759718,0.0176351,1.03244e-10,2.6502e-06
62936190,-1.46245,0.0667255,-1.66781,-1.4105,-1.12225,0.158575,-2.36357,-0.0191998,-0.0057061,0.0341253,0.41462,0.0564467,0.0705106,-0.0161116,-0.105577,-0.249103,0.290053,0.222271,0.760173,0.0175534,9.31846e-11,2.55158e-06
63134825,-1.46836,0.0664279,-1.67305,-1.41648,-1.12895,0.150396,-2.36677,-0.0984948,-0.0646073,-0.00809336,0.358758,-0.0890307,-0.0212808,-0.0930883,-0.160601,-0.190316,0.188104,0.22249,0.760057,0.0174507,8.7119e-11,2.51677e-06
63333463,-1.47647,0.0660604,-1.68074,-1.42539,-1.13927,0.135124,-2.37241,-0.143093,-0.0828912,-0.0081649,0.293906,-0.233122,0.174284,0.133283,0.106758,0.253029,0.342497,0.220469,0.761932,0.0175961,8.26222e-11,2.36423e-06
63532165,-1.48448,0.0656376,-1.68766,-1.43364,-1.14885,0.122633,-2.37628,-0.0501239,0.0390893,0.133686,0.362073,-0.251103,-0.0258275,-0.0320328,-0.0125386,0.329911,0.0948536,0.220446,0.762072,0.0174803,7.44151e-11,2.2932e-06
63735705,-1.49588,0.0650413,-1.69766,-1.4456,-1.16283,0.103356,-2.38194,-0.102739,-0.00268675,0.096047,0.25171,-0.35958,-0.000324607,0.0180354,0.067143,0.5112,0.0746974,0.219698,0.762903,0.0173974,6.45817e-11,2.16383e-06
63929432,-1.49038,0.064942,-1.69502,-1.43975,-1.16406,0.100056,-2.37869,-0.177046,-0.0931199,-0.00942443,0.134715,-0.389782,-0.00789762,0.004825,0.0429544,0.409766,0.0607841,0.217986,0.764526,0.0174866,5.98745e-11,2.03304e-06
64137947,-1.4841,0.0648405,-1.68813,-1.43343,-1.15827,0.105259,-2.37031,0.0672223,0.110561,0.158682,0.302554,-0.0224435,0.0842179,0.0739537,0.0753201,0.224005,0.159556,0.218462,0.764159,0.0173777,5.66691e-11,2.02463e-06
64336636,-1.47939,0.0643818,-1.67973,-1.43006,-1.14989,0.108695,-2.35873,0.0446814,0.0518314,0.0715741,0.261002,0.0793303,0.131062,0.0885932,0.0446013,-0.0298057,0.240527,0.217804,0.764776,0.0174183,5.52791e-11,1.97891e-06
64530258,-1.46477,0.0644892,-1.66812,-1.41464,-1.14077,0.118844,-2.34784,-0.00337371,-0.0192688,-0.0180862,0.193674,0.108604,0.0845303,0.0230838,-0.0481153,-0.261464,0.2123,0.217331,0.76525,0.0174166,5.28153e-11,1.93164e-06
64738827,-1.46967,0.063832,-1.66867,-1.42063,-1.1422,0.112393,-2.34347,-0.0550055,-0.0847432,-0.0938641,0.143535,0.107147,0.0293272,-0.0466252,-0.137524,-0.442559,0.175707,0.217764,0.764963,0.0172707,4.81842e-11,1.90274e-06
64937464,-1.481,0.0640235,-1.68326,-1.43087,-1.1582,0.0996451,-2.36018,-0.1914,-0.214546,-0.222084,-0.0425891,-0.0669706,0.0841257,0.0263139,-0.043048,-0.278317,0.195178,0.217994,0.764771,0.0172331,4.7486e-11,1.90557e-06
65136184,-1.49438,0.0640026,-1.69649,-1.44425,-1.17179,0.0857529,-2.37289,0.0570718,0.0603594,0.0710349,0.181714,0.0796278,0.0011909,-0.0240448,-0.0504955,-0.0994351,0.0652797,0.218071,0.764721,0.0172063,4.66753e-11,1.9e-06
65334740,-1.5071,0.063682,-1.70549,-1.45789,-1.17956,0.0750754,-2.37869,0.162922,0.179031,0.199244,0.286546,0.139028,-0.0964191,-0.108312,-0.116616,-0.0811863,-0.0492489,0.218687,0.764189,0.017122,4.57234e-11,1.91729e-06
65533379,-1.51801,0.0636808,-1.71626,-1.46877,-1.19052,0.0641214,-2.38917,0.056408,0.0646642,0.0779615,0.164418,0.0564363,-0.024846,-0.0411679,-0.0565277,-0.0635705,0.0237304,0.21885,0.764055,0.0170933,4.52071e-11,1.91874e-06
65736982,-1.52189,0.0636803,-1.72013,-1.47272,-1.19454,0.059776,-2.39297,0.0102667,0.0119343,0.0179109,0.0821116,0.0239746,0.087382,0.0726471,0.0571229,0.0274863,0.124498,0.21867,0.764217,0.017111,4.51756e-11,1.91006e-06
65935649,-1.52627,0.0636638,-1.72434,-1.47711,-1.1991,0.054916,-2.39674,0.0693228,0.0776053,0.0922305,0.197338,0.0748152,0.0232025,0.00229144,-0.0180447,-0.036381,0.0827719,0.218725,0.764184,0.017089,4.44927e-11,1.90451e-06
66129293,-1.52289,0.0636276,-1.72089,-1.47388,-1.19614,0.0568123,-2.3928,-0.0561805,-0.0348985,-0.00986113,0.0819888,-0.0946841,0.170292,0.160344,0.155628,0.216679,0.218797,0.218325,0.764556,0.0171172,4.39899e-11,1.88033e-06
66337862,-1.50382,0.0638845,-1.7052,-1.45401,-1.18281,0.0719782,-2.37952,-0.218889,-0.190605,-0.163947,-0.135974,-0.297977,0.0881538,0.0981151,0.117018,0.255561,0.0972309,0.217581,0.765244,0.0171736,4.3296e-11,1.83886e-06
66536500,-1.49708,0.063529,-1.69461,-1.44827,-1.17129,0.0795058,-2.36482,0.0105258,0.0343027,0.0560229,0.0698693,-0.0589466,0.198029,0.208841,0.227367,0.349895,0.199799,0.21801,0.764898,0.0170896,4.17214e-11,1.83918e-06
66735135,-1.48302,0.0638719,-1.68391,-1.43309,-1.16215,0.0927299,-2.3573,0.152462,0.163108,0.173139,0.183656,0.122546,-0.0414809,-0.0376601,-0.0304736,0.0219303,-0.0382727,0.218246,0.764689,0.0170631,4.15957e-11,1.8481e-06
66938742,-1.48772,0.0635754,-1.68522,-1.43882,-1.16179,0.0894292,-2.35533,0.0683545,0.0700205,0.0725536,0.0879082,0.0676177,-0.0936761,-0.0964057,-0.098894,-0.0989449,-0.085219,0.218304,0.764638,0.0170556,4.15319e-11,1.84991e-06
67137380,-1.49726,0.0635857,-1.69459,-1.44832,-1.17135,0.079906,-2.36438,0.0228077,0.0155504,0.0101248,0.023056,0.0489177,-0.221389,-0.228843,-0.239007,-0.286748,-0.211985,0.218544,0.764438,0.0170164,4.09709e-11,1.85374e-06
67336025,-1.49553,0.0639258,-1.69625,-1.4455,-1.17465,0.0803766,-2.36923,-0.0426827,-0.0522542,-0.0620331,-0.0824451,-0.0192838,0.00465405,0.00402725,0.000622272,-0.0394213,-0.00494921,0.218614,0.764377,0.0170068,4.08661e-11,1.85552e-06
67534656,-1.49137,0.0639223,-1.69203,-1.44137,-1.17061,0.0842363,-2.3649,0.0206224,0.00421593,-0.0103175,-0.0133855,0.0702627,0.00696886,-0.00200582,-0.01643,-0.104826,0.00940788,0.21858,0.764413,0.0170049,4.06668e-11,1.85148e-06
67738260,-1.48458,0.0638731,-1.68503,-1.43463,-1.16409,0.0903451,-2.35755,0.0274401,-0.00457974,-0.0401972,-0.149943,0.0937795,0.0113699,0.0193496,0.0189036,-0.0900509,-0.0448284,0.218545,0.764459,0.0169941,4.01283e-11,1.84304e-06
67936898,-1.47387,0.0636516,-1.67391,-1.4243,-1.15461,0.0970368,-2.34492,0.0725969,0.0260625,-0.0332728,-0.301364,0.137071,-0.101357,-0.063073,-0.0347111,-0.126399,-0.246851,0.217718,0.76525,0.0170294,3.83942e-11,1.78461e-06
68135539,-1.46953,0.063275,-1.66896,-1.42033,-1.15165,0.0970797,-2.33812,0.149831,0.0885026,0.00779141,-0.382843,0.224327,0.0145543,0.0740162,0.121245,0.0238056,-0.198832,0.217012,0.765952,0.0170342,3.62155e-11,1.72655e-06
68334174,-1.47221,0.0625513,-1.66758,-1.42427,-1.15068,0.0904231,-2.33,0.0885086,0.0156346,-0.0765203,-0.488505,0.193171,0.00341922,0.0609413,0.102868,-0.0449499,-0.218736,0.216735,0.766314,0.0169487,3.26255e-11,1.66628e-06
68537778,-1.47628,0.0622387,-1.66995,-1.42796,-1.15553,0.0849276,-2.32844,-0.131769,-0.203739,-0.289817,-0.62753,-0.00703967,0.0407128,0.0800512,0.102587,-0.0867701,-0.136663,0.218984,0.764452,0.0165627,2.78212e-11,1.68371e-06
68736416,-1.48652,0.0618863,-1.67906,-1.43867,-1.16792,0.067822,-2.33401,0.0539894,-0.0156326,-0.0928221,-0.33206,0.201048,-0.218772,-0.202679,-0.204688,-0.444512,-0.33714,0.218285,0.765202,0.0165119,2.47491e-11,1.6034e-06
68935220,-1.49391,0.0616489,-1.68554,-1.44612,-1.17631,0.0575418,-2.33807,-0.00604565,-0.0728018,-0.142793,-0.314814,0.152571,-0.0469229,-0.0460319,-0.0636865,-0.331011,-0.125132,0.218703,0.764913,0.0163819,2.26259e-11,1.58055e-06
69133692,-1.49833,0.0614144,-1.68857,-1.45034,-1.18161,0.0510404,-2.33774,-0.0955136,-0.161779,-0.228657,-0.361547,0.0733606,-0.138016,-0.146684,-0.174575,-0.465201,-0.192344,0.220235,0.76366,0.0161038,1.97827e-11,1.58166e-06
69337299,-1.49639,0.0612096,-1.68634,-1.44892,-1.18114,0.0478413,-2.33398,0.209952,0.156923,0.103007,-0.00923254,0.343766,-0.0946708,-0.100397,-0.121352,-0.351421,-0.140739,0.218832,0.764968,0.0161985,1.90523e-11,1.51359e-06
69535934,-1.49349,0.061449,-1.68625,-1.44505,-1.18401,0.0484315,-2.33677,-0.045717,-0.0741795,-0.105509,-0.201784,0.0159992,-0.14253,-0.136886,-0.138562,-0.238748,-0.188283,0.21898,0.764866,0.0161526,1.84385e-11,1.5057e-06
69734693,-1.48963,0.0613563,-1.68214,-1.44142,-1.18091,0.0498145,-2.33168,-0.132938,-0.133028,-0.142963,-0.289923,-0.174731,-0.111479,-0.0755443,-0.0362602,0.059038,-0.198539,0.218467,0.765357,0.0161751,1.79322e-11,1.47576e-06
69938178,-1.47489,0.0608913,-1.66449,-1.42813,-1.16166,0.0621029,-2.30967,0.0392486,0.0628137,0.0723219,-0.0930291,-0.0821476,-0.231645,-0.176199,-0.109058,0.134423,-0.339406,0.2169,0.766764,0.016335,1.80326e-11,1.42209e-06
70136814,-1.46082,0.0606064,-1.64991,-1.41458,-1.14935,0.0700737,-2.29273,-0.152139,-0.124888,-0.112501,-0.282644,-0.286749,-0.11203,-0.0529268,0.0191956,0.287613,-0.224663,0.215581,0.768016,0.0164015,1.69371e-11,1.3535e-06
70330486,-1.44427,0.0604967,-1.63343,-1.39835,-1.13354,0.0839296,-2.27582,-0.0192527,-0.0043999,-0.000220537,-0.131694,-0.103795,-0.176599,-0.134771,-0.0849562,0.0878696,-0.261553,0.214551,0.768945,0.0165024,1.69061e-11,1.31858e-06
70529188,-1.43125,0.0604813,-1.62045,-1.38543,-1.12077,0.0960028,-2.26269,-0.00249045,-0.00225604,-0.00827681,-0.101639,-0.0299464,-0.115094,-0.0919988,-0.0666735,-0.00327957,-0.171015,0.214183,0.769277,0.0165389,1.68994e-11,1.30637e-06
70737695,-1.43023,0.0604734,-1.61938,-1.3845,-1.12002,0.0961076,-2.26134,0.00716272,-0.00562865,-0.0213013,-0.0892522,0.028231,-0.18341,-0.174966,-0.169217,-0.197952,-0.218349,0.21395,0.769493,0.0165551,1.67793e-11,1.29632e-06
70931367,-1.44112,0.0604493,-1.63002,-1.39541,-1.13114,0.0845052,-2.27141,0.0165986,-0.00519133,-0.0264577,-0.060774,0.0758337,-0.132555,-0.138212,-0.150333,-0.253498,-0.143296,0.214054,0.769422,0.0165226,1.64135e-11,1.29205e-06
71139936,-1.44374,0.0606174,-1.63503,-1.39717,-1.1399,0.079303,-2.27958,0.0558811,0.0259086,-0.000546398,-0.00574471,0.149417,-0.136494,-0.15463,-0.182625,-0.35268,-0.126022,0.214283,0.769262,0.0164542,1.56895e-11,1.28391e-06
71338645,-1.44981,0.0602636,-1.63767,-1.40416,-1.14096,0.072422,-2.27626,0.0530363,0.0171285,-0.0130556,0.00349456,0.171672,-0.100386,-0.127773,-0.167495,-0.386865,-0.0739604,0.214584,0.76905,0.0163641,1.47724e-11,1.27303e-06
71537212,-1.43921,0.0601951,-1.62673,-1.39365,-1.13093,0.0811245,-2.26419,0.157007,0.139146,0.127698,0.189931,0.23144,-0.059239,-0.0861925,-0.120524,-0.266169,-0.0135554,0.214487,0.769174,0.016337,1.42507e-11,1.25788e-06
71735873,-1.43684,0.060184,-1.62381,-1.39096,-1.12837,0.0844308,-2.26008,0.120605,0.12707,0.141828,0.280099,0.139396,-0.248099,-0.277912,-0.308767,-0.364145,-0.168226,0.215839,0.768009,0.0161506,1.34921e-11,1.28211e-06
71934488,-1.43264,0.0601634,-1.61962,-1.38674,-1.12411,0.0888736,-2.25594,-0.139164,-0.119936,-0.0925048,0.0695547,-0.154291,-0.0928625,-0.120131,-0.144754,-0.141569,-0.005009,0.215903,0.767952,0.0161443,1.35151e-11,1.2849e-06
72133155,-1.42645,0.060396,-1.61595,-1.37938,-1.12329,0.0956291,-2.25671,-0.0685494,-0.0556757,-0.0337272,0.129118,-0.0632701,-0.228588,-0.260192,-0.291286,-0.325702,-0.137249,0.216992,0.766994,0.0160134,1.31836e-11,1.3115e-06
72336730,-1.43981,0.0601094,-1.62606,-1.39349,-1.13102,0.0832407,-2.26106,0.0529463,0.0635716,0.0842009,0.25683,0.0680638,-0.0957515,-0.131177,-0.167076,-0.221004,0.00234169,0.217726,0.766371,0.0159012,1.26265e-11,1.32031e-06
72535369,-1.44666,0.0600903,-1.63278,-1.40026,-1.13776,0.076775,-2.26755,-0.033635,-0.00736567,0.0255124,0.177203,-0.0741784,-0.123818,-0.143876,-0.158706,-0.107062,-0.0457981,0.218065,0.766075,0.0158584,1.24958e-11,1.32768e-06
72738972,-1.45928,0.0600052,-1.64524,-1.41273,-1.15015,0.0651103,-2.27991,0.00523152,0.0589655,0.117391,0.29324,-0.115631,-0.242725,-0.2508,-0.245048,-0.0489078,-0.163419,0.218652,0.765553,0.0157943,1.23634e-11,1.34266e-06
72937638,-1.47246,0.0597718,-1.65721,-1.42545,-1.16337,0.0524882,-2.28935,0.15264,0.229461,0.309204,0.502703,-0.0364078,-0.107742,-0.105119,-0.0813677,0.238141,-0.0288986,0.220939,0.763577,0.0154821,1.10335e-11,1.37684e-06
73136249,-1.46705,0.0593134,-1.65163,-1.42114,-1.1606,0.0481073,-2.28161,-0.296377,-0.212346,-0.123806,0.107473,-0.497926,-0.0173841,-0.0190781,0.00186884,0.339868,0.0795621,0.217593,0.766648,0.0157575,1.06776e-11,1.25777e-06
73329921,-1.45866,0.0590681,-1.64191,-1.41259,-1.15318,0.0539197,-2.26843,0.118377,0.185407,0.258837,0.488375,-0.0306813,0.0946027,0.0826128,0.0875255,0.326506,0.197807,0.219045,0.765456,0.0154977,9.29222e-12,1.25639e-06
73528558,-1.44746,0.0589359,-1.63029,-1.40141,-1.1425,0.0635366,-2.25555,-0.0158199,0.0312592,0.0876184,0.323081,-0.100287,-0.020879,-0.0471761,-0.0634137,0.0545432,0.0950299,0.21925,0.765313,0.0154357,8.86404e-12,1.24714e-06
73737128,-1.43635,0.0591494,-1.62153,-1.38897,-1.1369,0.0756049,-2.25132,0.0907333,0.126148,0.170294,0.374804,0.0346225,-0.234595,-0.260978,-0.280465,-0.210413,-0.131311,0.220891,0.763865,0.0152431,8.45399e-12,1.28208e-06
73935771,-1.44202,0.0591436,-1.62697,-1.39445,-1.1424,0.07095,-2.25655,0.10202,0.132693,0.166954,0.282519,0.0363087,-0.14401,-0.151803,-0.152124,-0.048798,-0.0914373,0.221644,0.763196,0.0151589,8.29001e-12,1.29893e-06
74134404,-1.44908,0.0590445,-1.63398,-1.40166,-1.14989,0.0623763,-2.26317,-0.014667,0.0245702,0.0589418,0.0601694,-0.139272,-0.127081,-0.10134,-0.0624706,0.17045,-0.147076,0.221213,0.763595,0.0151908,8.2134e-12,1.28209e-06
74338010,-1.45298,0.0586583,-1.63785,-1.40617,-1.15527,0.0530104,-2.266,0.0574677,0.106609,0.139632,-0.014059,-0.141655,-0.265899,-0.195773,-0.105435,0.293208,-0.383566,0.219304,0.765337,0.0153574,8.09817e-12,1.21875e-06
74536646,-1.45463,0.0577479,-1.6374,-1.40858,-1.16083,0.0383646,-2.25869,-0.0359367,0.0220564,0.053562,-0.242959,-0.303428,-0.108876,0.00236559,0.140212,0.69195,-0.317829,0.21837,0.766399,0.0152298,6.37501e-12,1.11989e-06
74735284,-1.46065,0.0567634,-1.63969,-1.41428,-1.16993,0.0238273,-2.25131,0.0638245,0.121604,0.149634,-0.201529,-0.218418,0.084306,0.209567,0.362735,0.960185,-0.161062,0.22213,0.763329,0.0145405,4.23165e-12,1.10793e-06
74933922,-1.46292,0.0560478,-1.64012,-1.41662,-1.17427,0.0155505,-2.24684,0.151585,0.195115,0.212123,-0.124973,-0.0795207,-0.0609249,0.0512215,0.186411,0.696387,-0.291032,0.223265,0.762461,0.0142737,3.43834e-12,1.08201e-06
75132570,-1.46344,0.0554732,-1.63733,-1.41824,-1.1695,0.01277,-2.23656,0.151142,0.177381,0.184283,-0.075768,-0.00302735,-0.112388,-0.0308956,0.0660046,0.41781,-0.286047,0.223034,0.762723,0.0142412,3.21851e-12,1.05865e-06
75331253,-1.45003,0.0552954,-1.62352,-1.40512,-1.15721,0.0226112,-2.22122,-0.0932775,-0.0621845,-0.0409439,-0.13809,-0.219723,-0.061242,-0.0157541,0.0425839,0.307288,-0.141112,0.222386,0.763355,0.0142574,3.06725e-12,1.02954e-06
75534856,-1.44032,0.055169,-1.61447,-1.39588,-1.14799,0.0300355,-2.21325,-0.123223,-0.0711905,-0.021643,0.0439118,-0.274316,-0.399949,-0.379006,-0.342456,-0.0653737,-0.39728,0.220297,0.76521,0.0144922,3.27741e-12,9.93622e-07
75738406,-1.42068,0.0552481,-1.59771,-1.37545,-1.13461,0.0480461,-2.20248,-0.0553971,0.00948875,0.0768216,0.249823,-0.21962,-0.281017,-0.277079,-0.256059,0.0216389,-0.222576,0.219884,0.76558,0.0145351,3.30007e-12,9.84673e-07
75937234,-1.41132,0.0551858,-1.58837,-1.36606,-1.12512,0.0578254,-2.19338,-0.0784797,-0.0306321,0.0226952,0.209721,-0.183709,-0.247486,-0.259028,-0.259489,-0.098375,-0.168632,0.219926,0.765537,0.014536,3.32152e-12,9.8707e-07
76135699,-1.4101,0.0552117,-1.58719,-1.36463,-1.1234,0.0607724,-2.19267,-0.0193429,0.00674943,0.0373716,0.163961,-0.0701499,-0.346362,-0.35863,-0.365467,-0.295518,-0.288619,0.220571,0.764944,0.0144841,3.34065e-12,1.00424e-06
76329354,-1.42284,0.0549643,-1.5968,-1.37815,-1.13017,0.0490784,-2.19556,0.140225,0.167156,0.19888,0.331376,0.0883548,-0.0145464,-0.0276915,-0.035273,0.03555,0.0462655,0.221264,0.76434,0.0143949,3.21753e-12,1.01183e-06
76527992,-1.43825,0.0549151,-1.61165,-1.39326,-1.14537,0.0348056,-2.2095,0.153016,0.197371,0.246875,0.421236,0.0558442,-0.123041,-0.13402,-0.134745,0.0139945,-0.0492894,0.222705,0.763065,0.0142298,3.04394e-12,1.03342e-06
76736711,-1.44417,0.0547069,-1.6172,-1.39908,-1.15141,0.0286755,-2.21423,-0.0306499,0.0448992,0.127822,0.402412,-0.202129,-0.253457,-0.266676,-0.261881,0.00830436,-0.141498,0.223328,0.762525,0.0141459,2.92396e-12,1.03817e-06
76935206,-1.44053,0.0541244,-1.6126,-1.39617,-1.15037,0.0231758,-2.20583,-0.161932,-0.0556578,0.0580444,0.39686,-0.415925,-0.0713855,-0.0783639,-0.0588106,0.356563,0.0572546,0.221628,0.764178,0.0141927,2.59404e-12,9.66078e-07
77138810,-1.44862,0.0534069,-1.61788,-1.40409,-1.16079,0.00814107,-2.20377,0.0817014,0.205191,0.336224,0.715765,-0.219085,-0.0203217,-0.0240316,0.00330245,0.498378,0.117637,0.224429,0.761851,0.0137187,1.88138e-12,9.5482e-07
77337443,-1.45577,0.0526051,-1.62275,-1.4114,-1.17052,-0.00726423,-2.20222,-0.00625883,0.125466,0.265221,0.672003,-0.329031,-0.125338,-0.128172,-0.0980661,0.435545,0.0173259,0.225746,0.760837,0.0134161,1.43466e-12,9.21752e-07
