timestamp,timestamp_sample,hover_thrust,hover_thrust_var,accel_innov,accel_innov_var,accel_innov_test_ratio,accel_noise_var,valid
51312567,51311450,0.53950024,0.0007535542,0.3882781,4.5021696,0.003720672,4.215344,0
51332764,51331313,0.5367521,0.00071187905,0.8991671,4.46215,0.020132335,4.182497,0
51411981,51410767,0.5326753,0.00057646615,-0.09878019,4.2819085,0.00025319774,4.034495,0
51511416,51510112,0.5441819,0.00045839572,-0.51178265,4.0913305,0.0071131834,3.8945374,0
51610759,51609407,0.5265078,0.00038538166,1.162266,4.073298,0.036848716,3.9080274,0
51709992,51708721,0.52158064,0.00032862253,0.5343442,3.892475,0.008150306,3.7390175,0
51809417,51808195,0.5223817,0.00028347468,-1.2036493,3.710655,0.04338173,3.587447,0
51908764,51907355,0.5277046,0.00024812738,-0.47154588,3.57589,0.006909096,3.4560573,0
52007825,52006673,0.52556896,0.00021981019,0.9940132,3.405729,0.0322353,3.3013873,0
52112634,52110960,0.5244478,0.00019572416,-0.6953276,3.2765098,0.016395511,3.1783948,0
52211730,52210308,0.5222261,0.00017562049,0.53666925,3.126249,0.010236402,3.0323002,0
52310952,52309592,0.5210613,0.00015822449,0.22887331,2.979869,0.0019532177,2.8912933,0
52410112,52408911,0.52157503,0.00014329598,-0.07177454,2.8407667,0.0002014943,2.7595425,0
52509678,52508228,0.5163737,0.00013034875,1.260849,2.7385716,0.064499974,2.672155,0
52608700,52607665,0.5108352,0.0001188145,1.297134,2.6559517,0.07038936,2.5917335,0
52708412,52706863,0.50598407,0.00010847183,1.0934126,2.5655203,0.051778585,2.5000622,0
52807560,52806182,0.50284815,9.92028e-05,0.5365678,2.4548242,0.013031257,2.3883998,0
52906641,52905501,0.49797687,9.09002e-05,1.305355,2.3601158,0.080219775,2.3035944,0
53006138,53004816,0.49369517,8.34451e-05,2.0824833,2.259932,0.21321864,2.2232645,0
53105410,53104162,0.48886523,7.6788936e-05,0.48443723,2.2141945,0.011776513,2.1569486,0
53209807,53208418,0.4864889,7.0911345e-05,1.7129128,2.112902,0.15429388,2.0715375,0
53308870,53307736,0.48377153,6.567415e-05,-0.71622694,2.07669,0.027446507,2.0427294,0
53408548,53407139,0.4890069,6.130421e-05,-1.8159382,2.1702166,0.1688327,2.1684875,0
53507767,53506371,0.49147993,5.7618723e-05,-1.6248932,2.158137,0.13593401,2.1459322,0
53607040,53605689,0.49399936,5.4330732e-05,-0.86490023,2.1389735,0.038858328,2.1045787,0
53711140,53709973,0.4987331,5.144864e-05,-0.80083585,2.2329395,0.031912994,2.1903431,0
53810921,53809298,0.5010888,4.8869068e-05,-0.027032554,2.1791856,3.7259535e-05,2.1362267,0
53909712,53908608,0.4999947,4.6488043e-05,-0.5742041,2.1044183,0.017408365,2.065491,0
54009303,54007927,0.50249267,4.4241955e-05,-0.6360371,2.0529757,0.021894682,2.0149617,0
54108516,54107243,0.5016651,4.191432e-05,0.1928482,1.9734447,0.0020939377,1.9334234,0
54207976,54206667,0.50560224,3.981195e-05,-2.5593913,1.9716343,0.36915138,1.9852022,0
54312074,54310845,0.5068049,3.813464e-05,-0.18469757,1.9589438,0.0019348969,1.9227757,0
54411456,54410163,0.50969326,3.6527206e-05,-1.450186,1.9112165,0.12226299,1.887721,0
54510650,54509480,0.51151395,3.5081845e-05,-0.037490726,1.8632054,8.381938e-05,1.8318298,0
54610345,54608800,0.5099333,3.3734173e-05,1.3115406,1.8236129,0.10480653,1.8167844,0
54709466,54708116,0.51138055,3.2457243e-05,-2.2440357,1.778171,0.31466144,1.7814397,0
54809029,54807434,0.5142446,3.1307598e-05,-1.0462081,1.792041,0.067864984,1.7650009,0
54908027,54906751,0.513541,3.0227144e-05,0.12902755,1.7650778,0.0010479933,1.7380813,0
55007736,55006151,0.51492566,2.91934e-05,-1.6419722,1.6910256,0.17714907,1.6769407,0
55107111,55105387,0.5159415,2.8223434e-05,0.81895196,1.6657487,0.044736795,1.6535926,0
55205811,55204705,0.5153247,2.7323864e-05,-0.8102125,1.6501334,0.044201434,1.6249849,0
55305583,55304229,0.51803434,2.6465883e-05,-1.5502875,1.6381706,0.16301323,1.622675,0
55409690,55408306,0.5192078,2.565144e-05,-0.42334092,1.5719821,0.012667484,1.5467027,0
55509023,55507624,0.51829493,2.4855379e-05,0.57066035,1.5413399,0.02347548,1.5255018,0
55608083,55606953,0.52047545,2.409713e-05,-2.096432,1.522461,0.3207546,1.5226926,0
55707654,55706259,0.52116936,2.339555e-05,-0.6794078,1.4792078,0.034672834,1.4560666,0
55806762,55805592,0.52237445,2.2690258e-05,-1.4055154,1.4108986,0.15557255,1.3959607,0
55906316,55904895,0.52322936,2.2020233e-05,0.25051987,1.3543429,0.005148885,1.3384888,0
56005438,56004213,0.52171665,2.1375658e-05,0.29662293,1.3959823,0.0070030466,1.3782961,0
56105245,56103664,0.5234938,2.0764872e-05,-2.0477953,1.3481053,0.3456263,1.3515776,0
56209026,56207821,0.5236021,2.0193578e-05,-0.64939785,1.3368527,0.035050612,1.3165992,0
56308465,56307132,0.52523535,1.9634881e-05,-1.2945418,1.2892619,0.14442705,1.2756813,0
56407661,56406450,0.5267137,1.9101582e-05,-0.53312933,1.2548243,0.02516748,1.2355226,0
56507086,56505770,0.5262262,1.8585311e-05,0.5438009,1.2247535,0.02682802,1.2153066,0
56606172,56605087,0.52663773,1.8078857e-05,-0.6676235,1.1838683,0.04183284,1.1660357,0
56710536,56709370,0.52629364,1.7590904e-05,0.89228547,1.168225,0.07572488,1.1655414,0
56810011,56808687,0.5260007,1.7125236e-05,0.2258777,1.1408123,0.004969241,1.1260791,0
56909472,56908159,0.5258764,1.6669685e-05,0.5870583,1.0920336,0.03506582,1.082337,0
57013573,57012289,0.5275205,1.6231726e-05,-0.93648213,1.0846263,0.089841366,1.0713283,0
57113020,57111606,0.5287551,1.5808388e-05,-1.9657588,1.0391498,0.41318047,1.0469745,0
57212040,57210924,0.52884126,1.5373675e-05,0.7225901,1.0248955,0.056605924,1.0200782,0
57311595,57310242,0.5295676,1.488754e-05,-1.9307339,1.0469177,0.3956305,1.0526781,0
57410699,57409561,0.53044677,1.4374772e-05,0.30816126,1.0519761,0.010030157,1.038543,0
57510101,57508877,0.5316286,1.38313235e-05,-0.6388221,1.0369669,0.043727275,1.019083,0
57609554,57608200,0.53125674,1.3366093e-05,0.44335628,1.0257791,0.021291653,1.0153167,0
57708789,57707576,0.5309682,1.3000664e-05,0.29128683,1.0261742,0.009187092,1.0140828,0
57808213,57806831,0.5298536,1.27123785e-05,-0.2469434,1.0654247,0.0063595967,1.0503298,0
57907299,57906149,0.5303778,1.2479315e-05,-0.77677834,1.0192087,0.0657792,1.0083033,0
58006808,58005469,0.53092676,1.2248435e-05,-0.25332892,1.0043614,0.0070996513,1.0,0
58106122,58104794,0.5320003,1.2027549e-05,-1.3071506,1.0039927,0.18909419,1.0,0
58205799,58204103,0.5331583,1.1799157e-05,-0.9432568,1.0045525,0.09841125,1.0,0
58305007,58303420,0.5337881,1.1563116e-05,-1.2629507,1.0044835,0.17643611,1.0,0
58414086,58412670,0.5339279,1.1345018e-05,-0.6205309,1.0043248,0.042600054,1.0,0
58513208,58512045,0.53432506,1.1134207e-05,-0.692231,1.0041629,0.053021915,1.0,0
58607545,58606339,0.53448427,1.0931731e-05,0.071109414,1.0040709,0.00055956084,1.0,0
58707240,58705657,0.5343831,1.0742073e-05,-0.25805986,1.0040051,0.007369915,1.0,0
58806335,58805149,0.53478247,1.0574874e-05,-0.47791678,1.0033329,0.02529397,1.0,0
58910576,58909259,0.53463566,1.0448535e-05,-0.7108393,1.0026699,0.055994105,1.0,0
59009884,59008578,0.53455734,1.035273e-05,-0.4589393,1.012604,0.023111513,1.001027,0
59109200,59107896,0.5344679,1.0281553e-05,0.96772885,1.0017444,0.10387426,1.0035979,0
59208590,59207212,0.53484654,1.0213389e-05,-1.1319094,1.0019634,0.14207868,1.0,0
59307729,59306527,0.53562355,1.0123077e-05,-0.9352641,1.0194861,0.09533332,1.0108413,0
59412086,59410850,0.53682625,1.00093075e-05,-0.56706595,1.048403,0.03407975,1.0352141,0
59511755,59510194,0.5378655,9.867183e-06,-1.1481595,1.0196637,0.14364979,1.0102334,0
59610757,59609600,0.5390267,9.701027e-06,-1.1960356,1.0040885,0.15829737,1.0,0
59710126,59708767,0.5406395,9.520257e-06,-1.1899308,1.0328995,0.15231505,1.0211526,0
59809278,59808087,0.54036427,9.336548e-06,-2.2040389,1.1012275,0.4901386,1.1115496,0
59908962,59907403,0.53999,9.173688e-06,-1.6193377,1.2081956,0.24115436,1.2042146,0
60008030,60006721,0.54033124,9.007823e-06,-1.5389585,1.2160692,0.2163979,1.2099631,0
60107415,60106042,0.5403249,8.827802e-06,1.1576571,1.2156312,0.1224942,1.2225765,0
60211597,60210342,0.54050124,8.649781e-06,-0.4341824,1.2084566,0.017332885,1.1912668,0
60310823,60309640,0.5396634,8.497904e-06,1.0981774,1.2399231,0.10807064,1.2415218,0
60410106,60409070,0.53970635,8.377706e-06,-0.5963552,1.2709404,0.031091545,1.2555364,0
60509868,60508276,0.53966093,8.281632e-06,-0.22676122,1.3021581,0.0043876437,1.2858928,0
60608808,60607594,0.53903115,8.2066235e-06,-0.7772183,1.3686256,0.049040947,1.3563505,0
60713474,60711877,0.5394301,8.14676e-06,0.48456538,1.3445654,0.019403512,1.3307978,0
60812559,60811201,0.5396646,8.095487e-06,-0.99721336,1.297562,0.0851541,1.2888148,0
60911925,60910561,0.53987783,8.053804e-06,-0.346148,1.2511121,0.010641062,1.237026,0
61011023,61009831,0.5403245,8.020841e-06,-1.6340616,1.2111839,0.24495384,1.2155837,0
61110473,61109168,0.5404227,7.997494e-06,-0.18754959,1.1719766,0.0033348082,1.1592289,0
61210011,61208550,0.5405395,7.983006e-06,0.3400507,1.154043,0.011133273,1.1453594,0
61309015,61307788,0.5407229,7.965101e-06,1.0694585,1.1393982,0.111534655,1.145014,0
61408733,61407103,0.54119164,7.937079e-06,-0.9308517,1.1394125,0.08449626,1.1298345,0
61512592,61511386,0.5419444,7.895653e-06,-1.5656149,1.1266196,0.2417409,1.1258154,0
61612043,61610705,0.5425888,7.837702e-06,-1.105363,1.1110724,0.12218699,1.1011553,0
61711113,61710022,0.5432238,7.764582e-06,-1.6861788,1.0745434,0.2939956,1.0737494,0
61810723,61809340,0.5439639,7.677727e-06,-1.0979823,1.043949,0.12831247,1.033013,0
61909794,61908657,0.5445927,7.5933376e-06,-0.71861804,1.0026762,0.05722595,1.0,0
62009440,62008021,0.5451177,7.5228504e-06,-0.64168954,1.0024904,0.045638062,1.0,0
62108573,62107294,0.54595715,7.4569175e-06,0.1398352,1.0056072,0.0021605387,1.0000819,0
62208217,62206612,0.54579055,7.3943233e-06,-0.30378482,1.0260189,0.009993883,1.0144668,0
62307410,62306115,0.5455287,7.3362517e-06,-1.2877325,1.0504388,0.17540342,1.0437819,0
62411369,62410213,0.5450747,7.285256e-06,0.3003275,1.093165,0.009167733,1.0847312,0
62510622,62509531,0.5454824,7.2318735e-06,-0.7962732,1.0541344,0.06683219,1.042965,0
62610212,62608850,0.546388,7.1761215e-06,-1.8864999,1.0434654,0.3789597,1.0495287,0
62709533,62708167,0.5466874,7.1222817e-06,0.34389508,1.0349811,0.012696295,1.0296248,0
62808861,62807505,0.54641205,7.068541e-06,0.28469262,1.0295495,0.008747071,1.0219909,0
62908180,62906802,0.54652995,7.013466e-06,0.26058748,1.0022804,0.0075279265,1.0,0
63007282,63006120,0.54560816,6.9612333e-06,2.70265,1.0647622,0.7622273,1.135392,0
63106909,63105580,0.5452627,6.9172634e-06,0.7839873,1.1301652,0.060427357,1.1251135,0
63211009,63209722,0.54488623,6.8764994e-06,0.32609445,1.1336213,0.010422606,1.121763,0
63310666,63309040,0.5447452,6.833013e-06,0.5257008,1.0866623,0.02825792,1.0768005,0
63409693,63408358,0.5444198,6.7841634e-06,0.59382606,1.0584987,0.037015676,1.0488145,0
63509424,63507715,0.54371345,6.7221627e-06,1.4002335,1.0497389,0.20752822,1.0523698,0
63608115,63607016,0.54328454,6.6482394e-06,2.2905483,1.0188651,0.5721629,1.0495919,0
63707661,63706311,0.5425134,6.5893005e-06,0.6007544,1.0683228,0.037536077,1.0564152,0
63806751,63805630,0.54306865,6.5455974e-06,-0.97211707,1.0869914,0.09659809,1.0867479,0
63906454,63905070,0.5430964,6.5158465e-06,0.8113216,1.0623788,0.0688437,1.0547284,0
64005728,64004266,0.5427106,6.4962537e-06,-1.3130333,1.0768218,0.17789558,1.0873593,0
64104930,64103583,0.5425666,6.485934e-06,0.26652503,1.0916786,0.0072300066,1.0798924,0
64204268,64202907,0.5424068,6.4803617e-06,0.7653711,1.0462749,0.062209368,1.037838,0
64313719,64312168,0.5426064,6.471691e-06,-1.3720677,1.0254399,0.20398507,1.037169,0
64412605,64411470,0.5430476,6.451545e-06,-1.7269452,1.0336653,0.32057866,1.0532017,0
64507203,64505820,0.54312277,6.43275e-06,-0.053967237,1.0217131,0.00031672977,1.0104486,0
64606704,64605139,0.5435488,6.4095398e-06,-1.2486854,1.0042732,0.17250896,1.0069596,0
64705901,64704540,0.5438629,6.375636e-06,0.9081795,1.0218797,0.08968115,1.0197527,0
64805050,64803774,0.5441848,6.331861e-06,-1.3516054,1.0090305,0.2011653,1.0112802,0
64914339,64913031,0.54457605,6.289623e-06,0.5016753,1.0064011,0.027786372,1.0,0
65008727,65007432,0.54451257,6.245527e-06,-1.1280649,1.0021479,0.14108922,1.0,0
65107975,65106695,0.5446815,6.205005e-06,-0.15333861,1.0020739,0.0026071186,1.0,0
65207354,65206011,0.54420435,6.1660967e-06,1.5012941,1.0093945,0.24810077,1.0214686,0
65311618,65310296,0.54401505,6.123024e-06,-0.80010706,1.0518702,0.06762254,1.0447822,0
65410980,65409614,0.5449818,6.069957e-06,-1.1866846,1.1132597,0.14055026,1.1093627,0
65510175,65508998,0.5448079,6.0103716e-06,-0.98846555,1.0989344,0.09878905,1.0919793,0
65609629,65608266,0.5444885,5.952822e-06,-1.06836,1.1175208,0.113484636,1.1132314,0
65708908,65707567,0.5438896,5.9105064e-06,-0.21236795,1.1821014,0.0042391694,1.1686505,0
65808256,65806888,0.54313725,5.8830724e-06,0.57844424,1.2670264,0.029342344,1.2542719,0
65907329,65906203,0.54310936,5.8640444e-06,1.0436478,1.2161134,0.09951563,1.2100388,0
66006852,66005521,0.54274607,5.84482e-06,0.7532386,1.1939312,0.05280114,1.1831199,0
66110992,66109813,0.54288244,5.8245228e-06,0.69444585,1.1625289,0.046092525,1.1518878,0
66210245,66209122,0.5433046,5.8011337e-06,-1.0889533,1.1537606,0.11419846,1.153764,0
66309629,66308519,0.5435645,5.778664e-06,0.13653462,1.1381718,0.0018198483,1.1252565,0
66408952,66407763,0.5436314,5.7552106e-06,-0.91654116,1.0904527,0.08559623,1.0861036,0
66508458,66507077,0.54415506,5.730564e-06,-0.78167367,1.1078761,0.061279792,1.09962,0
66607750,66606559,0.5436519,5.7062443e-06,1.5713688,1.1237618,0.2441403,1.134933,0
66707330,66705712,0.5437271,5.6836525e-06,-1.1316668,1.1397085,0.12485353,1.1389087,0
66806424,66805030,0.54362136,5.6611602e-06,0.10277371,1.1364454,0.0010326973,1.1235032,0
66910695,66909315,0.54394245,5.638954e-06,-1.3594607,1.0992352,0.18681003,1.1031499,0
67009809,67008632,0.54397714,5.6146846e-06,-0.52393615,1.0688374,0.028536625,1.0585752,0
67109154,67107953,0.5443535,5.5898827e-06,-0.24732211,1.0483533,0.0064829956,1.0363674,0
67208391,67207268,0.54395944,5.565873e-06,-0.34611505,1.0614399,0.01254016,1.050155,0
67308002,67306586,0.5439213,5.542361e-06,-0.6028437,1.0333116,0.039078295,1.0246058,0
67407120,67406025,0.54397,5.5173505e-06,-0.7938612,1.0018281,0.069896184,1.0,0
67506638,67505250,0.5439215,5.491906e-06,-1.5701431,1.0018406,0.27342445,1.0136313,0
67605824,67604540,0.5439085,5.467218e-06,-0.36091927,1.0026156,0.014435877,1.0,0
67709991,67708823,0.5441249,5.4446577e-06,-1.001733,1.0017728,0.11129923,1.0,0
67809488,67808143,0.5441568,5.421762e-06,1.2336031,1.0017557,0.16878995,1.0065908,0
67908867,67907488,0.5443142,5.399203e-06,0.8610876,1.001779,0.08223947,1.0,0
68008151,68006779,0.54434305,5.377213e-06,-0.8006637,1.0054159,0.07084546,1.0,0
68107462,68106097,0.54418653,5.3549716e-06,0.015807398,1.0047802,2.7631675e-05,1.0,0
68207248,68205558,0.54424316,5.3327076e-06,-0.05260812,1.0017635,0.00030697137,1.0,0
68310841,68309698,0.5443518,5.312089e-06,1.7031878,1.0017374,0.32175753,1.0209734,0
68410403,68409032,0.54406625,5.2917617e-06,1.4057133,1.0111661,0.21713436,1.019047,0
68509650,68508333,0.54403174,5.2722366e-06,0.39361563,1.0016866,0.017185824,1.0,0
68608987,68607647,0.5441832,5.252582e-06,-0.9691328,1.015287,0.10278629,1.0123124,0
68708071,68706970,0.5441407,5.23318e-06,-0.4528878,1.0016942,0.022751164,1.0,0
68807652,68806287,0.5440992,5.2141486e-06,-0.3022318,1.0065308,0.010083486,1.0,0
68906780,68905604,0.5438868,5.196106e-06,0.6240237,1.0217476,0.04234635,1.0134667,0
69006591,69005024,0.5437715,5.180583e-06,-0.6258666,1.0483886,0.0415144,1.0409964,0
69105349,69104241,0.54372877,5.164742e-06,-0.2706056,1.0194815,0.007980896,1.0089195,0
69205147,69203559,0.54391223,5.1472794e-06,-0.4019113,1.0016491,0.017918527,1.0,0
69294479,69293089,0.5439581,5.1355155e-06,-0.10085306,1.0029441,0.0011268315,1.0,0
69408359,69407161,0.54415864,5.1127245e-06,0.22491075,1.0033973,0.0056015085,1.0,0
69507566,69506478,0.5440419,5.0934273e-06,0.15063065,1.0016929,0.0025168054,1.0,0
69606993,69605796,0.54362375,5.0784415e-06,1.9215832,1.0014735,0.4096721,1.0233293,0
69706455,69705115,0.543549,5.0650924e-06,0.24916601,1.0375755,0.0066483733,1.0261012,0
69805589,69804474,0.5436313,5.05054e-06,-0.94904315,1.0231439,0.09781213,1.0215772,0
69906033,69903752,0.5436413,5.036353e-06,0.6779706,1.0186504,0.050136503,1.0108469,0
70004288,70003069,0.5439311,5.0209605e-06,-0.30697012,1.0098095,0.010368364,1.0,0
70104725,70102539,0.5443011,5.0043927e-06,-1.5681751,1.0036272,0.27225393,1.0138221,0
70207803,70206670,0.5447836,4.988831e-06,-1.4123349,1.0148079,0.2183982,1.018239,0
70308058,70306024,0.54502803,4.9719324e-06,-0.20329164,1.001681,0.0045842375,1.0,0
70411668,70410272,0.5447252,4.9566297e-06,1.6185994,1.0016593,0.2906138,1.0198092,0
70512098,70509590,0.54438376,4.941715e-06,0.17816055,1.0282221,0.003429996,1.0169442,0
70610021,70608916,0.54465383,4.9262812e-06,-1.1886132,1.0016364,0.15672146,1.0019977,0
70710380,70708226,0.5452289,4.9116056e-06,-1.5295562,1.0124037,0.2567643,1.0180947,0
70808843,70807596,0.5456653,4.8984184e-06,-1.2267699,1.005365,0.16632593,1.0027527,0
70909087,70907005,0.5464331,4.8956026e-06,-2.8844857,1.143949,0.8081418,1.1874889,0
71012444,71011145,0.54596317,4.891793e-06,0.6794082,1.3114535,0.03910805,1.3066043,0
71112576,71110464,0.5464723,4.8867337e-06,-2.1034608,1.3255155,0.3708869,1.338601,0
74905771,74904428,0.54853565,4.7605718e-06,0.13433525,1.5502515,0.0012934074,1.5343772,0
75005013,75003732,0.5487483,4.763638e-06,-1.2359766,1.5025045,0.112969756,1.496473,0
75104275,75103048,0.5487752,4.766458e-06,-0.5156747,1.4487479,0.020394655,1.4340223,0
75213660,75212452,0.54896224,4.76921e-06,-1.1185095,1.3792863,0.10078188,1.3715659,0
75308254,75306650,0.54914206,4.7662534e-06,-1.7260966,1.3445863,0.24620624,1.3500606,0
75407873,75405971,0.549221,4.763583e-06,-1.6497719,1.332121,0.2270187,1.3356686,0
75506566,75505301,0.5493331,4.7602916e-06,0.076611996,1.3116535,0.00049720093,1.2986453,0
77309051,77307910,0.5492083,4.650947e-06,0.34565175,1.016482,0.013059762,1.0060843,0
77408819,77407227,0.5494969,4.6325777e-06,-2.5670497,1.0032057,0.7298542,1.0523037,0
77508341,77506545,0.55010253,4.614953e-06,0.9848199,1.1672001,0.09232638,1.167189,0
77607222,77605982,0.54938513,4.6039063e-06,0.33224928,1.3338726,0.009195413,1.3199729,0
77706543,77705181,0.5494044,4.5993293e-06,0.79917324,1.2769397,0.055573653,1.2692045,0
77805628,77804499,0.5490752,4.598668e-06,0.9863254,1.2651914,0.08543615,1.2592822,0
77905305,77903971,0.54890704,4.6006917e-06,0.25861895,1.2259103,0.00606205,1.2127168,0
78004247,78003135,0.54918444,4.5982824e-06,-0.4499231,1.2128977,0.018544279,1.2018704,0
78113667,78112385,0.5492768,4.5948477e-06,-0.03907506,1.1670003,0.0001453737,1.1540861,0
78207836,78206737,0.5493342,4.5912107e-06,-0.3052956,1.1101974,0.009328211,1.1039175,0
78307178,78306055,0.54928005,4.592566e-06,-0.23751533,1.0739089,0.00583678,1.0629299,0
78406454,78405374,0.5492337,4.59704e-06,-0.51694965,1.0335699,0.028728576,1.0252975,0
78506081,78504692,0.5494917,4.597443e-06,-1.0329838,1.0105199,0.11732745,1.0088409,0
78605678,78604010,0.54980683,4.591567e-06,-0.5736617,1.0030687,0.036453437,1.0,0
78704822,78703444,0.54988647,4.5792945e-06,0.10178763,1.0072166,0.001142943,1.0,0
78809151,78807651,0.5493773,4.567951e-06,2.5818725,1.0365447,0.7145605,1.0903453,0
78908313,78906930,0.5487116,4.5627576e-06,1.6824908,1.1734784,0.2680327,1.1829405,0
79007464,79006247,0.54886794,4.559406e-06,-1.7835088,1.1654885,0.30324945,1.1875749,0
79106842,79105566,0.54944825,4.5586585e-06,-1.3373802,1.2882087,0.15426983,1.2899885,0
79206254,79204885,0.5494204,4.5588904e-06,1.0097035,1.25422,0.09031742,1.2516127,0
79310477,79309167,0.54942477,4.559298e-06,-0.26557624,1.240345,0.0063182013,1.2271827,0
79410712,79408486,0.5496421,4.5575152e-06,1.4686103,1.2377938,0.19360757,1.2486386,0
79509308,79507972,0.5494424,4.555995e-06,0.13988304,1.2602159,0.0017252129,1.2466323,0
79609499,79607122,0.5492724,4.5540673e-06,-1.5961006,1.2621948,0.22425991,1.2735485,0
79707627,79706440,0.5492768,4.552759e-06,0.46238938,1.282377,0.018524967,1.2703676,0
79812956,79810725,0.54937476,4.552734e-06,-1.6895865,1.2642951,0.25088224,1.2808942,0
79911458,79910042,0.54950523,4.5515603e-06,-2.203999,1.2552166,0.4299932,1.2862303,0
80011729,80009362,0.5496308,4.550379e-06,-0.36007696,1.2705898,0.011338166,1.2573378,0
80109883,80108678,0.5498923,4.548215e-06,-1.5848323,1.2480359,0.22361301,1.2541173,0
80210220,80207997,0.5499535,4.546195e-06,-1.4321238,1.2214334,0.186573,1.2236824,0
80308566,80307428,0.549893,4.543879e-06,-1.0008998,1.2166264,0.091491655,1.2105646,0
80414001,80411599,0.5497956,4.5431434e-06,-0.3551,1.1883392,0.011790125,1.1759664,0
80512139,80510920,0.55004656,4.540786e-06,0.32091898,1.1686107,0.009792158,1.1579162,0
80612534,80610235,0.5501085,4.5374427e-06,0.16923934,1.1400846,0.0027914064,1.1285336,0
80710695,80709553,0.5500585,4.533147e-06,-0.41747996,1.112888,0.017401123,1.1013699,0
80811042,80808918,0.5497053,4.5284655e-06,1.0285183,1.1246545,0.10451109,1.1230196,0
80909286,80908195,0.55001575,4.5241213e-06,-0.3610005,1.1193931,0.012935717,1.107626,0
81008797,81007508,0.55014426,4.5193106e-06,-1.7825159,1.0921108,0.3232642,1.1068786,0
81108249,81106856,0.5500199,4.5142306e-06,-0.5556785,1.0900918,0.03147325,1.0801208,0
81207291,81206145,0.5496763,4.508477e-06,1.0516196,1.0873364,0.113008454,1.085834,0
81307621,81305462,0.54997385,4.503071e-06,-0.10320478,1.0826403,0.0010931328,1.0705858,0
81406090,81404943,0.55006474,4.4973162e-06,-0.5944339,1.0737969,0.036563054,1.0643684,0
81506342,81504142,0.5498122,4.4917274e-06,1.017709,1.0470622,0.10990876,1.0457666,0
81604571,81603417,0.549806,4.485507e-06,0.6041198,1.0200198,0.0397553,1.0122757,0
81710009,81707704,0.549484,4.481269e-06,0.22267698,1.0559176,0.0052176877,1.0443884,0
81808183,81807018,0.5495065,4.4753456e-06,0.27408355,1.0320449,0.0080876965,1.0209637,0
81908488,81906335,0.5493625,4.4688986e-06,-0.61328834,1.0099005,0.0413817,1.0033392,0
82011836,82010620,0.5497456,4.463771e-06,-1.5301328,1.0224049,0.25444433,1.0332656,0
82111321,82109945,0.5496512,4.458061e-06,1.2883021,1.0058368,0.18334344,1.0107656,0
82210659,82209442,0.54975283,4.4527337e-06,0.38198882,1.0345923,0.015670743,1.0245808,0
82309931,82308585,0.54958856,4.446562e-06,1.859543,1.0046978,0.3824146,1.0264896,0
82409048,82407898,0.54956156,4.4408516e-06,1.8911303,1.0591284,0.37519044,1.0812608,0
82508587,82507211,0.54955804,4.436106e-06,0.2508235,1.0555437,0.006622435,1.0442644,0
82607711,82606529,0.54927677,4.4318513e-06,0.7649342,1.0752068,0.060466334,1.0676051,0
82707508,82705848,0.549308,4.429238e-06,0.33952776,1.0820286,0.0118377535,1.0708114,0
82811427,82810174,0.54934675,4.428109e-06,-0.61432487,1.0897971,0.038477603,1.0821867,0
82910748,82909450,0.5493864,4.42364e-06,-1.191861,1.0519733,0.15003894,1.055253,0
83010015,83008894,0.5495069,4.4180815e-06,-0.28817877,1.043175,0.008845539,1.032275,0
83109470,83108086,0.5492748,4.412346e-06,0.11589907,1.0313413,0.0014471548,1.0198247,0
83208945,83207406,0.5489647,4.407117e-06,0.41384006,1.0374688,0.018342033,1.0266395,0
83307923,83306722,0.54893464,4.401483e-06,0.4833751,1.0014066,0.025924811,1.0,0
83407395,83406040,0.5490874,4.395346e-06,-0.96713203,1.0014093,0.10378089,1.0009414,0
83506463,83505364,0.5492467,4.389433e-06,-0.9272809,1.0013971,0.09540558,1.0,0
83611335,83609642,0.54915386,4.385139e-06,0.013950685,1.006267,2.1489948e-05,1.0,0
83710125,83708962,0.54907817,4.379558e-06,0.22561091,1.0013934,0.0056477175,1.0,0
83809787,83808361,0.5488388,4.3745404e-06,-0.37919736,1.019099,0.015677316,1.0100667,0
83908827,83907597,0.5486686,4.3689233e-06,0.20646755,1.0014023,0.0047299066,1.0,0
84008508,84006915,0.548626,4.363033e-06,0.036671825,1.0030832,0.00014896545,1.0,0
84107347,84106239,0.5486982,4.3588643e-06,1.175523,1.0198339,0.15055332,1.0195757,0
84206854,84205551,0.5485448,4.3585205e-06,-0.5101026,1.013131,0.028536914,1.0061926,0
84306136,84304869,0.5485979,4.3552086e-06,-0.5492423,1.0014017,0.03347165,1.0,0
84405553,84404192,0.5488986,4.347141e-06,-0.9779326,1.0053595,0.10569487,1.004042,0
84504873,84503506,0.5488727,4.3413816e-06,-0.48317724,1.0013895,0.025904033,1.0,0
84614183,84612879,0.5489076,4.3385867e-06,-1.1871157,1.0013933,0.15636475,1.0043488,0
84708788,84707108,0.54884225,4.33205e-06,1.6149737,1.001391,0.28939077,1.0148643,0
84807765,84806427,0.54906905,4.3270843e-06,-1.7925293,1.0290576,0.3469368,1.0479367,0
84907329,84905929,0.54899096,4.3236164e-06,1.6419849,1.0561543,0.28364065,1.0711321,0
85011203,85010029,0.5484041,4.322426e-06,2.7636373,1.1143198,0.7615698,1.1688144,0
85110636,85109346,0.54785156,4.324103e-06,0.32599407,1.277085,0.009246069,1.2632306,0
85210052,85208665,0.5480676,4.326248e-06,-0.16415712,1.2678932,0.0023615346,1.255493,0
85309371,85307983,0.5478122,4.3278337e-06,0.7047827,1.2304218,0.04485532,1.2188541,0
85408432,85407312,0.54787886,4.328775e-06,-2.0431075,1.2295479,0.37721983,1.2664453,0
85507906,85506619,0.5475817,4.329646e-06,0.68836904,1.2514317,0.042071983,1.2393035,0
85607083,85605937,0.5477,4.329675e-06,0.25480592,1.2330242,0.0058506606,1.2195088,0
85706735,85705398,0.5476391,4.3293176e-06,-0.22832288,1.2449399,0.004652731,1.2332561,0
85805786,85804574,0.54772407,4.3284954e-06,-1.0375103,1.1968997,0.099927396,1.1982127,0
85905567,85903893,0.5478317,4.3272353e-06,-0.44827473,1.1868187,0.018813154,1.1770334,0
86009469,86008176,0.54822266,4.3267223e-06,-2.1780243,1.1884142,0.4435219,1.2300828,0
86108854,86107544,0.5482829,4.3259806e-06,-0.22769213,1.2089453,0.004764824,1.1960468,0
86207950,86206829,0.54842466,4.324604e-06,-1.7334068,1.1671071,0.28605384,1.1818241,0
86307509,86306136,0.5484998,4.323424e-06,1.8734967,1.1700162,0.33332774,1.1941969,0
86406844,86405449,0.5483995,4.322467e-06,-0.1552903,1.1815351,0.0022677728,1.1686658,0
86506012,86504873,0.5486406,4.3210994e-06,0.7062768,1.1662623,0.047523793,1.1597552,0
86605433,86604086,0.5485614,4.319254e-06,-0.85597837,1.1332023,0.07184154,1.1267468,0
86704546,86703403,0.54883,4.3171985e-06,0.31269157,1.1337373,0.009582468,1.1231538,0
86809325,86807688,0.54880667,4.3156138e-06,-1.2905577,1.1020718,0.16792002,1.1038677,0
86908199,86907006,0.54871136,4.3121654e-06,0.55505127,1.0706843,0.031971443,1.0627812,0
87007637,87006325,0.5487925,4.308094e-06,-0.3509606,1.0412612,0.0131436065,1.0302664,0
87106933,87105642,0.5489142,4.3030905e-06,-1.0070546,1.0074426,0.11185185,1.0038947,0
87206687,87204960,0.5485281,4.29833e-06,1.3506953,1.0367488,0.19552338,1.0433933,0
87305493,87304356,0.54867566,4.2943852e-06,-0.11857323,1.0192906,0.001532614,1.0079262,0
87409955,87408562,0.5487021,4.290849e-06,0.338416,1.0074787,0.012630583,1.0,0
87509036,87507881,0.54892176,4.2859333e-06,-0.18607096,1.0093726,0.003811213,1.0,0
87608582,87607218,0.5490056,4.2808274e-06,-0.2588374,1.0014079,0.0074336235,1.0,0
87707794,87706518,0.5493022,4.2755814e-06,-1.4493504,1.0083206,0.23147582,1.0130212,0
87807160,87805835,0.5493909,4.270853e-06,0.20724446,1.0013952,0.0047656028,1.0,0
87911187,87910120,0.5495858,4.2662627e-06,-0.13214228,1.0015055,0.0019372591,1.0,0
88010569,88009438,0.54902655,4.2595107e-06,1.4364799,1.058969,0.2165077,1.0689118,0
88109958,88108864,0.5491739,4.256937e-06,-1.452733,1.0864836,0.21582708,1.0926735,0
88209433,88208074,0.5496669,4.256039e-06,-0.43496686,1.1543967,0.018210202,1.1422312,0
88308624,88307392,0.54973865,4.255131e-06,-1.1710402,1.1231431,0.13566443,1.1197096,0
88408053,88406713,0.5496696,4.253478e-06,0.81664956,1.0878586,0.06811716,1.0854923,0
88507420,88506029,0.54988325,4.25093e-06,0.38564813,1.0790498,0.015314345,1.070612,0
88606562,88605347,0.549954,4.2475463e-06,-0.04295969,1.0458963,0.00019606097,1.0345223,0
88710965,88709631,0.5498871,4.244635e-06,-0.13674942,1.0211171,0.0020348523,1.0097338,0
88810158,88808949,0.5494634,4.2412003e-06,0.4032999,1.0709898,0.0168744,1.0611839,0
88910010,88908414,0.54945487,4.2380857e-06,-0.34272188,1.0248073,0.012735,1.0141555,0
89008730,89007586,0.5495486,4.2338e-06,-0.15273824,1.0187861,0.0025443102,1.0074756,0
89108230,89106906,0.54938334,4.229457e-06,0.2897501,1.012086,0.00921695,1.0017269,0
89207594,89206392,0.5495744,4.2255047e-06,0.027086183,1.0013574,8.140742e-05,1.0,0
89306878,89305540,0.54942054,4.2216907e-06,0.08050899,1.0013546,0.00071921444,1.0,0
89406218,89404861,0.5498471,4.2181687e-06,-0.120664224,1.032738,0.0015664784,1.0212538,0
89505505,89504177,0.5499142,4.2147044e-06,-0.9941466,1.0013621,0.10966479,1.0,0
89604788,89603495,0.5499259,4.2106503e-06,0.54541904,1.002288,0.032978095,1.0,0
89714079,89712758,0.5501512,4.2049032e-06,-2.0734925,1.0061135,0.4748052,1.0300163,0
89813208,89812063,0.5504678,4.1941744e-06,-0.09860873,1.047198,0.0010317141,1.0353857,0
89912738,89911381,0.5507581,4.187709e-06,-0.40973893,1.0335934,0.018047715,1.0222057,0
90012136,90010891,0.5506559,4.1849967e-06,0.041522667,1.0075519,0.00019013432,1.0,0
90106428,90105090,0.5506888,4.1780418e-06,0.16431618,1.0014868,0.0029955248,1.0,0
90206582,90204371,0.5508226,4.173894e-06,-1.4641827,1.0013539,0.23788138,1.0052129,0
90309917,90308654,0.55108815,4.171576e-06,-1.5574535,1.0013635,0.26915094,1.0077584,0
90410211,90407973,0.55122125,4.1680955e-06,-0.08998734,1.001358,0.0008985266,1.0,0
90508582,90507291,0.5508493,4.165145e-06,1.0853082,1.0332105,0.1266703,1.036991,0
90613919,90611575,0.5510663,4.1605977e-06,-0.9641502,1.0181388,0.10144716,1.0122297,0
90712263,90710893,0.5513009,4.1484977e-06,-0.4776337,1.0018859,0.025300503,1.0,0
90811717,90810368,0.55170774,4.137177e-06,-1.7337358,1.0016375,0.33343622,1.0102608,0
90910838,90909566,0.55181724,4.1324643e-06,1.1284852,1.0109602,0.13996361,1.0196412,0
91011200,91008852,0.55214816,4.130709e-06,-2.66776,1.0309479,0.76703334,1.0718684,0
91109252,91108166,0.55237716,4.130112e-06,0.08758815,1.0765692,0.00079178304,1.0669191,0
91209596,91207484,0.5524179,4.1283374e-06,-0.41220024,1.0333678,0.018269181,1.0218998,0
91307939,91306809,0.55257183,4.1252088e-06,-0.17283736,1.0013684,0.003314659,1.0,0
91408379,91406121,0.5526228,4.121738e-06,-0.32369953,1.0013752,0.011626388,1.0,0
91506712,91505480,0.55304253,4.1185963e-06,-0.8652856,1.0013628,0.083077796,1.0,0
91606888,91604807,0.5527322,4.115632e-06,1.5890092,1.026694,0.2732557,1.0501895,0
91710242,91709042,0.55272466,4.1157946e-06,0.6792305,1.0290955,0.04981225,1.0265908,0
91809555,91808386,0.55250984,4.118796e-06,0.6562921,1.0259721,0.046646196,1.021805,0
91909010,91907678,0.5525111,4.12528e-06,0.27651083,1.0008254,0.008488353,1.0,0
92009257,92006996,0.55264354,4.1315707e-06,-1.4112206,1.0009807,0.2210658,1.0047601,0
92107632,92106314,0.55298716,4.133315e-06,-1.8271866,1.0352733,0.3583177,1.0476967,0
92206777,92205632,0.5531477,4.131033e-06,-0.015148938,1.0271422,2.4825114e-05,1.0163698,0
92307152,92304951,0.55272603,4.1276785e-06,1.2382276,1.0529137,0.16179523,1.0601406,0
92405453,92404350,0.55228174,4.1313474e-06,3.2625194,1.1409967,1.0365238,1.2305744,0
92510984,92508553,0.5526155,4.1366543e-06,-2.2942886,1.4667897,0.3987363,1.4983569,0
92609100,92607874,0.55293226,4.1428834e-06,-0.11243135,1.528677,0.0009187907,1.512386,0
92709515,92707370,0.55297446,4.1485628e-06,0.47472805,1.464229,0.01710166,1.4529517,0
92807604,92806508,0.5530823,4.1532853e-06,-1.3610139,1.4068533,0.14629644,1.4043846,0
92907912,92905822,0.5532964,4.1576586e-06,-0.795924,1.377398,0.051102396,1.3651793,0
93011417,93010110,0.5531856,4.1629423e-06,-0.45956075,1.3499422,0.017383138,1.3359364,0
93111628,93109428,0.55336714,4.166245e-06,-1.6271161,1.3090698,0.22471485,1.313388,0
93209772,93208753,0.55327046,4.169216e-06,0.49705654,1.2871441,0.021327596,1.277885,0
93309633,93308065,0.55330336,4.171517e-06,0.19289145,1.2339189,0.0033504013,1.2218974,0
93408601,93407387,0.5529823,4.173842e-06,0.8669604,1.2384995,0.06743109,1.2336824,0
93508233,93506878,0.55299723,4.176224e-06,-1.5025473,1.2109864,0.20714504,1.2179002,0
93612218,93610986,0.553239,4.1793305e-06,-1.7880319,1.204841,0.2948345,1.218434,0
93711856,93710304,0.5534338,4.1812546e-06,-0.061537612,1.1876618,0.00035427947,1.1748306,0
93810731,93809623,0.5536348,4.182204e-06,-0.25775105,1.173713,0.0062892158,1.1608616,0
93910311,93908941,0.55400944,4.1826493e-06,-1.3408971,1.1516932,0.17346488,1.1494571,0
94009340,94008261,0.55390525,4.182879e-06,0.49539596,1.1269789,0.02419617,1.1200778,0
94108762,94107577,0.5538647,4.182674e-06,1.3006755,1.0964135,0.1714435,1.1068952,0
94208257,94206897,0.5539515,4.1822486e-06,-0.1365551,1.0934962,0.0018947682,1.0815245,0
94307494,94306318,0.5539789,4.1806848e-06,0.1281484,1.0454534,0.0017453368,1.0349147,0
94406873,94405532,0.5536912,4.17854e-06,-0.06207779,1.0607712,0.0004036531,1.0490601,0
94506119,94504851,0.5534558,4.176457e-06,2.1478212,1.0214808,0.5017918,1.0571084,0
94610770,94609134,0.55349463,4.1764492e-06,0.30262065,1.0496877,0.00969381,1.0370824,0
94709765,94708456,0.5531799,4.174979e-06,2.0960743,1.0694155,0.4564828,1.0988953,0
94809162,94807771,0.5531853,4.175074e-06,-1.202857,1.0782771,0.14909226,1.0815067,0
94908370,94907103,0.5532595,4.174561e-06,-1.4722044,1.0598487,0.22722173,1.0697947,0
95007819,95006408,0.5531989,4.1737503e-06,0.3439056,1.0679142,0.01230551,1.0571109,0
95106894,95105795,0.553324,4.172523e-06,-0.37707126,1.0530367,0.015002404,1.0426838,0
95206401,95205045,0.55289876,4.171214e-06,1.1053735,1.07638,0.12612756,1.0743133,0
95305575,95304363,0.552929,4.170356e-06,0.5104991,1.0588604,0.027346943,1.0489049,0
95405062,95403734,0.5529693,4.1685344e-06,0.7628837,1.0223463,0.06325228,1.0157346,0
95504410,95503001,0.55279,4.1663516e-06,1.1808234,1.0279242,0.15071842,1.0277877,0
95613623,95612250,0.5527612,4.166106e-06,-0.61297065,1.0081618,0.041410133,1.0020373,0
95708007,95706601,0.5527665,4.1620247e-06,0.56648475,1.0013269,0.035608858,1.0,0
95807311,95805922,0.55228037,4.159928e-06,1.6901908,1.0350828,0.3066577,1.0448132,0
95906640,95905277,0.5525117,4.159096e-06,-1.6365275,1.0440826,0.285016,1.0634394,0
96010716,96009559,0.55279803,4.1600892e-06,-2.03499,1.0488491,0.43870148,1.0798018,0
96110396,96108875,0.5527428,4.160144e-06,0.64779747,1.076324,0.043320447,1.0678631,0
96209531,96208354,0.5529285,4.159246e-06,-0.5060984,1.0502999,0.027096556,1.0411891,0
96308837,96307477,0.5526411,4.1573962e-06,0.8974222,1.0241954,0.087371185,1.0194138,0
96407993,96406799,0.55261725,4.1558083e-06,0.41746986,1.0823362,0.017891452,1.0714861,0
96512651,96511080,0.5528441,4.1560556e-06,-0.9360102,1.0878334,0.08948624,1.0847152,0
96611762,96610398,0.55295247,4.155417e-06,-1.1392127,1.0693332,0.13485098,1.0699093,0
96711164,96709741,0.55270344,4.154259e-06,1.3583639,1.0613687,0.19316278,1.066309,0
96810325,96809038,0.55262005,4.152795e-06,1.7819278,1.0429206,0.3382879,1.0600153,0
96909712,96908354,0.55268985,4.152186e-06,-1.9444282,1.0760789,0.3903887,1.1029701,0
97008995,97007832,0.55266315,4.1522e-06,-0.7849717,1.0679451,0.06410864,1.0629375,0
97108594,97107032,0.55292714,4.1517383e-06,-1.9002271,1.0674967,0.3758391,1.0901028,0
97207624,97206308,0.55296904,4.1516937e-06,-0.9815471,1.0772345,0.099373266,1.0740635,0
97306977,97305626,0.55287266,4.152003e-06,-0.44236904,1.0964496,0.01983071,1.0862427,0
97406150,97404944,0.5530745,4.1520257e-06,-0.82288015,1.0655588,0.07060789,1.0594503,0
97505595,97504323,0.5531164,4.1515223e-06,-0.33332005,1.0638754,0.011603516,1.0528008,0
97604962,97603581,0.5531454,4.152405e-06,2.5812447,1.0967358,0.67501557,1.1534946,0
97714113,97712831,0.5530945,4.1567246e-06,0.9747849,1.1143688,0.09474279,1.1117228,0
97813654,97812294,0.5530469,4.1578255e-06,1.3139901,1.1075922,0.17320554,1.1128504,0
97907796,97906502,0.552909,4.1580047e-06,-0.64842546,1.1323833,0.041255716,1.1242553,0
98007420,98005820,0.55289376,4.1591406e-06,-0.061941862,1.1046555,0.00038592165,1.0926093,0
98106252,98105139,0.5528814,4.1598523e-06,-0.9921516,1.1108937,0.09845575,1.1087319,0
98205841,98204472,0.552891,4.160432e-06,-0.092062205,1.0789566,0.0008728031,1.0671897,0
98304825,98303775,0.5530854,4.1604867e-06,-0.14188607,1.0802602,0.0020706593,1.068476,0
98409356,98408059,0.5530403,4.161558e-06,-0.021919843,1.0700502,4.9891685e-05,1.0582523,0
98508514,98507378,0.553088,4.1604626e-06,-2.1825545,1.056279,0.5010823,1.0898525,0
98608391,98606782,0.553013,4.1594462e-06,0.40198296,1.1159037,0.01608963,1.1051835,0
98707225,98706014,0.5530115,4.1545613e-06,-1.3025037,1.0951931,0.17211738,1.0991741,0
98806670,98805333,0.55311745,4.1443554e-06,0.3908472,1.0870107,0.015614845,1.076176,0
98910790,98909617,0.5530125,4.1318717e-06,2.3475518,1.0831163,0.565344,1.1346029,0
99010567,99008936,0.5528131,4.123234e-06,-0.90095073,1.1377181,0.079272926,1.1336391,0
99109327,99108253,0.55254227,4.1167914e-06,0.60604274,1.1379534,0.035862412,1.1274831,0
99213911,99212537,0.55223495,4.1133194e-06,-0.8311566,1.1730585,0.06543401,1.1699296,0
99313003,99311856,0.5523922,4.1115127e-06,-0.33193445,1.1593224,0.010559854,1.1484443,0
99413482,99411252,0.5521902,4.1125277e-06,1.4918842,1.1166108,0.22147562,1.1218387,0
99511630,99510492,0.55251473,4.1139183e-06,-1.3244945,1.1628973,0.16761637,1.1686579,0
99611842,99609811,0.55271506,4.1147746e-06,-1.1744702,1.1361126,0.13490254,1.1367952,0
99710236,99709130,0.55303895,4.1149883e-06,0.20182818,1.1641654,0.0038878224,1.1523309,0
99809742,99808447,0.55287254,4.11452e-06,0.45307988,1.1286114,0.020209827,1.118587,0
99910221,99907766,0.5530638,4.112626e-06,-1.0723075,1.0946392,0.116714604,1.091815,0
100008380,100007085,0.55350727,4.1101757e-06,-1.8365415,1.0886935,0.3442337,1.1026824,0
100108804,100106421,0.5536381,4.1075837e-06,0.52688074,1.0739633,0.028720548,1.0674276,0
100206851,100205733,0.55298406,4.1056464e-06,2.2975013,1.1783149,0.49774587,1.2180512,0
100307317,100305044,0.5524083,4.1097496e-06,2.5520864,1.30196,0.555841,1.3436493,0
100405486,100404361,0.5521261,4.1193184e-06,-0.8861482,1.4081329,0.061962165,1.4062492,0
100505904,100503821,0.55219704,4.1319163e-06,0.6488515,1.3878456,0.03370598,1.3753241,0
100615285,100612927,0.5523208,4.1485227e-06,0.6611798,1.406516,0.034534402,1.3892826,0
100714559,100712245,0.5525494,4.1616336e-06,-0.4280362,1.4345665,0.014190503,1.4157132,0
100808719,100806598,0.5528708,4.1701405e-06,-2.2589383,1.4218144,0.39877078,1.4369618,0
100907119,100905915,0.55313796,4.176561e-06,-0.4803958,1.4434568,0.017764464,1.4288183,0
101006518,101005277,0.5533632,4.1790377e-06,-0.59755903,1.4236802,0.027868057,1.4093639,0
101106140,101104551,0.55306864,4.1791695e-06,1.3265519,1.4111968,0.13855378,1.4162765,0
101206329,101203870,0.55263466,4.183151e-06,2.004223,1.5026861,0.297017,1.5241907,0
101304706,101303300,0.55257696,4.189494e-06,-0.5493458,1.4777902,0.022690095,1.4656323,0
101409807,101407473,0.5526672,4.196336e-06,-1.0966022,1.4171897,0.09428177,1.4143229,0
101508093,101506805,0.5528314,4.201564e-06,-0.99494576,1.413407,0.077819616,1.4072598,0
101608384,101606109,0.5529147,4.206068e-06,-0.25868416,1.3672968,0.005437939,1.3530421,0
101706553,101705427,0.5529492,4.2101524e-06,0.94551027,1.3856065,0.07168859,1.3806254,0
101806720,101804747,0.55317044,4.214186e-06,-0.08292884,1.3880637,0.00055050245,1.3730594,0
101910294,101909032,0.55325425,4.216185e-06,-0.5263534,1.3232793,0.023262741,1.3101144,0
102010688,102008349,0.5537068,4.2163724e-06,-1.1473929,1.3399891,0.10916428,1.332959,0
102108929,102107767,0.55368525,4.219735e-06,0.91883594,1.3305471,0.07050228,1.3291944,0
102214407,102211955,0.55354714,4.2254346e-06,-0.78424186,1.3689908,0.04991798,1.3582366,0
102312653,102311270,0.55352515,4.2282395e-06,-0.37695035,1.3329661,0.011844227,1.3189923,0
102411922,102410588,0.55345565,4.2268975e-06,0.742277,1.3053899,0.04689746,1.297863,0
102511061,102509908,0.55354476,4.227837e-06,-1.3885761,1.2590623,0.17015696,1.261331,0
102610600,102609224,0.5532195,4.2313186e-06,-0.30618128,1.3202579,0.007889618,1.3069392,0
102709876,102708543,0.55337614,4.235203e-06,-0.4818222,1.2794237,0.020161215,1.2674267,0
102809181,102807862,0.5534068,4.2380025e-06,-1.2338839,1.2287827,0.13766736,1.2290395,0
102908532,102907276,0.5536617,4.24041e-06,0.22613654,1.2479795,0.0045529357,1.2356043,0
103007792,103006498,0.55398655,4.242113e-06,0.26569346,1.2608068,0.00622115,1.2493294,0
103107111,103105816,0.55381435,4.24372e-06,-0.50335777,1.2435508,0.022638492,1.2312596,0
103206476,103205137,0.55396885,4.244361e-06,0.2426728,1.2064406,0.005423676,1.1949288,0
103305824,103304453,0.55432975,4.2441593e-06,-2.496199,1.197934,0.5779403,1.2336607,0
103404834,103403794,0.5540905,4.245307e-06,2.431751,1.2553846,0.5233822,1.3077856,0
103504495,103503089,0.55407906,4.2473994e-06,0.041862264,1.2643181,0.00015400916,1.2508792,0
103613719,103612341,0.55425924,4.25138e-06,-0.020584209,1.2479378,3.7725316e-05,1.2346609,0
103713016,103711712,0.554317,4.252269e-06,-1.3988456,1.2136368,0.1791465,1.2145432,0
103807174,103806011,0.5544779,4.2519605e-06,-0.046861198,1.206394,0.00020225305,1.193562,0
103906868,103905329,0.55453736,4.252537e-06,-0.46230096,1.1879232,0.019990271,1.1754203,0
104005927,104004810,0.55461127,4.252297e-06,-0.35225832,1.1477664,0.01201231,1.1352168,0
104105289,104103966,0.5546402,4.2510915e-06,0.68908215,1.1206434,0.047079522,1.1163572,0
104204572,104203293,0.5545799,4.250548e-06,-2.1518145,1.1552576,0.44533652,1.1805443,0
104308779,104307570,0.55456394,4.2517554e-06,-0.5484488,1.1716584,0.028525198,1.1602287,0
104408208,104406887,0.55433273,4.2516613e-06,0.0760144,1.1663444,0.00055045576,1.1537623,0
104507508,104506203,0.5544264,4.25198e-06,2.8559282,1.1527934,0.78614116,1.2259082,0
104606702,104605523,0.5538434,4.261204e-06,2.398407,1.5467124,0.41323173,1.5782404,0
104706242,104704842,0.5538359,4.2683296e-06,-2.796648,1.5670197,0.5545729,1.6366524,0
104805978,104804323,0.5540438,4.2768347e-06,1.1638517,1.6864829,0.08924232,1.6804101,0
104904788,104903479,0.55412805,4.286298e-06,-0.7153368,1.6662282,0.034122758,1.6540473,0
105014033,105012728,0.55419904,4.2961883e-06,0.46734536,1.6124027,0.015050809,1.5974876,0
105108370,105107081,0.5540975,4.301162e-06,0.5396824,1.5684183,0.020633461,1.5606439,0
105207984,105206402,0.5539553,4.309464e-06,-0.03866589,1.5221498,0.000109133005,1.50624,0
105306830,105305719,0.55403346,4.31744e-06,-0.93406487,1.4534574,0.066697456,1.4473932,0
105411335,105410003,0.55399853,4.3240047e-06,-0.34855834,1.3987063,0.009651213,1.3851678,0
105510625,105509324,0.5540955,4.327387e-06,0.5383668,1.3802063,0.023332968,1.3680196,0
105610407,105608755,0.55413383,4.330462e-06,-0.61023647,1.3635545,0.030344594,1.3524116,0
105709301,105707957,0.5540418,4.3348628e-06,0.09002584,1.3250918,0.0006795883,1.3108822,0
105808632,105807275,0.55414844,4.3392783e-06,-0.24601352,1.2808176,0.0052503487,1.2676276,0
105907887,105906594,0.55421984,4.3432124e-06,0.08978099,1.232313,0.00072678376,1.2192762,0
106008081,106005912,0.55423695,4.34596e-06,0.5303409,1.1916579,0.026225038,1.1817745,0
106106307,106105234,0.554528,4.3450027e-06,-0.1485686,1.1833028,0.0020726009,1.1702781,0
106206692,106204549,0.5542246,4.3457153e-06,0.7756247,1.1718899,0.057039265,1.1652138,0
106305143,106303870,0.5543043,4.345232e-06,0.554845,1.1373365,0.030075429,1.1281617,0
106404674,106403246,0.55437404,4.343277e-06,-0.8362442,1.1010941,0.07056662,1.0949903,0
106509710,106507470,0.5545721,4.341793e-06,0.21529914,1.070591,0.0048108133,1.0597112,0
106608939,106606788,0.55413574,4.341753e-06,1.5116811,1.0954707,0.2317806,1.1050361,0
106707274,106706107,0.5541531,4.34609e-06,0.21909833,1.0706328,0.004981901,1.0595468,0
106806696,106805437,0.5544108,4.3468917e-06,-1.5985293,1.0333697,0.27475333,1.0455309,0
106906991,106904743,0.5544985,4.3422747e-06,-0.12467665,1.0124506,0.0017059015,1.00113,0
107005232,107004062,0.55436563,4.336237e-06,0.39489323,1.0014757,0.01730121,1.0,0
107105536,107103380,0.55413157,4.3263403e-06,0.46271944,1.0016954,0.023749655,1.0,0
107214844,107212696,0.55461997,4.3149294e-06,-1.2768003,1.0785717,0.16794011,1.0797718,0
107309381,107306983,0.55457574,4.30471e-06,-0.03967923,1.0487384,0.00016680796,1.036932,0
107407477,107406303,0.5547032,4.300491e-06,0.07502118,1.0052704,0.00062207447,1.0,0
107507919,107505801,0.55459297,4.2986476e-06,-0.48627383,1.0012498,0.026240788,1.0,0
107611501,107609908,0.5545868,4.2976612e-06,0.28770193,1.0012665,0.009185301,1.0,0
107711806,107709222,0.5544915,4.2950046e-06,1.0077668,1.0211147,0.11051039,1.0202824,0
107809641,107808540,0.5545521,4.2922866e-06,1.5565068,1.0026233,0.26848602,1.01641,0
107910084,107907864,0.55455977,4.289607e-06,-0.81679094,1.001283,0.07403251,1.0,0
108008382,108007232,0.5541173,4.2877336e-06,2.174766,1.0485873,0.5011618,1.0799682,0
108108725,108106497,0.5541583,4.28716e-06,-0.41302133,1.0552224,0.017962156,1.0458385,0
108206947,108205814,0.55395454,4.2854076e-06,-0.1713062,1.0328819,0.003156843,1.0222354,0
108307376,108305272,0.5540734,4.282799e-06,0.7344869,1.0287135,0.05826814,1.0215527,0
108410754,108409417,0.5539651,4.2801803e-06,0.011542682,1.0013552,1.4783687e-05,1.0,0
108510961,108508737,0.553902,4.2758884e-06,1.7511715,1.001362,0.34027007,1.0168707,0
108605386,108603088,0.5540172,4.270529e-06,-0.25536078,1.0044016,0.0072137075,1.0,0
108714588,108712340,0.5542425,4.269045e-06,-0.31486648,1.0165842,0.01083595,1.0061488,0
108812769,108811653,0.55415833,4.265148e-06,0.5792274,1.0097514,0.036918256,1.0015414,0
108913252,108910975,0.5543436,4.261065e-06,-0.1537872,1.029878,0.0025515968,1.0185714,0
109011572,109010293,0.55436987,4.257084e-06,-0.643922,1.0030731,0.04592947,1.0,0
109111859,109109737,0.55407065,4.253765e-06,1.3902448,1.0497327,0.20457916,1.0557171,0
109210105,109208930,0.55402184,4.2515835e-06,-1.2590147,1.0424737,0.16894837,1.0478876,0
109309460,109308248,0.55393803,4.248864e-06,1.223107,1.0273131,0.16180186,1.0288221,0
109408836,109407567,0.5537448,4.2457145e-06,1.674411,1.0294963,0.3025916,1.0416561,0
109508061,109506886,0.5540649,4.2433826e-06,0.33384266,1.0796034,0.011470357,1.0686091,0
109607794,109606256,0.5540255,4.2417764e-06,0.5186826,1.037706,0.028806236,1.0285046,0
109711905,109710488,0.55391574,4.240355e-06,1.1704297,1.0013106,0.15201253,1.0022328,0
109811434,109809806,0.5537075,4.237631e-06,0.21546862,1.0012947,0.0051518544,1.0,0
109910259,109909222,0.5540779,4.2350507e-06,-0.7552633,1.0112438,0.06267559,1.005669,0
110009804,110008445,0.5542034,4.2322877e-06,-0.15765291,1.0131958,0.0027256378,1.0021113,0
110109030,110107761,0.5545632,4.2303004e-06,-0.27687114,1.0418435,0.008175426,1.0305576,0
110208377,110207080,0.5545659,4.227513e-06,0.8507046,1.0013201,0.08030491,1.0,0
110307521,110306398,0.5543552,4.224994e-06,-0.7523685,1.0280975,0.061176475,1.0216054,0
110407084,110405746,0.55424875,4.2220836e-06,1.6801852,1.0013239,0.31325442,1.0182495,0
110506600,110505035,0.5542842,4.21943e-06,-0.36848333,1.0317049,0.01462304,1.0214269,0
110605519,110604355,0.5541886,4.216284e-06,-0.45831996,1.0013427,0.023308393,1.0,0
110705076,110703767,0.55444956,4.2129964e-06,0.033267133,1.0071794,0.00012209038,1.0,0
110809310,110807957,0.55448097,4.2106994e-06,-1.8885286,1.0013509,0.39574766,1.0230076,0
110908908,110907294,0.5543507,4.20764e-06,0.34945282,1.0013189,0.013550714,1.0,0
111007760,111006596,0.5546708,4.203521e-06,-1.2726257,1.0054258,0.17898178,1.007616,0
111107274,111105917,0.5544721,4.1986177e-06,1.2423111,1.0020019,0.17113927,1.0069208,0
111206523,111205230,0.55470103,4.1958347e-06,-0.32965285,1.0258945,0.011769784,1.0150571,0
111311140,111309514,0.55474484,4.1930293e-06,-0.6090278,1.0014971,0.041151155,1.0,0
111409989,111408833,0.5551887,4.1843923e-06,-0.5782333,1.0368186,0.03583116,1.0264454,0
111509572,111508286,0.5558201,4.1708195e-06,-2.7094088,1.0257634,0.7951688,1.0706301,0
111608573,111607470,0.5557841,4.160852e-06,1.7673221,1.1484007,0.3022007,1.1755434,0
111708124,111706789,0.5557822,4.15769e-06,0.07687509,1.1618309,0.0005651788,1.1499184,0
111807430,111806273,0.55606663,4.158051e-06,-1.5679897,1.1264479,0.24251175,1.1300586,0
111907026,111905424,0.55614674,4.15963e-06,-0.4917506,1.1286082,0.023806967,1.1166583,0
112005790,112004801,0.55616635,4.1598078e-06,0.29373246,1.0864028,0.008824102,1.0774997,0
112105683,112104062,0.5561825,4.158821e-06,-0.5256082,1.0493288,0.02925298,1.0384712,0
112204802,112203380,0.5561325,4.157577e-06,0.12748195,1.0178306,0.0017741052,1.0077531,0
112313956,112312642,0.55610067,4.162475e-06,0.12988222,1.000988,0.0018725266,1.0,0
112408589,112406984,0.5561441,4.1677445e-06,1.0878559,1.0008115,0.13138567,1.0057147,0
112507888,112506301,0.55623114,4.1745943e-06,-0.47350085,1.0009327,0.024888236,1.0,0
112607066,112605745,0.5565973,4.177237e-06,-0.41119957,1.0221057,0.018380908,1.0110642,0
112706110,112704937,0.5571158,4.1753256e-06,-1.4127014,1.0366263,0.2139124,1.0355601,0
112805563,112804256,0.5570275,4.1712046e-06,1.333657,1.0079864,0.19606097,1.0234808,0
112909832,112908541,0.556815,4.1688513e-06,1.7237043,1.0098284,0.32691544,1.042395,0
113009570,113007861,0.5566359,4.166729e-06,0.045253113,1.0371557,0.00021938675,1.0260606,0
113108449,113107193,0.55703753,4.1648823e-06,-1.2091655,1.0273025,0.15813594,1.0249727,0
113208225,113206496,0.55721563,4.1644416e-06,0.62100595,1.0252151,0.04179593,1.0217395,0
113307009,113305814,0.5574894,4.1640455e-06,-0.55940044,1.0012262,0.03472729,1.0,0
113406636,113405276,0.5573395,4.1632275e-06,0.71303904,1.0012411,0.05642161,1.0,0
113510543,113509418,0.55698067,4.163543e-06,1.3307577,1.053967,0.18669319,1.0631217,0
113610042,113608736,0.5571821,4.1632575e-06,0.0938271,1.0883291,0.0008987808,1.0770093,0
113709145,113708054,0.5572671,4.1629805e-06,-2.5155582,1.0738361,0.65476924,1.1153933,0
113809620,113807372,0.5571738,4.1638295e-06,1.1991816,1.1366999,0.14056641,1.14158,0
113907780,113906691,0.5571451,4.165161e-06,1.2540733,1.1310109,0.15450285,1.1368126,0
114008155,114006009,0.5572446,4.1665685e-06,-0.15514787,1.1375583,0.0023511236,1.1251382,0
114106614,114105329,0.5573467,4.167983e-06,-0.021897897,1.1352351,4.6932808e-05,1.1229693,0
114206002,114204695,0.5575599,4.16912e-06,-1.052515,1.1173229,0.11016291,1.1123694,0
114311264,114308930,0.5574058,4.1707176e-06,1.4549963,1.0778868,0.21822684,1.0905855,0
114409382,114408250,0.55732,4.1720546e-06,-1.206632,1.1352825,0.14249618,1.1349893,0
114508841,114507567,0.55755186,4.1731823e-06,0.1534423,1.1346412,0.002305627,1.1232142,0
114608253,114606885,0.55753285,4.1739077e-06,-0.8896071,1.098956,0.080015406,1.0924879,0
114708512,114706204,0.5578016,4.173877e-06,-0.8985851,1.082568,0.082874455,1.0754923,0
114806621,114805523,0.558058,4.1734615e-06,-1.6911261,1.100913,0.28863996,1.1092001,0
114906887,114904841,0.5579969,4.1742846e-06,1.5533055,1.1196283,0.2394404,1.1377249,0
115005333,115004183,0.5580438,4.1754574e-06,1.1608227,1.1277332,0.1327648,1.13354,0
115105694,115103477,0.5582398,4.1765625e-06,0.281954,1.123096,0.00786497,1.1134243,0
115214114,115212728,0.5582524,4.180553e-06,-0.43221882,1.1507863,0.018037243,1.1386081,0
115304501,115302273,0.5582393,4.1790668e-06,-0.21093182,1.114302,0.0044364827,1.1020156,0
115407699,115406404,0.55858743,4.180666e-06,0.25989777,1.138864,0.0065900804,1.1293716,0
115508001,115505717,0.5588544,4.181225e-06,0.1896646,1.144344,0.003492798,1.134582,0
115606155,115605036,0.55863535,4.1823273e-06,0.67990476,1.1435236,0.04491677,1.1394212,0
115705690,115704355,0.55853087,4.183122e-06,1.9816391,1.1320894,0.3854126,1.165973,0
115806051,115803673,0.5586869,4.184497e-06,-1.3431829,1.1774715,0.1702462,1.1769913,0
115909036,115907957,0.558661,4.1883964e-06,-0.85504216,1.2570679,0.064621024,1.247593,0
116009405,116007276,0.5586696,4.1910203e-06,-0.24244332,1.2294284,0.005312204,1.2160728,0
116108050,116106807,0.55900204,4.1930366e-06,-1.3109604,1.2208024,0.15641963,1.2180358,0
116212246,116210879,0.55922043,4.1967182e-06,0.96517575,1.2771251,0.081046976,1.279488,0
116311847,116310201,0.5590747,4.200206e-06,-2.2436402,1.3222228,0.4230184,1.347034,0
116410804,116409515,0.55900425,4.203971e-06,0.9754679,1.3106029,0.08067005,1.309967,0
116510440,116508834,0.5590267,4.2070506e-06,1.1192195,1.2762258,0.10905875,1.2791255,0
116609857,116608152,0.55872136,4.2106867e-06,0.8567853,1.3185678,0.061858453,1.3127658,0
116708627,116707470,0.5590214,4.214391e-06,-1.8279449,1.3105665,0.28328565,1.3235754,0
116808124,116806790,0.55893224,4.2182683e-06,1.1635493,1.3054097,0.115233906,1.3074045,0
116907378,116906214,0.5588116,4.2224506e-06,0.056726854,1.3283691,0.00026916346,1.3141648,0
117006765,117005443,0.55894315,4.2266984e-06,0.86992,1.3204068,0.06368078,1.3154697,0
117105908,117104750,0.55879414,4.231073e-06,-0.6630161,1.3001819,0.037566565,1.2899133,0
117210360,117209029,0.55876076,4.23612e-06,-0.083571166,1.2477407,0.0006219365,1.2313292,0
117309611,117308347,0.5588066,4.2386096e-06,-0.43324634,1.2007407,0.017369129,1.1891736,0
117409773,117407669,0.5590011,4.2400134e-06,0.08221783,1.1822909,0.0006352799,1.1696951,0
117508335,117506984,0.5591193,4.2399624e-06,-0.58211225,1.1300068,0.033318844,1.1196716,0
117608652,117606302,0.5589729,4.2386673e-06,0.66916096,1.0920783,0.045558028,1.0853214,0
117706896,117705685,0.5587721,4.2366164e-06,-0.1718193,1.0720531,0.003059744,1.0603914,0
117807322,117804945,0.5588868,4.2335364e-06,-0.49946803,1.0237429,0.027075842,1.0144296,0
117906630,117904258,0.55924314,4.2298957e-06,-1.2163545,1.0040916,0.16372104,1.0046164,0
118009664,118008542,0.55948466,4.228043e-06,1.295663,1.0120893,0.18429893,1.0243067,0
118110092,118107862,0.5597919,4.225746e-06,-2.330602,1.0258847,0.588295,1.0578406,0
118208536,118207180,0.5604966,4.2259285e-06,-2.0871465,1.1487485,0.42134556,1.1639432,0
118308891,118306498,0.5608375,4.2267907e-06,-0.59407556,1.147882,0.034162026,1.1354576,0
118406981,118405817,0.56076413,4.226389e-06,1.0432993,1.1043258,0.10951613,1.1126188,0
118507345,118505213,0.560602,4.2252545e-06,0.6303126,1.1010443,0.040092643,1.0977151,0
118610802,118609419,0.56050885,4.224548e-06,0.51180726,1.0722635,0.027143689,1.0662608,0
118710984,118708757,0.5604948,4.222152e-06,0.072796226,1.0410727,0.00056558015,1.0304347,0
118809347,118808275,0.56074387,4.2190704e-06,-0.9567495,1.0061355,0.10108751,1.0,0
118914595,118912341,0.5607218,4.2168867e-06,-0.37949744,1.0013342,0.015980713,1.0,0
119013020,119011659,0.56073105,4.2136744e-06,-0.61555696,1.001332,0.042045143,1.0,0
119113332,119110977,0.56101143,4.2104907e-06,-0.2084926,1.0013275,0.0048235045,1.0,0
119211462,119210296,0.56087345,4.207545e-06,-0.4221806,1.0028614,0.019747546,1.0,0
119311812,119309642,0.5611984,4.204709e-06,0.30805576,1.0125475,0.010413596,1.0045522,0
119410155,119408933,0.56148154,4.2015217e-06,-0.8008881,1.0013338,0.07117415,1.0,0
119510538,119508253,0.5612891,4.1985186e-06,1.3547554,1.0036727,0.2031829,1.0173312,0
119608762,119607722,0.56130403,4.1968633e-06,-1.4834962,1.033971,0.23649502,1.0381533,0
119709081,119706902,0.561357,4.1951093e-06,0.11227098,1.0131801,0.0013823113,1.0029906,0
119807521,119806207,0.5610965,4.1931676e-06,0.4262572,1.01587,0.01987297,1.0076101,0
119906747,119905525,0.5611018,4.190921e-06,0.06724912,1.0012987,0.00050184206,1.0,0
120007211,120004871,0.560879,4.1883336e-06,0.724423,1.0019169,0.05819829,1.0,0
120105257,120104162,0.5612229,4.1858775e-06,-0.34526283,1.0196662,0.012989699,1.0088025,0
120204779,120203481,0.56103444,4.183563e-06,-0.19646259,1.0098177,0.004246921,1.0,0
120314069,120312731,0.5610813,4.1835124e-06,0.7446892,1.0013045,0.061537728,1.0,0
120413498,120412213,0.56080276,4.181755e-06,-0.3416359,1.010098,0.0128387,1.0000032,0
120507683,120506401,0.56047446,4.1788103e-06,1.4705063,1.001264,0.23996213,1.0090667,0
120607074,120605720,0.56076,4.177476e-06,-1.4767456,1.0411301,0.23273617,1.0509801,0
120706150,120705043,0.56069857,4.176907e-06,1.3191887,1.02846,0.18801129,1.033716,0
120805740,120804359,0.5607315,4.1757157e-06,0.47078562,1.0301179,0.023906551,1.0208635,0
120904760,120903675,0.56039023,4.1741596e-06,0.6746728,1.0276275,0.049216207,1.0195658,0
121009415,121007960,0.56054324,4.173655e-06,-0.45897326,1.0107646,0.023156995,1.002074,0
121108593,121107275,0.5604383,4.1714575e-06,0.5331209,1.0099448,0.0312688,1.0008287,0
121208119,121206682,0.560465,4.169381e-06,0.08370279,1.001293,0.0007774566,1.0,0
121307020,121305915,0.56056327,4.1671074e-06,-0.79853415,1.0064093,0.070399545,1.0018961,0
121406459,121405237,0.5606501,4.1648127e-06,-0.1413594,1.0013094,0.0022173722,1.0,0
121510907,121509518,0.5606495,4.1638473e-06,0.85248566,1.0012913,0.08064384,1.0,0
121610253,121608836,0.5608443,4.161779e-06,-1.2593222,1.0012938,0.17598256,1.0046347,0
121709239,121708155,0.5609399,4.159812e-06,-0.6802669,1.0012873,0.05135201,1.0,0
121813547,121812440,0.5611038,4.159113e-06,-1.1042725,1.0012891,0.13531642,1.0000052,0
121912967,121911758,0.5611905,4.157162e-06,-1.6488621,1.0123025,0.2984117,1.0240326,0
122012747,122011199,0.5610902,4.156279e-06,2.212384,1.0606506,0.51275057,1.1005055,0
122111588,122110410,0.5612026,4.156226e-06,-0.2493747,1.0648828,0.006488742,1.0533608,0
122210938,122209715,0.5609816,4.155738e-06,1.9271168,1.0441017,0.39521256,1.0700618,0
122310320,122309032,0.56082493,4.155782e-06,-0.18341345,1.0462575,0.0035725744,1.0351816,0
122409674,122408351,0.56114924,4.1553762e-06,-0.3792395,1.0488214,0.015236424,1.0382037,0
122508974,122507669,0.5609814,4.1547073e-06,-0.5969999,1.0307784,0.03841852,1.0226647,0
122608332,122606987,0.5612708,4.1541384e-06,-0.20486844,1.035498,0.004503585,1.0241934,0
122707875,122706306,0.5611987,4.153057e-06,-0.81018424,1.0142131,0.07191108,1.0083983,0
122806925,122805696,0.5612293,4.1515364e-06,0.6811092,1.001268,0.051480245,1.0,0
122911227,122909916,0.5611553,4.1513035e-06,-0.35627398,1.0012728,0.014085532,1.0,0
123010496,123009277,0.56134754,4.1499497e-06,-0.10236347,1.0032707,0.0011604577,1.0,0
123110152,123108722,0.5613041,4.1489957e-06,-0.47447413,1.0027947,0.024944255,1.0,0
123208989,123207865,0.56148565,4.1478247e-06,-1.9030795,1.0019277,0.40163818,1.0221552,0
123308734,123307182,0.56117475,4.147499e-06,0.55564594,1.0620388,0.03230081,1.0536412,0
123407596,123406501,0.5612709,4.1479593e-06,0.9343115,1.0625466,0.09128363,1.0603132,0
123507038,123505819,0.56099397,4.1488834e-06,-0.01914759,1.0784961,3.7771755e-05,1.0667139,0
123606757,123605182,0.56138194,4.150101e-06,-0.3954193,1.1021043,0.015763422,1.0910416,0
123705681,123704457,0.5613018,4.15109e-06,-1.3561046,1.0694833,0.19106007,1.0745062,0
123805456,123803778,0.561509,4.1514054e-06,-0.9679256,1.0537469,0.09878821,1.0495133,0
123904369,123903214,0.561627,4.1513517e-06,0.22978158,1.0539296,0.0055664247,1.0434961,0
124008916,124007397,0.5618022,4.152307e-06,-0.017917186,1.0459449,3.410266e-05,1.0346063,0
124107834,124106696,0.5618205,4.1518874e-06,-1.387642,1.0280551,0.20811145,1.0317705,0
124212611,124210981,0.56187403,4.152429e-06,-0.74182147,1.0581663,0.057783306,1.0482832,0
124311519,124310299,0.5613664,4.1528533e-06,2.743513,1.1201961,0.746582,1.1813208,0
124410974,124409619,0.56150717,4.1555895e-06,-1.9109542,1.1795839,0.34397686,1.2011929,0
124510011,124508936,0.5614662,4.1586727e-06,-0.70349735,1.1648651,0.04720704,1.1567535,0
124609651,124608255,0.56169254,4.1618455e-06,0.43594044,1.2027171,0.01755692,1.1923537,0
124708822,124707723,0.5617635,4.164696e-06,0.4007431,1.1574018,0.015417197,1.1472322,0
124813261,124811858,0.5617869,4.1680805e-06,0.548801,1.138192,0.02940165,1.1298007,0
124912343,124911176,0.56171656,4.1700355e-06,-1.3384229,1.1457533,0.17372133,1.1491735,0
125011876,125010495,0.56192315,4.1717562e-06,-0.431134,1.1378173,0.018151375,1.126432,0
125110938,125109813,0.56165355,4.1736293e-06,2.6439142,1.1524715,0.6739412,1.2097723,0
125210523,125209132,0.56178176,4.176761e-06,-0.30020124,1.178453,0.008497089,1.1662347,0
125309797,125308450,0.56177694,4.179114e-06,-0.76888025,1.1367294,0.05778536,1.1293305,0
125409347,125407769,0.56195253,4.1809294e-06,0.6985325,1.1191723,0.048443306,1.1132121,0
125508341,125507155,0.56180495,4.183251e-06,-0.8356091,1.1508237,0.06741476,1.1443366,0
125607699,125606415,0.5620171,4.1857575e-06,-0.14144778,1.1329918,0.0019621083,1.1206697,0
125707100,125705724,0.5618538,4.1879016e-06,0.011241049,1.1073357,1.26792e-05,1.0952921,0
125806316,125805045,0.56205684,4.188916e-06,-0.56648684,1.0676697,0.03339644,1.0581093,0
125905758,125904361,0.5619427,4.188518e-06,0.45340386,1.0303377,0.022169115,1.0215756,0
126004713,126003692,0.56218576,4.186956e-06,-0.2108832,1.0286311,0.0048037656,1.0173283,0
