timestamp,x,y,z,yaw,yawspeed,vx,vy,vz,acceleration[0],acceleration[1],acceleration[2],jerk[0],jerk[1],jerk[2],thrust[0],thrust[1],thrust[2]
50904246,0.10960524,0.30235845,-1.3317146,-1.5653263,0.7853982,-0.32614973,-0.3491831,-0.063847415,-3.1811e-05,-3.4064054e-05,-0.012310043,0.0,0.0,0.0,-0.0,-0.0,-0.5106402
50924110,0.103256136,0.2955606,-1.3329536,-1.5653263,0.0,-0.32450745,-0.34974596,-0.063991606,0.19755727,0.09256135,0.032962885,0.0,0.0,0.0,0.010239369,0.0047974433,-0.50828576
51003742,0.07797515,0.26844892,-1.3376195,-1.5653263,0.0,-0.3000988,-0.33590728,-0.058775395,0.60641694,0.36815342,0.007877864,0.0,0.0,0.0,0.03151218,0.019130925,-0.5095903
51107849,0.04895228,0.2370276,-1.342623,-1.5653263,0.0,-0.22567414,-0.27468044,-0.0483669,1.2512009,0.7816188,-0.1198068,0.0,0.0,0.0,0.065864325,0.0411451,-0.5162306
51187302,nan,nan,nan,-1.5421292,0.0,-0.22970642,-0.25311628,-0.03952041,0.9628131,0.40501338,0.17651153,0.0,0.0,0.0,0.049170125,0.020683723,-0.5008204
51291586,nan,nan,-1.3317529,-1.5421292,0.0,-0.13743916,-0.20710088,0.00662263,1.7037818,0.38356543,-0.11315499,0.0,0.0,0.0,0.089628614,0.020177722,-0.5158847
51390906,nan,nan,nan,-1.5421292,0.0,0.03179721,-0.1590827,-0.0029501233,2.6565094,0.46258628,-0.37696627,0.0,0.0,0.0,0.1434638,0.024981802,-0.5296043
51490272,nan,nan,nan,-1.5421292,0.0,0.25929317,-0.10674734,-0.035391856,2.6856647,0.4462179,-1.0259452,0.0,0.0,0.0,0.15428123,0.025633525,-0.5633548
51589539,nan,nan,nan,-1.5421292,0.0,0.4276948,-0.053436052,-0.05460587,1.9945419,0.4832401,-0.20849055,0.0,0.0,0.0,0.105932295,0.02566541,-0.5208427
51688856,nan,nan,nan,-1.5421292,0.0,0.5166617,-0.0018947057,-0.057792693,1.1084146,0.33865675,-0.18566638,0.0,0.0,0.0,0.05873489,0.01794542,-0.51965564
51808195,nan,nan,nan,-1.5421292,0.0,0.51945966,0.0060574845,-0.054605946,0.101112306,0.015561145,-0.3230253,0.0,0.0,0.0,0.0054321284,0.0008360024,-0.5267991
51887492,nan,nan,nan,-1.5421292,0.0,0.45826972,0.005008865,-0.054605875,-0.53840315,-0.099336565,-0.3925835,0.0,0.0,0.0,-0.029121507,-0.005372982,-0.5304165
52006673,nan,nan,nan,-1.5421292,0.0,0.27193642,0.0034352287,-0.054605875,-1.5378621,-0.09131858,-0.4448233,0.0,0.0,0.0,-0.08360499,-0.0049644825,-0.53313327
52091093,nan,nan,nan,-1.5421292,0.0,0.124203995,0.0023177823,-0.054605875,-0.9410526,-0.025110103,-0.48052767,0.0,0.0,0.0,-0.0513377,-0.0013698436,-0.5349901
52190412,nan,nan,nan,-1.5421292,0.0,0.023706082,0.0010064098,-0.054605875,-0.13340476,-0.04974172,-0.4738216,0.0,0.0,0.0,-0.007275266,-0.0027126786,-0.5346413
52289739,-0.019710923,0.19975278,nan,-1.5421292,0.0,0.013986127,-0.0019555464,-0.054605875,0.6936559,-0.04661159,-0.50278276,0.0,0.0,0.0,0.03792387,-0.0025483698,-0.5361475
52389047,-0.019710923,0.19975278,nan,-1.5421292,0.0,0.041142885,-0.0042913887,-0.054605875,0.84088326,-0.03696457,-0.5059747,0.0,0.0,0.0,0.045986716,-0.00202154,-0.5363135
52508228,-0.019710923,0.19975278,nan,-1.5421292,0.0,0.074713305,-0.007456184,-0.054605875,0.8535415,-0.033564594,-0.48880047,0.0,0.0,0.0,0.046601463,-0.0018325521,-0.5354203
52587756,-0.019710923,0.19975278,nan,-1.5421292,0.0,0.09559225,-0.009375242,-0.054605875,0.87807906,-0.04964342,-0.4767695,0.0,0.0,0.0,0.047884934,-0.002707241,-0.5347946
52706863,nan,nan,nan,-1.5421292,0.0,0.119335905,-0.011002981,-0.054605875,0.8665897,-0.009881465,-0.4836204,0.0,0.0,0.0,0.047289822,-0.00053923175,-0.53515095
52806182,nan,nan,nan,-1.5421292,0.0,0.13060567,-0.005101362,-0.054605875,1.3127273,0.031682868,-0.4773625,0.0,0.0,0.0,0.07159242,0.0017278937,-0.5348255
52905501,nan,nan,nan,-1.5421292,0.0,0.21744585,0.0012860288,-0.054605875,2.0642703,0.019253269,-0.4432537,0.0,0.0,0.0,0.11220558,0.0010465317,-0.5330516
53004816,nan,nan,nan,-1.5421292,0.0,0.38372386,0.007723963,-0.054605875,2.9483118,0.030526914,-0.37417716,0.0,0.0,0.0,0.15917894,0.0016481437,-0.5294593
53104162,nan,nan,nan,-1.5421292,0.0,0.62823725,0.014298692,-0.054605875,3.7738118,0.06288547,-0.3097358,0.0,0.0,0.0,0.20245788,0.0033736862,-0.52610797
53208418,nan,nan,nan,-1.5421292,0.0,0.9461191,0.021221874,-0.054605875,3.858337,0.04491789,-0.16617145,0.0,0.0,0.0,0.20405483,0.0023755603,-0.5186418
53287874,nan,nan,nan,-1.5421292,0.0,1.1517437,0.026478663,-0.054605875,3.3334532,0.08224668,-0.09515108,0.0,0.0,0.0,0.17504011,0.0043187854,-0.51494837
53407139,nan,nan,nan,-1.5421292,0.0,1.3667254,0.026383463,-0.054605875,2.3133407,-0.0197438,-0.1425683,0.0,0.0,0.0,0.12205553,-0.0010417143,-0.51741433
53506371,nan,nan,nan,-1.5421292,0.0,1.4583342,0.0238241,-0.054605875,1.46848,-0.050939392,-0.26026335,0.0,0.0,0.0,0.0783957,-0.002719431,-0.52353513
53605689,nan,nan,nan,-1.5421292,0.0,1.4712379,0.021263588,-0.05304104,0.6560372,-0.068642266,-0.22047114,0.0,0.0,0.0,0.034884278,-0.0036499996,-0.5214657
53685303,nan,nan,nan,-1.5421292,0.0,1.4246736,0.019210102,-0.051422603,-0.014457703,-0.04317064,-0.48665768,0.0,0.0,0.0,-0.0007918206,-0.0023643726,-0.5353089
53789428,nan,nan,nan,-1.5421292,0.0,1.2868804,0.016517883,-0.05460587,-0.877073,-0.08609677,-0.59092355,0.0,0.0,0.0,-0.048361283,-0.004747325,-0.54073125
53888746,nan,nan,nan,-1.5421292,0.0,1.0755001,0.013962069,-0.053022787,-1.6396656,-0.0866383,-0.44707528,0.0,0.0,0.0,-0.089158945,-0.00471107,-0.5332504
53988064,nan,nan,nan,-1.5421292,0.0,0.78379995,0.011391933,-0.051422603,-2.55211,-0.10230535,-0.63049614,0.0,0.0,0.0,-0.14125705,-0.005662512,-0.5427893
54107243,nan,nan,nan,-1.5421292,0.0,0.42031217,0.00832311,-0.10467989,-1.9032073,-0.07812073,-1.4076142,0.0,0.0,0.0,-0.1131841,-0.004645855,-0.58320373
54206667,nan,nan,nan,-1.5421292,0.0,0.201909,0.005755838,-0.1490274,-1.0055262,-0.03298801,-1.0256639,0.0,0.0,0.0,-0.05776206,-0.0018949833,-0.5633402
54290982,nan,nan,nan,-1.5421292,0.0,0.07892211,0.0035828725,-0.15256599,-0.28099036,-0.09221147,-0.7061291,0.0,0.0,0.0,-0.015665775,-0.0051409737,-0.5467226
54390299,nan,nan,nan,-1.5421292,0.0,0.006667104,0.001011653,-0.16614275,0.52495676,-0.061179683,-0.77863675,0.0,0.0,0.0,0.029468054,-0.0034342757,-0.5504934
54489737,0.4814684,0.24434681,nan,-1.5421292,0.0,0.02769132,-0.0006098732,-0.16956165,0.92573535,-0.027431868,-0.7672317,0.0,0.0,0.0,0.051909976,-0.0015382232,-0.5499003
54588951,0.4814684,0.24434681,nan,-1.5421292,0.0,0.06095485,-0.0016592793,-0.16614974,1.0331427,-0.038570885,-0.6782212,0.0,0.0,0.0,0.057445344,-0.0021446387,-0.5452712
54688253,0.4814684,0.24434681,nan,-1.5421292,0.0,0.09218112,-0.00043617786,-0.16956165,0.9963084,0.0121333115,-0.70782006,0.0,0.0,0.0,0.05555338,0.00067654403,-0.54681057
54807434,0.4814684,0.24434681,nan,-1.5421292,0.0,0.12403274,0.0016741432,-0.16615497,0.97832495,0.0010153307,-0.663125,0.0,0.0,0.0,0.0543186,5.6373232e-05,-0.54448617
54906751,0.4814684,0.24434681,nan,-1.5421292,0.0,0.14437813,0.0031757802,-0.16614275,0.9423535,0.020189583,-0.6689727,0.0,0.0,0.0,0.05235088,0.0011215986,-0.54479027
55006151,0.4814684,0.24434681,nan,-1.5421292,0.0,0.15954353,0.004831478,-0.16614276,0.90486705,0.032458186,-0.6584831,0.0,0.0,0.0,0.05021801,0.0018013536,-0.54424477
55105387,0.4814684,0.24434681,nan,-1.5421292,0.0,0.17689933,0.0042651063,-0.16928859,0.89955765,-0.011516338,-0.64712244,0.0,0.0,0.0,0.04986862,-0.0006384292,-0.5436539
55204705,0.4814684,0.24434681,nan,-1.5421292,0.0,0.19047697,0.003610514,-0.16273393,0.91533166,0.0193456,-0.6206416,0.0,0.0,0.0,0.050614838,0.0010697483,-0.5422768
55304229,0.4814684,0.24434681,nan,-1.5421292,0.0,0.2010603,0.0025498255,-0.16273393,0.8740241,-0.0007153928,-0.6522858,0.0,0.0,0.0,0.048477225,-3.9678835e-05,-0.5439225
55388483,0.4814684,0.24434681,nan,-1.5421292,0.0,0.20666699,0.0017772845,-0.16273393,0.8906842,-0.024549525,-0.6557145,0.0,0.0,0.0,0.049418006,-0.001362086,-0.54410076
55507624,0.4814684,0.24434681,nan,-1.5421292,0.0,0.2111805,0.001291433,-0.1643059,0.88550395,-0.013326006,-0.81923246,0.0,0.0,0.0,0.049898252,-0.000750922,-0.5526046
55606953,0.4814684,0.24434681,nan,-1.5421292,0.0,0.21140565,0.0015519902,-0.16405417,0.8347298,0.00048054266,-0.82752675,0.0,0.0,0.0,0.047073375,2.7099506e-05,-0.553036
55706259,0.4814684,0.24434681,nan,-1.5421292,0.0,0.21142684,0.0031333969,-0.1628835,0.82254004,0.022439834,-0.66127557,0.0,0.0,0.0,0.04566114,0.0012456883,-0.54438996
55805592,0.4814684,0.24434681,nan,-1.5421292,0.0,0.20862362,0.005050303,-0.16956167,0.8046641,0.019343792,-0.71586925,0.0,0.0,0.0,0.044901934,0.0010794239,-0.5472292
55904895,0.4814684,0.24434681,nan,-1.5421292,0.0,0.20691533,0.005878251,-0.16614275,0.78492427,-0.0013301605,-0.6909982,0.0,0.0,0.0,0.04369665,-7.4049894e-05,-0.5459357
56004213,0.4814684,0.24434681,nan,-1.5421292,0.0,0.2029805,0.0065848245,-0.1677198,0.7815801,0.010010115,-0.8671392,0.0,0.0,0.0,0.044240173,0.0005666076,-0.55509603
56103664,0.4814684,0.24434681,nan,-1.5421292,0.0,0.2004507,0.007913913,-0.16956165,0.75097144,0.023878386,-0.734311,0.0,0.0,0.0,0.04197899,0.0013347919,-0.5481882
56207821,0.4814684,0.24434681,nan,-1.5421292,0.0,0.1951401,0.009153676,-0.16956165,0.758938,0.027154136,-0.71310186,0.0,0.0,0.0,0.04233878,0.0015148444,-0.5470852
56307132,nan,nan,nan,-1.5421292,0.0,0.18989293,0.010320167,-0.16956165,0.7049716,0.055645403,-0.73147887,0.0,0.0,0.0,0.039397087,0.0031097236,-0.5480409
56406450,nan,nan,nan,-1.5421292,0.0,0.1505034,-0.00060415594,-0.16956165,-0.074260294,-0.34740624,-0.72703683,0.0,0.0,0.0,-0.004148134,-0.019405898,-0.5478099
56505770,nan,nan,nan,-1.5421292,0.0,0.060944222,-0.07356017,-0.16614275,-0.27038527,-0.82676715,-0.7457302,0.0,0.0,0.0,-0.015130791,-0.046265986,-0.5487821
56605087,nan,nan,nan,-1.5421292,0.0,-0.049998283,-0.17140289,-0.16614275,-0.4770459,-1.0937304,-0.756491,0.0,0.0,0.0,-0.026722746,-0.061267648,-0.5493417
56689506,nan,nan,nan,-1.5421292,0.0,-0.11473544,-0.22764263,-0.16614275,0.1822676,-0.43396348,-0.69402516,0.0,0.0,0.0,0.0101494,-0.024164848,-0.5460931
56788824,nan,nan,nan,-1.5421292,0.0,-0.11760284,-0.22054817,-0.16956167,1.0057868,0.40571812,-0.6710375,0.0,0.0,0.0,0.055885788,0.022543423,-0.5448977
56888268,nan,nan,nan,-1.5421292,0.0,-0.07197034,-0.1342289,-0.16956167,1.2150254,1.3258705,-0.66001326,0.0,0.0,0.0,0.06744077,0.07359329,-0.54432434
56992427,nan,nan,nan,-1.5421292,0.0,-0.011212139,-0.020847466,-0.16956167,1.1668549,0.9376312,-0.6518698,0.0,0.0,0.0,0.06471676,0.05200342,-0.54390085
57091743,0.23614484,0.1540539,nan,-1.5421292,0.0,0.0033303872,0.022594944,-0.16956167,0.81396824,0.17415516,-0.66821396,0.0,0.0,0.0,0.045215074,0.009674135,-0.5447508
57191234,0.22658472,0.14649554,nan,-1.5421292,0.0,0.0020853411,0.0026127351,-0.18371838,0.5418828,-0.14646706,-1.2287693,0.0,0.0,0.0,0.031712063,-0.008571545,-0.5739028
57290378,0.22659495,0.14650843,nan,-1.5421292,0.0,0.0046637277,0.0028479954,-0.27043524,0.6457597,-0.08700838,-2.165364,0.0,0.0,0.0,0.040998336,-0.005524034,-0.62261087
57389696,0.22659495,0.14650843,nan,-1.5421292,0.0,0.00620687,0.0025879194,-0.43571863,0.62672603,-0.024639295,-3.0328348,0.0,0.0,0.0,0.042672876,-0.0016776545,-0.66772413
57489015,0.22659495,0.14650843,nan,-1.5421292,0.0,0.005517383,0.003908571,-0.68087715,0.5916331,-0.029245196,-3.8462758,0.0,0.0,0.0,0.04283583,-0.002117431,-0.7100276
57588332,0.22659495,0.14650843,nan,-1.5421292,0.0,0.0025155535,0.0056225494,-0.92346543,0.61455595,0.021109797,-2.8444173,0.0,0.0,0.0,0.04123067,0.00141626,-0.6579254
57707576,0.22659495,0.14650843,nan,-1.569368,0.0,0.0042953575,0.0035449285,-1.1184626,0.6305963,-0.014771241,-1.6619248,0.0,0.0,0.0,0.03835187,-0.00089836353,-0.5964293
57806831,0.22659495,0.14650843,nan,-1.569368,0.0,0.0070562507,0.00010400468,-1.1947851,0.60816437,-0.02004182,-0.7899762,0.0,0.0,0.0,0.034175687,-0.0011262464,-0.5510831
57906149,0.22659495,0.14650843,nan,-1.569368,0.0,0.012093601,-0.0079158945,-1.1922154,0.63970417,-0.059948612,0.034082472,0.0,0.0,0.0,0.033153027,-0.0031068707,-0.5082275
58005469,0.22659495,0.14650843,nan,-1.569368,0.0,0.015804907,-0.015552447,-1.1686456,0.66623783,-0.06542486,-0.598066,0.0,0.0,0.0,0.036760252,-0.0036098734,-0.5411027
58104794,0.22659495,0.14650843,nan,-1.569368,0.0,0.017777616,-0.020469172,-1.1322922,0.66065764,-0.06305952,-0.27338737,0.0,0.0,0.0,0.03531566,-0.0033708664,-0.52421767
58204103,0.22659495,0.14650843,nan,-1.569368,0.0,0.018081449,-0.02393814,-1.1097108,0.6361465,-0.06270193,-1.107703,0.0,0.0,0.0,0.036819607,-0.0036291333,-0.5676067
58303420,0.22659495,0.14650843,nan,-1.569368,0.0,0.013511505,-0.02593122,-1.1172795,0.6173219,-0.048124984,-1.1581539,0.0,0.0,0.0,0.03589551,-0.0027983307,-0.57023036
58382874,0.22659495,0.14650843,nan,-1.569368,0.0,0.0086853495,-0.02681333,-1.1147946,0.62136465,-0.035589226,-0.99619305,0.0,0.0,0.0,0.03559679,-0.0020388388,-0.5618075
58492124,0.22659495,0.14650843,nan,-1.569368,0.0,0.0066806185,-0.02697897,-1.1179222,0.6212847,-0.044363543,-0.9944308,0.0,0.0,0.0,0.035586827,-0.0025411178,-0.5617159
58606339,0.22659495,0.14650843,nan,-1.569368,0.0,0.006936688,-0.026354799,-1.1179222,0.6311488,-0.044248093,-0.98139715,0.0,0.0,0.0,0.03610814,-0.0025314416,-0.5610381
58705657,0.22659495,0.14650843,nan,-1.569368,0.0,0.0002946024,-0.027110267,-1.1096272,0.6002817,-0.0463905,-0.9813689,0.0,0.0,0.0,0.034341644,-0.002653964,-0.5610366
58805149,0.22659495,0.14650843,nan,-1.569368,0.0,-0.007966078,-0.027687073,-1.0702902,0.5784462,-0.04047265,-0.12877387,0.0,0.0,0.0,0.030476796,-0.0021323964,-0.51669693
58889416,0.22659495,0.14650843,nan,-1.569368,0.0,-0.010577482,-0.026785357,-0.97468287,0.5952472,-0.048571166,0.68163776,0.0,0.0,0.0,0.028804198,-0.002350374,-0.47455105
58988713,0.22659495,0.14650843,nan,-1.569368,0.0,-0.012363968,-0.02509441,-0.78922623,0.59001684,-0.045112647,1.5997554,0.0,0.0,0.0,0.02567879,-0.0019633984,-0.42680386
59107896,0.22659495,0.14650843,nan,-1.569368,0.0,-0.011870459,-0.028527392,-0.46601048,0.63264513,-0.05717315,2.5138376,0.0,0.0,0.0,0.024467088,-0.00221113,-0.37926656
59207212,0.22659495,0.14650843,nan,-1.569368,0.0,-0.011219009,-0.032367107,-0.17989898,0.60246664,-0.03876838,2.042028,0.0,0.0,0.0,0.02480734,-0.0015963379,-0.40380326
59306527,0.22659495,0.14650843,nan,-1.569368,0.0,-0.0079497,-0.038061034,0.03494983,0.5960976,-0.054228228,0.9738718,0.0,0.0,0.0,0.027921867,-0.00254011,-0.45935327
59390950,0.22659495,0.14650843,nan,-1.569368,0.0,-0.005617057,-0.04182776,0.15590733,0.6338709,-0.09780687,0.040515423,0.0,0.0,0.0,0.032828752,-0.005065507,-0.50789297
59490269,0.22659495,0.14650843,nan,-1.565344,-0.0036064899,-0.0021553943,-0.04565676,0.22532986,0.6557217,-0.048161745,-0.91683674,0.0,0.0,0.0,0.037289035,-0.0027388218,-0.55768055
59589646,0.22659495,0.14650843,nan,-1.5661447,-0.0011900264,0.0005872373,-0.04799747,0.2156623,0.6287303,-0.07887337,-1.7040832,0.0,0.0,0.0,0.03837914,-0.004814612,-0.5986217
59688905,0.22659495,0.14650843,nan,-1.5667452,-0.000392068,0.0052518286,-0.052130386,0.1269004,0.63202155,-0.057266954,-2.4422874,0.0,0.0,0.0,0.041055016,-0.003719962,-0.6370124
59808087,0.22659495,0.14650843,nan,-1.5667452,-0.000103972765,0.011722174,-0.05876177,-0.08286489,0.62902075,-0.062288538,-3.213756,0.0,0.0,0.0,0.04343167,-0.004300805,-0.6771331
59907403,0.22659495,0.14650843,nan,-1.5667452,-3.418686e-05,0.018991234,-0.062435944,-0.29416066,0.65611637,-0.09959067,-3.2181458,0.0,0.0,0.0,0.045318596,-0.006878825,-0.67736137
60006721,0.22659495,0.14650843,nan,-1.5667452,-1.1304535e-05,0.02436976,-0.06467956,-0.5714785,0.68255347,-0.08358545,-4.01017,0.0,0.0,0.0,0.050011348,-0.006124386,-0.718551
60106042,0.22659495,0.14650843,nan,-1.5667452,-3.7262805e-06,0.030677805,-0.06694272,-0.92861223,0.6298304,-0.15697484,-4.815025,0.0,0.0,0.0,0.04883599,-0.012171565,-0.76040787
60190459,0.22659495,0.14650843,nan,-1.5667452,-1.4628749e-06,0.03332365,-0.0679906,-1.2643304,0.6316873,-0.17629825,-4.6387296,0.0,0.0,0.0,0.048390727,-0.013505419,-0.75123954
60289777,0.22659495,0.14650843,nan,-1.5667452,-4.822251e-07,0.039220702,-0.06878512,-1.6148976,0.67702955,-0.18367931,-3.794483,0.0,0.0,0.0,0.04883293,-0.013248459,-0.70733404
60389170,0.22659495,0.14650843,nan,-1.5667452,-1.5920943e-07,0.0447176,-0.06869298,-1.8969781,0.6934825,-0.10340387,-2.9461513,0.0,0.0,0.0,0.046899818,-0.006993143,-0.6632161
60508276,0.22659495,0.14650843,nan,-1.5667452,-4.1988457e-08,0.049213424,-0.06982202,-2.1319683,0.75201637,-0.16194259,-1.965446,0.0,0.0,0.0,0.046947375,-0.0101098595,-0.612214
60607594,0.22659495,0.14650843,nan,-1.5667452,-1.3888881e-08,0.050470628,-0.07004465,-2.240367,0.71320903,-0.12869328,-1.2580512,0.0,0.0,0.0,0.041848984,-0.0075513395,-0.5754256
60687264,0.22659495,0.14650843,nan,-1.5667452,-5.7024474e-09,0.048719473,-0.07365169,-2.2705958,0.75942916,-0.15925443,-0.71119297,0.0,0.0,0.0,0.042358596,-0.008882715,-0.546986
60791332,0.22659495,0.14650843,nan,-1.5667452,-1.7988055e-09,0.044988066,-0.07683709,-2.233623,0.7157572,-0.13531098,0.020072639,0.0,0.0,0.0,0.037147034,-0.007022495,-0.5089561
60890650,0.22659495,0.14650843,nan,-1.5667452,-5.924368e-10,0.043552753,-0.08235549,-2.1172729,0.74483544,-0.19197762,0.7625522,0.0,0.0,0.0,0.035723742,-0.009207617,-0.47034305
60989967,0.22659495,0.14650843,nan,-1.5667452,-1.9568941e-10,0.042618237,-0.087831624,-1.9224216,0.7451591,-0.13547547,1.4966888,0.0,0.0,0.0,0.032838084,-0.005970209,-0.4321639
61089285,0.22659495,0.14650843,nan,-1.5667452,-6.449162e-11,0.044899847,-0.095261924,-1.6481273,0.75161016,-0.19444351,2.307271,0.0,0.0,0.0,0.029891472,-0.007733002,-0.39000914
61208550,0.22659495,0.14650843,nan,-1.5667452,-1.7010402e-11,0.04897097,-0.10342386,-1.215106,0.75305116,-0.1745953,3.2355335,0.0,0.0,0.0,0.026241666,-0.006084143,-0.34173438
61287922,0.22659495,0.14650843,nan,-1.5667452,-7.0186526e-12,0.052888587,-0.10573329,-0.9254206,0.7562766,-0.13008298,2.5094695,0.0,0.0,0.0,0.029266112,-0.0050339024,-0.3794937
61407103,0.22659495,0.14650843,nan,-1.5667452,-1.8531546e-12,0.05740443,-0.10612055,-0.5670526,0.7714075,-0.16458203,1.4517964,0.0,0.0,0.0,0.034178488,-0.007292079,-0.43449855
61486732,0.22659495,0.14650843,nan,-1.5667452,-7.649715e-13,0.06071479,-0.10274171,-0.3909063,0.75654316,-0.12745546,0.6467035,0.0,0.0,0.0,0.036749747,-0.00619126,-0.47636783
61590841,0.22659495,0.14650843,nan,-1.5667452,-2.4001995e-13,0.06287521,-0.09644028,-0.23542292,0.77186227,-0.09588549,-0.32102394,0.0,0.0,0.0,0.04145499,-0.0051497943,-0.526695
61690161,0.22659495,0.14650843,nan,-1.5667452,-7.918737e-14,0.06365937,-0.08871665,-0.16853337,0.7450506,-0.0505554,-1.1357794,0.0,0.0,0.0,0.043234788,-0.0029336961,-0.5690668
61789477,0.22659495,0.14650843,nan,-1.5667452,-2.6139676e-14,0.062345415,-0.080038235,-0.18053153,0.7134913,-0.031643026,-1.8553228,0.0,0.0,0.0,0.04412573,-0.0019569565,-0.60648704
61908657,nan,nan,nan,-1.5667452,-6.9248658e-15,0.049427222,-0.08053039,-0.23293756,0.3940048,-0.33253217,-1.0920649,0.0,0.0,0.0,0.02277205,-0.019219156,-0.5667934
61988112,nan,nan,nan,-1.5667452,-2.8490879e-15,0.025090182,-0.12772387,-0.22941278,0.4276937,-0.96552557,-0.8108942,0.0,0.0,0.0,0.024081523,-0.05436443,-0.552171
62107294,nan,nan,nan,-1.5667452,-7.528627e-16,0.0011469421,-0.29321682,-0.22941278,0.64976287,-2.0298424,-0.7063059,0.0,0.0,0.0,0.03622503,-0.113166064,-0.5467318
62206612,nan,nan,nan,-1.5667452,-2.4791588e-16,0.0018094829,-0.5058125,-0.22941278,0.68623865,-2.2581713,-0.6385053,0.0,0.0,0.0,0.03801177,-0.12508345,-0.5432058
62306115,nan,nan,nan,-1.5667452,-8.1812656e-17,0.0016243246,-0.66755396,-0.22941276,0.67584836,-1.5729027,-0.51141524,0.0,0.0,0.0,0.036980845,-0.08606557,-0.5365964
62390351,nan,nan,nan,-1.5667452,-3.2104114e-17,0.001446538,-0.7430259,-0.23092893,0.70072293,-0.8293649,-0.35237905,0.0,0.0,0.0,0.03775091,-0.0446814,-0.5283257
62489667,nan,nan,nan,-1.5667452,-1.0616643e-17,0.001237853,-0.75888515,-0.22941278,0.70858693,0.05582328,-0.587175,0.0,0.0,0.0,0.039056867,0.0030769443,-0.54053634
62608850,nan,nan,nan,-1.5667452,-2.8035068e-18,0.0009866584,-0.6738016,-0.22941278,0.66790354,1.0959165,-0.6946778,0.0,0.0,0.0,0.037195366,0.061031293,-0.5461271
62688303,nan,nan,nan,-1.5667452,-1.1562576e-18,0.0010482874,-0.5668041,-0.22941278,0.678334,1.0990217,-0.69146514,0.0,0.0,0.0,0.037764374,0.061185,-0.54596
62807505,nan,nan,nan,-1.5667452,-3.0507827e-19,0.0015547014,-0.48171544,-0.22941278,0.69044995,0.26613423,-0.6925515,0.0,0.0,0.0,0.038443502,0.014818064,-0.5460165
62906802,nan,nan,nan,-1.5667452,-1.0060352e-19,0.0020012963,-0.49780837,-0.23301634,0.64521646,-0.73829424,-0.7432037,0.0,0.0,0.0,0.03609768,-0.04130506,-0.5486507
63006120,nan,nan,nan,-1.5667452,-3.3255407e-20,0.0024468082,-0.59256554,-0.2325506,0.6702026,-1.6452868,-0.6075749,0.0,0.0,0.0,0.03701371,-0.09086531,-0.54159725
63105580,nan,nan,nan,-1.5667452,-1.0954064e-20,0.002893911,-0.713639,-0.23304647,0.6679338,-1.1963775,-0.68456227,0.0,0.0,0.0,0.037160996,-0.066561356,-0.545601
63189905,nan,nan,nan,-1.5667452,-4.2983976e-21,0.002870159,-0.75649184,-0.23304647,0.65528274,-0.5278982,-0.5718922,0.0,0.0,0.0,0.03606575,-0.029054703,-0.5397415
63309040,nan,nan,nan,-1.5667452,-1.1341666e-21,0.0027239078,-0.7198193,-0.236694,0.68059325,0.57587636,-0.5849519,0.0,0.0,0.0,0.03750601,0.03173529,-0.5404207
63388495,nan,nan,nan,-1.5667452,-4.6797895e-22,0.0025252234,-0.6324963,-0.24750818,0.6834394,1.2621403,-0.9972061,0.0,0.0,0.0,0.03915685,0.072312824,-0.5618602
63507715,nan,nan,nan,-1.5667452,-1.2335239e-22,0.0021123046,-0.47095576,-0.34519798,0.7055994,1.0494958,-2.1962192,0.0,0.0,0.0,0.04491313,0.06680298,-0.62421554
63607016,nan,nan,nan,-1.5667452,-4.0887727e-23,0.0018196409,-0.40214437,-0.49996626,0.68638957,0.15603419,-2.4620318,0.0,0.0,0.0,0.04465704,0.010151707,-0.63803923
63706311,nan,nan,nan,-1.5667452,-1.3458335e-23,0.0019392675,-0.41185233,-0.60534,0.73032665,-0.72454584,-1.4131602,0.0,0.0,0.0,0.043454256,-0.0431103,-0.5834921
63805630,nan,nan,nan,-1.5667452,-4.4493715e-24,0.0021529347,-0.50005275,-0.6314865,0.7508211,-1.5301213,-0.39572704,0.0,0.0,0.0,0.040622465,-0.082785755,-0.53058
63905070,nan,nan,nan,-1.5667452,-1.46305e-24,0.0020579745,-0.580268,-0.578545,0.7319157,-0.83547735,0.61439174,0.0,0.0,0.0,0.03567913,-0.040727515,-0.47804824
64004266,nan,nan,nan,-1.5667452,-4.826424e-25,0.0017539746,-0.58116335,-0.44671503,0.7548989,0.014146626,1.5148541,0.0,0.0,0.0,0.03319503,0.00062206696,-0.43121922
64103583,nan,nan,nan,-1.5667452,-1.5948152e-25,0.001402342,-0.50332344,-0.23637158,0.74469304,0.9104993,2.308544,0.0,0.0,0.0,0.02961121,0.036204163,-0.38994294
64202907,nan,nan,nan,-1.5667452,-5.26071e-26,0.0010500959,-0.3464737,0.046606228,0.82700384,1.8252168,2.6747963,0.0,0.0,0.0,0.03127796,0.06903118,-0.3708958
64292287,nan,nan,nan,-1.5667452,-1.9695447e-26,0.00052201067,-0.16356093,0.28265083,0.7600392,1.7678221,1.9805007,0.0,0.0,0.0,0.03154369,0.07336942,-0.40700302
64391605,nan,nan,nan,-1.5667452,-6.517782e-27,-4.3070344e-05,-0.023630146,0.47598946,0.7648082,1.1935037,0.90578854,0.0,0.0,0.0,0.03610043,0.05633569,-0.462894
64505820,0.07522566,-0.7747474,nan,-1.5667452,-1.811141e-27,0.0019316716,0.04289034,0.70365906,0.743803,0.13058671,1.4967052,0.0,0.0,0.0,0.03277793,0.0057546985,-0.43216306
64605139,nan,nan,nan,-1.5667452,-5.965256e-28,0.0020471616,0.019157797,0.88070166,0.71737427,-0.5983635,0.5359219,0.0,0.0,0.0,0.035268772,-0.029417763,-0.4821291
64704540,0.05888435,-0.7884684,nan,-1.5667452,-1.9725899e-28,0.009850723,0.00876002,0.97832805,0.7841717,-0.12707762,-0.43472433,0.0,0.0,0.0,0.042589486,-0.0069017676,-0.53260803
64803774,0.05888435,-0.7884684,nan,-1.5667452,-6.506817e-29,0.022967102,0.018710345,1.0,0.7649421,-0.029591668,-1.1640468,0.0,0.0,0.0,0.044503074,-0.0017215946,-0.57053685
64883244,0.05888435,-0.7884684,nan,-1.5667452,-2.6868218e-29,0.034762308,0.023304738,1.0,0.7859337,-0.008191803,-1.1190976,0.0,0.0,0.0,0.04553727,-0.0004746359,-0.5681993
64992637,0.05888435,-0.7884684,nan,-1.5667452,-8.049309e-30,0.049676344,0.027424164,1.0,0.8243817,-0.033013806,-0.9337942,0.0,0.0,0.0,0.04695461,-0.0018803793,-0.55856246
65106695,0.05888435,-0.7884684,nan,-1.5667452,-2.238847e-30,0.059843704,0.031719632,1.0,0.8061829,-0.015544219,-0.81651527,0.0,0.0,0.0,0.045416642,-0.0008756898,-0.5524633
65206011,0.05888435,-0.7884684,nan,-1.5667452,-7.3832763e-31,0.065420635,0.035058662,0.99843895,0.7773999,-0.02978326,-0.93332946,0.0,0.0,0.0,0.0442769,-0.0016963088,-0.55853826
65290432,0.05888435,-0.7884684,nan,-1.5667452,-2.8974955e-31,0.06913237,0.03518437,0.95661527,0.775101,-0.020403765,-1.7207453,0.0,0.0,0.0,0.047382165,-0.0012472885,-0.59948826
65389783,0.05888435,-0.7884684,nan,-1.5667452,-9.535357e-32,0.07132257,0.034486074,0.83399916,0.7798181,-0.046300605,-2.6717863,0.0,0.0,0.0,0.05160346,-0.0030638832,-0.64894766
65489098,0.05888435,-0.7884684,nan,-1.5667452,-3.1529007e-32,0.06884878,0.031218678,0.6332147,0.70345175,-0.073323414,-3.4984453,0.0,0.0,0.0,0.04963361,-0.005173498,-0.69193846
65608266,0.05888435,-0.7884684,nan,-1.5667452,-8.3223325e-33,0.060588136,0.026153285,0.35068417,0.6712353,-0.10089035,-3.0566545,0.0,0.0,0.0,0.0457893,-0.0068823835,-0.6689629
65687703,0.05888435,-0.7884684,nan,-1.5667452,-3.432532e-33,0.0548033,0.02764681,0.20480429,0.6563648,-0.06922282,-2.1910377,0.0,0.0,0.0,0.0417606,-0.0044042384,-0.6239461
65806888,nan,nan,nan,-1.5667452,-9.061299e-34,0.042577527,0.014844587,0.080117896,0.41941392,-0.57084054,-0.8980789,0.0,0.0,0.0,0.023809377,-0.032405596,-0.55670506
65906203,nan,nan,nan,-1.5667452,-2.9955508e-34,0.023970896,-0.07153477,0.058810104,0.45340878,-1.3644756,-0.25519782,0.0,0.0,0.0,0.024193414,-0.07280698,-0.5232717
66005521,nan,nan,nan,-1.5667452,-9.865875e-35,0.0052940613,-0.2372805,0.058810104,0.4427147,-2.2654634,-0.41506773,0.0,0.0,0.0,0.023998076,-0.12280316,-0.5315858
66089952,nan,nan,nan,-1.5667452,-3.8801367e-35,0.0033278742,-0.43933904,0.058810104,0.62360716,-3.0453627,-0.56219125,0.0,0.0,0.0,0.034290202,-0.16745496,-0.539237
66189259,nan,nan,nan,-1.5667452,-1.2773914e-35,0.003723943,-0.7403183,0.058810104,0.7133783,-3.2928808,-0.6709433,0.0,0.0,0.0,0.03963787,-0.18296432,-0.5448927
66308519,nan,nan,nan,-1.5667452,-3.3801432e-36,0.0041977395,-1.0333766,0.05772724,0.6887662,-2.4111054,-0.6009183,0.0,0.0,0.0,0.038014565,-0.13307437,-0.54125106
66387895,nan,nan,nan,-1.5667452,-1.3904164e-36,0.004514395,-1.1660092,0.057663556,0.69762295,-1.6712908,-0.58512855,0.0,0.0,0.0,0.038444933,-0.09210226,-0.5404299
66507077,nan,nan,nan,-1.5667452,-3.6738304e-37,0.0046455846,-1.2699125,0.058810104,0.7135437,-0.6740302,-0.69428563,0.0,0.0,0.0,0.039735585,-0.037535176,-0.5461067
66606559,nan,nan,nan,-1.5667452,-1.2125705e-37,0.004557244,-1.2696787,0.058810104,0.75068146,0.16838081,-0.7413111,0.0,0.0,0.0,0.041990243,0.009418576,-0.5485523
66705712,nan,nan,nan,-1.5667452,-3.9936485e-38,0.004457898,-1.1903417,0.058810104,0.75194806,1.0547401,-0.78631526,0.0,0.0,0.0,0.04224102,0.059250493,-0.5508927
66805030,nan,nan,nan,-1.5667452,-1.3192987e-38,0.0043194173,-1.0726433,0.058810104,0.7584308,0.81146693,-0.78457457,0.0,0.0,0.0,0.042598058,0.04557688,-0.55080223
66889451,nan,nan,nan,-1.5667452,-5.16977e-39,0.004264189,-1.0194957,0.058810104,0.7754487,0.17828906,-0.8177528,0.0,0.0,0.0,0.043690596,0.010045225,-0.55252767
67008632,nan,nan,nan,-1.5667452,-1.370824e-39,0.0041584545,-1.013139,0.058810104,0.8201044,0.040524006,-0.83628875,0.0,0.0,0.0,0.046287104,0.0022871953,-0.55349165
67088087,nan,nan,nan,-1.5667452,-5.63434e-40,0.0039193267,-0.9645111,0.058810104,0.7338217,0.5321678,-0.7799163,0.0,0.0,0.0,0.04119763,0.029876541,-0.55055994
67207268,nan,nan,nan,-1.5667452,-1.4918e-40,0.0034080944,-0.81176317,0.058810104,0.76699936,0.93107295,-0.6878985,0.0,0.0,0.0,0.042686176,0.051817443,-0.5457745
67306586,nan,nan,nan,-1.5667452,-4.9078e-41,0.0031533288,-0.7318518,0.05996017,0.76519775,0.29152244,-0.68700176,0.0,0.0,0.0,0.04258251,0.01622294,-0.54572785
67406025,nan,nan,nan,-1.5667452,-1.6231e-41,0.0032262672,-0.73110247,0.05996017,0.78809536,-0.6270429,-0.7416793,0.0,0.0,0.0,0.044084754,-0.035075743,-0.5485714
67505250,nan,nan,nan,-1.5667452,-5.343e-42,0.003470443,-0.8094599,0.05996017,0.72937095,-1.4959378,-0.79746264,0.0,0.0,0.0,0.041015886,-0.08412348,-0.5514724
67604540,nan,nan,nan,-1.5667452,-1.766e-42,0.0036540001,-0.8876377,0.05996017,0.71895105,-0.8159629,-0.7420495,0.0,0.0,0.0,0.040218666,-0.045645576,-0.54859066
67708823,nan,nan,nan,-1.5667452,-5.55e-43,0.003417954,-0.88507706,0.05996017,0.7016874,0.10699341,-0.6556738,0.0,0.0,0.0,0.03893194,0.0059363483,-0.5440987
67788278,nan,nan,nan,-1.5667452,-2.28e-43,0.0031154924,-0.82475287,0.05996017,0.74904597,0.82028687,-0.64031154,0.0,0.0,0.0,0.041497912,0.045444727,-0.54329973
67907488,nan,nan,nan,-1.5667452,-5.9e-44,0.0026511583,-0.6419714,0.05996017,0.68979496,1.574396,-0.63706434,0.0,0.0,0.0,0.038203545,0.08719622,-0.5431309
67986915,nan,nan,nan,-1.5667452,-2.5e-44,0.0025785924,-0.5289159,0.05996017,0.6834685,1.0397686,-0.6658908,0.0,0.0,0.0,0.03795762,0.057745367,-0.54463
68106097,nan,nan,nan,-1.5667452,-7e-45,0.0025402727,-0.45409346,0.05996017,0.70375377,0.02032642,-0.71734333,0.0,0.0,0.0,0.039276145,0.0011344075,-0.5473058
68205558,nan,nan,nan,-1.5667452,-3e-45,0.0025607557,-0.47875902,0.05996017,0.6465306,-0.90909576,-0.7453728,0.0,0.0,0.0,0.03617886,-0.050871603,-0.5487635
68289833,nan,nan,nan,-1.5667452,-3e-45,0.0025880365,-0.55868405,0.05996017,0.6685932,-1.3290141,-0.73909605,0.0,0.0,0.0,0.03739105,-0.07432507,-0.54843706
68409032,nan,nan,nan,-1.5667452,-3e-45,0.002411832,-0.6254374,0.05996017,0.64702857,-0.535764,-0.60086715,0.0,0.0,0.0,0.03571076,-0.029569848,-0.5412484
68488624,nan,nan,nan,-1.5667452,-3e-45,0.0026766814,-0.65721077,0.05996017,0.6469133,-1.0599462,-0.56947565,0.0,0.0,0.0,0.035596777,-0.058324147,-0.53961587
68607647,nan,nan,nan,-1.5667452,-3e-45,0.0032127567,-0.7993484,0.05996017,0.6004468,-1.9732605,-0.6148081,0.0,0.0,0.0,0.03318427,-0.10905413,-0.5419734
68687151,nan,nan,nan,-1.5667452,-3e-45,0.0037034065,-0.95751464,0.05996017,0.6499492,-2.7050424,-0.6056717,0.0,0.0,0.0,0.03588852,-0.14936547,-0.54149824
68806287,nan,nan,nan,-1.5667452,-3e-45,0.004638742,-1.2887963,0.05996017,0.659853,-3.7461283,-0.5896115,0.0,0.0,0.0,0.036379203,-0.20653263,-0.54066306
68905604,nan,nan,nan,-1.5667452,-3e-45,0.0054825833,-1.5999131,0.05996017,0.60889524,-3.3249173,-0.50351936,0.0,0.0,0.0,0.033291828,-0.18179247,-0.5361858
69005024,nan,nan,nan,-1.5667452,-3e-45,0.0061552385,-1.8361795,0.05996017,0.5690661,-2.509366,-0.42168757,0.0,0.0,0.0,0.030867133,-0.13611238,-0.5319301
69104241,nan,nan,nan,-1.5667452,-3e-45,0.0061112023,-1.9921844,0.05996017,0.5571927,-1.6697297,-0.4717641,0.0,0.0,0.0,0.030371042,-0.09101237,-0.53453434
69203559,nan,nan,nan,-1.5667452,-3e-45,0.0061933086,-2.0700953,0.05996017,0.57045126,-0.79217696,-0.5663788,0.0,0.0,0.0,0.031380076,-0.043577034,-0.5394548
69293089,nan,nan,nan,-1.5667452,-1e-45,0.00619391,-2.0723915,0.05996017,0.55209893,-0.03683433,-0.6580795,0.0,0.0,0.0,0.03063805,-0.0020440759,-0.5442238
69387314,nan,nan,nan,-1.5667452,-1e-45,0.006034449,-2.0054338,0.06104642,0.50846106,0.78008115,-0.65880436,0.0,0.0,0.0,0.028219199,0.04329391,-0.54426146
69506478,nan,nan,nan,-1.5419418,-0.43424574,0.0065458813,-1.8199811,0.044712406,0.56215155,1.7053002,-0.7655616,0.0,0.0,0.0,0.03151719,0.095608145,-0.54981345
69605796,nan,nan,nan,-1.5707358,-0.8715465,0.0075035393,-1.577799,0.06005733,0.53695893,2.5203805,-0.0625166,0.0,0.0,0.0,0.028102813,0.13190912,-0.5132512
69705115,nan,nan,nan,-1.6190718,-0.31827435,0.0063813888,-1.256606,0.070998065,0.52229404,3.3731918,-0.30558944,0.0,0.0,0.0,0.028008606,0.1808912,-0.5258923
69804474,nan,nan,nan,-1.6539258,-0.10524807,0.0052629695,-0.87245077,0.070397556,0.5601979,3.4678378,-0.44750032,0.0,0.0,0.0,0.030462814,0.18857642,-0.5332725
69903752,nan,nan,nan,-1.6771253,-0.034351707,0.0041298554,-0.53766525,0.07286044,0.5574811,2.796932,-0.4938933,0.0,0.0,0.0,0.030452201,0.1527814,-0.5356852
70003069,nan,nan,nan,-1.6935663,-0.01144194,0.0030196076,-0.2878478,0.07406204,0.58298093,1.9018066,-0.6482198,0.0,0.0,0.0,0.03232227,0.10544206,-0.543711
70102539,nan,nan,nan,-1.7089972,-0.003771152,0.0018859858,-0.112647615,0.07406204,0.61806333,1.0083835,-0.7824905,0.0,0.0,0.0,0.034707617,0.05662622,-0.5506938
70206670,nan,nan,nan,-1.7238209,-0.0012000429,0.00072304206,-0.016782945,0.07371448,0.5960882,0.18305588,-0.7909049,0.0,0.0,0.0,0.033499602,0.010287569,-0.5511314
70306024,nan,nan,nan,-1.726364,-0.0003926042,-0.023155604,0.014497876,0.072864205,0.30521548,-0.38238916,-0.89348227,0.0,0.0,0.0,0.017319396,-0.021698602,-0.556466
70390409,nan,nan,nan,-1.726364,-0.0001552201,-0.03450192,-0.009961205,0.07297769,0.52859485,-1.026164,-0.8925547,0.0,0.0,0.0,0.029991994,-0.058223624,-0.55641776
70489726,nan,nan,nan,-1.726364,-5.069402e-05,-0.05325813,-0.11314077,0.072864205,0.515344,-1.8368423,-0.82357734,0.0,0.0,0.0,0.029051546,-0.10354851,-0.5528306
70589044,nan,nan,nan,-1.726364,-1.6730472e-05,-0.07455136,-0.2945504,0.072864205,0.45911616,-2.5806308,-0.77652,0.0,0.0,0.0,0.02576721,-0.14483406,-0.5503833
70708226,nan,nan,nan,-1.726364,-4.4231556e-06,-0.10011021,-0.61154217,0.072864205,0.49907964,-3.1989062,-0.71130306,0.0,0.0,0.0,0.027837466,-0.17842731,-0.5469917
70787680,nan,nan,nan,-1.726364,-1.8393779e-06,-0.11694505,-0.80538934,0.072864205,0.5030321,-2.6023598,-0.6068927,0.0,0.0,0.0,0.027779395,-0.14371248,-0.5415618
70907005,nan,nan,nan,-1.726364,-4.811833e-07,-0.14272846,-1.006729,0.072864205,0.5078471,-1.5365545,-0.5708884,0.0,0.0,0.0,0.027948342,-0.08456119,-0.53968936
70991283,nan,nan,nan,-1.726364,-1.902771e-07,-0.160667,-1.0786115,0.072864205,0.509669,-0.8431901,-0.64220864,0.0,0.0,0.0,0.028241394,-0.04672221,-0.5433984
71090600,nan,nan,nan,-1.726364,-6.2174614e-08,-0.20492329,-1.1041998,0.072864205,0.17029,-0.30045986,-0.79437983,0.0,0.0,0.0,0.009573736,-0.016891913,-0.55131215
74904428,nan,nan,nan,-1.5078641,4.740476e-13,0.062309917,-0.8760488,0.067406215,0.711743,-2.1103172,-0.7313632,0.0,0.0,0.0,0.03977505,-0.117933,-0.5480349
75003732,nan,nan,nan,-1.5078641,1.5646421e-13,0.06340145,-1.0274781,0.039748773,0.59277296,-1.2702787,-0.030655146,0.0,0.0,0.0,0.030923888,-0.06626813,-0.51159424
75103048,nan,nan,nan,-1.5078641,5.1634586e-14,0.063000165,-1.1000655,0.03996617,0.6433957,-0.47723186,-0.33173165,0.0,0.0,0.0,0.034591865,-0.025658146,-0.52725184
75192504,nan,nan,nan,-1.5078641,1.934835e-14,0.061936326,-1.0979538,0.04084741,0.64462316,0.29567873,-0.5298121,0.0,0.0,0.0,0.035335314,0.016207764,-0.53755313
75306650,nan,nan,nan,-1.5078641,5.409149e-15,0.061064053,-1.010476,0.04084741,0.64365,0.74180114,-0.76700485,0.0,0.0,0.0,0.036091384,0.041595012,-0.5498885
75405971,nan,nan,nan,-1.5078641,1.7771905e-15,0.059869904,-0.94595915,0.04084741,0.63886166,0.52062863,-0.8813742,0.0,0.0,0.0,0.036210336,0.02950895,-0.5558363
75505301,nan,nan,nan,-1.5078641,5.8895514e-16,0.056043696,-0.8719683,0.04084741,0.6489149,1.0444307,-0.90036196,0.0,0.0,0.0,0.036845505,0.05930297,-0.5568238
75604605,nan,nan,nan,-1.5078641,1.9416159e-16,0.05109968,-0.7773398,0.04084741,0.634137,0.44245398,-0.8624927,0.0,0.0,0.0,0.035878606,0.025033444,-0.5548544
77307910,nan,nan,nan,-1.5078641,1.0941145e-24,-0.27043024,-0.09440263,0.0051980065,2.912753,0.037550867,-1.5533342,0.0,0.0,0.0,0.17547308,0.0022621779,-0.5907819
77407227,nan,nan,nan,-1.5078641,3.596764e-25,-0.102831215,-0.055381916,-0.102650315,2.1068463,0.36585197,-2.3728228,0.0,0.0,0.0,0.13607854,0.023629913,-0.6333999
77506545,nan,nan,nan,-1.5078641,1.1859551e-25,-0.01486375,-0.014544046,-0.2840744,1.2257855,0.37543964,-2.9260921,0.0,0.0,0.0,0.08276807,0.025350615,-0.662173
77605982,-0.1633415,-7.991854,nan,-1.5078641,3.923638e-26,-0.001244279,0.007495713,-0.44648415,0.59424937,0.028083619,-2.0081253,0.0,0.0,0.0,0.037232358,0.0017595632,-0.6144336
77705181,nan,nan,nan,-1.5078641,1.2942402e-26,0.0003900034,-0.004008674,-0.53055644,0.52386606,-0.56103885,-1.0294017,0.0,0.0,0.0,0.030103737,-0.032239854,-0.56353456
77804499,nan,nan,nan,-1.5078641,4.2755776e-27,0.0044132033,-0.08709069,-0.53573126,0.6203446,-1.0168891,-0.16808724,0.0,0.0,0.0,0.03281444,-0.053790502,-0.5187414
77903971,nan,nan,nan,-1.5078641,1.4065139e-27,0.003274887,-0.14194855,-0.47441155,0.6222835,-0.34026337,0.025962293,0.0,0.0,0.0,0.03227652,-0.017648738,-0.5086498
78003135,nan,nan,nan,-1.5078641,4.6551927e-28,0.0021416037,-0.117821224,-0.46370274,0.65012395,0.4957949,-1.048479,0.0,0.0,0.0,0.037424386,0.028540432,-0.5645267
78092528,nan,nan,nan,-1.5078641,1.7595125e-28,0.0011191291,-0.038794708,-0.49307576,0.69380665,0.77337164,-1.0103685,0.0,0.0,0.0,0.039799202,0.044363327,-0.56254476
78206737,-0.133582,-8.043717,nan,-1.5078641,4.9171604e-29,-0.0015577093,0.005184078,-0.44674718,0.70525837,0.11102821,0.026130974,0.0,0.0,0.0,0.03658008,0.00575877,-0.50864106
78306055,-0.133582,-8.043717,nan,-1.5078641,1.6218525e-29,-0.0051075784,0.010052872,-0.32157195,0.71612984,-0.013764948,0.9870752,0.0,0.0,0.0,0.03349383,-0.000643795,-0.45866662
78405374,-0.133582,-8.043717,nan,-1.5078641,5.3551366e-30,-0.009169361,0.011169958,-0.1262072,0.7259704,-0.0129506495,1.3667206,0.0,0.0,0.0,0.032492515,-0.00057963684,-0.43892297
78504692,nan,nan,nan,-1.5078641,1.761238e-30,-0.0055605993,-0.0027398684,0.029349197,0.7691538,-0.5130844,0.31530344,0.0,0.0,0.0,0.03871405,-0.025825236,-0.49360245
78604010,nan,nan,nan,-1.5078641,5.802339e-31,0.0054970495,-0.08950224,0.10542748,0.85732025,-1.303988,-0.7583002,0.0,0.0,0.0,0.048032764,-0.07305805,-0.5494358
78703444,nan,nan,nan,-1.5078641,1.9166533e-31,0.019501304,-0.2548585,0.1024764,0.89702475,-2.2186217,-1.6957479,0.0,0.0,0.0,0.05471696,-0.13533208,-0.5981882
78787748,nan,nan,nan,-1.5078641,7.5446707e-32,0.0320775,-0.4566525,0.07191546,0.8800786,-2.954549,-1.2255608,0.0,0.0,0.0,0.051488765,-0.1728551,-0.57373595
78906930,nan,nan,nan,-1.5078641,1.9880478e-32,0.04994958,-0.8407142,0.07167073,0.91005266,-3.972163,-0.78839177,0.0,0.0,0.0,0.051132604,-0.2231816,-0.5510007
79006247,nan,nan,nan,-1.5078641,6.567681e-33,0.06478557,-1.2087919,0.07167073,0.88420445,-3.7306175,-0.63668174,0.0,0.0,0.0,0.048968934,-0.20660871,-0.54311097
79105566,nan,nan,nan,-1.5078641,2.1664139e-33,0.07964415,-1.5061089,0.07167073,0.8935176,-2.9883535,-0.45840237,0.0,0.0,0.0,0.048639953,-0.16267546,-0.53383946
79204885,nan,nan,nan,-1.5078641,7.144096e-34,0.09450691,-1.724532,0.07167073,0.89900553,-2.1634007,-0.49115467,0.0,0.0,0.0,0.04909476,-0.11814347,-0.5355427
79289304,nan,nan,nan,-1.5078641,2.8077544e-34,0.107106134,-1.8478299,0.07167073,0.9069059,-1.4648504,-0.61279804,0.0,0.0,0.0,0.050111298,-0.08094064,-0.54186887
79408486,nan,nan,nan,-1.5078641,7.341174e-35,0.11703831,-1.9254943,0.07167073,0.74724114,-0.48983628,-0.73582685,0.0,0.0,0.0,0.04177617,-0.02738538,-0.54826707
79488004,nan,nan,nan,-1.5078641,3.0261765e-35,0.115873046,-1.9133734,0.07167073,0.737061,0.1943649,-0.79573566,0.0,0.0,0.0,0.04144141,0.010928208,-0.55138266
79607122,nan,nan,nan,-1.5078641,7.986479e-36,0.11223743,-1.8003013,0.07167075,0.67939943,1.2293949,-0.84130025,0.0,0.0,0.0,0.038363773,0.069420464,-0.55375224
79706440,nan,nan,nan,-1.5078641,2.665449e-36,0.104346305,-1.6218693,0.07167075,0.6613909,2.0068855,-0.76551485,0.0,0.0,0.0,0.037080947,0.11251625,-0.549811
79786083,nan,nan,nan,-1.5078641,1.08190555e-36,0.09754659,-1.454887,0.07167075,0.6464041,1.546974,-0.7738327,0.0,0.0,0.0,0.036269203,0.086799435,-0.55024356
79890180,nan,nan,nan,-1.5078641,3.4475648e-37,0.07855872,-1.2989737,0.07167075,0.5250781,0.9555992,-0.7687986,0.0,0.0,0.0,0.029447582,0.053592186,-0.5499818
79989497,nan,nan,nan,-1.5078641,1.1363055e-37,0.07827728,-1.2264649,0.07167075,0.7588364,0.044872314,-0.8003995,0.0,0.0,0.0,0.042684842,0.002524085,-0.5516252
80108678,nan,nan,nan,-1.5078641,3.0095065e-38,0.082559444,-1.2436421,0.07048155,0.7507446,-1.0809858,-0.8503399,0.0,0.0,0.0,0.042428236,-0.061091777,-0.55422235
80188137,nan,nan,nan,-1.5078641,1.2233927e-38,0.085888796,-1.319829,0.07167075,0.748492,-1.7833326,-0.81952906,0.0,0.0,0.0,0.042178717,-0.10049362,-0.55262005
80307428,nan,nan,nan,-1.5078641,3.272765e-39,0.09264788,-1.5059006,0.07128366,0.7751562,-2.0083578,-0.8494504,0.0,0.0,0.0,0.04380427,-0.113492794,-0.5541761
80391735,nan,nan,nan,-1.5078641,1.27068e-39,0.0976764,-1.5989047,0.07167075,0.78757536,-1.3984157,-0.6267571,0.0,0.0,0.0,0.043576013,-0.07737339,-0.54259485
80491055,nan,nan,nan,-1.5078641,4.23506e-40,0.09854513,-1.6336259,0.07048155,0.7460088,-0.472628,-0.6165886,0.0,0.0,0.0,0.041236043,-0.026124766,-0.542066
80590504,nan,nan,nan,-1.5078641,1.38069e-40,0.109841354,-1.6600616,0.07162426,0.6820227,-1.0697191,-0.68361926,0.0,0.0,0.0,0.037941452,-0.059509307,-0.54555196
80689689,nan,nan,nan,-1.5078641,4.6135e-41,0.109147154,-1.7261282,0.07048155,0.7439856,-0.6980899,-0.813139,0.0,0.0,0.0,0.041899804,-0.03931505,-0.5522877
80808918,nan,nan,nan,-1.5078641,1.2078e-41,0.10732943,-1.7115186,0.07048155,0.7146693,0.14650902,-0.73581004,0.0,0.0,0.0,0.039955158,0.008190909,-0.5482662
80888326,nan,nan,nan,-1.5078641,5.025e-42,0.10372666,-1.6396697,0.071670756,0.6549015,0.894043,-0.75100785,0.0,0.0,0.0,0.03666692,0.050056078,-0.54905653
81007508,nan,nan,nan,-1.5078641,1.327e-42,0.10308019,-1.5498836,0.07048155,0.7413253,0.016456902,-0.80624247,0.0,0.0,0.0,0.04172285,0.00092621794,-0.55192906
81106856,nan,nan,nan,-1.5078641,4.37e-43,0.101391494,-1.5611207,0.07048155,0.6892026,-0.68954974,-0.8537458,0.0,0.0,0.0,0.038962834,-0.038982455,-0.5543995
81206145,nan,nan,nan,-1.5078641,1.44e-43,0.099602886,-1.5745381,0.07048155,0.7432499,-0.81279933,-0.8248508,0.0,0.0,0.0,0.041904338,-0.04582553,-0.5528968
81305462,nan,nan,nan,-1.5078641,4.8e-44,0.103103444,-1.6448765,0.07048155,0.7682831,-1.3698783,-0.8345987,0.0,0.0,0.0,0.043355394,-0.07730433,-0.55340374
81404943,nan,nan,nan,-1.5078641,1.7e-44,0.10689672,-1.711873,0.07087254,0.75863504,-0.8644763,-0.8734415,0.0,0.0,0.0,0.042967092,-0.048961665,-0.5554238
81504142,nan,nan,nan,-1.5078641,6e-45,0.11075925,-1.7527839,0.070481546,0.7711908,-1.3228085,-0.7304411,0.0,0.0,0.0,0.043093495,-0.073917426,-0.547987
81603417,nan,nan,nan,-1.5078641,3e-45,0.11079046,-1.8021815,0.070481546,0.67692703,-0.5700777,-0.7674984,0.0,0.0,0.0,0.03795912,-0.031967483,-0.5499141
81707704,nan,nan,nan,-1.5078641,3e-45,0.11412774,-1.8284869,0.07158353,0.740612,-1.187879,-0.6893419,0.0,0.0,0.0,0.041223288,-0.066118665,-0.54584956
81807018,nan,nan,nan,-1.5078641,3e-45,0.119372286,-1.907012,0.07167075,0.7461397,-0.9950793,-0.7780981,0.0,0.0,0.0,0.0418822,-0.055855636,-0.5504654
81906335,nan,nan,nan,-1.5078641,3e-45,0.119373694,-1.9237611,0.07167075,0.73063344,-0.38360196,-0.7027474,0.0,0.0,0.0,0.040719666,-0.021378908,-0.54654676
81990757,nan,nan,nan,-1.5078641,3e-45,0.11703943,-1.8762342,0.070481546,0.6642765,0.4621423,-0.68513536,0.0,0.0,0.0,0.03695983,0.02571324,-0.5456308
82090075,nan,nan,nan,-1.5078641,3e-45,0.11220162,-1.7575256,0.070481546,0.725564,0.7826842,-0.65728337,0.0,0.0,0.0,0.04026252,0.043432195,-0.54418236
82209442,nan,nan,nan,-1.5078641,3e-45,0.11427782,-1.6768674,0.07167075,0.7309017,-0.067315936,-0.722486,0.0,0.0,0.0,0.04081146,-0.0037587292,-0.54757327
82288712,nan,nan,nan,-1.5078641,3e-45,0.11577697,-1.6861373,0.07167075,0.7546787,-0.79595006,-0.73838246,0.0,0.0,0.0,0.042202823,-0.04451078,-0.5484
82407898,nan,nan,nan,-1.5078641,3e-45,0.11349886,-1.769939,0.07167075,0.6588956,-1.0105109,-0.7797451,0.0,0.0,0.0,0.03699094,-0.05673091,-0.55055106
82487351,nan,nan,nan,-1.5078641,3e-45,0.111441374,-1.7845007,0.07167075,0.6706728,-0.46372968,-0.7372664,0.0,0.0,0.0,0.037500773,-0.025929516,-0.54834193
82606529,nan,nan,nan,-1.5078641,3e-45,0.106768265,-1.7116469,0.077673376,0.68259907,0.6189767,-0.6923123,0.0,0.0,0.0,0.038005296,0.034462973,-0.54600406
82705848,nan,nan,nan,-1.5099978,-0.07328617,0.1004784,-1.5688074,0.09993695,0.6134329,1.4524188,-0.072735846,0.0,0.0,0.0,0.032138474,0.076093934,-0.5137827
82790268,nan,nan,nan,-1.5096208,-0.14071617,0.09314652,-1.4150126,0.1248583,0.6353699,1.253913,-0.6660236,0.0,0.0,0.0,0.035286795,0.06963908,-0.5446369
82909450,nan,nan,nan,-1.5127082,-0.09911969,0.08274309,-1.2857112,0.1248583,0.5586126,0.425474,-0.80857825,0.0,0.0,0.0,0.03144602,0.023951238,-0.55205053
82988947,nan,nan,nan,-1.5156265,-0.040895954,0.07451122,-1.2302752,0.12327251,0.5918509,0.24426135,-0.96190196,0.0,0.0,0.0,0.03379873,0.013948993,-0.5600242
83108086,nan,nan,nan,-1.516696,-0.01078167,0.06335175,-1.1797035,0.113703094,0.6791988,-0.20773199,-0.8260324,0.0,0.0,0.0,0.038297664,-0.011713287,-0.55295825
83187542,nan,nan,nan,-1.517698,-0.004447895,0.06179859,-1.1608208,0.119335234,0.6188956,0.07664931,-0.5918223,0.0,0.0,0.0,0.034128673,0.0042267856,-0.54077804
83306722,nan,nan,nan,-1.5183246,-0.20247371,0.05815294,-1.0707915,0.12485829,0.69053406,0.018400788,-0.749652,0.0,0.0,0.0,0.03865672,0.0010300927,-0.548986
83406040,nan,nan,nan,-1.5264858,-0.40951774,0.056513954,-1.0587852,0.12485829,0.62435657,-0.55791205,-0.76879114,0.0,0.0,0.0,0.035015456,-0.03128909,-0.54998136
83505364,nan,nan,nan,-1.5482026,-0.25791374,0.037975986,-1.061161,0.12485829,0.50347877,-0.0685823,-0.7361741,0.0,0.0,0.0,0.028149161,-0.00383439,-0.5482851
83589779,nan,nan,nan,-1.5662752,-0.1008386,0.0195062,-1.0166268,0.12172062,0.37923408,-0.004773736,-0.81249315,0.0,0.0,0.0,0.02135567,-0.00026882163,-0.55225414
83689116,nan,nan,nan,-1.5784914,-0.03329217,-0.0069150003,-0.956234,0.12062471,0.59671396,0.61264324,-0.704221,0.0,0.0,0.0,0.033260927,0.034148827,-0.54662335
83808361,nan,nan,nan,-1.5876046,-0.008798128,-0.008439415,-0.85680205,0.12062471,0.5916813,0.108875215,-0.71471584,0.0,0.0,0.0,0.033013295,0.0060747727,-0.54716915
83887748,nan,nan,nan,-1.5895679,-0.003629063,-0.017390005,-0.8472852,0.12062471,0.73466974,-0.40735137,-0.74552584,0.0,0.0,0.0,0.041111518,-0.022795048,-0.54877144
84006915,nan,nan,nan,-1.5915855,-0.0009567321,-0.01820534,-0.91620684,0.12062471,0.6027462,-0.89903307,-0.8057451,0.0,0.0,0.0,0.033921618,-0.05059618,-0.5519032
84106239,nan,nan,nan,-1.5915855,-0.00031668588,-0.01809727,-0.9312667,0.13118428,0.6183279,-0.26816314,-0.3986136,0.0,0.0,0.0,0.033463523,-0.014512825,-0.5307301
84205551,nan,nan,nan,-1.5976053,-0.18385051,-0.018509693,-0.8674327,0.19643001,0.6375987,0.7142961,0.17369556,0.0,0.0,0.0,0.03257118,0.036489204,-0.50096685
84304869,nan,nan,nan,-1.6061196,-0.06070488,-0.019228969,-0.7497194,0.2241679,0.61218166,1.2249292,-0.7708901,0.0,0.0,0.0,0.0343395,0.068710744,-0.55009055
84404192,nan,nan,nan,-1.6103059,-0.020001007,-0.020418199,-0.61136824,0.18243244,0.5866253,0.8624674,-1.2015448,0.0,0.0,0.0,0.034245864,0.050348904,-0.57248694
84503506,nan,nan,nan,-1.6122875,-0.0066018836,-0.023666425,-0.5475062,0.17426689,0.5700724,0.12472401,-0.75257325,0.0,0.0,0.0,0.031922407,0.0069841845,-0.54913795
84592892,nan,nan,nan,-1.6144768,-0.0024732014,-0.02741894,-0.5574532,0.17426689,0.54841775,-0.693124,-0.78463304,0.0,0.0,0.0,0.030802358,-0.038929906,-0.5508053
84707108,nan,nan,nan,-1.616815,-0.0006865239,-0.03446628,-0.6635262,0.17594913,0.52306753,-1.7179178,-0.77483666,0.0,0.0,0.0,0.029351676,-0.09640012,-0.55029577
84806427,nan,nan,nan,-1.616815,-0.0002270075,-0.043187756,-0.84000623,0.17594913,0.48923028,-2.566826,-0.7911757,0.0,0.0,0.0,0.027495336,-0.14425875,-0.5511455
84905929,nan,nan,nan,-1.616815,-7.472996e-05,-0.0523812,-1.0963644,0.17594913,0.47999012,-3.4447472,-0.70337486,0.0,0.0,0.0,0.026752511,-0.19199486,-0.54657936
84990167,nan,nan,nan,-1.616815,-2.9425599e-05,-0.06014482,-1.3620135,0.1742669,0.5439134,-3.5119452,-0.6448123,0.0,0.0,0.0,0.030146418,-0.19464968,-0.5435338
85089483,nan,nan,nan,-1.616815,-9.692441e-06,-0.069332905,-1.6486117,0.17594913,0.52045536,-3.2342005,-0.49494,0.0,0.0,0.0,0.028432574,-0.17668499,-0.5357396
85208665,nan,nan,nan,-1.616815,-2.562385e-06,-0.08033817,-1.910651,0.1742669,0.49781632,-2.1962583,-0.5194129,0.0,0.0,0.0,0.027260438,-0.12026717,-0.53701234
85288120,nan,nan,nan,-1.616815,-1.0564152e-06,-0.08766687,-2.0221448,0.17594913,0.503738,-1.5326535,-0.540231,0.0,0.0,0.0,0.027640281,-0.084097244,-0.538095
85407312,nan,nan,nan,-1.616815,-2.7960735e-07,-0.088952005,-2.0949438,0.17550863,0.627983,-0.46397367,-0.75205415,0.0,0.0,0.0,0.035162847,-0.025979424,-0.54911095
85486756,nan,nan,nan,-1.616815,-1.14877324e-07,-0.086795576,-2.0803282,0.17426689,0.67971236,0.1369949,-0.7194841,0.0,0.0,0.0,0.03794184,0.007647115,-0.54741716
85605937,nan,nan,nan,-1.616815,-3.0462022e-08,-0.08673304,-1.9660416,0.17426689,0.6660287,0.9508549,-0.85586923,0.0,0.0,0.0,0.03766018,0.053765506,-0.55450994
85705398,nan,nan,nan,-1.616815,-1.00042525e-08,-0.08468119,-1.8386915,0.17426689,0.6760072,0.83091897,-0.88594794,0.0,0.0,0.0,0.038332175,0.047116257,-0.5560742
85804574,nan,nan,nan,-1.616815,-3.3075018e-09,-0.080103606,-1.76308,0.17426689,0.76410794,0.2153902,-0.9414929,0.0,0.0,0.0,0.043553244,0.012276984,-0.5589628
85903893,nan,nan,nan,-1.616815,-1.0881198e-09,-0.08208323,-1.7615238,0.17426689,0.71098036,-0.7900116,-0.9450107,0.0,0.0,0.0,0.040537868,-0.04504398,-0.55914575
85983541,nan,nan,nan,-1.616815,-4.4885226e-10,-0.08490565,-1.8170292,0.17426689,0.706591,-1.4590812,-0.9963558,0.0,0.0,0.0,0.040480047,-0.08358962,-0.561816
86107544,nan,nan,nan,-1.616815,-1.13096615e-10,-0.08876976,-1.9299599,0.17426689,0.7261442,-1.3531549,-0.9594999,0.0,0.0,0.0,0.041458376,-0.07725683,-0.5598993
86186949,nan,nan,nan,-1.616815,-4.6710295e-11,-0.08837562,-1.9671582,0.17426689,0.68214476,-0.98011833,-0.90727663,0.0,0.0,0.0,0.038757563,-0.05568759,-0.5571834
86306136,nan,nan,nan,-1.616815,-1.2302615e-11,-0.09312247,-2.0556862,0.17426689,0.725682,-0.9986231,-0.8696195,0.0,0.0,0.0,0.0410859,-0.05653898,-0.555225
86405449,nan,nan,nan,-1.616815,-4.060772e-12,-0.09172708,-2.074374,0.17426689,0.71725744,-0.33959377,-0.8589378,0.0,0.0,0.0,0.04056871,-0.019207722,-0.5546695
86504873,nan,nan,nan,-1.616815,-1.3412015e-12,-0.089185394,-2.01428,0.17426689,0.7430839,0.58568996,-0.848035,0.0,0.0,0.0,0.041986324,0.033093125,-0.5541025
86604086,nan,nan,nan,-1.616815,-4.4194596e-13,-0.08648885,-1.8845155,0.17426689,0.7488744,0.92587453,-0.8778659,0.0,0.0,0.0,0.042432122,0.052461162,-0.55565387
86703403,nan,nan,nan,-1.616815,-1.4621157e-13,-0.08799567,-1.8002326,0.17426689,0.76563686,0.17237937,-0.8785544,0.0,0.0,0.0,0.043384332,0.009767769,-0.5556897
86807688,nan,nan,nan,-1.616815,-4.574782e-14,-0.085316546,-1.7804952,0.17426689,0.7676117,0.01891324,-0.9481324,0.0,0.0,0.0,0.043779094,0.0010786762,-0.5593081
86887142,nan,nan,nan,-1.616815,-1.8894944e-14,-0.08205546,-1.7414297,0.17426689,0.6835708,-0.20151621,-0.90599716,0.0,0.0,0.0,0.038833853,-0.011448195,-0.55711687
87006325,nan,nan,nan,-1.616815,-4.9926278e-15,-0.0832537,-1.7579668,0.17426689,0.6699092,-0.9871472,-0.87779784,0.0,0.0,0.0,0.0379576,-0.055932563,-0.55565035
87105642,nan,nan,nan,-1.616815,-1.646959e-15,-0.08584273,-1.8485354,0.17426689,0.7417053,-1.2905375,-0.86886,0.0,0.0,0.0,0.041990306,-0.073061444,-0.5551855
87204960,nan,nan,nan,-1.616815,-5.40842e-16,-0.08420931,-1.8928342,0.17426689,0.74722594,-0.6295669,-0.7624309,0.0,0.0,0.0,0.04188101,-0.035286374,-0.5496506
87304356,nan,nan,nan,-1.616815,-1.7942175e-16,-0.082213715,-1.8614192,0.17426689,0.6789116,-0.0002976656,-0.7632656,0.0,0.0,0.0,0.038055833,-1.66854e-05,-0.549694
87388745,nan,nan,nan,-1.616815,-7.015206e-17,-0.0841404,-1.841202,0.17426689,0.6648042,0.08217713,-0.78885126,0.0,0.0,0.0,0.037354767,0.004617461,-0.5510246
87507881,nan,nan,nan,-1.616815,-1.8616729e-17,-0.08315268,-1.7890965,0.17426689,0.6766035,-0.32232463,-0.8322519,0.0,0.0,0.0,0.038173195,-0.01818519,-0.55328166
87587477,nan,nan,nan,-1.616815,-7.642162e-18,-0.08385398,-1.8087869,0.17426689,0.6832097,-0.7367388,-0.87601304,0.0,0.0,0.0,0.038704783,-0.04173728,-0.5555575
87706518,nan,nan,nan,-1.616815,-2.0246697e-18,-0.08324953,-1.810353,0.17426689,0.61780804,-0.27147767,-0.8996111,0.0,0.0,0.0,0.035076685,-0.015413422,-0.55678475
87805835,nan,nan,nan,-1.616815,-6.676027e-19,-0.08624034,-1.8329613,0.17426689,0.65602744,-0.9409572,-0.88358504,0.0,0.0,0.0,0.03719105,-0.053344086,-0.5559513
87890263,nan,nan,nan,-1.616815,-2.6221163e-19,-0.08794683,-1.9014442,0.17184034,0.6845604,-1.0368928,-1.1569974,0.0,0.0,0.0,0.039801173,-0.060286213,-0.5701702
87989574,nan,nan,nan,-1.6068078,0.011558053,-0.086621776,-1.9278821,0.12844059,0.6643627,-0.35900855,-1.2294139,0.0,0.0,0.0,0.03888193,-0.02101103,-0.5739363
88088970,nan,nan,nan,-1.6052903,0.23848392,-0.07993996,-1.8753551,0.12344025,0.7294297,0.5941006,-0.83776444,0.0,0.0,0.0,0.041175112,0.033536006,-0.55356836
88208074,nan,nan,nan,-1.5891588,0.17376055,-0.066990115,-1.7079583,0.12271368,0.8311738,1.6373153,-0.6929327,0.0,0.0,0.0,0.046279967,0.09116614,-0.5460363
88287529,nan,nan,nan,-1.5770344,0.071721606,-0.053680193,-1.5756494,0.12344025,0.882081,1.1790799,-0.79874283,0.0,0.0,0.0,0.04960932,0.0663129,-0.551539
88406713,nan,nan,nan,-1.5666384,0.018919418,-0.021255592,-1.4602357,0.12344025,1.015671,0.3367127,-0.850936,0.0,0.0,0.0,0.057403766,0.019030355,-0.55425334
88506029,nan,nan,nan,-1.5635407,0.006238927,0.0063541397,-1.4509064,0.12344025,1.0377804,-0.5798429,-0.9472848,0.0,0.0,0.0,0.059183672,-0.033067912,-0.55926406
88605347,nan,nan,nan,-1.5636543,0.0020634243,0.01592002,-1.5202473,0.12344025,0.7224035,-1.4391263,-0.9579717,0.0,0.0,0.0,0.041238848,-0.08215342,-0.5598198
88689780,nan,nan,nan,-1.5646574,0.00080975395,0.01359129,-1.5981698,0.12344025,0.71451044,-1.0452527,-0.9399727,0.0,0.0,0.0,0.040720046,-0.05956909,-0.5588838
88789085,nan,nan,nan,-1.5646574,0.00026697046,0.010841666,-1.6180209,0.12344025,0.7028351,-0.2578432,-0.8309453,0.0,0.0,0.0,0.039648253,-0.014545422,-0.5532137
88908414,nan,nan,nan,-1.5646574,7.026303e-05,0.010664144,-1.6166333,0.12344025,0.719188,-0.737055,-0.86368704,0.0,0.0,0.0,0.040695544,-0.041706562,-0.5549165
88987722,nan,nan,nan,-1.5646574,2.9055107e-05,0.011212266,-1.6764314,0.12344025,0.7512047,-1.2642908,-0.9606261,0.0,0.0,0.0,0.04289377,-0.072190985,-0.55995786
89106906,nan,nan,nan,-1.5646574,7.670106e-06,0.01107379,-1.8105931,0.12624234,0.74023926,-1.1552827,-0.8854873,0.0,0.0,0.0,0.041972544,-0.06550606,-0.55605024
89206392,nan,nan,nan,-1.5646574,2.5297695e-06,0.010506053,-1.8459069,0.12771538,0.741122,-0.39435327,-0.800666,0.0,0.0,0.0,0.04168878,-0.02218273,-0.551639
89305540,nan,nan,nan,-1.5646574,8.347428e-07,0.009938569,-1.8022956,0.12771538,0.7380544,0.56440365,-0.78869873,0.0,0.0,0.0,0.041470036,0.03171289,-0.5510167
89404861,nan,nan,nan,-1.5646574,2.758882e-07,0.009346962,-1.6800584,0.12771538,0.6970118,1.4391509,-0.807687,0.0,0.0,0.0,0.03923399,0.08100815,-0.55200416
89504177,nan,nan,nan,-1.5646574,9.0871445e-08,0.008525078,-1.4783589,0.12771538,0.72660756,2.345094,-0.8427538,0.0,0.0,0.0,0.041034974,0.13243857,-0.5538278
89603495,nan,nan,nan,-1.5646574,2.9990947e-08,0.0075726714,-1.1981272,0.12172663,0.73934865,3.1150432,-1.0813062,0.0,0.0,0.0,0.042689852,0.179862,-0.5662339
89692886,nan,nan,nan,-1.5646574,1.1234961e-08,0.0065175137,-0.90290296,0.062838204,0.72744834,3.1434174,-1.9287715,0.0,0.0,0.0,0.045272022,0.19562744,-0.61030674
89792201,nan,nan,nan,-1.5646574,3.7049406e-09,0.004745888,-0.60052216,-0.06890084,0.6738168,2.7882998,-2.3484182,0.0,0.0,0.0,0.04343383,0.17973214,-0.63213074
89891518,nan,nan,nan,-1.5646574,1.2210988e-09,0.002167291,-0.3391269,-0.16589996,0.73256457,2.1330113,-1.420669,0.0,0.0,0.0,0.043616485,0.12699829,-0.58388263
89990887,nan,nan,nan,-1.5646574,4.0413947e-10,0.0005855154,-0.14954364,-0.18681379,0.7096454,1.3174996,-0.65747297,0.0,0.0,0.0,0.039379787,0.07311095,-0.5441922
90105090,nan,nan,nan,-1.5646574,1.1218329e-10,0.00051605067,-0.028119523,-0.2343601,0.7273257,0.3792063,-1.402455,0.0,0.0,0.0,0.04323437,0.022541134,-0.5829354
90204371,nan,nan,nan,-1.5646574,3.6702016e-11,0.00045138467,-0.0077995574,-0.2514256,0.6993717,-0.3661419,-0.89627177,0.0,0.0,0.0,0.039695263,-0.020781651,-0.55661106
90283995,nan,nan,nan,-1.5646574,1.5219733e-11,0.0004697378,-0.04819778,-0.2550812,0.73171824,-1.013254,-0.9496422,0.0,0.0,0.0,0.041738287,-0.057797503,-0.5593866
90388109,nan,nan,nan,-1.5646574,4.7457654e-12,0.00051658944,-0.13835129,-0.25514507,0.68033874,-0.7189007,-0.9495752,0.0,0.0,0.0,0.0388072,-0.04100682,-0.55938315
90507291,nan,nan,nan,-1.5646574,1.2672428e-12,0.00033944764,-0.14464228,-0.25514507,0.70320255,0.2792073,-0.8849513,0.0,0.0,0.0,0.03987051,0.015830629,-0.55602235
90591725,nan,nan,nan,-1.5646574,4.973352e-13,0.00021294416,-0.080770895,-0.28362635,0.68408036,1.1140083,-1.7173653,0.0,0.0,0.0,0.041806154,0.06808031,-0.5993125
90691029,nan,nan,nan,-1.5646574,1.6409554e-13,6.404299e-05,-0.007337408,-0.39013368,0.683288,0.48430875,-2.72761,0.0,0.0,0.0,0.045418616,0.03219233,-0.65185076
90790418,0.55495375,-25.253807,nan,-1.5646574,5.4234232e-14,-0.0043789656,0.021506405,-0.52210766,0.6321731,0.19797334,-2.241726,0.0,0.0,0.0,0.040392,0.0126492875,-0.62658215
90889666,0.55495375,-25.253807,nan,-1.5646574,1.7692267e-14,-0.00954147,0.037210844,-0.5782997,0.7062138,0.05154363,-1.1380558,0.0,0.0,0.0,0.04098934,0.002991643,-0.5691852
90988985,0.55495375,-25.253807,nan,-1.5646574,5.8919514e-15,-0.015699657,0.049545,-0.5745217,0.61961573,0.17167808,-0.8782047,0.0,0.0,0.0,0.03510944,0.009727838,-0.5556715
91088460,0.55495375,-25.253807,nan,-1.5646574,1.9385886e-15,-0.024572589,0.06656856,-0.5745217,0.62381786,0.17461605,-0.9421788,0.0,0.0,0.0,0.035559177,0.009953553,-0.55899847
91207484,0.55495375,-25.253807,nan,-1.5646574,5.092039e-16,-0.036046166,0.08856239,-0.5745217,0.6240973,0.22336021,-1.0440931,0.0,0.0,0.0,0.03591237,0.012852796,-0.5642986
91306809,0.55495375,-25.253807,nan,-1.5646574,1.6992873e-16,-0.047843184,0.10395879,-0.5745217,0.632759,0.23780726,-1.0893859,0.0,0.0,0.0,0.03656272,0.013741219,-0.5666541
91406121,0.55495375,-25.253807,nan,-1.5646574,5.539179e-17,-0.058764957,0.117246054,-0.5745217,0.59564155,0.25320432,-1.1227374,0.0,0.0,0.0,0.034522917,0.014675522,-0.5683885
91505480,0.55495375,-25.253807,nan,-1.5646574,1.845012e-17,-0.061152525,0.12495241,-0.56922174,0.63718885,0.2186104,-1.0926185,0.0,0.0,0.0,0.036829434,0.012635654,-0.5668222
91604807,0.55495375,-25.253807,nan,-1.5646574,6.033173e-18,-0.0622037,0.13050795,-0.56922174,0.6431413,0.18763155,-1.0806017,0.0,0.0,0.0,0.037132002,0.0108329775,-0.5661973
91689179,0.55495375,-25.253807,nan,-1.5646574,2.3879929e-18,-0.064331874,0.13132152,-0.5628929,0.64528286,0.17955697,-0.7409395,0.0,0.0,0.0,0.036093708,0.010043466,-0.54853296
91788496,nan,nan,nan,-1.5646574,7.81575e-19,-0.051467706,0.10547517,-0.49093038,0.85110235,-0.5079409,0.24307835,0.0,0.0,0.0,0.043164752,-0.025760878,-0.49735856
91907678,nan,nan,nan,-1.5646574,2.0828369e-19,-0.02929547,-0.025988603,-0.3024041,0.87459713,-1.2952671,1.3428704,0.0,0.0,0.0,0.039255366,-0.05813669,-0.4401633
92006996,nan,nan,nan,-1.5646574,6.807432e-20,-0.01051494,-0.21060212,-0.12243751,0.8989429,-2.3093622,0.5877421,0.0,0.0,0.0,0.04394815,-0.112901725,-0.47943416
92106314,nan,nan,nan,-1.5646574,2.2695522e-20,0.00789396,-0.469611,-0.02351765,0.8749657,-3.1943283,-0.5172166,0.0,0.0,0.0,0.047902945,-0.17488426,-0.53689814
92205632,nan,nan,-4.465014,-1.5646574,7.4892505e-21,0.009653607,-0.78462434,-0.008609295,0.7339687,-3.2415514,-1.3014169,0.0,0.0,0.0,0.04323594,-0.19095026,-0.5776809
92304951,nan,nan,-4.465014,-1.5646574,2.4469026e-21,0.009078316,-1.0797449,-0.023797989,0.6701768,-2.8640223,-1.17636,0.0,0.0,0.0,0.0390337,-0.16681178,-0.5711772
92404350,nan,nan,-4.465014,-1.5646574,8.1520214e-22,0.0085142,-1.2984114,-0.033223152,0.7143597,-2.0516331,-1.0318449,0.0,0.0,0.0,0.041059617,-0.11792278,-0.56366163
92488690,nan,nan,-4.465014,-1.5646574,3.16721e-22,0.008024353,-1.4255209,-0.03864622,0.63864726,-1.2589396,-1.0748106,0.0,0.0,0.0,0.036853433,-0.07264769,-0.5658961
92607874,nan,nan,-4.465014,-1.5646574,8.447385e-23,0.0073459083,-1.5052043,-0.04567814,0.6575204,-0.30477744,-1.0921443,0.0,0.0,0.0,0.038002662,-0.017615201,-0.56679755
92707370,nan,nan,-4.465014,-1.5646574,2.756856e-23,0.007135709,-1.4850137,-0.049662113,0.7117134,0.5162541,-1.1155581,0.0,0.0,0.0,0.04122345,0.029902173,-0.56801516
92806508,nan,nan,-4.465014,-1.5646574,9.20768e-24,0.00709382,-1.3873949,-0.053575993,0.7176622,1.344651,-1.1339644,0.0,0.0,0.0,0.04163815,0.078015506,-0.5689724
92905822,nan,nan,-4.465014,-1.5646574,3.0120338e-24,0.0070911734,-1.2354788,-0.054448605,0.6848247,1.1801385,-1.0684701,0.0,0.0,0.0,0.03949498,0.06806055,-0.56556636
