timestamp,timestamp_sample,xyz[0],xyz[1],xyz[2]
39134115,39133887,-0.00034871162,0.002157175,-7.643296e-05
39135486,39135254,-0.00031460676,0.0059735538,-0.00094720937
39155312,39155083,-0.0069651515,-0.008721294,-0.008320125
39176305,39176077,-0.0034093182,-0.018261984,-0.008576532
39197448,39197221,0.007690263,0.006109743,0.012409832
39214796,39214561,0.007661344,-0.015631108,-0.028608
39235913,39235669,-0.00059096917,-0.0018775179,0.0121088615
39256997,39256770,0.030401396,-0.027156219,-0.018452963
39274384,39274151,-0.011900682,0.008061691,0.0033624528
39295482,39295257,0.03694086,-0.013052855,-0.028390078
39316587,39316362,-0.02624158,0.00529029,0.018019198
39337697,39337466,0.06803935,0.008107279,0.017008062
39355077,39354847,-0.076160304,-0.020314345,-0.04458862
39376180,39375953,0.056608357,0.0005263358,0.060773104
39397286,39397057,0.011811453,0.04585051,-0.0020108684
39414803,39414579,-0.009125702,-0.03005037,-0.029753134
39435943,39435716,-0.022380982,-0.04863497,0.014404051
39456877,39456650,0.036226843,0.014613143,0.028222851
39477985,39477752,0.013484982,0.049001094,-0.024895078
39495357,39495134,-0.009235225,-0.031464253,-0.0059360866
39516463,39516238,-0.011871508,-0.011580961,0.032007802
39538822,39538587,0.028235732,0.012587165,0.022796074
39554953,39554723,-0.023091506,-0.015537602,-0.03734898
39576052,39575829,0.015518356,0.007005608,0.0047724894
39597167,39596935,2.0879186e-05,0.024931151,0.037628394
39618316,39618086,0.008720643,-0.020737886,-0.0020168298
39635644,39635419,-0.016464893,-0.0316514,-0.033286102
39656765,39656527,0.03685306,0.070554614,0.027920876
39676657,39676428,0.0053926795,0.053781476,0.03962033
39694111,39693886,-0.0239722,-0.12160242,-0.06175291
39715097,39714873,0.00049560773,-0.033303868,-0.038034894
39736212,39735979,0.04184445,0.13293006,0.05472253
39757313,39757083,0.012795291,0.12052577,0.07091093
39774686,39774463,-0.03584976,-0.17856635,-0.07186641
39795796,39795568,0.011701286,-0.08665159,-0.05543063
39816903,39816673,0.047157656,0.16050862,0.028742945
39834278,39834054,-0.020267026,0.04885535,0.04172633
39855405,39855175,-0.06705246,-0.20908879,-0.054911938
39876526,39876303,-0.004240158,-0.1801395,-0.08503125
39897593,39897369,0.04042735,0.084975004,-0.0015690267
39914989,39914754,0.015455584,0.14204195,0.06876997
39936084,39935855,-0.046609174,-0.108943,-0.02403943
39957321,39957097,-0.042240113,-0.19639643,-0.07353564
39974798,39974569,0.03897105,0.13102113,0.03075426
39995681,39995445,0.044201814,0.14914517,0.05012915
40016777,40016550,0.011731203,-0.024163283,0.0028199917
40037884,40037655,-0.049800497,-0.14679489,-0.044169627
40055267,40055036,0.0012659087,0.072417706,0.012044777
40076366,40076141,0.051951483,0.13072361,0.03205772
40097469,40097246,0.03791901,0.0049090846,0.008947401
40114853,40114627,-0.056585178,-0.09219131,-0.02641342
40135961,40135731,-0.023628099,0.04380304,-0.006946704
40157060,40156836,0.037852086,0.092849925,0.00453515
40178170,40177941,0.042499766,-0.004647978,0.0113569535
40195612,40195387,-0.036881395,-0.08515888,-0.00050828885
40216697,40216471,-0.031418156,0.04900572,-0.0200422
40236649,40236426,0.033277564,0.11882567,-0.008423176
40255135,40254912,0.009920293,-0.06957731,0.027634718
40276256,40276024,-0.040913716,-0.13125722,0.009588051
40296108,40295880,-0.014119724,0.024616215,-0.044869557
40317262,40317030,0.047617532,0.14374693,-0.033915054
40335835,40335607,0.023620037,0.0014197775,0.0494334
40355698,40355472,-0.071496464,-0.16416644,0.02508306
40376812,40376576,-0.048729952,-0.07793481,-0.050966043
40394183,40393957,0.07921463,0.19305652,-0.010502067
40415286,40415062,0.033014625,0.05546153,0.06468786
40436395,40436168,-0.079390526,-0.18023957,0.039658844
40457502,40457272,-0.07408792,-0.2075374,-0.05988586
40474927,40474703,0.09166559,0.2206842,-0.02280304
40496129,40495897,0.06330192,0.20840031,0.08599943
40517094,40516865,-0.04877646,-0.07539015,0.080836356
40534468,40534243,-0.038387965,-0.1865466,-0.10795542
40555574,40555344,0.06984469,0.10531939,-0.07203023
40576680,40576453,0.07689192,0.26440647,0.0695058
40597784,40597559,-0.0053327642,0.08207692,0.1205843
40615170,40614939,-0.061691195,-0.25170386,-0.08710388
40636270,40636043,0.024435574,-0.03041672,-0.11509789
40657372,40657148,0.06624971,0.21653725,0.008927827
40674762,40674531,-0.020530187,-0.0029098943,0.10222096
40695860,40695634,-0.05769802,-0.21358295,-0.02887244
40716965,40716740,-0.03270351,-0.15358253,-0.11170976
40738152,40737923,0.03624915,0.06458375,-0.06811981
40755497,40755272,0.028949669,0.11891076,0.0991985
40776708,40776477,-0.030816942,-0.054900683,0.064992286
40797665,40797436,-0.047629528,-0.11819343,-0.03121464
40815044,40814815,0.02369422,0.020949077,-0.070765026
40836149,40835921,0.05187688,0.063447215,0.009853398
40857257,40857025,0.021584831,0.0674114,0.07520456
40877113,40876888,-0.040064327,0.022976626,0.05821785
40895740,40895507,-0.026422571,-0.07482973,-0.08019297
40915602,40915374,0.042459678,-0.063743666,-0.06116324
40937962,40937727,0.047725163,-0.010496836,0.0009008673
40955334,40955101,-0.026930463,0.106197946,0.08121586
40975196,40974966,-0.035014648,-0.025874509,-0.044811394
40996298,40996070,-0.0006643898,-0.13170646,-0.08997723
41018691,41018450,0.013086606,-0.115107514,-0.050394468
41034877,41034651,0.006891863,0.14983505,0.08390099
41055887,41055663,-0.0065523107,0.0766062,0.0070663197
41076997,41076765,-0.010440701,-0.08660653,-0.062279027
41094369,41094146,-0.009936224,-0.06072874,0.00778974
41115475,41115251,0.0034734185,0.09215883,0.05723019
41136586,41136357,0.040351477,0.11873963,0.027006572
41157702,41157468,0.030560557,0.0010777113,-0.030979656
41175103,41174880,-0.048377786,-0.08868747,-0.016027134
41196173,41195946,-0.034770604,0.026543247,0.033796314
41217284,41217054,0.023098081,0.090235114,0.028275734
41234660,41234432,0.024961915,-0.056093726,-0.03335134
41255765,41255536,-0.031325616,-0.07422576,-0.023289781
41276874,41276647,-0.044453777,0.022920754,-0.0044222744
41298058,41297831,0.0056820647,0.090628944,0.010095326
41315504,41315277,0.02647666,-0.057368793,-0.00022760093
41336470,41336233,-0.016605802,-0.10174513,0.002695605
41357563,41357337,-0.0336944,-0.00031137263,-0.01798713
41374955,41374718,0.035014316,0.11426841,-0.0051654954
41396054,41395824,0.027455578,-0.003116766,0.031101845
41417151,41416927,-0.022784617,-0.1370554,0.029871235
41434541,41434309,-0.019947117,0.008951164,-0.05281787
41455646,41455416,0.05276054,0.1546492,-0.040436544
41476752,41476518,0.05819906,0.1266605,0.025030248
41496606,41496382,-0.03728335,-0.111627355,0.06441874
41515250,41515006,-0.056684975,-0.12852976,-0.053137057
41536342,41536109,0.040336467,0.09098313,-0.07966088
41556226,41555996,0.08070288,0.20848925,0.02974247
41577440,41577215,-0.008295052,0.033439968,0.097256236
41594692,41594462,-0.07606556,-0.22247551,-0.05493498
41615794,41615570,0.028461793,-0.03345937,-0.114721954
41636896,41636668,0.09096306,0.18899646,-0.030694207
41654277,41654048,-0.0385,0.026802562,0.11657448
41675387,41675156,-0.07976909,-0.185291,0.013165889
41696502,41696278,-0.022466583,-0.16499439,-0.11075097
41717592,41717363,0.06348236,0.046151713,-0.09444247
41734969,41734744,0.011303272,0.14659172,0.110893756
41756074,41755851,-0.05568423,-0.03591357,0.0747107
41777194,41776956,-0.046230808,-0.14365338,-0.03817173
41794558,41794335,0.04738202,0.0068673207,-0.0677796
41815666,41815440,0.040493112,0.09007114,0.01319148
41836852,41836621,-0.0041469145,0.09310362,0.07992697
41858059,41857833,-0.016897276,0.05140958,0.06488772
41875254,41875030,-0.012158854,-0.095111005,-0.05998542
41896369,41896136,-0.004480408,-0.098903544,-0.06992501
41917475,41917244,0.023502009,0.009136819,-0.019251056
41934847,41934621,0.020278862,0.12988237,0.07327323
41955958,41955725,-0.014784426,-0.0033950142,0.029670496
41977061,41976831,-0.058924623,-0.17428102,-0.048422348
41998162,41997937,-0.01737399,-0.15652041,-0.07695537
42015545,42015316,0.06767328,0.21029834,0.03763287
42036707,42036478,0.020669686,0.15620317,0.08428106
42057773,42057540,-0.06693717,-0.12179745,0.021744791
42075136,42074908,0.0010807073,-0.13638963,-0.10165681
42096333,42096101,0.07077142,0.16458341,-0.01446042
42116247,42116016,0.043502267,0.23919326,0.12127929
42134737,42134497,-0.06764038,-0.18624954,-0.004043578
42154591,42154362,-0.034491394,-0.2104797,-0.13109402
42175695,42175466,0.042541735,0.074890465,-0.052730657
42196796,42196571,0.057931516,0.24031076,0.07621364
42214240,42214002,-0.023711694,-0.0993066,0.042812757
42235281,42235056,-0.059861902,-0.20179228,-0.089378305
42256387,42256161,-0.011497737,-0.04273875,-0.0958984
42277491,42277267,0.039278485,0.13315529,-0.009565249
42294884,42294647,-0.0036494497,-0.025998453,0.071408786
42316017,42315788,-0.048898034,-0.12572674,-0.0035466026
42337084,42336858,-0.02476135,-0.010549348,-0.05292671
42354498,42354273,0.049421318,0.09838476,0.009861597
42375650,42375422,0.009764685,-0.048634663,0.050557557
42396850,42396624,-0.032092944,-0.12857898,0.021600127
42417783,42417552,-0.022337686,-0.006588078,-0.036093365
42435155,42434933,0.03247817,0.13013843,-0.013724518
42456263,42456038,0.009821834,-0.030629653,0.031506523
42477378,42477143,-0.041924868,-0.17243864,0.025280232
42494751,42494523,0.0072140363,0.052387327,-0.031258997
42515856,42515629,0.045767225,0.16860445,-0.02499634
42536965,42536734,0.03810074,0.09964213,0.02183587
42558073,42557840,-0.020599533,-0.055411324,0.04840989
42575447,42575221,-0.038958345,-0.08916297,-0.030350104
42596554,42596324,0.024715967,0.041866783,-0.06971485
42617731,42617496,0.081272125,0.115705304,-0.020070657
42635070,42634843,-0.03949787,-0.022333333,0.07563551
42656281,42656043,-0.072448604,-0.09885499,0.01642781
42677257,42677020,-0.025535593,-0.10114282,-0.09107683
42697117,42696889,0.07839897,0.008198141,-0.07524392
42715743,42715505,0.018895563,0.1290906,0.09781159
42735597,42735369,-0.058173727,0.029879889,0.07758873
42756698,42756474,-0.06307848,-0.11992967,-0.06428972
42775327,42775096,0.05754345,-0.097333916,-0.09468957
42795207,42794972,0.03940077,0.12662563,0.054775767
42816293,42816064,-0.009528938,0.17531544,0.11886743
42837407,42837183,-0.05245852,0.024593625,0.016484667
42854788,42854550,0.0069446363,-0.17974085,-0.10142915
42875884,42875655,0.025550384,-0.015679054,-0.014811208
42897035,42896812,0.029519467,0.16880472,0.08085159
42914490,42914261,-0.0149835795,0.008922486,-0.005563263
42935655,42935429,-0.026774393,-0.17051235,-0.07247817
42956580,42956351,-0.031045754,-0.13165857,-0.048736
42977681,42977455,0.0074526547,0.05576038,0.026433125
42995065,42994839,0.03754355,0.1118439,0.026269322
43016174,43015948,-0.00091769674,-0.07390233,-0.025180077
43037271,43037046,-0.04089129,-0.1492935,-0.050079506
43054655,43054429,0.0056406176,0.084817976,0.024001207
43075759,43075531,0.05150667,0.114744835,0.025656952
43096860,43096637,0.033040628,-0.008689925,-0.0029897674
43117972,43117741,-0.0282488,-0.10053312,-0.021079576
43135348,43135123,-0.021800485,0.06378385,0.005864879
43156505,43156280,0.028223226,0.09956028,0.012407182
43177623,43177393,0.034904294,-0.0168684,0.011646641
43195067,43194843,-0.008265352,-0.099061124,-0.008638252
43216064,43215830,-0.0035773602,0.056203317,-0.0022078792
43238400,43238167,0.0005783026,0.16252036,0.002705703
43258272,43258029,-0.06188047,0.09300919,0.0073993225
43275632,43275408,-0.01773741,-0.27166715,-0.04066925
43296749,43296513,0.049743716,-0.3092428,-0.04657727
43316610,43316378,0.1570335,-0.18372202,0.009403774
43335232,43334999,0.12494058,-0.015405051,0.106836736
43355091,43354863,-0.056460924,0.0046086954,0.09776333
43376203,43375969,-0.105923906,-0.13033246,0.04047762
43397302,43397074,-0.0052966303,-0.1012277,0.0020995103
43414685,43414460,-0.02753841,-0.05327517,0.054591708
43437055,43436822,-0.16766559,-0.003864487,0.013127494
43457055,43456823,-0.021871382,0.09091513,-0.025083888
43474459,43474235,-0.12188124,0.03647166,-0.014140407
43495419,43495192,-0.14381257,0.0015541866,-0.0077597327
43516481,43516253,-0.009605653,0.013362983,0.024940269
43537584,43537358,0.016668016,-0.033385552,0.0220086
43554974,43554739,0.0033447687,-0.040205687,0.015095398
43576077,43575844,-0.018126057,0.03214674,0.088146664
43597172,43596949,-0.049393892,-0.006590693,-0.00044091605
43614571,43614341,-0.035636846,-0.012069939,0.050047766
43635664,43635435,-0.10028322,-0.033674035,-0.025868053
43656770,43656540,-0.09976493,0.070249565,-0.019700944
43677884,43677658,0.02334038,0.05011886,-0.041877743
43695254,43695025,-0.055343036,0.07789452,-0.004842931
43716416,43716186,0.022604926,-0.045981072,-0.021325173
43737622,43737393,0.039800785,0.02351589,0.053709902
43754853,43754619,0.03338166,-0.050133973,0.019620374
43775954,43775721,0.0026723472,-0.010947162,0.06614127
43797055,43796826,-0.05788513,-0.020423617,-0.010073472
43818166,43817934,-0.034169875,0.089072414,-0.056175392
43835539,43835313,-0.12426676,-0.018816028,-0.02314211
43856662,43856435,-0.115279794,0.06293697,-0.04723891
43877760,43877521,0.047812678,0.07185616,0.00829212
43895130,43894903,-0.0698829,0.07373969,-0.017318612
43916278,43916042,0.07900094,0.004443845,-0.0056288172
43937347,43937112,0.020284764,-0.032630146,0.011761986
43957247,43957016,0.055361677,-0.019480987,0.038229816
43974605,43974378,0.017549817,0.0074626715,0.06136772
43995824,43995601,-0.029884566,0.011241526,0.046237327
44016837,44016606,-0.09866911,0.012045807,-0.006408681
44034180,44033949,-0.07459946,0.010255239,0.014186324
44055287,44055054,-0.042302508,0.0736787,-0.06424908
44076385,44076156,0.0331806,0.06297255,-0.030946745
44097490,44097262,0.082470186,0.0026375595,0.037277274
44114867,44114642,0.059858877,0.021611204,0.021766864
44135976,44135747,0.028912064,0.033144437,0.019132584
44157078,44156852,-0.049399845,0.06918553,-0.050775036
44174463,44174235,-0.007317159,0.024936294,-0.008530348
44195567,44195337,0.023097767,-0.04708426,-0.06269509
44216672,44216443,0.08981302,-0.07195513,0.0048365686
44237839,44237597,-0.030489849,-0.05612248,0.023249978
44255229,44254993,-0.011209035,-0.040348954,0.0333746
44276435,44276208,-0.10812319,0.09678785,-0.01787301
44297369,44297139,0.04239788,0.06523369,0.029854828
44314748,44314519,-0.03243051,-0.038112808,-0.02291042
44335849,44335624,0.0034663305,-0.01333716,0.033005465
44356960,44356729,0.015680281,0.031100346,-0.04313777
44378060,44377832,0.032722063,-0.0047106794,-0.06723973
44395441,44395215,0.034277655,0.029998153,0.010366296
44416545,44416319,0.04206176,-0.054105483,0.0371748
44437693,44437470,-0.07177383,0.024317069,0.021727523
44455032,44454805,-0.007904331,0.0177419,-0.04128127
44476143,44475916,-0.007623857,0.032034718,0.0048350515
44497250,44497016,0.0450576,-0.06958273,0.049506165
44517135,44516907,-0.011416519,0.020114698,-0.02882136
44535848,44535619,-0.053447366,0.022553204,-0.05876376
44556832,44556605,0.1092571,0.0034732241,0.0041340515
44576693,44576469,-0.05438331,0.0125631,0.024622438
44595320,44595091,-0.029730579,0.037934512,-0.03550183
44615183,44614954,-0.060638063,-0.0015146205,-0.04362583
44636286,44636059,-0.02757488,-0.002877421,-0.0033950717
44657398,44657167,0.03960026,0.045587882,0.030933471
44674770,44674545,-0.11003054,-0.008921443,0.017346283
44695879,44695653,-0.044360213,0.024467371,-0.027897386
44716986,44716755,0.077983625,0.028269071,0.06003369
44734377,44734150,0.033208676,-0.03218801,-0.034127034
44755468,44755241,-0.030648079,-0.038070723,0.035751864
44777872,44777641,-0.065025486,0.002603171,-0.039931286
44797766,44797537,0.0020596422,0.032963593,-0.017204313
44815224,44814994,-0.020521343,-0.016490877,-0.042588126
44837419,44837181,0.006372777,-0.0015448529,0.026157355
44857272,44857042,-0.05854649,-4.1023126e-05,0.060139168
44874647,44874422,-0.042247806,0.03685853,0.003305126
44895763,44895528,-0.14626226,0.053967528,-0.044072956
44916860,44916632,-0.062828586,-0.009571167,-0.009458057
44937963,44937737,-0.018110737,-0.027462132,0.01839276
44956593,44956362,-0.092675455,-0.06799355,0.024614796
44976490,44976263,-0.0968954,-0.05181857,0.006538924
44997552,44997327,-0.1982585,0.0023478852,-0.020435223
45014941,45014708,-0.17106643,0.032612097,-0.04307323
45036044,45035814,-0.09312029,0.0121986875,0.0033219156
45057197,45056965,-0.12679446,-0.0010377471,0.009995081
45074654,45074424,-0.110484324,-0.0130004315,0.005492833
45095630,45095404,-0.19677848,0.039768007,-0.022880906
45116780,45116543,-0.13996975,-0.057509594,-0.042496875
45137853,45137614,-0.09844455,-0.083919466,0.011410859
45155224,45154994,-0.1934941,-0.06621665,0.013162256
45176325,45176099,-0.21918067,0.009311635,-0.06160138
45196187,45195963,-0.19954105,0.04428298,-0.017531075
45217304,45217076,-0.108460695,0.066238746,0.013273638
45234680,45234449,-0.1030799,0.03506381,0.008816353
45255795,45255572,-0.08621864,0.020003274,0.0056243893
45276880,45276658,0.04419949,-0.037793815,0.016148046
45294270,45294041,0.017591799,-0.084748685,0.05054339
45315370,45315144,0.09527931,-0.05878117,-0.018776879
45336563,45336335,0.115204275,0.041041847,-0.023935812
45359038,45358797,0.16223371,0.07589252,-0.00721735
45374992,45374767,0.17324123,0.017853558,-0.039425947
45396062,45395839,0.27954525,0.040132493,0.024673872
45417177,45416945,0.3597142,0.08952376,-0.0049331267
45434557,45434326,0.44033724,0.10204296,0.04152559
45455655,45455430,0.4209933,0.11225299,0.0017537132
45476768,45476535,0.4639003,0.01266021,-0.0013479468
45497871,45497640,0.04025437,0.090227954,0.042355776
45515251,45515021,-0.37278792,-0.098484844,-0.050197765
45537603,45537369,-0.09495073,0.03610503,-0.0660547
45557461,45557232,0.29056185,0.09739638,-0.07563464
45574837,45574612,0.10925159,0.12344262,-0.029403942
45596033,45595802,-0.2048577,-0.05626707,0.045002326
45617197,45616963,-0.1334419,0.06263705,0.111299485
45638165,45637940,0.041665487,0.09376969,0.0040634237
45655537,45655308,0.13416757,0.033967882,-0.031623207
45676655,45676429,-0.082296245,0.011419644,-0.0696538
45697748,45697517,-0.13220224,-0.009489583,-0.020446688
45715136,45714904,0.002188602,0.06384203,0.022014452
45736237,45736004,0.10106908,0.11046172,0.014830404
45757338,45757107,-0.017515073,-0.01797796,-0.004012244
45774715,45774488,-0.05044041,-0.0062405975,-0.016102219
45794583,45794352,-0.08629108,0.08254349,0.04331986
45815690,45815456,-0.087567374,0.05792963,0.014777279
45836788,45836561,0.04597876,0.043606605,0.001699689
45854279,45854048,0.10944616,0.0072033936,-0.011009511
45875370,45875145,0.026342036,-0.031434722,-0.07028896
45896565,45896341,-0.036369447,-0.005325681,-0.0055501866
45917488,45917261,-0.048348043,0.07869584,-0.013948032
45934870,45934644,-0.026945923,0.037493177,-0.0017291583
45955967,45955742,0.08772407,0.025941597,0.009623951
45977072,45976848,-0.03041814,0.09374289,-0.010368156
45994461,45994229,-0.0061338744,-0.03320257,-0.0035802682
46015560,46015334,-0.0061208205,0.11071542,0.01869275
46036711,46036487,-0.02520203,0.08960594,-0.013279243
46057782,46057551,0.046792038,0.12740967,0.012926117
46075155,46074925,-0.033205036,0.11051281,-0.024472287
46096267,46096035,0.011421551,0.11318976,0.0037766173
46118637,46118407,-0.05384883,0.14296402,-0.003854225
46134788,46134561,-0.002424855,-0.0026220118,0.07974082
46155981,46155758,0.0041643144,0.05344356,0.045408566
46178210,46177970,0.067607746,0.12728119,0.03048686
46198067,46197836,0.031797722,0.09015752,0.027154036
46215437,46215210,0.025217365,-0.0011189446,0.060101226
46237792,46237559,-0.053166315,0.065076955,0.04621323
46257651,46257421,0.02159418,0.011943242,0.04013994
46275031,46274805,0.041374095,0.044216987,0.012222903
46296141,46295908,-0.09609583,-0.055162936,-0.034735158
46317256,46317013,-0.05185908,-0.08713864,0.007971498
46338346,46338116,-0.07008441,-0.13362963,0.045499325
46356972,46356741,0.03026882,-0.29402333,0.082917646
46376845,46376611,-0.04256033,-0.31691098,0.12791969
46396723,46396495,-0.1758067,-0.33604738,0.19439963
46414164,46413938,-0.034148194,-0.2709273,0.16584219
46435388,46435158,-0.042307124,-0.19753096,0.09424962
46456305,46456072,0.17398952,-0.18456727,-0.08361933
46477391,46477162,-0.022464978,-0.035071503,-0.12735648
46494770,46494541,-0.09402594,0.15061514,0.033140503
46515871,46515646,-0.15493445,0.27478886,0.0017806166
46536981,46536751,-0.20548551,0.14592025,-0.028116412
46554359,46554130,-0.03581414,-0.020412235,0.023076473
46575462,46575237,-0.034595378,-0.11823341,0.06268814
46596567,46596342,-0.015368121,-0.13104293,0.06755564
46617672,46617447,-0.08388729,0.008934482,0.08027008
46635056,46634828,-0.18078944,-0.08982626,0.04655333
46656196,46655965,-0.0850655,-0.13319801,0.009568197
46677329,46677102,-0.16210432,0.038249563,-0.04673712
46694788,46694562,-0.121468596,0.057668272,-0.029053843
46715750,46715523,-0.0771453,0.09241628,-0.015020717
46736870,46736647,-0.02538636,-0.010971918,-0.053444367
46757964,46757733,0.054973174,-0.09389221,-0.04613043
46775339,46775113,0.09851614,-0.02494458,-0.066354625
46796447,46796219,0.045359984,-0.010030558,-0.052861873
46817551,46817321,0.1509818,0.00033249395,-0.04374669
46834934,46834704,0.1928333,0.049931306,-0.046626747
46856038,46855811,0.20230028,-0.023380723,-0.08768072
46878398,46878159,0.18450975,0.030337479,-0.073419794
46898259,46898020,0.15705588,0.07599655,-0.066312194
46915627,46915400,0.24079981,0.018087545,-0.08137228
46936765,46936528,0.10233106,0.04863433,-0.09950673
46956722,46956493,0.26393554,0.011745672,-0.067109935
46975312,46975082,0.2207828,-0.008882458,-0.005297691
46996327,46996095,-0.0033829769,-0.030868439,-0.042633623
47016193,47015959,-0.075207874,-0.07355085,-0.0032227517
47034815,47034582,0.010996507,0.008533638,0.0149607
47054674,47054446,0.07845711,0.054363187,0.015980612
47075789,47075560,-0.018092796,0.03863481,0.0038310075
47096889,47096658,-0.097514376,0.03423896,0.022586763
47114264,47114036,-0.023094472,-0.0012441336,0.0126094865
47135374,47135142,0.0902434,0.028894706,-0.0061753397
47156477,47156245,0.030359995,0.01719771,-0.022341749
47177576,47177350,0.040448584,0.057180744,-0.016708994
47194968,47194732,-0.011820631,0.09503535,-0.016847655
47216145,47215916,-0.017957615,0.11006181,0.0011944044
47237353,47237120,0.013152331,0.09889723,0.011765847
47254552,47254322,0.07281762,0.07188769,0.013322723
47275660,47275430,0.026423862,0.07752442,0.002469337
47296756,47296532,-0.061521336,0.13853738,-0.008932335
47315388,47315154,-0.041391112,0.22430182,-6.4957453e-06
47335250,47335021,0.09759133,0.22389238,-0.004528684
47356346,47356122,0.13360985,0.23781571,-0.05740622
47377451,47377228,0.04775153,0.2698849,-0.09356575
47394848,47394610,-0.03181698,0.34044057,-0.071505316
47415941,47415712,-0.05643404,0.36510345,-0.058079254
47434566,47434337,0.06533316,0.36428255,-0.03160791
47458167,47457936,0.009043061,0.35537416,-0.058905754
47475557,47475329,-0.035834797,0.3041908,-0.04930827
47496801,47496573,0.011510232,0.27483845,-0.033481773
47517749,47517513,-0.09078894,0.14624964,-0.0156124
47535126,47534893,0.04293969,0.045364622,-0.02600712
47556231,47555999,-0.036204927,0.054555446,0.014618613
47577336,47577104,0.083253,-0.06105248,0.10452008
47597198,47596967,0.103081115,0.21795304,0.02651617
47614576,47614345,-0.12318765,0.34669188,-0.274959
47635679,47635453,-0.11625503,0.34168726,-0.3616922
47656785,47656557,0.02952461,-0.03443389,-0.26369563
47674167,47673940,0.33243304,-0.40610692,-0.18983458
47695274,47695044,0.3477422,-0.7170861,-0.15070578
47716427,47716200,0.25350967,-0.8065962,-0.07631264
47737480,47737251,0.10547648,-0.8367991,-0.04807753
47754979,47754750,0.0026063719,-0.7555427,-0.04589144
47776146,47775916,-0.19242758,-0.6468852,-0.068775915
47797100,47796869,-0.18110548,-0.47292432,-0.08697131
47814491,47814267,-0.24014428,-0.30269367,-0.06589828
47836808,47836575,-0.1588454,-0.17255272,-0.08764662
47856673,47856439,-0.1145309,-0.1385861,-0.036565218
47877768,47877539,-0.110319585,-0.12230529,-0.036898248
47895156,47894921,-0.094398685,-0.092606634,-0.0039226003
47916259,47916029,-0.042298585,-0.16471545,0.008648212
47937355,47937130,0.034942526,-0.15054438,-0.004978284
47954738,47954507,0.027619215,-0.18564506,-0.009681119
47975853,47975618,0.034010444,-0.08553984,-0.017796595
47996948,47996719,-0.049208038,-0.0034180915,-0.052707
48014371,48014140,0.064555496,0.07559011,0.035532355
48035607,48035379,0.06208107,0.05872705,0.019453244
48056538,48056311,0.17793351,0.016122337,0.020781843
48077647,48077424,0.16235104,0.33696288,0.06959461
48095032,48094798,0.16402268,0.47538745,0.19579777
48116135,48115905,-0.25762832,0.5724922,0.032018904
48137238,48137008,-0.46082547,0.27886534,-0.033000812
48157099,48156874,-0.26932088,0.18297078,-0.008375306
48175719,48175492,-0.16093604,-0.060221855,0.07326532
48195581,48195356,0.19755732,-0.2609649,0.08044829
48216685,48216461,0.3083108,-0.28672802,0.012495798
48234069,48233842,0.28022793,-0.17071608,-0.00057002745
48255173,48254946,0.22677585,-0.13078892,0.042059645
48276282,48276050,0.1730995,-0.070862435,-0.006535547
48297489,48297259,0.062022094,-0.018364483,-0.020555336
48314944,48314715,-0.026308877,0.036798112,0.04877467
48335881,48335657,-0.06812473,0.04506648,0.0016137268
48356976,48356747,-0.017095817,-0.07417992,0.040388484
48374354,48374130,-0.0014437973,-0.060622085,0.04083864
48395462,48395233,-0.033669464,-0.09684264,0.050220065
48416569,48416338,-0.067969665,-0.08910549,0.044559777
48437676,48437443,-0.07894687,-0.08867624,0.039724384
48455051,48454825,-0.025140418,-0.021551376,0.014906842
48476164,48475930,0.018134905,0.016313741,0.028180866
48497262,48497034,0.05726408,0.08710824,0.013380133
48514639,48514414,0.15280873,0.036309354,-0.006481835
48535749,48535521,0.13168783,0.082575515,0.0037549117
48556903,48556674,-0.008472855,0.021620689,0.004166314
48578105,48577876,-0.029374348,0.03226293,0.028637188
48595341,48595109,-0.12154821,0.049300447,0.012440901
48616446,48616218,-0.1958149,0.05656816,0.031245166
48637550,48637320,-0.23619059,0.058162335,0.025084693
48654933,48654700,-0.1439577,0.022981925,-0.01073433
48676034,48675805,0.008924416,0.05069444,-0.016932642
48697137,48696912,0.04265328,0.10632081,0.008026255
48714521,48714291,0.026346438,0.0843728,-0.008313938
48735640,48735415,-0.045615677,0.027860649,-0.008159932
48756734,48756501,-0.11425756,0.012838357,-0.020744665
48776590,48776366,-0.12192501,-0.0077449605,-0.008934233
48795223,48794987,-0.14859544,-0.031098658,0.0028781043
48816345,48816115,-0.062630035,-0.079620235,0.01029853
48836292,48836065,0.011303291,-0.09434778,0.034268145
48857291,48857063,0.003928214,-0.12698099,0.011219931
48874667,48874441,-0.007976533,-0.055277515,0.0025058102
48895770,48895546,0.010764042,-0.0005578653,0.00047188794
48916920,48916695,0.048757996,-0.036255155,-0.0022101658
48934259,48934031,0.030031543,-0.054305643,0.008930348
48955367,48955138,0.022413395,-0.12588154,0.023782972
48976507,48976280,0.041165687,-0.13779205,0.007982745
48997573,48997346,0.017435689,-0.15165976,0.0049886233
49014999,49014774,-0.019660981,-0.1189389,-0.007304224
49036066,49035832,-0.06655272,-0.16112423,0.021199876
49057169,49056938,-0.018561745,-0.191461,0.027271325
49074544,49074318,0.012366734,-0.21833228,-0.0027019938
49095699,49095475,0.1214317,-0.19816555,-0.012928651
49116904,49116674,0.032205697,-0.16814432,-0.009985107
49137870,49137633,0.00831565,-0.14764193,0.005613944
49155240,49155013,-0.027981922,-0.12708643,-0.011443584
49176358,49176119,-0.033143286,-0.13461763,-0.00716856
49197457,49197225,-0.013857497,-0.14921589,-0.013888558
49214877,49214652,0.012287326,-0.15827042,-0.03131213
49237184,49236952,0.059229452,-0.15534112,-0.04717687
49257045,49256815,0.07958193,-0.124863915,-0.040139712
49278157,49277930,0.11537448,-0.13775557,-0.054342948
49295530,49295300,0.10721167,-0.13795629,-0.038191322
49316640,49316409,0.056369785,-0.117569074,-0.0452737
49337743,49337511,-0.043327466,-0.11505997,-0.045323886
49355198,49354959,-0.07654399,-0.09904385,-0.022537094
49376341,49376109,-0.15063047,-0.069506474,-0.051302727
49397333,49397100,-0.21462518,-0.018340874,-0.07256442
49414709,49414480,-0.16827181,-0.006651791,-0.10461611
49435818,49435586,-0.13676012,0.016892765,-0.11285576
49455673,49455450,-0.06786815,0.062069073,-0.11208204
49476779,49476555,0.01086447,0.1203677,-0.11974304
49494168,49493938,0.051453665,0.108780466,-0.13458116
49515266,49515040,0.09155268,0.1302722,-0.12965052
49536368,49536145,0.06387737,0.18334101,-0.15959696
49557475,49557251,0.023694638,0.21893771,-0.15605643
49574859,49574631,-0.032716893,0.27391273,-0.15662782
49595996,49595768,-0.044097282,0.26277217,-0.14918205
49617070,49616841,0.0060367673,0.2081211,-0.13950531
49634556,49634332,0.017721305,0.1871806,-0.15207933
49655701,49655477,0.06565469,0.14178362,-0.1699341
49676668,49676445,0.13200168,0.07921427,-0.1779267
49697766,49697536,0.16700812,0.022877702,-0.17705156
49715144,49714917,0.15333639,0.006860268,-0.14322442
49736250,49736021,0.09067344,-0.008883356,-0.1507471
49757357,49757127,0.012225227,-0.0020221751,-0.14734611
49774745,49774507,-0.024380775,-0.017890092,-0.15276812
49795837,49795612,-0.089355245,0.038005915,-0.15390353
49816951,49816717,-0.15369906,0.037857957,-0.1481729
49838053,49837827,-0.13769904,0.039248794,-0.13072705
49855428,49855203,-0.15985672,0.06921733,-0.08611536
49876538,49876308,-0.09551345,0.040652126,-0.06793807
49897731,49897496,0.04741994,-0.12065323,-0.05161075
49915170,49914947,0.2973451,-0.2658676,-0.043191265
49936132,49935899,0.6236271,-0.5358313,-0.020699926
49957236,49957003,0.87630284,-0.78371954,0.0019058759
49977103,49976867,0.89063835,-0.91836894,0.007588569
49995731,49995489,0.78367597,-0.96250165,0.024461862
50016839,50016611,0.53074664,-0.84009665,0.045744695
50036684,50036458,0.2307666,-0.6760316,0.0070822933
50055319,50055082,-0.042877574,-0.46805885,0.022695847
50075170,50074943,-0.29925027,-0.26646417,-0.02059019
50096276,50096050,-0.4520035,-0.03760285,-0.008242217
50117379,50117153,-0.6603329,0.10589033,-0.012337331
50134764,50134534,-0.672689,0.13289283,0.010207293
50155927,50155690,-0.6074637,0.13548516,-0.002478145
50177109,50176882,-0.53626573,0.09685048,0.012222806
50194506,50194278,-0.42384645,0.049040105,-0.010391965
50215456,50215230,-0.34961805,0.023144487,-0.013310337
50236559,50236335,-0.2902896,0.010262163,-0.011191923
50257664,50257441,-0.26082206,0.031475186,-0.008671778
50275045,50274820,-0.2710316,0.08389364,0.01946558
50296151,50295925,-0.26564056,0.07081909,0.017378239
50317254,50317030,-0.2603005,0.120786205,0.022831734
50334680,50334454,-0.3492927,0.16350922,0.013731076
50355745,50355516,-0.36212954,0.21555944,0.020782713
50376848,50376621,-0.35592458,0.26927042,0.010435491
50397972,50397733,-0.37106177,0.3695635,0.010351602
50415336,50415111,-0.39077926,0.4366911,-0.016930861
50436463,50436239,-0.40400472,0.5685714,-0.009244571
50457679,50457449,-0.39223045,0.6095728,0.0039985534
50474922,50474697,-0.32306626,0.5617403,0.0056366613
50496025,50495803,-0.24633758,0.49368057,0.014489313
50517140,50516909,-0.15644996,0.37205622,0.0362215
50538259,50538022,-0.08281827,0.26353982,0.046984132
50555619,50555393,-0.08084751,0.17188592,0.009151695
50576739,50576498,-0.035727613,0.09233622,0.023044227
50596595,50596361,-0.07293781,0.057650343,0.013053421
50615214,50614984,-0.054713547,0.041698936,0.019455574
50637564,50637331,-0.07428556,0.06347986,-0.00020160369
50657438,50657201,-0.07883425,0.10358375,0.01036834
50677287,50677058,-0.08532755,0.11310888,0.031731404
50694695,50694470,-0.07772574,0.11702398,0.024217468
50715848,50715618,-0.05356375,0.09199821,0.021473592
50737062,50736834,-0.03677224,0.0719958,0.02815232
50754260,50754028,0.016657814,0.02410605,0.005868516
50775368,50775135,0.0507869,-0.004542529,0.017294766
50796467,50796239,0.06100758,-0.020665744,0.009858438
50817567,50817343,0.024231518,-0.04444241,0.015737278
50836202,50835966,-0.00014003256,0.001187179,0.025971916
50856138,50855910,-0.058137428,0.029487152,0.01375447
50877159,50876934,-0.042915776,-0.007875007,0.024892526
50894542,50894315,-0.04825889,0.024240319,-0.01784052
50915664,50915425,-0.036357015,0.02557436,-0.0056219012
50936752,50936524,-0.014071663,0.015998455,0.063473545
50957862,50957628,0.13923204,-0.009772208,0.07649678
50975302,50975066,0.213281,0.03138583,0.014574417
50996480,50996252,0.4019263,0.09257845,-0.032281388
51017461,51017220,0.55003613,0.13373742,-0.063043945
51034825,51034601,0.64277536,0.14022116,-0.05515484
51055934,51055706,0.62784964,0.14845492,-0.07976197
51077035,51076811,0.60554355,0.16007103,-0.0649256
51098144,51097916,0.5472961,0.19690165,-0.053340033
51115523,51115296,0.5645217,0.23624831,-0.08368008
51136627,51136402,0.5318494,0.26188678,-0.089254074
51157743,51157506,0.54661477,0.29300818,-0.08772848
51175115,51174887,0.43914676,0.23302175,-0.07379703
51196257,51196015,0.17716086,0.059450675,-0.0576684
51217334,51217100,0.023650598,-0.085075215,-0.015486314
51238454,51238223,-0.06339948,-0.16854873,-0.012770964
51254651,51254421,-0.045765687,-0.14289889,-0.046190586
51275854,51275630,0.086323366,-0.08457743,-0.045906566
51296781,51296551,0.31901914,9.448551e-05,-0.05678957
51314162,51313932,0.49168417,0.04529744,-0.037059844
51335267,51335038,0.64924806,0.06115378,-0.02725764
51356381,51356142,0.7009303,0.040289734,-0.028073233
51377476,51377247,0.7050192,0.028310414,-0.01649827
51394852,51394628,0.67106926,-0.020186275,-0.0075607826
51415963,51415733,0.6576171,0.026811738,-0.00066503894
51437098,51436872,0.65457976,-0.010117223,-0.009635745
51454447,51454218,0.7369852,-0.048701596,-0.022938352
51475559,51475331,0.8034312,-0.01831904,-0.01219396
51496658,51496429,0.8037235,0.058575887,-0.011258295
51517823,51517590,0.67741466,0.082585245,-0.0014722871
51535285,51535052,0.48074442,0.068502985,-0.009675623
51556247,51556021,0.23666675,0.051763974,-0.01187603
51577355,51577126,-0.04701748,0.021404685,0.0007101034
51594739,51594508,-0.14427502,0.011499033,-0.017403213
51615839,51615610,-0.28520685,0.0081420615,-0.02374754
51636940,51636714,-0.35535994,-0.004696227,-0.011966934
51654323,51654095,-0.39186502,-0.0076785767,-0.0013815456
51675430,51675201,-0.4489461,0.018793909,-0.024730088
51696542,51696316,-0.4973144,-0.0031655035,-0.010287039
51717635,51717410,-0.54975384,-0.019666376,-0.013106638
51735016,51734791,-0.62533873,-0.010648085,-0.0030704327
51756124,51755896,-0.65585756,-0.078125104,-0.00059216196
51777316,51777080,-0.68582183,-0.22927853,0.0040373765
51797206,51796972,-0.6951605,-0.31195918,0.018256726
51814663,51814437,-0.72972924,-0.32326564,0.013642149
51836822,51836591,-0.75689155,-0.31226537,0.022780739
51856685,51856455,-0.7959902,-0.29724514,0.012400783
51875314,51875081,-0.81256187,-0.21772538,-0.0139013715
51895166,51894940,-0.842179,-0.16929728,-0.025104638
51916276,51916045,-0.8324607,-0.10884878,-0.020934444
51937379,51937151,-0.8330118,-0.06757182,-0.02912186
51954768,51954541,-0.8324116,-0.08477478,-0.021411486
51975866,51975637,-0.8172395,-0.08376707,-0.033204503
51998236,51997991,-0.8358189,-0.065355875,-0.02440075
52014349,52014122,-0.81814337,-0.07829213,-0.03817762
52035523,52035298,-0.8323052,-0.05118012,-0.049893677
52056669,52056439,-0.8320546,-0.05197559,-0.046526395
52077845,52077608,-0.7585984,-0.027294336,-0.04048545
52095041,52094817,-0.64570564,-0.014071306,-0.066055745
52116169,52115942,-0.37971288,-0.024806987,-0.057896808
52137275,52137028,-0.04430098,-0.039289515,-0.051690776
52154679,52154454,0.123027325,-0.015955038,-0.04948336
52175749,52175516,0.3291469,-0.0106004225,-0.054340936
52196849,52196619,0.41398728,-0.018040057,-0.055567466
52217949,52217723,0.45245928,0.0127481455,-0.05894509
52235334,52235104,0.4613832,0.017647209,-0.021309918
52256435,52256209,0.4980035,0.038842194,-0.035347443
52277541,52277314,0.5577946,-0.003198654,-0.04103238
52294925,52294694,0.64245856,0.009412375,-0.022917151
52316044,52315818,0.733549,-0.0054414812,-0.023342762
52337248,52337013,0.764818,0.021061152,-0.029009508
52354518,52354289,0.71457535,0.05140533,0.0006106607
52375618,52375390,0.61455107,0.051680557,-0.00018443633
52396731,52396495,0.52209735,0.04576779,-0.013971442
52416583,52416359,0.38256305,0.023436906,-0.019146612
52435215,52434982,0.34053463,0.059867907,-0.0033694752
52456313,52456086,0.24350066,0.04751945,-0.0033708345
52476175,52475949,0.20598084,0.03110076,-0.010789035
52497278,52497055,0.21908034,0.0056605465,-0.025548564
52514661,52514435,0.21844986,0.011394556,0.023373242
52535767,52535540,0.21363929,-0.04048681,-0.009925483
52556881,52556645,0.2420593,-0.054691147,-0.017449962
52574260,52574027,0.15446728,-0.0010411547,0.005023393
52595422,52595195,0.10878306,-0.0006473287,0.003705258
52616655,52616432,0.076488644,0.03967401,-0.022090513
52638816,52638584,0.07086453,0.055639137,-0.00033632418
52654946,52654721,0.09695977,-0.015343698,-0.0022239916
52676053,52675826,0.12744144,-0.057078775,-0.015630115
52697210,52696976,0.14422369,-0.043052327,-0.01148546
52714540,52714312,0.07132514,-0.030428002,-0.011509745
52735653,52735422,0.025388213,-0.01788181,0.0025982356
52758000,52757767,-0.0010580337,-0.012871899,0.009550856
52777868,52777629,-0.032048482,0.01846582,0.011915134
52795239,52795009,-0.06401599,0.029048894,-0.010019896
52816342,52816113,-0.020538991,0.055707518,-0.001470822
52837453,52837219,0.12080106,0.08195525,0.0054424983
52854898,52854675,0.2691365,0.053864893,-0.02600417
52876043,52875815,0.39781708,0.06994703,-0.0072055995
52897037,52896808,0.4731843,0.05691119,-0.003047559
52918139,52917913,0.5427304,0.037557825,0.0011604615
52935527,52935294,0.59272754,-0.0484029,-0.004177529
52956640,52956414,0.6333983,-0.036331315,0.012220775
52977735,52977504,0.62540966,-0.028221443,0.026247108
52995115,52994884,0.6613262,-0.02717171,0.0045326613
53016230,53015990,0.68074805,0.018414766,0.005839932
53036089,53035856,0.67787516,0.042445578,0.01931313
53054708,53054476,0.7605691,0.010053704,-0.0017438167
53075811,53075580,0.7857555,-0.016531972,0.018517299
53095674,53095444,0.7705939,-0.0289809,0.022612968
53116787,53116557,0.79524714,-0.02440063,0.043262362
53134268,53134038,0.7748675,-0.009646519,0.006092764
53155440,53155212,0.7862796,0.0011645218,0.0036518301
53176365,53176139,0.7972431,0.024987768,0.01380953
53197468,53197245,0.7307606,0.050293338,0.023207467
53214899,53214672,0.70620424,0.02665369,0.010172465
53235956,53235730,0.62973785,0.011967456,-0.012549943
53257062,53256838,0.4223798,-0.010295778,0.013773542
53274441,53274216,0.2668699,-0.04565651,0.0131697375
53295549,53295321,0.08331872,-0.033959538,0.0034494905
53316654,53316427,-0.16561534,-0.008218027,0.043652486
53339014,53338776,-0.2696753,0.01334022,0.058533143
53355135,53354911,-0.31868324,0.071641415,0.035012927
53376243,53376018,-0.39228463,0.031942803,0.05661007
53398641,53398409,-0.43958288,0.011766292,0.055188593
53414893,53414667,-0.51375806,-0.0141620105,0.039674964
53435831,53435607,-0.55217445,0.0010152282,0.063491195
53458197,53457956,-0.669349,-0.0012054663,0.05864052
53478057,53477827,-0.6761338,-0.027900262,0.067445315
53495428,53495202,-0.67295194,-0.064651296,0.061748523
53516535,53516303,-0.71710044,-0.05531379,0.064884655
53537639,53537409,-0.7698297,-0.029394694,0.06621589
53555058,53554833,-0.75476,-0.026732061,0.052384384
53576129,53575894,-0.79072315,0.05473431,0.040390354
53597235,53597000,-0.82979506,0.02993956,0.04896875
53618332,53618104,-0.7901611,-0.0036022088,0.044242375
53636960,53636726,-0.7753509,-0.018221213,0.054601587
53655588,53655354,-0.75390834,-0.06466967,0.07849387
53676832,53676600,-0.7366895,-0.045646485,0.06201147
53694250,53694011,-0.79423445,-0.033117115,0.09246724
53715169,53714938,-0.8473658,-0.018995907,0.09301974
53736274,53736044,-0.891266,-0.010845102,0.07927656
53757377,53757151,-0.8475508,0.009156396,0.08176047
53774762,53774529,-0.8389273,0.025003621,0.046936665
53795860,53795634,-0.80819434,0.0397715,0.046273034
53816964,53816739,-0.836065,0.03202354,0.07266468
53834349,53834121,-0.85365146,0.04677512,0.067234345
53855455,53855226,-0.8500536,0.06534797,0.061333135
53876567,53876336,-0.8645123,0.072303295,0.050655466
53893950,53893710,-0.89363205,0.027859926,0.07733307
53915099,53914873,-0.83237445,0.006007064,0.08016803
53936202,53935973,-0.79591113,0.06689823,0.07564105
53957385,53957161,-0.7850138,0.08056123,0.07731796
53974636,53974406,-0.7612759,0.017477326,0.06270234
53995742,53995512,-0.736789,0.03455051,0.046883464
54016842,54016616,-0.7327448,0.011405618,0.062759295
54039206,54038969,-0.7275965,-0.016112044,0.08896366
54055328,54055103,-0.74183667,0.05204668,0.045179676
54076437,54076210,-0.6546945,0.05328695,0.05995564
54097586,54097358,-0.51173526,0.08608401,0.05004632
54114919,54114693,-0.27576047,0.01149198,0.038662676
54136020,54135797,-0.0074163806,0.029657487,0.050803572
54157134,54156904,0.19179186,-0.009606674,0.022208223
54178254,54178011,0.40007856,-0.041581355,0.035010643
54195614,54195391,0.43709254,-0.031562768,0.042456005
54216815,54216584,0.47459683,-0.046028405,0.040415905
54237848,54237607,0.5169625,-0.04061217,0.035289057
54255211,54254979,0.52913,-0.015482757,0.028030064
54276317,54276085,0.6050171,-0.053240173,0.04499104
54296181,54295947,0.63933706,-0.02356648,0.040561724
54314798,54314570,0.6587216,-0.01016711,0.0480064
54334661,54334433,0.68007416,-0.011625914,0.05104908
54355766,54355538,0.7207797,-0.034474213,0.043252427
54376871,54376645,0.7505635,-0.033395447,0.042141777
54394250,54394024,0.79031783,-0.054812543,0.0073010265
54415358,54415129,0.80111235,-0.046155877,0.02353321
54436460,54436234,0.82550055,-0.06508054,0.02851771
54457569,54457338,0.8264088,-0.067932405,0.03356075
54475054,54474809,0.85232127,-0.10857195,0.01565034
54496193,54495964,0.85238135,-0.110294044,0.009738349
54517159,54516930,0.74266577,-0.027863309,0.0054503116
54534539,54534311,0.58546,0.005641928,0.020512013
54555661,54555435,0.48861745,0.0030766213,0.0059586647
54576746,54576520,0.40512374,-0.066837706,0.015357293
54597857,54597625,0.37881392,-0.056961343,0.0013682976
54615238,54615008,0.32698688,-0.031835213,0.015803691
54636342,54636110,0.31272635,-0.043470066,0.018604048
54657440,54657216,0.2996448,-0.05727862,0.010832139
54674824,54674596,0.20848201,-0.0087350225,0.032641646
54695928,54695702,0.1796391,0.0079432605,0.024000226
54717033,54716806,0.122417584,0.032643538,0.028762674
54738222,54737987,0.11832081,0.026641296,-0.0049451888
54755618,54755391,0.05816572,0.044284638,0.0017947931
54776625,54776400,0.024943212,0.04394594,0.005579837
54797759,54797523,0.008169751,0.043864246,0.007420072
54815111,54814883,-0.015092867,0.025121333,-0.021918226
54836215,54835987,-0.003802923,-0.0025343983,-0.012525144
54857329,54857093,0.015867753,0.015999142,-0.0153669445
54877187,54876956,0.020237,-0.019714722,-0.03132853
54895806,54895578,0.010482776,-0.016116211,-0.03560057
54915667,54915442,0.0029561121,-0.01983674,-0.029088387
54936774,54936547,0.009369987,1.3262454e-06,-0.03785181
54954154,54953927,-0.0014696082,0.024865173,-0.017422175
54975288,54975060,-0.03310452,0.045726955,-0.024579702
54996379,54996150,-0.039256647,0.0287589,-0.028925205
55017650,55017399,-0.046175584,0.02113049,-0.036276486
55034989,55034766,-0.04197947,0.020684095,-0.014947469
55055959,55055728,-0.07641821,0.069799826,-0.028667342
55077065,55076836,-0.07511549,0.05807595,-0.014792913
55094478,55094252,-0.051179633,-0.0007235995,-0.01868288
55115547,55115319,-0.021260837,-0.0047294986,-0.018711247
55136656,55136425,-0.037158825,-0.0018654442,-0.018693613
55157755,55157529,-0.027327573,-0.0075001605,-0.010360806
55175164,55174933,-0.010877176,-0.021250427,-0.03447882
55196247,55196015,0.003938948,-0.029870288,-0.033045225
55217345,55217120,-0.0056136264,-4.528947e-06,-0.030228015
55235975,55235743,0.0057817376,-0.0014695774,-0.02238585
55255844,55255613,-0.0054953955,0.0003575089,-0.021563997
55276967,55276740,-0.0004717451,0.00496611,-0.02640579
55294427,55294193,-0.032037802,-0.023466524,0.00948198
55315432,55315205,0.0012312824,-0.03685827,0.00834374
55336527,55336301,-0.012187848,-0.033742994,0.012843508
55357630,55357406,-0.025670465,-0.0033953618,0.010648436
55375017,55374786,-0.015545078,-0.008912963,-0.0061568003
55396117,55395892,-0.004410312,-0.010224766,-0.0029272933
55417227,55416997,0.00011140456,-0.004298387,0.009385018
55437091,55436860,-0.020768125,-0.017597072,0.012072802
55455707,55455482,-0.0088136,-0.036361925,-0.007861404
55476816,55476589,-0.014635105,-0.029891595,-0.019431895
55496678,55496452,-0.013599583,-0.010839823,-0.023992963
55515302,55515073,-0.043410957,0.0038539353,-0.0042192894
55536442,55536214,-0.014177897,-1.1608893e-05,-0.0011468303
55556391,55556165,-0.0029037825,-0.022423936,0.007735516
55577538,55577309,-0.009018416,-0.020569474,-0.0013202018
55594751,55594527,-0.025013423,-0.0056365333,0.003270164
55615860,55615634,-0.06196049,0.020070268,0.005185473
55638217,55637981,-0.068421744,0.034407295,-0.008374166
55654345,55654118,-0.047049157,0.016732443,-0.013282262
55675446,55675223,-0.06109292,0.04133575,-0.017111452
55696610,55696379,-0.05665828,0.028753962,0.004578805
55717665,55717435,-0.022359235,0.023652187,0.0030802744
55735051,55734823,0.022163128,-0.041114714,-0.029109932
55756148,55755919,0.027647976,-0.044635598,-0.047100447
55777268,55777035,0.013687355,0.031086542,-0.06000064
55794637,55794413,-0.058092844,0.07397013,-0.002185579
55815787,55815558,-0.043725315,0.031456146,-0.004217634
55836967,55836738,-0.005948202,-0.007125051,-0.02719738
55857949,55857719,-0.018319752,-0.004178694,-0.03972697
55875330,55875100,-0.056806076,0.014691403,-0.01217763
55896436,55896205,-0.035209183,-0.0036026172,0.0026262
55917534,55917310,-0.016731795,-0.004368071,-0.0100111915
55934923,55934690,0.0056315525,0.004083894,-0.04416912
55956034,55955798,-0.007853588,0.009661301,-0.028593622
55977171,55976946,0.0064552655,0.01684596,-0.028990002
55994509,55994281,0.019791406,-0.014417539,-0.04674793
56015624,56015391,0.031577084,-0.021011021,-0.046877358
56036734,56036491,0.020283252,-0.025353417,-0.03686587
56056583,56056355,0.016964048,-0.0125493035,-0.04211908
56075262,56075026,-0.011220244,-0.002746651,-0.056404557
56095148,56094920,-0.024792496,-0.010870069,-0.039614424
56116342,56116117,-0.012201172,-0.0059071244,-0.0414808
56134800,56134568,0.016297488,0.0043135225,-0.019803314
56154707,56154478,0.049038596,-0.0052471184,-0.019233836
56175764,56175537,0.055736568,-0.032151047,-0.035919618
56196865,56196641,-0.0035889067,0.0065805693,-0.025868744
56214259,56214022,-0.008318399,-0.012399315,-0.019057909
56235354,56235128,-0.017617127,0.02765341,-0.016541315
56256495,56256267,-0.03402553,0.073858336,-0.025071833
56277566,56277337,-0.04518906,0.07552672,-0.019883117
56294942,56294717,-0.037855662,-0.045846473,-0.0031543134
56316046,56315822,-0.020243773,-0.04237162,-0.024138788
56337162,56336930,-0.045462713,-0.016539885,-0.02891968
56354564,56354338,-0.033483703,-0.006240103,-0.025114767
56375765,56375541,-0.06316423,0.019206643,-0.024076384
56396746,56396518,-0.16672674,-0.026880091,-0.0063682157
56414144,56413911,-0.25361902,-0.049839877,-0.022789797
56435234,56435004,-0.38365486,-0.080488965,-0.018163754
56456337,56456109,-0.497771,-0.13197613,-0.006188739
56477441,56477214,-0.57030696,-0.24193694,0.009295105
56494818,56494595,-0.5153726,-0.34627846,-0.009952753
56515930,56515700,-0.4511552,-0.45684314,-0.011738494
56537040,56536805,-0.3689043,-0.61051977,-0.0003975082
56558136,56557911,-0.32409096,-0.6052019,-0.01890628
56575520,56575290,-0.30274346,-0.55841327,-0.0065767663
56596624,56596395,-0.3525186,-0.48123807,-0.022258768
56617741,56617506,-0.3303159,-0.35226,-0.031057777
56635207,56634973,-0.3218426,-0.21484177,-0.05055789
56655147,56654919,-0.29374242,-0.12327672,-0.055488333
56677340,56677111,-0.12456393,-0.0479932,-0.07574931
56694704,56694472,-0.055623595,0.051050983,-0.04813145
56715809,56715575,0.12678598,0.09246929,-0.060204197
56735685,56735460,0.29785344,0.21748215,-0.05854061
56756771,56756545,0.4265203,0.33872846,-0.08214659
56774156,56773927,0.5011545,0.4501606,-0.0633155
56795266,56795036,0.57901436,0.52975863,-0.073813505
56816367,56816136,0.6161412,0.57329714,-0.07399242
56837471,56837241,0.64496905,0.61315715,-0.08922088
56854847,56854622,0.6651508,0.65159947,-0.051850077
56875952,56875728,0.66504645,0.68473154,-0.07235722
56897100,56896878,0.61323756,0.7196322,-0.07106331
56914579,56914354,0.5185307,0.7672675,-0.05667063
56935582,56935358,0.41868523,0.8037676,-0.0746877
56956647,56956424,0.34411994,0.80814147,-0.08386954
56977761,56977527,0.31699836,0.67857194,-0.042438105
56995138,56994911,0.34522915,0.56258243,-0.055338163
57016242,57016013,0.34977335,0.33224562,-0.023895565
57037349,57037119,0.33339882,0.1121891,-0.019554077
57054729,57054499,0.13193792,-0.012104143,-0.012851029
57075829,57075605,-0.04902656,-0.13582404,0.0010853473
57096939,57096709,-0.28801635,-0.2986922,0.018695362
57118050,57117822,-0.38323584,-0.37400708,0.03632433
57135427,57135199,-0.3986275,-0.42075717,0.00924315
57156585,57156356,-0.35611066,-0.50735533,0.0017067267
57177784,57177547,-0.17589347,-0.5749691,0.0073663364
57195210,57194972,-0.15668046,-0.60785294,0.022638278
57216122,57215890,-0.1057376,-0.621311,0.017448759
57237226,57236996,-0.12655315,-0.51359165,0.001373477
57257089,57256859,-0.16762768,-0.31557408,-0.036821745
57275712,57275482,-0.15296505,-0.15103899,-0.047235884
57296818,57296588,-0.09630055,-0.02312461,-0.040966086
57316677,57316449,-0.03689436,0.037582543,-0.027421542
57335307,57335074,-0.0025750948,0.0052609434,-0.007460998
57355165,57354936,0.014132435,-0.0031833982,0.0029052105
57376268,57376040,0.01794725,-0.045514658,0.011932868
57397373,57397146,0.0045150626,-0.056334402,-0.014549242
57414756,57414526,-0.021382777,-0.045792848,-0.022885693
57436014,57435788,-0.025774512,-0.03908147,-0.005750335
57457114,57456888,-0.040202867,-0.0038845267,0.011596657
57474350,57474119,-0.012941188,0.023537336,-0.0009641494
57495450,57495222,0.031033797,0.040578656,-0.013373561
57516600,57516375,0.023009563,0.034271743,0.008998666
57537658,57537431,0.03058991,0.030669976,0.0054638237
57555045,57554809,0.037267238,0.030751651,-0.0028038467
57576146,57575917,-0.016449813,0.028886428,0.0069429735
57597250,57597022,-0.043872338,0.02716963,0.03026484
57614630,57614403,-0.05168938,0.02384596,0.019058362
57635732,57635508,-0.052279595,0.0029900875,0.003291389
57656839,57656613,-0.042412616,0.0037350857,0.02838599
57677960,57677718,-0.08249803,0.015686387,0.0060068998
57695347,57695122,-0.07261686,0.001297584,0.027341863
57716536,57716311,-0.050687455,-0.01632879,0.0039947364
57737539,57737308,-0.021030301,-0.04106592,0.0149788605
57754921,57754690,-0.010634473,0.01801149,0.014227061
57776027,57775797,-0.043583754,0.021403192,0.042076685
57797128,57796899,-0.018915502,0.022728143,0.050331168
57818243,57818004,-0.03329301,-0.0006378188,0.053216405
57835613,57835385,-0.008882597,-0.05543845,0.041779064
57856750,57856508,-0.025445981,-0.025997175,0.044880275
57877834,57877595,-0.043043677,0.00687128,0.029389787
57895204,57894975,-0.055168662,-0.0021542176,0.05932187
57916319,57916081,-0.015069506,-0.028971251,0.05989182
57936173,57935945,0.013798845,-0.05377454,0.036031418
57954793,57954566,0.03747291,-0.08163628,0.031790026
57974707,57974482,0.037950665,-0.08974037,0.044685323
57995922,57995691,0.033238824,-0.07541699,0.034840085
58016875,58016640,0.03786019,-0.07578894,0.028479809
58034282,58034056,0.034767818,-0.06709551,0.026980637
58055359,58055126,0.015962493,-0.039580144,0.029717486
58076462,58076231,0.0055361763,-0.0067717154,0.025355522
58097561,58097336,0.0075366762,0.0036356817,0.020673603
58114950,58114716,0.0024200177,0.0055136243,0.031748373
58136052,58135822,0.0030181422,0.00521754,0.043827403
58157152,58156926,-0.006480871,-0.011106354,0.0399599
58174539,58174307,0.0010619573,-0.021968737,0.029836029
58195646,58195416,-0.01845739,-0.010973579,0.03601762
58216748,58216520,-0.028511696,-0.011285134,0.03179222
58235396,58235166,-0.02072426,-0.011557179,0.027154306
58255352,58255122,-0.013489523,-0.00041014826,0.012522809
58276336,58276108,0.009537049,-0.039651427,0.012515145
58297438,58297212,0.015503059,0.0259178,0.013938849
58314831,58314594,-0.0071924697,0.042211518,0.00880324
58335933,58335702,-0.024323622,0.036995664,0.020676969
58357036,58356803,-0.02920442,0.041745853,0.004172572
58378142,58377909,-0.04661625,0.027921135,0.009973763
58395520,58395290,-0.020361463,0.033283405,-0.0045244917
58416628,58416395,-0.022237426,0.026335018,0.003662688
58437753,58437518,-0.022279216,0.036452822,0.015806489
58455110,58454880,-0.013251307,0.012117661,-0.009610679
58476214,58475985,-0.012580063,0.013536739,-0.028242959
58497324,58497090,-0.023161063,0.0141786905,-0.010789256
58517261,58517027,-0.027566317,0.013686983,-0.0024430277
58534716,58534491,-0.020878185,0.01635107,-0.014966117
58555664,58555439,-0.028178316,-0.00089978316,-0.0062757926
58578022,58577786,-0.038724832,-0.040771045,-0.004126825
58594154,58593925,0.032419145,-0.009066102,-0.028594997
58615264,58615032,-0.009312236,-0.02336467,-0.0039638192
58637610,58637378,-0.012111828,-0.02163438,-0.005961241
58657502,58657275,-0.020949166,-0.01782124,-0.0007248473
58674850,58674621,0.022974722,-0.0132142985,-0.03127469
58695956,58695725,0.011767325,0.005880183,-0.029606564
58717059,58716830,0.017075876,0.0014115172,-0.022808129
58734436,58734211,0.009120413,0.005353047,-0.0056748283
58755545,58755316,0.00049949234,0.0015163184,-0.010275743
58776698,58776470,-0.024243686,0.00256644,-0.020038694
58797934,58797708,-0.030111589,-0.0037985444,-0.026164627
58815144,58814909,-0.030778583,-0.010144574,0.00047169632
58836242,58836015,-0.030128254,-0.000535209,-0.0068509313
58857349,58857118,-0.032358125,-0.0019376427,0.0015631269
58874729,58874498,-0.015742328,-0.012681516,0.0078013786
58895831,58895603,-0.03781687,2.0858823e-05,0.0072973324
58916968,58916741,-0.035985213,0.013619492,0.017079357
58938045,58937820,-0.024068205,0.011139047,0.002346873
58955430,58955199,-0.02662842,-0.0042975745,-0.02889084
58976529,58976298,-0.015265975,0.012109253,-0.015289532
58997640,58997403,-0.030064682,-0.006383119,-0.0180489
59015014,59014784,-0.041748572,-0.031326603,0.010306754
59036113,59035889,-0.020851476,-0.04029443,-0.006018545
59056057,59055828,-0.030867653,-0.07485662,-0.020728996
59074771,59074537,-0.023855317,-0.02563905,0.005317822
59095705,59095480,-0.030683978,-0.03878328,-0.022432476
59115570,59115343,-0.008062093,0.0010441784,-0.0030896037
59137922,59137689,0.04087795,-0.00052845624,-0.0128035825
59155312,59155077,0.023474364,-0.025175635,-0.003850252
59175165,59174935,0.05025016,-0.026357844,-0.0106844045
59196265,59196040,0.051516738,-0.049224757,0.010600199
59217389,59217161,0.044253282,-0.016551772,-0.004769086
59234750,59234524,0.02552892,0.063015744,-0.0071120723
59255861,59255630,0.014525962,0.006208582,-0.03158821
59276968,59276738,-0.0001406374,-0.015217129,-0.022657273
59294341,59294117,0.0072731664,-0.04324893,-0.007949694
59315479,59315255,0.05258627,-0.02667883,0.0027508452
59336689,59336461,0.040155966,-0.038242392,-0.023167228
59357657,59357430,0.030113414,0.0017017096,-0.0005718066
59375051,59374814,0.0674134,0.006964444,-0.02262307
59396151,59395917,0.041873816,0.02983946,-0.022273425
59417255,59417022,0.032284375,0.0434195,-0.0040587937
59434657,59434431,0.048641954,-0.021528346,-0.009649804
59455736,59455507,0.030394487,0.008573256,0.0014182529
59476843,59476612,0.02524401,0.00062827376,-0.009127627
59497945,59497717,0.018709395,0.016958041,0.0019825131
59515334,59515098,0.011450489,0.014551631,-0.010733144
59536427,59536203,0.019168133,0.053188946,-0.0070195952
59557542,59557309,0.03761237,0.029537952,-0.0030605746
59574920,59574689,0.046186827,0.07667873,-0.04262819
59596112,59595882,-0.015123348,0.09452236,-0.011723673
59617333,59617104,-0.05018931,0.04974667,-0.0039937454
59634511,59634279,-0.0013572035,-0.03700177,-0.037446786
59655610,59655384,-0.0045172214,-0.02897895,-0.027432742
59676717,59676489,0.014647853,-0.032319173,-0.015137677
59696578,59696353,0.04817341,-0.0070648473,-0.023392906
59715210,59714976,0.04403281,0.026772449,-0.034631737
59736340,59736110,0.058833063,0.051863573,-0.04765216
59756169,59755943,0.040575888,0.04845207,-0.04653135
59777274,59777049,-0.026183574,0.03874644,-0.034700215
59794672,59794446,-0.00039422934,-0.019829163,-0.041183148
59815759,59815534,0.033977248,-0.04371723,-0.013926493
59836877,59836653,0.037572127,-0.07071656,-0.030411934
59854279,59854054,0.05262569,-0.026306827,-0.01511017
59875511,59875286,0.051663473,0.040392686,-0.04687699
59896453,59896230,0.030811194,0.038140815,-0.033972904
59917565,59917335,0.036238458,0.033216294,-0.03515256
59934948,59934715,-0.04957441,0.013694237,-0.018312976
59956056,59955821,-0.009350724,-0.031670425,-0.030366175
59977195,59976961,-0.03585134,-0.029074233,-0.02627706
59994535,59994309,0.029063284,-0.037598453,-0.04290268
60015639,60015412,0.013487547,-0.021485852,-0.038109362
60037991,60037758,-0.02723726,0.016275074,-0.04300577
60057856,60057621,-0.027649086,-0.010963135,-0.01977992
60075243,60075006,0.022555254,0.012990272,-0.034718428
60096339,60096108,0.020869208,-0.01543516,-0.06134896
60117460,60117231,0.050353125,-0.016727218,-0.038330443
60134970,60134745,0.050533768,-0.008386159,-0.029413506
60156125,60155891,0.077299505,-0.014969858,-0.053575773
60177030,60176802,0.04871562,-0.004706785,-0.03675596
60198146,60197923,0.015777878,-0.031899337,-0.032849833
60215572,60215341,0.027355297,-0.01010778,-0.045857847
60236620,60236393,-0.02514515,-0.002630529,-0.014776518
60257731,60257498,-0.019017696,-0.0039028456,-0.011506243
60275109,60274879,-0.054203555,-0.00646371,-0.003987394
60296215,60295984,-0.0035127047,-0.0049017905,-0.01663638
60316083,60315848,-0.030406151,-0.024587644,-0.016679252
60334698,60334470,-0.0028005077,-0.019116547,0.014198542
60355808,60355578,0.012093385,-0.023301663,-0.0052036857
60375680,60375455,0.014153831,-0.04091762,-0.012891081
60396829,60396605,0.021392034,-0.0057401084,0.01782914
60414287,60414059,-0.058146976,-0.021310383,0.013645089
60435259,60435031,0.018425297,-0.00073765137,0.013579622
60456393,60456168,-0.02603534,-0.007854462,0.0020986923
60477462,60477239,-0.019346701,-0.016678188,0.040050004
60494888,60494659,-0.037584383,-0.048903394,0.0520139
60515956,60515725,-0.019021165,-0.034742214,0.036525305
60537054,60536830,-0.006274152,-0.02888177,0.021138303
60554438,60554211,-0.023461848,-0.010472418,0.030727789
60575545,60575316,-0.03218372,-0.0031869048,0.043215197
60596658,60596426,0.0034641789,0.009687963,0.06992367
60617774,60617527,0.011394313,-0.0006439046,0.07216993
60635138,60634909,0.028122853,-0.04755549,0.077432185
60656253,60656026,0.042292416,0.007137574,0.065945186
60677508,60677280,0.0021079753,0.04527159,0.07951879
60694723,60694500,-0.068773456,-0.0056309495,0.112081334
60715834,60715603,-0.059260536,-0.006152742,0.09479049
60736943,60736707,-0.06929165,-0.028395936,0.079748444
60758045,60757819,-0.03616722,-0.028652227,0.08982147
60775426,60775199,-0.023495192,-0.036157463,0.088889666
60796542,60796309,0.0049819034,-0.062122095,0.09296927
60817645,60817420,0.010498033,-0.038641136,0.089607514
60835010,60834783,-0.011695317,-0.0077849156,0.06614422
60856118,60855890,-0.0010868079,-0.008849322,0.067520335
60877226,60876994,-0.01651822,-0.005086354,0.06203457
60898330,60898098,-0.0019081122,-0.019268058,0.0689995
60915712,60915479,0.0020728498,-0.011266037,0.085270405
60935632,60935404,0.03151317,-0.02899433,0.052466173
60956877,60956650,0.044382125,-0.058141787,0.05216715
60975316,60975077,0.05321684,-0.03542758,0.06627547
60995165,60994934,0.050744034,-0.06245305,0.061034944
61016266,61016040,0.06529112,-0.07526407,0.06810721
61037417,61037193,0.03682611,-0.050958958,0.05907736
61054754,61054526,0.017590234,-0.025626354,0.06036608
61075886,61075661,-0.018396102,-0.03972613,0.07152696
61096959,61096734,-0.06993118,-0.026502041,0.04645736
61114343,61114115,-0.049565043,-0.06386561,0.06766993
61135448,61135221,-0.07133815,-0.086490676,0.041533522
