timestamp,q[0],q[1],q[2],q[3],delta_q_reset[0],delta_q_reset[1],delta_q_reset[2],delta_q_reset[3],quat_reset_counter
39130255,0.7658167,0.02963327,-0.014855823,-0.642204,0.9999999,-1.3974159e-08,3.2010835e-08,-0.0004705674,2
39135254,0.7658235,0.029677441,-0.014809018,-0.6421949,0.9999999,-1.3974159e-08,3.2010835e-08,-0.0004705674,2
39184766,0.7657256,0.029618809,-0.014941942,-0.64231133,0.9999999,-1.3974159e-08,3.2010835e-08,-0.0004705674,2
39234425,0.765646,0.029682532,-0.014983359,-0.64240223,0.9999999,-1.3974159e-08,3.2010835e-08,-0.0004705674,2
39284083,0.76557547,0.029575475,-0.01491044,-0.642493,0.9999999,-1.3974159e-08,3.2010835e-08,-0.0004705674,2
39333743,0.7654688,0.029833272,-0.0152496025,-0.6426002,0.9999999,-1.3974159e-08,3.2010835e-08,-0.0004705674,2
39383418,0.7654032,0.029528445,-0.015156188,-0.64269453,0.9999999,-1.3974159e-08,3.2010835e-08,-0.0004705674,2
39433222,0.76543117,0.02958584,-0.015215891,-0.64265734,0.9999999,-1.3974159e-08,3.2010835e-08,-0.0004705674,2
39482722,0.7653921,0.029874586,-0.015219048,-0.6426903,0.9999999,-1.3974159e-08,3.2010835e-08,-0.0004705674,2
39537343,0.76533985,0.029907657,-0.015249546,-0.6427502,0.9999999,-1.3974159e-08,3.2010835e-08,-0.0004705674,2
39582036,0.7651332,0.029733874,-0.0153302,-0.6430024,0.9999999,-1.3974159e-08,3.2010835e-08,-0.0004705674,2
39631695,0.7651974,0.029804818,-0.015272246,-0.6429242,0.9999999,-1.3974159e-08,3.2010835e-08,-0.0004705674,2
39686411,0.76513785,0.02982616,-0.015324966,-0.6429928,0.9999999,-1.3974159e-08,3.2010835e-08,-0.0004705674,2
39735979,0.7652274,0.030207872,-0.0151517,-0.6428724,0.9999999,-1.3974159e-08,3.2010835e-08,-0.0004705674,2
39785638,0.7653147,0.030464519,-0.0148284575,-0.642764,0.9999999,-1.3974159e-08,3.2010835e-08,-0.0004705674,2
39830330,0.76511884,0.029541511,-0.015453878,-0.64302546,0.9999999,-1.3974159e-08,3.2010835e-08,-0.0004705674,2
39884954,0.7651656,0.029841958,-0.015258876,-0.64296067,0.9999999,-1.3974159e-08,3.2010835e-08,-0.0004705674,2
39934646,0.7650068,0.029499717,-0.015561947,-0.6431582,0.9999999,-1.3974159e-08,3.2010835e-08,-0.0004705674,2
39984272,0.76490474,0.029339865,-0.015824417,-0.64328045,0.9999999,-1.3974159e-08,3.2010835e-08,-0.0004705674,2
40033932,0.7648742,0.029389597,-0.015745776,-0.64331627,0.9999999,-1.3974159e-08,3.2010835e-08,-0.0004705674,2
40083593,0.7649414,0.029711705,-0.015443974,-0.6432289,0.9999999,-1.3974159e-08,3.2010835e-08,-0.0004705674,2
40133256,0.76495594,0.030071162,-0.015216309,-0.6432004,0.9999999,-1.3974159e-08,3.2010835e-08,-0.0004705674,2
40182908,0.76490784,0.030217435,-0.01532678,-0.6432481,0.9999999,-1.3974159e-08,3.2010835e-08,-0.0004705674,2
40232686,0.76493305,0.030230686,-0.015433823,-0.64321494,0.9999999,-1.3974159e-08,3.2010835e-08,-0.0004705674,2
40282225,0.7649849,0.030040858,-0.015552433,-0.6431593,0.9999999,-1.3974159e-08,3.2010835e-08,-0.0004705674,2
40331883,0.7649943,0.029661937,-0.015800232,-0.6431596,0.9999999,-1.3974159e-08,3.2010835e-08,-0.0004705674,2
40381542,0.76496404,0.029314702,-0.015880369,-0.6432095,0.9999999,-1.3974159e-08,3.2010835e-08,-0.0004705674,2
40436168,0.7649609,0.029441344,-0.015859555,-0.64320797,0.9999999,-1.3974159e-08,3.2010835e-08,-0.0004705674,2
40485881,0.76482356,0.02912179,-0.015997127,-0.64338255,0.9999999,-1.3974159e-08,3.2010835e-08,-0.0004705674,2
40530519,0.764504,0.029812196,-0.015794823,-0.6437354,0.9999999,-1.3974159e-08,3.2010835e-08,-0.0004705674,2
40585143,0.7644151,0.02927516,-0.016139222,-0.64385724,0.9999999,-1.3974159e-08,3.2010835e-08,-0.0004705674,2
40634802,0.7644373,0.029903973,-0.015757592,-0.6438114,0.9999999,-1.3974159e-08,3.2010835e-08,-0.0004705674,2
40684461,0.7645028,0.030195428,-0.015582858,-0.64372426,0.9999999,-1.3974159e-08,3.2010835e-08,-0.0004705674,2
40734120,0.7646254,0.030424187,-0.015384732,-0.64357275,0.9999999,-1.3974159e-08,3.2010835e-08,-0.0004705674,2
40783968,0.76466626,0.030402683,-0.015473432,-0.64352304,0.9999999,-1.3974159e-08,3.2010835e-08,-0.0004705674,2
40833437,0.7647123,0.030206481,-0.015715616,-0.6434718,0.9999999,-1.3974159e-08,3.2010835e-08,-0.0004705674,2
40883119,0.7647342,0.030235048,-0.015676217,-0.6434452,0.9999999,-1.3974159e-08,3.2010835e-08,-0.0004705674,2
40937727,0.76450187,0.02991696,-0.016092096,-0.6437259,0.9999999,-1.3974159e-08,3.2010835e-08,-0.0004705674,2
40982413,0.76481014,0.030275134,-0.015438361,-0.64335877,0.9999999,-1.3974159e-08,3.2010835e-08,-0.0004705674,2
41032211,0.7647612,0.030343754,-0.015304072,-0.64341694,0.9999999,-1.3974159e-08,3.2010835e-08,-0.0004705674,2
41086697,0.76469606,0.030274415,-0.015473974,-0.64349353,0.9999999,-1.3974159e-08,3.2010835e-08,-0.0004705674,2
41136357,0.7646094,0.030391013,-0.015464031,-0.64359134,0.9999999,-1.3974159e-08,3.2010835e-08,-0.0004705674,2
41186014,0.7644845,0.030260723,-0.015728824,-0.6437394,0.9999999,-1.3974159e-08,3.2010835e-08,-0.0004705674,2
41230707,0.76435864,0.029745141,-0.016020566,-0.6439056,0.9999999,-1.3974159e-08,3.2010835e-08,-0.0004705674,2
41285400,0.76436543,0.029790096,-0.016106565,-0.6438934,0.9999999,-1.3974159e-08,3.2010835e-08,-0.0004705674,2
41334991,0.76442397,0.029617112,-0.016098922,-0.643832,0.9999999,-1.3974159e-08,3.2010835e-08,-0.0004705674,2
41384650,0.7643718,0.02960828,-0.015974542,-0.6438976,0.9999999,-1.3974159e-08,3.2010835e-08,-0.0004705674,2
41434309,0.7642591,0.029676024,-0.01587325,-0.6440307,0.9999999,-1.3974159e-08,3.2010835e-08,-0.0004705674,2
41483972,0.76419204,0.029981948,-0.015738957,-0.6440994,0.9999999,-1.3974159e-08,3.2010835e-08,-0.0004705674,2
41533651,0.76416636,0.030462349,-0.015490884,-0.64411336,0.9999999,-1.3974159e-08,3.2010835e-08,-0.0004705674,2
41583430,0.7642466,0.03068034,-0.015477273,-0.6440081,0.9999999,-1.3974159e-08,3.2010835e-08,-0.0004705674,2
41632943,0.7643924,0.030722633,-0.015376291,-0.64383537,0.9999999,-1.3974159e-08,3.2010835e-08,-0.0004705674,2
41682605,0.76448953,0.030433709,-0.015495788,-0.6437308,0.9999999,-1.3974159e-08,3.2010835e-08,-0.0004705674,2
41732266,0.7645431,0.030110186,-0.015565346,-0.64368075,0.9999999,-1.3974159e-08,3.2010835e-08,-0.0004705674,2
41786886,0.7643732,0.030360015,-0.0155095635,-0.64387226,0.9999999,-1.3974159e-08,3.2010835e-08,-0.0004705674,2
41836621,0.76434106,0.030139122,-0.015660396,-0.6439171,0.9999999,-1.3974159e-08,3.2010835e-08,-0.0004705674,2
41881238,0.76435554,0.03011073,-0.015560347,-0.64390355,0.9999999,-1.3974159e-08,3.2010835e-08,-0.0004705674,2
41930896,0.76429254,0.030064723,-0.015658295,-0.6439782,0.9999999,-1.3974159e-08,3.2010835e-08,-0.0004705674,2
41985521,0.76433486,0.030526109,-0.015376852,-0.6439131,0.9999999,-1.3974159e-08,3.2010835e-08,-0.0004705674,2
42035180,0.764355,0.030401014,-0.015461329,-0.64389294,0.9999999,-1.3974159e-08,3.2010835e-08,-0.0004705674,2
42084838,0.76428354,0.029889675,-0.015739502,-0.6439949,0.9999999,-1.3974159e-08,3.2010835e-08,-0.0004705674,2
42134497,0.76412934,0.029435841,-0.01608033,-0.64419043,0.9999999,-1.3974159e-08,3.2010835e-08,-0.0004705674,2
42184156,0.76394266,0.029147193,-0.016433705,-0.6444161,0.9999999,-1.3974159e-08,3.2010835e-08,-0.0004705674,2
42233815,0.76376355,0.029189615,-0.016368853,-0.64462805,0.9999999,-1.3974159e-08,3.2010835e-08,-0.0004705674,2
42283476,0.7637192,0.029463438,-0.016180702,-0.6446728,0.9999999,-1.3974159e-08,3.2010835e-08,-0.0004705674,2
42333132,0.7637572,0.029908024,-0.015891561,-0.64461464,0.9999999,-1.3974159e-08,3.2010835e-08,-0.0004705674,2
42382962,0.7637596,0.030224027,-0.015639637,-0.6446032,0.9999999,-1.3974159e-08,3.2010835e-08,-0.0004705674,2
42432450,0.76381105,0.030079627,-0.01576156,-0.64454585,0.9999999,-1.3974159e-08,3.2010835e-08,-0.0004705674,2
42487075,0.7637194,0.030323412,-0.015555778,-0.6446482,0.9999999,-1.3974159e-08,3.2010835e-08,-0.0004705674,2
42536734,0.7637107,0.030247923,-0.015693044,-0.6446586,0.9999999,-1.3974159e-08,3.2010835e-08,-0.0004705674,2
42581427,0.76377183,0.029506909,-0.016106294,-0.6446105,0.9999999,-1.3974159e-08,3.2010835e-08,-0.0004705674,2
42631111,0.763719,0.029371906,-0.016063273,-0.6446802,0.9999999,-1.3974159e-08,3.2010835e-08,-0.0004705674,2
42685710,0.7637963,0.029908365,-0.015728354,-0.6445723,0.9999999,-1.3974159e-08,3.2010835e-08,-0.0004705674,2
42735369,0.76375175,0.029875189,-0.015656956,-0.6446283,0.9999999,-1.3974159e-08,3.2010835e-08,-0.0004705674,2
42785029,0.7635343,0.029667053,-0.015802322,-0.644892,0.9999999,-1.3974159e-08,3.2010835e-08,-0.0004705674,2
42834687,0.7632969,0.029566929,-0.015916301,-0.6451747,0.9999999,-1.3974159e-08,3.2010835e-08,-0.0004705674,2
42884348,0.76315475,0.029398823,-0.016219858,-0.64534307,0.9999999,-1.3974159e-08,3.2010835e-08,-0.0004705674,2
42934197,0.76302725,0.029228104,-0.016458713,-0.6454955,0.9999999,-1.3974159e-08,3.2010835e-08,-0.0004705674,2
42983663,0.7629794,0.029165216,-0.016458062,-0.6455548,0.9999999,-1.3974159e-08,3.2010835e-08,-0.0004705674,2
43033392,0.76298976,0.02926306,-0.016266162,-0.64554304,0.9999999,-1.3974159e-08,3.2010835e-08,-0.0004705674,2
43082980,0.76301575,0.029489418,-0.016059302,-0.64550716,0.9999999,-1.3974159e-08,3.2010835e-08,-0.0004705674,2
43132640,0.76302075,0.029870715,-0.015783444,-0.6454906,0.9999999,-1.3974159e-08,3.2010835e-08,-0.0004705674,2
43187372,0.7629273,0.029801443,-0.015784802,-0.64560425,0.9999999,-1.3974159e-08,3.2010835e-08,-0.0004705674,2
43236919,0.7533792,0.029784754,-0.016083086,-0.65671456,0.9998943,-1.5982697e-09,-1.0023354e-09,-0.014540654,3
43281615,0.75339776,0.029455816,-0.015576028,-0.6567204,0.9998943,-1.5982697e-09,-1.0023354e-09,-0.014540654,3
43331274,0.7534386,0.029491974,-0.016890213,-0.6566394,0.9998943,-1.5982697e-09,-1.0023354e-09,-0.014540654,3
43385899,0.753246,0.029284082,-0.015866298,-0.6568952,0.9998943,-1.5982697e-09,-1.0023354e-09,-0.014540654,3
43435564,0.7533309,0.028507067,-0.015678061,-0.65683645,0.9998943,-1.5982697e-09,-1.0023354e-09,-0.014540654,3
43485217,0.75328195,0.029385619,-0.016320555,-0.65683836,0.9998943,-1.5982697e-09,-1.0023354e-09,-0.014540654,3
43534876,0.7533362,0.028947651,-0.016053556,-0.656802,0.9998943,-1.5982697e-09,-1.0023354e-09,-0.014540654,3
43584536,0.7532925,0.029472746,-0.015485864,-0.65684247,0.9998943,-1.5982697e-09,-1.0023354e-09,-0.014540654,3
43634199,0.7530064,0.028766459,-0.015427711,-0.6572032,0.9998943,-1.5982697e-09,-1.0023354e-09,-0.014540654,3
43683853,0.7532539,0.028957386,-0.0155687295,-0.6569076,0.9998943,-1.5982697e-09,-1.0023354e-09,-0.014540654,3
43733713,0.75335294,0.0293942,-0.015361469,-0.6567795,0.9998943,-1.5982697e-09,-1.0023354e-09,-0.014540654,3
43783169,0.7529612,0.02933418,-0.015588834,-0.65722585,0.9998943,-1.5982697e-09,-1.0023354e-09,-0.014540654,3
43832830,0.75299,0.028468639,-0.0153215835,-0.65723747,0.9998943,-1.5982697e-09,-1.0023354e-09,-0.014540654,3
43887453,0.75313705,0.028982792,-0.015146916,-0.6570505,0.9998943,-1.5982697e-09,-1.0023354e-09,-0.014540654,3
43937112,0.7530738,0.029185839,-0.01577612,-0.65709907,0.9998943,-1.5982697e-09,-1.0023354e-09,-0.014540654,3
43981848,0.7528995,0.029466873,-0.015038684,-0.65730345,0.9998943,-1.5982697e-09,-1.0023354e-09,-0.014540654,3
44031463,0.75317276,0.028870976,-0.014745186,-0.6570236,0.9998943,-1.5982697e-09,-1.0023354e-09,-0.014540654,3
44086088,0.7529995,0.028595204,-0.014568437,-0.6572381,0.9998943,-1.5982697e-09,-1.0023354e-09,-0.014540654,3
44135747,0.75306934,0.028739706,-0.014300937,-0.65715766,0.9998943,-1.5982697e-09,-1.0023354e-09,-0.014540654,3
44185406,0.7531032,0.029193662,-0.014241589,-0.6571,0.9998943,-1.5982697e-09,-1.0023354e-09,-0.014540654,3
44235065,0.7529327,0.028714087,-0.015231206,-0.6572943,0.9998943,-1.5982697e-09,-1.0023354e-09,-0.014540654,3
44284726,0.7529164,0.029123692,-0.01448316,-0.65731204,0.9998943,-1.5982697e-09,-1.0023354e-09,-0.014540654,3
44334383,0.7530292,0.029110983,-0.014201006,-0.65718955,0.9998943,-1.5982697e-09,-1.0023354e-09,-0.014540654,3
44384043,0.7527069,0.029302701,-0.014615596,-0.65754086,0.9998943,-1.5982697e-09,-1.0023354e-09,-0.014540654,3
44433728,0.75277966,0.029818602,-0.014171479,-0.6574442,0.9998943,-1.5982697e-09,-1.0023354e-09,-0.014540654,3
44483359,0.75265896,0.0296804,-0.014143601,-0.6575894,0.9998943,-1.5982697e-09,-1.0023354e-09,-0.014540654,3
44533120,0.7523788,0.029826727,-0.014426207,-0.6578969,0.9998943,-1.5982697e-09,-1.0023354e-09,-0.014540654,3
44587642,0.75281805,0.02997205,-0.014532988,-0.6573854,0.9998943,-1.5982697e-09,-1.0023354e-09,-0.014540654,3
44632336,0.7526082,0.02967022,-0.014144988,-0.6576478,0.9998943,-1.5982697e-09,-1.0023354e-09,-0.014540654,3
44682027,0.75263727,0.02982134,-0.013381542,-0.6576237,0.9998943,-1.5982697e-09,-1.0023354e-09,-0.014540654,3
44731652,0.75257844,0.029822744,-0.01347114,-0.657689,0.9998943,-1.5982697e-09,-1.0023354e-09,-0.014540654,3
44786306,0.7527787,0.028906327,-0.0128502725,-0.65751314,0.9998943,-1.5982697e-09,-1.0023354e-09,-0.014540654,3
44835937,0.75264597,0.028666606,-0.012700694,-0.65767854,0.9998943,-1.5982697e-09,-1.0023354e-09,-0.014540654,3
44880630,0.7526701,0.027553953,-0.01191733,-0.6577131,0.9998943,-1.5982697e-09,-1.0023354e-09,-0.014540654,3
44935254,0.7527593,0.026194219,-0.010374581,-0.65769285,0.9998943,-1.5982697e-09,-1.0023354e-09,-0.014540654,3
44984913,0.7528258,0.024664244,-0.008921931,-0.65769714,0.9998943,-1.5982697e-09,-1.0023354e-09,-0.014540654,3
45034574,0.75282514,0.021305662,-0.007446884,-0.65783346,0.9998943,-1.5982697e-09,-1.0023354e-09,-0.014540654,3
45084398,0.7525175,0.017833302,-0.0051462688,-0.6583108,0.9998943,-1.5982697e-09,-1.0023354e-09,-0.014540654,3
45133889,0.7526717,0.0146443425,-0.002622228,-0.658228,0.9998943,-1.5982697e-09,-1.0023354e-09,-0.014540654,3
45183565,0.75261295,0.011181956,-0.0012390153,-0.65836704,0.9998943,-1.5982697e-09,-1.0023354e-09,-0.014540654,3
45233207,0.7523187,0.008888565,0.00090587325,-0.6587388,0.9998943,-1.5982697e-09,-1.0023354e-09,-0.014540654,3
45287832,0.75243586,0.008356761,-0.00010257491,-0.6586125,0.9998943,-1.5982697e-09,-1.0023354e-09,-0.014540654,3
45332589,0.7523833,0.00954211,-0.0014289524,-0.658655,0.9998943,-1.5982697e-09,-1.0023354e-09,-0.014540654,3
45382194,0.75221294,0.01384788,-0.004408111,-0.6587599,0.9998943,-1.5982697e-09,-1.0023354e-09,-0.014540654,3
45431842,0.75245726,0.021799423,-0.009244285,-0.6582153,0.9998943,-1.5982697e-09,-1.0023354e-09,-0.014540654,3
45486467,0.75233227,0.030622175,-0.016105926,-0.65787476,0.9998943,-1.5982697e-09,-1.0023354e-09,-0.014540654,3
45536127,0.75211155,0.027082644,-0.014339545,-0.65832293,0.9998943,-1.5982697e-09,-1.0023354e-09,-0.014540654,3
45580843,0.75137216,0.031284705,-0.014744907,-0.65897185,0.9998943,-1.5982697e-09,-1.0023354e-09,-0.014540654,3
45635445,0.75227445,0.028960278,-0.012256615,-0.6580991,0.9998943,-1.5982697e-09,-1.0023354e-09,-0.014540654,3
45685102,0.75203097,0.029590094,-0.012125225,-0.65835166,0.9998943,-1.5982697e-09,-1.0023354e-09,-0.014540654,3
45734761,0.7522357,0.030235533,-0.01075596,-0.6581122,0.9998943,-1.5982697e-09,-1.0023354e-09,-0.014540654,3
45784420,0.7521387,0.029904695,-0.010843462,-0.6582368,0.9998943,-1.5982697e-09,-1.0023354e-09,-0.014540654,3
45834091,0.7524432,0.030685605,-0.009616567,-0.6578717,0.9998943,-1.5982697e-09,-1.0023354e-09,-0.014540654,3
45883867,0.7519973,0.030399188,-0.009565075,-0.6583955,0.9998943,-1.5982697e-09,-1.0023354e-09,-0.014540654,3
45933396,0.75220466,0.030908203,-0.008429117,-0.6581502,0.9998943,-1.5982697e-09,-1.0023354e-09,-0.014540654,3
45988021,0.7523071,0.03157216,-0.0072104163,-0.65801626,0.9998943,-1.5982697e-09,-1.0023354e-09,-0.014540654,3
46032715,0.75212044,0.032697394,-0.0057000555,-0.6581894,0.9998943,-1.5982697e-09,-1.0023354e-09,-0.014540654,3
46082373,0.7526961,0.034244534,-0.004120169,-0.6574641,0.9998943,-1.5982697e-09,-1.0023354e-09,-0.014540654,3
46132075,0.75307107,0.035382982,-0.0030106017,-0.6569803,0.9998943,-1.5982697e-09,-1.0023354e-09,-0.014540654,3
46186656,0.7536448,0.03718573,-0.0017616132,-0.6562269,0.9998943,-1.5982697e-09,-1.0023354e-09,-0.014540654,3
46236315,0.7544967,0.03840904,-0.00057030306,-0.6551788,0.9998943,-1.5982697e-09,-1.0023354e-09,-0.014540654,3
46281010,0.75482935,0.039250113,-0.0008227997,-0.6547453,0.9998943,-1.5982697e-09,-1.0023354e-09,-0.014540654,3
46335633,0.75515795,0.036177468,-0.001433963,-0.65454245,0.9998943,-1.5982697e-09,-1.0023354e-09,-0.014540654,3
46385295,0.75691444,0.031133845,-0.0064348797,-0.65274024,0.9998943,-1.5982697e-09,-1.0023354e-09,-0.014540654,3
46435158,0.75953037,0.024899075,-0.010054084,-0.64991736,0.9998943,-1.5982697e-09,-1.0023354e-09,-0.014540654,3
46484651,0.7587018,0.023705307,-0.012383985,-0.650889,0.9998943,-1.5982697e-09,-1.0023354e-09,-0.014540654,3
46534272,0.7589081,0.024406634,-0.006674684,-0.6507061,0.9998943,-1.5982697e-09,-1.0023354e-09,-0.014540654,3
46583928,0.7594697,0.02287782,-0.0066517447,-0.65010643,0.9998943,-1.5982697e-09,-1.0023354e-09,-0.014540654,3
46633586,0.7606317,0.0197769,-0.006819644,-0.6488466,0.9998943,-1.5982697e-09,-1.0023354e-09,-0.014540654,3
46683383,0.7600149,0.017870933,-0.0052615274,-0.6496386,0.9998943,-1.5982697e-09,-1.0023354e-09,-0.014540654,3
46732906,0.7595303,0.017120615,-0.003531018,-0.65023696,0.9998943,-1.5982697e-09,-1.0023354e-09,-0.014540654,3
46782572,0.758567,0.017632829,-0.0052102027,-0.65133584,0.9998943,-1.5982697e-09,-1.0023354e-09,-0.014540654,3
46832221,0.75782055,0.020325173,-0.0068457886,-0.65211046,0.9998943,-1.5982697e-09,-1.0023354e-09,-0.014540654,3
46886846,0.75646085,0.02420162,-0.010072028,-0.65351343,0.9998943,-1.5982697e-09,-1.0023354e-09,-0.014540654,3
46936528,0.7551303,0.0283088,-0.011730225,-0.6548582,0.9998943,-1.5982697e-09,-1.0023354e-09,-0.014540654,3
46981201,0.754367,0.032028046,-0.014180455,-0.6555178,0.9998943,-1.5982697e-09,-1.0023354e-09,-0.014540654,3
47030880,0.75411546,0.030740501,-0.014521438,-0.6558613,0.9998943,-1.5982697e-09,-1.0023354e-09,-0.014540654,3
47085481,0.75450003,0.0314563,-0.013854656,-0.6553993,0.9998943,-1.5982697e-09,-1.0023354e-09,-0.014540654,3
47135142,0.75479347,0.031939887,-0.013315823,-0.6550491,0.9998943,-1.5982697e-09,-1.0023354e-09,-0.014540654,3
47184799,0.7545887,0.03315607,-0.012532541,-0.65524006,0.9998943,-1.5982697e-09,-1.0023354e-09,-0.014540654,3
47234618,0.75468785,0.034602012,-0.010893644,-0.65508056,0.9998943,-1.5982697e-09,-1.0023354e-09,-0.014540654,3
47284117,0.7548432,0.03692121,-0.00961261,-0.6547948,0.9998943,-1.5982697e-09,-1.0023354e-09,-0.014540654,3
47333788,0.7547829,0.03997102,-0.005817255,-0.65472984,0.9998943,-1.5982697e-09,-1.0023354e-09,-0.014540654,3
47383434,0.7541683,0.044840146,-0.0021547521,-0.655145,0.9998943,-1.5982697e-09,-1.0023354e-09,-0.014540654,3
47433094,0.75326973,0.050243873,0.004683812,-0.6557731,0.9998943,-1.5982697e-09,-1.0023354e-09,-0.014540654,3
47482873,0.7526048,0.055506513,0.010736046,-0.6560411,0.9998943,-1.5982697e-09,-1.0023354e-09,-0.014540654,3
47532415,0.75198156,0.05759243,0.01364996,-0.65652156,0.9998943,-1.5982697e-09,-1.0023354e-09,-0.014540654,3
47587040,0.7528417,0.059126653,0.014169678,-0.6553875,0.9998943,-1.5982697e-09,-1.0023354e-09,-0.014540654,3
47631728,0.7492334,0.062305443,0.020412803,-0.65905285,0.9998943,-1.5982697e-09,-1.0023354e-09,-0.014540654,3
47681387,0.74556744,0.061624393,0.015357932,-0.66339713,0.9998943,-1.5982697e-09,-1.0023354e-09,-0.014540654,3
47736100,0.7438248,0.052681457,-0.0039014232,-0.66628397,0.9998943,-1.5982697e-09,-1.0023354e-09,-0.014540654,3
47785683,0.7427474,0.039151374,-0.015228531,-0.6682527,0.9998943,-1.5982697e-09,-1.0023354e-09,-0.014540654,3
47835331,0.7417466,0.030489497,-0.017819721,-0.66974986,0.9998943,-1.5982697e-09,-1.0023354e-09,-0.014540654,3
47885001,0.741423,0.026532557,-0.01766484,-0.6702805,0.9998943,-1.5982697e-09,-1.0023354e-09,-0.014540654,3
47934647,0.7411329,0.023344465,-0.020108916,-0.67065096,0.9998943,-1.5982697e-09,-1.0023354e-09,-0.014540654,3
47984306,0.7409665,0.022164991,-0.021742562,-0.67082393,0.9998943,-1.5982697e-09,-1.0023354e-09,-0.014540654,3
48034085,0.74104446,0.023527158,-0.021411963,-0.6707019,0.9998943,-1.5982697e-09,-1.0023354e-09,-0.014540654,3
48083624,0.7418831,0.030467654,-0.019699937,-0.669547,0.9998943,-1.5982697e-09,-1.0023354e-09,-0.014540654,3
48133283,0.7431319,0.036218304,-0.008737795,-0.668107,0.9998943,-1.5982697e-09,-1.0023354e-09,-0.014540654,3
48182949,0.74356306,0.03294196,-0.006318912,-0.66782403,0.9998943,-1.5982697e-09,-1.0023354e-09,-0.014540654,3
48232600,0.74382347,0.03389888,-0.014936815,-0.66734886,0.9998943,-1.5982697e-09,-1.0023354e-09,-0.014540654,3
48287275,0.74413407,0.0353063,-0.020659292,-0.6667767,0.9998943,-1.5982697e-09,-1.0023354e-09,-0.014540654,3
48331918,0.7445274,0.03559856,-0.020079695,-0.6663397,0.9998943,-1.5982697e-09,-1.0023354e-09,-0.014540654,3
48381577,0.7451516,0.03392132,-0.020576878,-0.66571397,0.9998943,-1.5982697e-09,-1.0023354e-09,-0.014540654,3
48436261,0.74587417,0.030789314,-0.021506118,-0.6650273,0.9998943,-1.5982697e-09,-1.0023354e-09,-0.014540654,3
48485860,0.7462372,0.030721553,-0.021919494,-0.66460943,0.9998943,-1.5982697e-09,-1.0023354e-09,-0.014540654,3
48535521,0.74635696,0.03442632,-0.022327127,-0.66427976,0.9998943,-1.5982697e-09,-1.0023354e-09,-0.014540654,3
48580371,0.7464849,0.034881603,-0.02158605,-0.6641368,0.9998943,-1.5982697e-09,-1.0023354e-09,-0.014540654,3
48634837,0.74694055,0.032252904,-0.017197018,-0.6638855,0.9998943,-1.5982697e-09,-1.0023354e-09,-0.014540654,3
48684547,0.7468578,0.031872604,-0.0151003385,-0.6640479,0.9998943,-1.5982697e-09,-1.0023354e-09,-0.014540654,3
48734156,0.7466834,0.03329396,-0.014556729,-0.6641865,0.9998943,-1.5982697e-09,-1.0023354e-09,-0.014540654,3
48783813,0.74666864,0.031199649,-0.013014154,-0.6643367,0.9998943,-1.5982697e-09,-1.0023354e-09,-0.014540654,3
48833559,0.74672353,0.0288863,-0.01385537,-0.6643626,0.9998943,-1.5982697e-09,-1.0023354e-09,-0.014540654,3
48883184,0.746585,0.027378935,-0.01607217,-0.6645321,0.9998943,-1.5982697e-09,-1.0023354e-09,-0.014540654,3
48932790,0.74650925,0.027203824,-0.017535368,-0.66458744,0.9998943,-1.5982697e-09,-1.0023354e-09,-0.014540654,3
48987415,0.7464699,0.025547419,-0.021403093,-0.66458404,0.9998943,-1.5982697e-09,-1.0023354e-09,-0.014540654,3
49032130,0.74673724,0.022808302,-0.023770893,-0.6643028,0.9998943,-1.5982697e-09,-1.0023354e-09,-0.014540654,3
49081817,0.74694824,0.019469813,-0.027816115,-0.66401476,0.9998943,-1.5982697e-09,-1.0023354e-09,-0.014540654,3
49136393,0.74684894,0.017527478,-0.03165887,-0.66400844,0.9998943,-1.5982697e-09,-1.0023354e-09,-0.014540654,3
49186051,0.74656487,0.014779754,-0.033776097,-0.66429037,0.9998943,-1.5982697e-09,-1.0023354e-09,-0.014540654,3
49235708,0.74600244,0.0128743695,-0.036924716,-0.66479415,0.9998943,-1.5982697e-09,-1.0023354e-09,-0.014540654,3
49280402,0.7456452,0.012545452,-0.040180597,-0.66501236,0.9998943,-1.5982697e-09,-1.0023354e-09,-0.014540654,3
49335030,0.74462587,0.0113789365,-0.043676432,-0.6659544,0.9998943,-1.5982697e-09,-1.0023354e-09,-0.014540654,3
49384832,0.7436699,0.008013075,-0.04409359,-0.6670432,0.9998943,-1.5982697e-09,-1.0023354e-09,-0.014540654,3
49434344,0.7420932,0.0050135036,-0.04109272,-0.66901726,0.9998943,-1.5982697e-09,-1.0023354e-09,-0.014540654,3
49484003,0.74044734,0.005875046,-0.038661204,-0.67097586,0.9998943,-1.5982697e-09,-1.0023354e-09,-0.014540654,3
49533671,0.73819137,0.009898827,-0.036983572,-0.6735041,0.9998943,-1.5982697e-09,-1.0023354e-09,-0.014540654,3
49583322,0.7358433,0.014081216,-0.031998772,-0.67624885,0.9998943,-1.5982697e-09,-1.0023354e-09,-0.014540654,3
49633027,0.7334932,0.017586187,-0.027980642,-0.6788929,0.9998943,-1.5982697e-09,-1.0023354e-09,-0.014540654,3
49682639,0.730892,0.021244768,-0.028281746,-0.68157595,0.9998943,-1.5982697e-09,-1.0023354e-09,-0.014540654,3
49732354,0.7280077,0.024088718,-0.030688215,-0.68445814,0.9998943,-1.5982697e-09,-1.0023354e-09,-0.014540654,3
49781956,0.72551256,0.024167374,-0.03050294,-0.6871078,0.9998943,-1.5982697e-09,-1.0023354e-09,-0.014540654,3
49836581,0.7232025,0.022462804,-0.027310971,-0.68973017,0.9998943,-1.5982697e-09,-1.0023354e-09,-0.014540654,3
49886241,0.7217969,0.021147875,-0.024788529,-0.6913376,0.9998943,-1.5982697e-09,-1.0023354e-09,-0.014540654,3
49935899,0.7205609,0.021841079,-0.03749044,-0.6920328,0.9998943,-1.5982697e-09,-1.0023354e-09,-0.014540654,3
49980592,0.719118,0.02297543,-0.064114906,-0.6915423,0.9998943,-1.5982697e-09,-1.0023354e-09,-0.014540654,3
50035216,0.71751595,0.017682629,-0.08983879,-0.6904979,0.9998943,-1.5982697e-09,-1.0023354e-09,-0.014540654,3
50084873,0.7166944,0.008559144,-0.09211967,-0.6912235,0.9998943,-1.5982697e-09,-1.0023354e-09,-0.014540654,3
50134534,0.7165273,-0.0008297407,-0.08063343,-0.6928826,0.9998943,-1.5982697e-09,-1.0023354e-09,-0.014540654,3
50184300,0.71651053,-0.008877739,-0.06898397,-0.69410026,0.9998943,-1.5982697e-09,-1.0023354e-09,-0.014540654,3
50233854,0.7163707,-0.0144381225,-0.06247941,-0.6947668,0.9998943,-1.5982697e-09,-1.0023354e-09,-0.014540654,3
50283512,0.7165433,-0.018192265,-0.056801468,-0.694988,0.9998943,-1.5982697e-09,-1.0023354e-09,-0.014540654,3
50333169,0.7166715,-0.021336786,-0.05003998,-0.6952861,0.9998943,-1.5982697e-09,-1.0023354e-09,-0.014540654,3
50382828,0.7166766,-0.023594566,-0.040681425,-0.69581825,0.9998943,-1.5982697e-09,-1.0023354e-09,-0.014540654,3
50432510,0.7168747,-0.022897493,-0.025553718,-0.6963573,0.9998943,-1.5982697e-09,-1.0023354e-09,-0.014540654,3
50482146,0.71719366,-0.018924175,-0.008920562,-0.69655985,0.9998943,-1.5982697e-09,-1.0023354e-09,-0.014540654,3
50536771,0.71746767,-0.0149014415,0.001637618,-0.6964305,0.9998943,-1.5982697e-09,-1.0023354e-09,-0.014540654,3
50586429,0.7177835,-0.013826534,0.0047203037,-0.6961131,0.9998943,-1.5982697e-09,-1.0023354e-09,-0.014540654,3
50636090,0.7180741,-0.014152785,0.0068466756,-0.69578916,0.9998943,-1.5982697e-09,-1.0023354e-09,-0.014540654,3
50680781,0.7183693,-0.013861467,0.009539536,-0.6954584,0.9998943,-1.5982697e-09,-1.0023354e-09,-0.014540654,3
50735579,0.7187613,-0.013280783,0.012724027,-0.69501364,0.9998943,-1.5982697e-09,-1.0023354e-09,-0.014540654,3
50785065,0.71886516,-0.012371275,0.012259541,-0.6949314,0.9998943,-1.5982697e-09,-1.0023354e-09,-0.014540654,3
50834724,0.7191783,-0.012383689,0.011681187,-0.69461703,0.9998943,-1.5982697e-09,-1.0023354e-09,-0.014540654,3
50884386,0.7190797,-0.013204935,0.012490039,-0.6946899,0.9998943,-1.5982697e-09,-1.0023354e-09,-0.014540654,3
50934042,0.7191873,-0.013420709,0.013389204,-0.6945576,0.9998943,-1.5982697e-09,-1.0023354e-09,-0.014540654,3
50983774,0.720366,-0.010010219,0.011356535,-0.693429,0.9998943,-1.5982697e-09,-1.0023354e-09,-0.014540654,3
51033393,0.7194489,0.0016849925,0.004195448,-0.69453067,0.9998943,-1.5982697e-09,-1.0023354e-09,-0.014540654,3
51083018,0.7179607,0.015810793,-0.0027759543,-0.69589853,0.9998943,-1.5982697e-09,-1.0023354e-09,-0.014540654,3
51132677,0.7163781,0.02953245,-0.007883149,-0.69704247,0.9998943,-1.5982697e-09,-1.0023354e-09,-0.014540654,3
51182350,0.7147094,0.041827787,-0.011067176,-0.698082,0.9998943,-1.5982697e-09,-1.0023354e-09,-0.014540654,3
51237017,0.71406376,0.04139142,-0.013269785,-0.6987301,0.9998943,-1.5982697e-09,-1.0023354e-09,-0.014540654,3
51286620,0.7132515,0.04068024,-0.01597181,-0.6995444,0.9998943,-1.5982697e-09,-1.0023354e-09,-0.014540654,3
51331313,0.7121975,0.049326655,-0.023334438,-0.69985515,0.9998943,-1.5982697e-09,-1.0023354e-09,-0.014540654,3
51380973,0.7105583,0.06226469,-0.035129312,-0.6999972,0.9998943,-1.5982697e-09,-1.0023354e-09,-0.014540654,3
51435596,0.70909524,0.074823484,-0.047898456,-0.69949347,0.9998943,-1.5982697e-09,-1.0023354e-09,-0.014540654,3
51485280,0.7071673,0.08836733,-0.061067235,-0.69883937,0.9998943,-1.5982697e-09,-1.0023354e-09,-0.014540654,3
51535052,0.70523345,0.10121602,-0.0714633,-0.69806457,0.9998943,-1.5982697e-09,-1.0023354e-09,-0.014540654,3
51584573,0.70490116,0.103653185,-0.07293147,-0.69789076,0.9998943,-1.5982697e-09,-1.0023354e-09,-0.014540654,3
51634231,0.7055816,0.098655604,-0.06816031,-0.6984096,0.9998943,-1.5982697e-09,-1.0023354e-09,-0.014540654,3
51683890,0.70652014,0.091204755,-0.06079343,-0.6991532,0.9998943,-1.5982697e-09,-1.0023354e-09,-0.014540654,3
51733588,0.70786524,0.081209846,-0.05082732,-0.6998202,0.9998943,-1.5982697e-09,-1.0023354e-09,-0.014540654,3
51783248,0.70918596,0.06642262,-0.04165126,-0.70064867,0.9998943,-1.5982697e-09,-1.0023354e-09,-0.014540654,3
51832867,0.71015847,0.047959954,-0.03512538,-0.70152766,0.9998943,-1.5982697e-09,-1.0023354e-09,-0.014540654,3
51882526,0.71055347,0.02959293,-0.02519666,-0.702569,0.9998943,-1.5982697e-09,-1.0023354e-09,-0.014540654,3
51937151,0.71055174,0.011396663,-0.011163511,-0.70346415,0.9998943,-1.5982697e-09,-1.0023354e-09,-0.014540654,3
51986825,0.7102899,-0.004681587,0.0018003109,-0.7038915,0.9998943,-1.5982697e-09,-1.0023354e-09,-0.014540654,3
52031499,0.7094663,-0.01864717,0.0138276685,-0.70435697,0.9998943,-1.5982697e-09,-1.0023354e-09,-0.014540654,3
52081388,0.70828223,-0.03356858,0.027630674,-0.70458925,0.9998943,-1.5982697e-09,-1.0023354e-09,-0.014540654,3
52135786,0.7069515,-0.04118885,0.03430526,-0.70522785,0.9998943,-1.5982697e-09,-1.0023354e-09,-0.014540654,3
52185449,0.7062364,-0.037322868,0.0302797,-0.7063429,0.9998943,-1.5982697e-09,-1.0023354e-09,-0.014540654,3
52235104,0.7058687,-0.029500969,0.02247771,-0.7073711,0.9998943,-1.5982697e-09,-1.0023354e-09,-0.014540654,3
52284765,0.7054957,-0.020251423,0.012888462,-0.70830756,0.9998943,-1.5982697e-09,-1.0023354e-09,-0.014540654,3
52334526,0.7050629,-0.0074011316,0.00020604575,-0.7091062,0.9998943,-1.5982697e-09,-1.0023354e-09,-0.014540654,3
52384081,0.70461977,0.005117137,-0.011158275,-0.709479,0.9998943,-1.5982697e-09,-1.0023354e-09,-0.014540654,3
52433739,0.7041848,0.013062071,-0.018111393,-0.70966554,0.9998943,-1.5982697e-09,-1.0023354e-09,-0.014540654,3
52483399,0.7040301,0.017642599,-0.02235932,-0.7095988,0.9998943,-1.5982697e-09,-1.0023354e-09,-0.014540654,3
52533057,0.70392776,0.02139959,-0.026085453,-0.7094698,0.9998943,-1.5982697e-09,-1.0023354e-09,-0.014540654,3
52582775,0.70375574,0.02434939,-0.028841691,-0.7094387,0.9998943,-1.5982697e-09,-1.0023354e-09,-0.014540654,3
52637340,0.7037716,0.026249612,-0.029767055,-0.7093169,0.9998943,-1.5982697e-09,-1.0023354e-09,-0.014540654,3
52687000,0.7037584,0.02782806,-0.03214224,-0.70916617,0.9998943,-1.5982697e-09,-1.0023354e-09,-0.014540654,3
52731694,0.7035838,0.028677827,-0.033527132,-0.7092415,0.9998943,-1.5982697e-09,-1.0023354e-09,-0.014540654,3
52781351,0.70362794,0.028399391,-0.032919448,-0.70923734,0.9998943,-1.5982697e-09,-1.0023354e-09,-0.014540654,3
52835976,0.7036714,0.029606534,-0.031768855,-0.70919734,0.9998943,-1.5982697e-09,-1.0023354e-09,-0.014540654,3
52885793,0.70332533,0.03666044,-0.03645176,-0.70898575,0.9998943,-1.5982697e-09,-1.0023354e-09,-0.014540654,3
52935294,0.7026715,0.046427146,-0.04524864,-0.70855474,0.9998943,-1.5982697e-09,-1.0023354e-09,-0.014540654,3
52984953,0.7018947,0.057118397,-0.056187984,-0.70776004,0.9998943,-1.5982697e-09,-1.0023354e-09,-0.014540654,3
53034611,0.7010154,0.06901811,-0.06742367,-0.706589,0.9998943,-1.5982697e-09,-1.0023354e-09,-0.014540654,3
53084271,0.69965583,0.08215174,-0.080870114,-0.705119,0.9998943,-1.5982697e-09,-1.0023354e-09,-0.014540654,3
53134038,0.69814163,0.095568895,-0.095012784,-0.7031625,0.9998943,-1.5982697e-09,-1.0023354e-09,-0.014540654,3
53183588,0.6966153,0.10897138,-0.10766169,-0.7009004,0.9998943,-1.5982697e-09,-1.0023354e-09,-0.014540654,3
53233254,0.69494814,0.12104595,-0.11887191,-0.69875926,0.9998943,-1.5982697e-09,-1.0023354e-09,-0.014540654,3
53282909,0.6946515,0.1264135,-0.123814404,-0.69724387,0.9998943,-1.5982697e-09,-1.0023354e-09,-0.014540654,3
53337531,0.6961295,0.1235945,-0.1205375,-0.6968492,0.9998943,-1.5982697e-09,-1.0023354e-09,-0.014540654,3
53382286,0.69768757,0.118369974,-0.11492341,-0.69714653,0.9998943,-1.5982697e-09,-1.0023354e-09,-0.014540654,3
53431886,0.69987303,0.109659895,-0.106780075,-0.6976751,0.9998943,-1.5982697e-09,-1.0023354e-09,-0.014540654,3
53481571,0.7023665,0.09781674,-0.09643504,-0.6984365,0.9998943,-1.5982697e-09,-1.0023354e-09,-0.014540654,3
53536166,0.7053327,0.08313029,-0.08375516,-0.69898516,0.9998943,-1.5982697e-09,-1.0023354e-09,-0.014540654,3
53585826,0.7078495,0.069364525,-0.070065945,-0.6994487,0.9998943,-1.5982697e-09,-1.0023354e-09,-0.014540654,3
53635487,0.71018225,0.05529291,-0.05609735,-0.6995977,0.9998943,-1.5982697e-09,-1.0023354e-09,-0.014540654,3
53685303,0.712351,0.04105103,-0.0434102,-0.69927573,0.9998943,-1.5982697e-09,-1.0023354e-09,-0.014540654,3
53734802,0.7143529,0.025763918,-0.029710824,-0.6986798,0.9998943,-1.5982697e-09,-1.0023354e-09,-0.014540654,3
53784461,0.71577877,0.011270356,-0.014916151,-0.69807684,0.9998943,-1.5982697e-09,-1.0023354e-09,-0.014540654,3
53834121,0.71696687,-0.0031426002,-0.00011848411,-0.69710016,0.9998943,-1.5982697e-09,-1.0023354e-09,-0.014540654,3
53883779,0.71813256,-0.017772866,0.0147606535,-0.69552284,0.9998943,-1.5982697e-09,-1.0023354e-09,-0.014540654,3
53933531,0.7188636,-0.031992257,0.030506177,-0.6937442,0.9998943,-1.5982697e-09,-1.0023354e-09,-0.014540654,3
53983097,0.71901965,-0.044942815,0.04539416,-0.69204795,0.9998943,-1.5982697e-09,-1.0023354e-09,-0.014540654,3
54037721,0.7193219,-0.059369024,0.05983861,-0.6895439,0.9998943,-1.5982697e-09,-1.0023354e-09,-0.014540654,3
54082415,0.71916556,-0.06993725,0.069984004,-0.6877586,0.9998943,-1.5982697e-09,-1.0023354e-09,-0.014540654,3
54132075,0.71944493,-0.073783256,0.07554559,-0.68647504,0.9998943,-1.5982697e-09,-1.0023354e-09,-0.014540654,3
54181741,0.7205288,-0.06910097,0.0712624,-0.6862836,0.9998943,-1.5982697e-09,-1.0023354e-09,-0.014540654,3
54236543,0.72211075,-0.06048336,0.06108755,-0.6864155,0.9998943,-1.5982697e-09,-1.0023354e-09,-0.014540654,3
54286015,0.72347707,-0.050562218,0.05107921,-0.68659693,0.9998943,-1.5982697e-09,-1.0023354e-09,-0.014540654,3
54330766,0.7246566,-0.04026178,0.040604156,-0.6867337,0.9998943,-1.5982697e-09,-1.0023354e-09,-0.014540654,3
54385333,0.72604126,-0.026368784,0.025808653,-0.68666065,0.9998943,-1.5982697e-09,-1.0023354e-09,-0.014540654,3
54434992,0.72686195,-0.012727777,0.010941817,-0.6865786,0.9998943,-1.5982697e-09,-1.0023354e-09,-0.014540654,3
54484744,0.72721016,0.0008450276,-0.004494278,-0.68639964,0.9998943,-1.5982697e-09,-1.0023354e-09,-0.014540654,3
54534311,0.72742176,0.013081987,-0.016957738,-0.68585634,0.9998943,-1.5982697e-09,-1.0023354e-09,-0.014540654,3
54583972,0.7276573,0.020601863,-0.02517704,-0.68516904,0.9998943,-1.5982697e-09,-1.0023354e-09,-0.014540654,3
54633628,0.7277749,0.026079442,-0.03169652,-0.6845867,0.9998943,-1.5982697e-09,-1.0023354e-09,-0.014540654,3
54683287,0.7278571,0.029734256,-0.036642395,-0.68410325,0.9998943,-1.5982697e-09,-1.0023354e-09,-0.014540654,3
54737987,0.72758347,0.032618534,-0.039549638,-0.6841011,0.9998943,-1.5982697e-09,-1.0023354e-09,-0.014540654,3
54782625,0.72754776,0.03394588,-0.039691348,-0.68406624,0.9998943,-1.5982697e-09,-1.0023354e-09,-0.014540654,3
54832263,0.7272364,0.034462377,-0.039197583,-0.6843999,0.9998943,-1.5982697e-09,-1.0023354e-09,-0.014540654,3
54881922,0.7270636,0.03483986,-0.03910304,-0.6845698,0.9998943,-1.5982697e-09,-1.0023354e-09,-0.014540654,3
54936547,0.72660387,0.03500965,-0.039032824,-0.6850531,0.9998943,-1.5982697e-09,-1.0023354e-09,-0.014540654,3
54986206,0.7260707,0.035189167,-0.03820276,-0.6856556,0.9998943,-1.5982697e-09,-1.0023354e-09,-0.014540654,3
55031028,0.72578824,0.03491014,-0.037046652,-0.68603235,0.9998943,-1.5982697e-09,-1.0023354e-09,-0.014540654,3
55085523,0.72535473,0.034219913,-0.03540959,-0.6866118,0.9998943,-1.5982697e-09,-1.0023354e-09,-0.014540654,3
55135182,0.7249704,0.03361868,-0.034531195,-0.687092,0.9998943,-1.5982697e-09,-1.0023354e-09,-0.014540654,3
55184841,0.7244615,0.033218652,-0.034347843,-0.68765724,0.9998943,-1.5982697e-09,-1.0023354e-09,-0.014540654,3
55234501,0.7241563,0.033074338,-0.034176074,-0.68799406,0.9998943,-1.5982697e-09,-1.0023354e-09,-0.014540654,3
55284216,0.72394407,0.03316968,-0.033527847,-0.6882446,0.9998943,-1.5982697e-09,-1.0023354e-09,-0.014540654,3
55333818,0.72397524,0.032431804,-0.033290945,-0.6882585,0.9998943,-1.5982697e-09,-1.0023354e-09,-0.014540654,3
55383490,0.7238914,0.03175964,-0.03309939,-0.6883873,0.9998943,-1.5982697e-09,-1.0023354e-09,-0.014540654,3
55438122,0.72406,0.031439435,-0.033003196,-0.68822926,0.9998943,-1.5982697e-09,-1.0023354e-09,-0.014540654,3
55482795,0.723963,0.030871008,-0.03314412,-0.6883502,0.9998943,-1.5982697e-09,-1.0023354e-09,-0.014540654,3
55532453,0.7241238,0.030315377,-0.0326954,-0.6882273,0.9998943,-1.5982697e-09,-1.0023354e-09,-0.014540654,3
55582310,0.72398984,0.030043945,-0.03335302,-0.68834853,0.9998943,-1.5982697e-09,-1.0023354e-09,-0.014540654,3
55636738,0.7237295,0.029453347,-0.032582905,-0.6886847,0.9998943,-1.5982697e-09,-1.0023354e-09,-0.014540654,3
55686396,0.72347635,0.028895212,-0.030938892,-0.68904996,0.9998943,-1.5982697e-09,-1.0023354e-09,-0.014540654,3
55731089,0.72321236,0.02877236,-0.030736687,-0.6893412,0.9998943,-1.5982697e-09,-1.0023354e-09,-0.014540654,3
55785714,0.72274005,0.028683418,-0.030371588,-0.6898563,0.9998943,-1.5982697e-09,-1.0023354e-09,-0.014540654,3
55835564,0.7223251,0.028946755,-0.02961617,-0.69031256,0.9998943,-1.5982697e-09,-1.0023354e-09,-0.014540654,3
55885031,0.7219198,0.028416725,-0.029026087,-0.6907835,0.9998943,-1.5982697e-09,-1.0023354e-09,-0.014540654,3
55934690,0.72147155,0.028045714,-0.028846066,-0.6912743,0.9998943,-1.5982697e-09,-1.0023354e-09,-0.014540654,3
55984361,0.7207895,0.028217606,-0.028968534,-0.6919734,0.9998943,-1.5982697e-09,-1.0023354e-09,-0.014540654,3
56034008,0.7201531,0.028237335,-0.029245012,-0.69262326,0.9998943,-1.5982697e-09,-1.0023354e-09,-0.014540654,3
56083745,0.71966934,0.027821537,-0.028765379,-0.69316274,0.9998943,-1.5982697e-09,-1.0023354e-09,-0.014540654,3
56133327,0.71922094,0.027672736,-0.028294055,-0.69365335,0.9998943,-1.5982697e-09,-1.0023354e-09,-0.014540654,3
56182987,0.71860355,0.028283281,-0.029139992,-0.6942333,0.9998943,-1.5982697e-09,-1.0023354e-09,-0.014540654,3
56232644,0.7181801,0.028212087,-0.028666401,-0.694694,0.9998943,-1.5982697e-09,-1.0023354e-09,-0.014540654,3
56282310,0.71766686,0.02821046,-0.02814462,-0.6952456,0.9998943,-1.5982697e-09,-1.0023354e-09,-0.014540654,3
56336930,0.7170957,0.027311685,-0.02782154,-0.6958835,0.9998943,-1.5982697e-09,-1.0023354e-09,-0.014540654,3
56381777,0.7166697,0.026240105,-0.026810663,-0.6964031,0.9998943,-1.5982697e-09,-1.0023354e-09,-0.014540654,3
56431279,0.7163961,0.020992244,-0.023144,-0.6969938,0.9998943,-1.5982697e-09,-1.0023354e-09,-0.014540654,3
56485907,0.7166601,0.0071567767,-0.017047957,-0.6971775,0.9998943,-1.5982697e-09,-1.0023354e-09,-0.014540654,3
56535563,0.7163528,-0.009011424,-0.01776946,-0.69745374,0.9998943,-1.5982697e-09,-1.0023354e-09,-0.014540654,3
56585222,0.71576107,-0.0247432,-0.021376552,-0.69757944,0.9998943,-1.5982697e-09,-1.0023354e-09,-0.014540654,3
56634973,0.71477944,-0.03694059,-0.021577131,-0.6980403,0.9998943,-1.5982697e-09,-1.0023354e-09,-0.014540654,3
56684591,0.71375394,-0.04219953,-0.020435981,-0.69882536,0.9998943,-1.5982697e-09,-1.0023354e-09,-0.014540654,3
56734202,0.7130098,-0.037484095,-0.020761108,-0.69984365,0.9998943,-1.5982697e-09,-1.0023354e-09,-0.014540654,3
56783858,0.71242964,-0.022662614,-0.022622628,-0.70101255,0.9998943,-1.5982697e-09,-1.0023354e-09,-0.014540654,3
56833517,0.7117186,-0.0018305175,-0.02300929,-0.70208544,0.9998943,-1.5982697e-09,-1.0023354e-09,-0.014540654,3
56883286,0.71067035,0.021284264,-0.022703037,-0.70283663,0.9998943,-1.5982697e-09,-1.0023354e-09,-0.014540654,3
56932840,0.7095396,0.043446675,-0.018162027,-0.7030904,0.9998943,-1.5982697e-09,-1.0023354e-09,-0.014540654,3
56982494,0.7084769,0.06221667,-0.011118447,-0.7028983,0.9998943,-1.5982697e-09,-1.0023354e-09,-0.014540654,3
57037119,0.70746785,0.07507724,-0.011151982,-0.702658,0.9998943,-1.5982697e-09,-1.0023354e-09,-0.014540654,3
57081811,0.7074502,0.07416432,-0.012749278,-0.70274556,0.9998943,-1.5982697e-09,-1.0023354e-09,-0.014540654,3
57131470,0.7083387,0.061852243,-0.0124570215,-0.70304734,0.9998943,-1.5982697e-09,-1.0023354e-09,-0.014540654,3
57186237,0.7088922,0.04646346,-0.017469648,-0.7035679,0.9998943,-1.5982697e-09,-1.0023354e-09,-0.014540654,3
57235754,0.70905024,0.034183595,-0.025832046,-0.7038551,0.9998943,-1.5982697e-09,-1.0023354e-09,-0.014540654,3
57285412,0.70880085,0.02771881,-0.026922794,-0.7043496,0.9998943,-1.5982697e-09,-1.0023354e-09,-0.014540654,3
57335074,0.7085908,0.027335484,-0.025776435,-0.7046187,0.9998943,-1.5982697e-09,-1.0023354e-09,-0.014540654,3
57384731,0.7083948,0.02725166,-0.026473634,-0.70479316,0.9998943,-1.5982697e-09,-1.0023354e-09,-0.014540654,3
57434436,0.7082533,0.026116818,-0.026795942,-0.70496607,0.9998943,-1.5982697e-09,-1.0023354e-09,-0.014540654,3
57484049,0.70816606,0.025928812,-0.02641842,-0.70507497,0.9998943,-1.5982697e-09,-1.0023354e-09,-0.014540654,3
57533707,0.70833915,0.026910998,-0.026150014,-0.7048743,0.9998943,-1.5982697e-09,-1.0023354e-09,-0.014540654,3
57583385,0.70840156,0.027406728,-0.026086714,-0.7047947,0.9998943,-1.5982697e-09,-1.0023354e-09,-0.014540654,3
57633025,0.698918,0.02663643,-0.025591493,-0.71424735,0.9999073,-1.4315596e-09,-5.1520815e-10,-0.013618991,4
57682685,0.69936734,0.025676435,-0.024224967,-0.7138902,0.9999073,-1.4315596e-09,-5.1520815e-10,-0.013618991,4
57737308,0.7001051,0.024341997,-0.023077143,-0.7132516,0.9999073,-1.4315596e-09,-5.1520815e-10,-0.013618991,4
57782001,0.7007735,0.024102671,-0.023072878,-0.71260315,0.9999073,-1.4315596e-09,-5.1520815e-10,-0.013618991,4
57831661,0.7018826,0.02373989,-0.023679173,-0.711503,0.9999073,-1.4315596e-09,-5.1520815e-10,-0.013618991,4
57886287,0.7032143,0.022919381,-0.023647659,-0.7102149,0.9999073,-1.4315596e-09,-5.1520815e-10,-0.013618991,4
57935945,0.7044987,0.022186046,-0.02364312,-0.7089643,0.9999073,-1.4315596e-09,-5.1520815e-10,-0.013618991,4
57985721,0.7056341,0.02152452,-0.024540195,-0.7078242,0.9999073,-1.4315596e-09,-5.1520815e-10,-0.013618991,4
58030297,0.7065709,0.020839896,-0.025886798,-0.70686144,0.9999073,-1.4315596e-09,-5.1520815e-10,-0.013618991,4
58084930,0.70747477,0.020764325,-0.026776206,-0.7059259,0.9999073,-1.4315596e-09,-5.1520815e-10,-0.013618991,4
58134580,0.70844954,0.02086827,-0.026825838,-0.7049427,0.9999073,-1.4315596e-09,-5.1520815e-10,-0.013618991,4
58184239,0.70922655,0.02051921,-0.027249457,-0.70415497,0.9999073,-1.4315596e-09,-5.1520815e-10,-0.013618991,4
58233913,0.70992905,0.019942617,-0.027384073,-0.703458,0.9999073,-1.4315596e-09,-5.1520815e-10,-0.013618991,4
58283557,0.7103889,0.02003991,-0.027410697,-0.7029899,0.9999073,-1.4315596e-09,-5.1520815e-10,-0.013618991,4
58333216,0.7107955,0.020691494,-0.027145764,-0.70257014,0.9999073,-1.4315596e-09,-5.1520815e-10,-0.013618991,4
58382874,0.7109932,0.020951739,-0.026508762,-0.70238674,0.9999073,-1.4315596e-09,-5.1520815e-10,-0.013618991,4
58437518,0.7112086,0.020971164,-0.025748838,-0.70219636,0.9999073,-1.4315596e-09,-5.1520815e-10,-0.013618991,4
58482197,0.71111125,0.021188438,-0.0254931,-0.70229775,0.9999073,-1.4315596e-09,-5.1520815e-10,-0.013618991,4
58531993,0.71109957,0.021212786,-0.024683828,-0.7023377,0.9999073,-1.4315596e-09,-5.1520815e-10,-0.013618991,4
58586476,0.71115273,0.021043176,-0.02371418,-0.7023223,0.9999073,-1.4315596e-09,-5.1520815e-10,-0.013618991,4
58636143,0.71102387,0.020516543,-0.023862684,-0.7024633,0.9999073,-1.4315596e-09,-5.1520815e-10,-0.013618991,4
58685843,0.7108639,0.020314228,-0.023649236,-0.7026384,0.9999073,-1.4315596e-09,-5.1520815e-10,-0.013618991,4
58730488,0.7107965,0.020652933,-0.023632465,-0.7026973,0.9999073,-1.4315596e-09,-5.1520815e-10,-0.013618991,4
58785196,0.71056944,0.020354629,-0.023412246,-0.70294297,0.9999073,-1.4315596e-09,-5.1520815e-10,-0.013618991,4
58834770,0.71057963,0.019657131,-0.02288165,-0.7029699,0.9999073,-1.4315596e-09,-5.1520815e-10,-0.013618991,4
58884475,0.7106155,0.019144692,-0.022471286,-0.70296097,0.9999073,-1.4315596e-09,-5.1520815e-10,-0.013618991,4
58934088,0.71043134,0.018605608,-0.02202481,-0.7031758,0.9999073,-1.4315596e-09,-5.1520815e-10,-0.013618991,4
58983749,0.7104666,0.018414423,-0.021322507,-0.7031668,0.9999073,-1.4315596e-09,-5.1520815e-10,-0.013618991,4
59033493,0.7102495,0.01726838,-0.021370588,-0.70341367,0.9999073,-1.4315596e-09,-5.1520815e-10,-0.013618991,4
59083100,0.71027607,0.015860703,-0.021429945,-0.7034182,0.9999073,-1.4315596e-09,-5.1520815e-10,-0.013618991,4
59137689,0.7100305,0.01571712,-0.02169584,-0.70366114,0.9999073,-1.4315596e-09,-5.1520815e-10,-0.013618991,4
59182383,0.7098374,0.016214192,-0.022645058,-0.70381486,0.9999073,-1.4315596e-09,-5.1520815e-10,-0.013618991,4
59232041,0.7096412,0.016836924,-0.023418933,-0.7039727,0.9999073,-1.4315596e-09,-5.1520815e-10,-0.013618991,4
59286666,0.70960385,0.016508644,-0.024475684,-0.7039821,0.9999073,-1.4315596e-09,-5.1520815e-10,-0.013618991,4
59336461,0.70937353,0.016423525,-0.025463512,-0.7041812,0.9999073,-1.4315596e-09,-5.1520815e-10,-0.013618991,4
59385984,0.7091917,0.017229505,-0.026207726,-0.7043178,0.9999073,-1.4315596e-09,-5.1520815e-10,-0.013618991,4
59430679,0.70903647,0.018354341,-0.026557043,-0.70443255,0.9999073,-1.4315596e-09,-5.1520815e-10,-0.013618991,4
59485305,0.7088441,0.019031735,-0.026545938,-0.7046085,0.9999073,-1.4315596e-09,-5.1520815e-10,-0.013618991,4
59534963,0.7087581,0.019681908,-0.026488762,-0.7046793,0.9999073,-1.4315596e-09,-5.1520815e-10,-0.013618991,4
59584652,0.70843506,0.020949485,-0.026809545,-0.7049554,0.9999073,-1.4315596e-09,-5.1520815e-10,-0.013618991,4
59634279,0.7081458,0.021247962,-0.026478361,-0.70524955,0.9999073,-1.4315596e-09,-5.1520815e-10,-0.013618991,4
59683940,0.7077456,0.021481648,-0.026716819,-0.70563525,0.9999073,-1.4315596e-09,-5.1520815e-10,-0.013618991,4
59733643,0.7070386,0.022987597,-0.026578337,-0.7063014,0.9999073,-1.4315596e-09,-5.1520815e-10,-0.013618991,4
59783256,0.7065098,0.02340649,-0.025563685,-0.7068539,0.9999073,-1.4315596e-09,-5.1520815e-10,-0.013618991,4
59832910,0.70616996,0.023083856,-0.025791027,-0.70719594,0.9999073,-1.4315596e-09,-5.1520815e-10,-0.013618991,4
59882744,0.7053349,0.023987072,-0.02674206,-0.70796347,0.9999073,-1.4315596e-09,-5.1520815e-10,-0.013618991,4
59932273,0.70489067,0.024516566,-0.026419412,-0.7083997,0.9999073,-1.4315596e-09,-5.1520815e-10,-0.013618991,4
59986857,0.70406973,0.02439709,-0.026196556,-0.7092281,0.9999073,-1.4315596e-09,-5.1520815e-10,-0.013618991,4
60036525,0.7033178,0.024059594,-0.026034955,-0.7099912,0.9999073,-1.4315596e-09,-5.1520815e-10,-0.013618991,4
60081209,0.70275575,0.023890978,-0.025346186,-0.7105781,0.9999073,-1.4315596e-09,-5.1520815e-10,-0.013618991,4
60130951,0.7019497,0.024278825,-0.026224354,-0.71132946,0.9999073,-1.4315596e-09,-5.1520815e-10,-0.013618991,4
60185493,0.70100296,0.025391154,-0.027212678,-0.7121866,0.9999073,-1.4315596e-09,-5.1520815e-10,-0.013618991,4
60235152,0.7005763,0.025147466,-0.027575333,-0.71260095,0.9999073,-1.4315596e-09,-5.1520815e-10,-0.013618991,4
60284811,0.70020026,0.024653943,-0.027468452,-0.71299183,0.9999073,-1.4315596e-09,-5.1520815e-10,-0.013618991,4
60334470,0.7001348,0.02415489,-0.027260475,-0.7130812,0.9999073,-1.4315596e-09,-5.1520815e-10,-0.013618991,4
60384142,0.69997644,0.023616835,-0.02750493,-0.7132452,0.9999073,-1.4315596e-09,-5.1520815e-10,-0.013618991,4
60433787,0.7001358,0.023061117,-0.027407283,-0.7131107,0.9999073,-1.4315596e-09,-5.1520815e-10,-0.013618991,4
60483450,0.70076096,0.022148943,-0.026818862,-0.7125478,0.9999073,-1.4315596e-09,-5.1520815e-10,-0.013618991,4
60533107,0.70126796,0.021078162,-0.027270652,-0.7120641,0.9999073,-1.4315596e-09,-5.1520815e-10,-0.013618991,4
60582765,0.70197976,0.020419614,-0.027206,-0.7113842,0.9999073,-1.4315596e-09,-5.1520815e-10,-0.013618991,4
60632424,0.70311266,0.020673892,-0.02793351,-0.7102288,0.9999073,-1.4315596e-09,-5.1520815e-10,-0.013618991,4
60687264,0.70452434,0.020675108,-0.029454762,-0.7087668,0.9999073,-1.4315596e-09,-5.1520815e-10,-0.013618991,4
60736707,0.7060164,0.019549526,-0.02904846,-0.7073294,0.9999073,-1.4315596e-09,-5.1520815e-10,-0.013618991,4
60781401,0.7072614,0.018610915,-0.029271474,-0.70610076,0.9999073,-1.4315596e-09,-5.1520815e-10,-0.013618991,4
60831059,0.7087593,0.018082911,-0.029651724,-0.704595,0.9999073,-1.4315596e-09,-5.1520815e-10,-0.013618991,4
60885684,0.71013963,0.01760088,-0.02964591,-0.70321625,0.9999073,-1.4315596e-09,-5.1520815e-10,-0.013618991,4
60935404,0.71147096,0.017471302,-0.030119237,-0.7018524,0.9999073,-1.4315596e-09,-5.1520815e-10,-0.013618991,4
60985019,0.71247464,0.017550701,-0.03109855,-0.70078874,0.9999073,-1.4315596e-09,-5.1520815e-10,-0.013618991,4
61034660,0.71352684,0.017406076,-0.032907285,-0.6996382,0.9999073,-1.4315596e-09,-5.1520815e-10,-0.013618991,4
61084320,0.71456045,0.016702572,-0.033188183,-0.69858646,0.9999073,-1.4315596e-09,-5.1520815e-10,-0.013618991,4
61133978,0.71550065,0.014567485,-0.03280542,-0.69768935,0.9999073,-1.4315596e-09,-5.1520815e-10,-0.013618991,4
61183638,0.7163115,0.013068655,-0.032673843,-0.6968928,0.9999073,-1.4315596e-09,-5.1520815e-10,-0.013618991,4
61233301,0.7170036,0.012992421,-0.034075644,-0.69611496,0.9999073,-1.4315596e-09,-5.1520815e-10,-0.013618991,4
61282955,0.7175783,0.014412745,-0.03592897,-0.6954012,0.9999073,-1.4315596e-09,-5.1520815e-10,-0.013618991,4
61332618,0.7176985,0.014994621,-0.03716436,-0.6951999,0.9999073,-1.4315596e-09,-5.1520815e-10,-0.013618991,4
61387241,0.7178719,0.015483535,-0.036263812,-0.69505763,0.9999073,-1.4315596e-09,-5.1520815e-10,-0.013618991,4
61436907,0.71799594,0.016112095,-0.03562686,-0.69494826,0.9999073,-1.4315596e-09,-5.1520815e-10,-0.013618991,4
61481738,0.71785307,0.017163655,-0.035389133,-0.6950828,0.9999073,-1.4315596e-09,-5.1520815e-10,-0.013618991,4
61531250,0.71776605,0.018782603,-0.035149287,-0.6951429,0.9999073,-1.4315596e-09,-5.1520815e-10,-0.013618991,4
61585875,0.717381,0.019838627,-0.03423171,-0.69555676,0.9999073,-1.4315596e-09,-5.1520815e-10,-0.013618991,4
61635534,0.71693915,0.020335773,-0.033430852,-0.69603676,0.9999073,-1.4315596e-09,-5.1520815e-10,-0.013618991,4
61685197,0.7165816,0.021073278,-0.032697767,-0.69641775,0.9999073,-1.4315596e-09,-5.1520815e-10,-0.013618991,4
61734876,0.71581197,0.022297282,-0.03188015,-0.69720864,0.9999073,-1.4315596e-09,-5.1520815e-10,-0.013618991,4
61784510,0.7151013,0.023684898,-0.03057223,-0.69795024,0.9999073,-1.4315596e-09,-5.1520815e-10,-0.013618991,4
61834172,0.7140724,0.025265055,-0.03033644,-0.6989578,0.9999073,-1.4315596e-09,-5.1520815e-10,-0.013618991,4
61883828,0.71314466,0.026193326,-0.029660856,-0.6998992,0.9999073,-1.4315596e-09,-5.1520815e-10,-0.013618991,4
61933489,0.7120769,0.025744392,-0.028272092,-0.7010595,0.9999073,-1.4315596e-09,-5.1520815e-10,-0.013618991,4
61983146,0.71116376,0.019732924,-0.026600419,-0.70224583,0.9999073,-1.4315596e-09,-5.1520815e-10,-0.013618991,4
62032963,0.7104022,0.008009774,-0.029339047,-0.7031386,0.9999073,-1.4315596e-09,-5.1520815e-10,-0.013618991,4
62087518,0.7093408,-0.005863464,-0.040811516,-0.70365876,0.9999073,-1.4315596e-09,-5.1520815e-10,-0.013618991,4
62137089,0.7082538,-0.01879281,-0.054573912,-0.7035945,0.9999073,-1.4315596e-09,-5.1520815e-10,-0.013618991,4
62181782,0.70704585,-0.029369695,-0.06803903,-0.70327395,0.9999073,-1.4315596e-09,-5.1520815e-10,-0.013618991,4
62231441,0.70550084,-0.040671702,-0.08318763,-0.70263386,0.9999073,-1.4315596e-09,-5.1520815e-10,-0.013618991,4
62286154,0.7041061,-0.048354015,-0.093170874,-0.7022932,0.9999073,-1.4315596e-09,-5.1520815e-10,-0.013618991,4
62335729,0.7035196,-0.046146788,-0.09281259,-0.7030765,0.9999073,-1.4315596e-09,-5.1520815e-10,-0.013618991,4
62385383,0.7034297,-0.038466908,-0.08671331,-0.704406,0.9999073,-1.4315596e-09,-5.1520815e-10,-0.013618991,4
62435043,0.7035718,-0.027635856,-0.07855507,-0.7057281,0.9999073,-1.4315596e-09,-5.1520815e-10,-0.013618991,4
62484701,0.70384836,-0.015635848,-0.06739018,-0.70697355,0.9999073,-1.4315596e-09,-5.1520815e-10,-0.013618991,4
62534406,0.70398444,-0.0020529332,-0.052815214,-0.708246,0.9999073,-1.4315596e-09,-5.1520815e-10,-0.013618991,4
62584019,0.7040029,0.012906685,-0.038300954,-0.7090462,0.9999073,-1.4315596e-09,-5.1520815e-10,-0.013618991,4
62633678,0.7038264,0.0275128,-0.023728555,-0.7094424,0.9999073,-1.4315596e-09,-5.1520815e-10,-0.013618991,4
62683342,0.703382,0.04244188,-0.00871783,-0.7094903,0.9999073,-1.4315596e-09,-5.1520815e-10,-0.013618991,4
62733016,0.70273894,0.056101,0.004176105,-0.70922023,0.9999073,-1.4315596e-09,-5.1520815e-10,-0.013618991,4
62787621,0.70274514,0.062074337,0.008638524,-0.7086759,0.9999073,-1.4315596e-09,-5.1520815e-10,-0.013618991,4
62832441,0.70350707,0.05769362,0.00594613,-0.70831776,0.9999073,-1.4315596e-09,-5.1520815e-10,-0.013618991,4
62881973,0.7041332,0.049004983,-0.0017830028,-0.70837265,0.9999073,-1.4315596e-09,-5.1520815e-10,-0.013618991,4
62931642,0.7046978,0.03766996,-0.01284526,-0.7083905,0.9999073,-1.4315596e-09,-5.1520815e-10,-0.013618991,4
62986257,0.705383,0.021789277,-0.026274515,-0.7080041,0.9999073,-1.4315596e-09,-5.1520815e-10,-0.013618991,4
63035950,0.7054408,0.005619426,-0.040156968,-0.7076081,0.9999073,-1.4315596e-09,-5.1520815e-10,-0.013618991,4
63080674,0.7051847,-0.00841921,-0.054099195,-0.7069067,0.9999073,-1.4315596e-09,-5.1520815e-10,-0.013618991,4
63135244,0.70420796,-0.020026747,-0.06625087,-0.70661235,0.9999073,-1.4315596e-09,-5.1520815e-10,-0.013618991,4
63184893,0.7035986,-0.020695375,-0.06662497,-0.7071647,0.9999073,-1.4315596e-09,-5.1520815e-10,-0.013618991,4
63234553,0.70348406,-0.015154223,-0.060805608,-0.7079429,0.9999073,-1.4315596e-09,-5.1520815e-10,-0.013618991,4
63284213,0.70346487,-0.005741369,-0.05180202,-0.7088165,0.9999073,-1.4315596e-09,-5.1520815e-10,-0.013618991,4
63333883,0.70352733,0.006223577,-0.039391804,-0.7095484,0.9999073,-1.4315596e-09,-5.1520815e-10,-0.013618991,4
63383721,0.70358187,0.019970097,-0.024959432,-0.70989496,0.9999073,-1.4315596e-09,-5.1520815e-10,-0.013618991,4
63433187,0.70337945,0.03495146,-0.010266392,-0.7098806,0.9999073,-1.4315596e-09,-5.1520815e-10,-0.013618991,4
63487819,0.7031969,0.04996877,0.0040947683,-0.7092253,0.9999073,-1.4315596e-09,-5.1520815e-10,-0.013618991,4
63532505,0.7032019,0.057067417,0.011565255,-0.708602,0.9999073,-1.4315596e-09,-5.1520815e-10,-0.013618991,4
63582200,0.7034078,0.059466764,0.012861039,-0.70817786,0.9999073,-1.4315596e-09,-5.1520815e-10,-0.013618991,4
63631920,0.70382375,0.05634386,0.00896243,-0.70808005,0.9999073,-1.4315596e-09,-5.1520815e-10,-0.013618991,4
63686448,0.7047983,0.04702661,-0.00046026518,-0.7078473,0.9999073,-1.4315596e-09,-5.1520815e-10,-0.013618991,4
63736120,0.7054065,0.035041805,-0.012692261,-0.7078225,0.9999073,-1.4315596e-09,-5.1520815e-10,-0.013618991,4
63780800,0.70580304,0.02292632,-0.024828654,-0.70760167,0.9999073,-1.4315596e-09,-5.1520815e-10,-0.013618991,4
63835425,0.7059584,0.0063560302,-0.04054808,-0.70706314,0.9999073,-1.4315596e-09,-5.1520815e-10,-0.013618991,4
63885109,0.705797,-0.0075670597,-0.054215275,-0.706296,0.9999073,-1.4315596e-09,-5.1520815e-10,-0.013618991,4
63934742,0.7053919,-0.01379963,-0.061338633,-0.70602375,0.9999073,-1.4315596e-09,-5.1520815e-10,-0.013618991,4
63984401,0.70509773,-0.0115994625,-0.059213214,-0.7065384,0.9999073,-1.4315596e-09,-5.1520815e-10,-0.013618991,4
64034060,0.705269,-0.0030544584,-0.051120423,-0.7070878,0.9999073,-1.4315596e-09,-5.1520815e-10,-0.013618991,4
64083715,0.7053685,0.00784056,-0.04116668,-0.707601,0.9999073,-1.4315596e-09,-5.1520815e-10,-0.013618991,4
64133378,0.70547384,0.018903553,-0.02968417,-0.7078618,0.9999073,-1.4315596e-09,-5.1520815e-10,-0.013618991,4
64183187,0.7056182,0.030367821,-0.01702266,-0.7077366,0.9999073,-1.4315596e-09,-5.1520815e-10,-0.013618991,4
64232696,0.705545,0.04327463,-0.0031508587,-0.7073356,0.9999073,-1.4315596e-09,-5.1520815e-10,-0.013618991,4
64282357,0.7051489,0.05850317,0.01249702,-0.70653117,0.9999073,-1.4315596e-09,-5.1520815e-10,-0.013618991,4
64332060,0.7045975,0.07315761,0.025675593,-0.705359,0.9999073,-1.4315596e-09,-5.1520815e-10,-0.013618991,4
64386639,0.7049338,0.08110381,0.031967077,-0.70389533,0.9999073,-1.4315596e-09,-5.1520815e-10,-0.013618991,4
64436436,0.7064096,0.07888873,0.028426565,-0.7028187,0.9999073,-1.4315596e-09,-5.1520815e-10,-0.013618991,4
64480991,0.7079313,0.07188046,0.02073436,-0.702308,0.9999073,-1.4315596e-09,-5.1520815e-10,-0.013618991,4
64535616,0.7098037,0.061188612,0.009406262,-0.7016739,0.9999073,-1.4315596e-09,-5.1520815e-10,-0.013618991,4
64585275,0.7114932,0.05017622,-0.0021628302,-0.700896,0.9999073,-1.4315596e-09,-5.1520815e-10,-0.013618991,4
64634937,0.71298283,0.03805062,-0.014688797,-0.6999942,0.9999073,-1.4315596e-09,-5.1520815e-10,-0.013618991,4
64684626,0.71394503,0.025466783,-0.027142994,-0.69921196,0.9999073,-1.4315596e-09,-5.1520815e-10,-0.013618991,4
64734262,0.71437395,0.021038203,-0.03288865,-0.6986742,0.9999073,-1.4315596e-09,-5.1520815e-10,-0.013618991,4
64783912,0.714389,0.023513768,-0.031526603,-0.6986427,0.9999073,-1.4315596e-09,-5.1520815e-10,-0.013618991,4
64833569,0.7148415,0.026186153,-0.030953992,-0.69811016,0.9999073,-1.4315596e-09,-5.1520815e-10,-0.013618991,4
64883244,0.7150387,0.02738657,-0.03196405,-0.6978166,0.9999073,-1.4315596e-09,-5.1520815e-10,-0.013618991,4
64932887,0.71494466,0.028655574,-0.031106852,-0.6979008,0.9999073,-1.4315596e-09,-5.1520815e-10,-0.013618991,4
64982659,0.7148114,0.028702667,-0.029814424,-0.6980917,0.9999073,-1.4315596e-09,-5.1520815e-10,-0.013618991,4
65032206,0.71434784,0.029448705,-0.029789494,-0.6985361,0.9999073,-1.4315596e-09,-5.1520815e-10,-0.013618991,4
65086830,0.7137766,0.029801989,-0.029718796,-0.6991078,0.9999073,-1.4315596e-09,-5.1520815e-10,-0.013618991,4
65136535,0.71337426,0.028986504,-0.0289234,-0.699586,0.9999073,-1.4315596e-09,-5.1520815e-10,-0.013618991,4
65181182,0.7126295,0.028695937,-0.028667992,-0.70036703,0.9999073,-1.4315596e-09,-5.1520815e-10,-0.013618991,4
65235846,0.7119708,0.028947659,-0.02914427,-0.7010066,0.9999073,-1.4315596e-09,-5.1520815e-10,-0.013618991,4
65285466,0.7111355,0.028214369,-0.030176824,-0.70184016,0.9999073,-1.4315596e-09,-5.1520815e-10,-0.013618991,4
65335128,0.71037596,0.027891496,-0.030782256,-0.7025956,0.9999073,-1.4315596e-09,-5.1520815e-10,-0.013618991,4
65384793,0.7095773,0.028404398,-0.031036438,-0.7033705,0.9999073,-1.4315596e-09,-5.1520815e-10,-0.013618991,4
65434444,0.7088658,0.029045422,-0.031027753,-0.7040618,0.9999073,-1.4315596e-09,-5.1520815e-10,-0.013618991,4
65484108,0.7081078,0.03028934,-0.032149147,-0.7047215,0.9999073,-1.4315596e-09,-5.1520815e-10,-0.013618991,4
65533950,0.70770824,0.030138496,-0.032423947,-0.7051166,0.9999073,-1.4315596e-09,-5.1520815e-10,-0.013618991,4
65583420,0.70716345,0.02898831,-0.031432837,-0.705756,0.9999073,-1.4315596e-09,-5.1520815e-10,-0.013618991,4
65633079,0.7068037,0.02846723,-0.03105812,-0.7061541,0.9999073,-1.4315596e-09,-5.1520815e-10,-0.013618991,4
65682742,0.70662826,0.025890846,-0.030236041,-0.7064644,0.9999073,-1.4315596e-09,-5.1520815e-10,-0.013618991,4
65732399,0.70638543,0.024636418,-0.029402342,-0.7067872,0.9999073,-1.4315596e-09,-5.1520815e-10,-0.013618991,4
65787123,0.7063591,0.02393667,-0.028057056,-0.7068924,0.9999073,-1.4315596e-09,-5.1520815e-10,-0.013618991,4
65831714,0.7062932,0.021652864,-0.028195972,-0.7070262,0.9999073,-1.4315596e-09,-5.1520815e-10,-0.013618991,4
65881374,0.70658094,0.013008502,-0.031034095,-0.70683175,0.9999073,-1.4315596e-09,-5.1520815e-10,-0.013618991,4
65935998,0.7070363,-0.00013996678,-0.038703423,-0.7061174,0.9999073,-1.4315596e-09,-5.1520815e-10,-0.013618991,4
65985657,0.7069501,-0.012858891,-0.049464528,-0.70541435,0.9999073,-1.4315596e-09,-5.1520815e-10,-0.013618991,4
66035323,0.70667773,-0.027058609,-0.06265719,-0.70423615,0.9999073,-1.4315596e-09,-5.1520815e-10,-0.013618991,4
66084980,0.705981,-0.041424505,-0.07539635,-0.70298666,0.9999073,-1.4315596e-09,-5.1520815e-10,-0.013618991,4
66134634,0.7050809,-0.053637613,-0.090399645,-0.701293,0.9999073,-1.4315596e-09,-5.1520815e-10,-0.013618991,4
