timestamp,yaw_composite,yaw_variance,yaw[0],yaw[1],yaw[2],yaw[3],yaw[4],innov_vn[0],innov_vn[1],innov_vn[2],innov_vn[3],innov_vn[4],innov_ve[0],innov_ve[1],innov_ve[2],innov_ve[3],innov_ve[4],weight[0],weight[1],weight[2],weight[3],weight[4]
43375969,-0.3314299,3.6626205,-2.5137124,-1.2570753,-0.0004406277,1.2561948,2.5128336,0.0,0.0,0.0,0.0,0.0,0.0,0.0,0.0,0.0,0.0,0.2,0.2,0.2,0.2,0.2
43385899,-0.29640087,3.6406565,-2.5137172,-1.2570801,-0.00044566515,1.2561896,2.5128284,0.0,0.0,0.0,0.0,0.0,0.0,0.0,0.0,0.0,0.0,0.2,0.2,0.2,0.2,0.2
43579568,0.17142904,3.5825448,-2.5140266,-1.2573715,-0.0007668679,1.2558322,2.5124784,0.0050156415,0.016833816,0.0040061697,-0.015739769,-0.015115824,-0.030796925,-0.013469284,0.0031249113,-0.003946973,-0.02491179,0.19998953,0.20000115,0.20001118,0.20000575,0.19999239
43773240,0.45326412,3.7577553,-2.5137439,-1.2569667,-0.00042685814,1.2560098,2.5126204,0.034467563,0.04652577,0.018473743,-0.0109211635,-0.0010366514,-0.05997794,-0.026564352,-0.004771373,-0.02471563,-0.05883517,0.199918,0.19998807,0.20007464,0.20005798,0.19996122
43981848,-0.5565764,3.86167,-2.5132818,-1.2566781,-0.00020078289,1.2563705,2.513127,-0.011720844,-0.006430529,-0.03978096,-0.06568306,-0.048346564,-0.019232912,0.017557072,0.033953965,0.0073079155,-0.025565622,0.19997586,0.20005137,0.20005594,0.19998313,0.19993372
44180440,0.7061552,3.8509116,-2.5139306,-1.2566947,-0.00022240936,1.2557138,2.5120826,0.09381159,0.11135319,0.068093255,0.02380605,0.03969896,-0.08957824,-0.03838648,-0.005882591,-0.03697883,-0.0887128,0.19970147,0.1998852,0.20022772,0.20025538,0.19993013
44379075,0.8376052,3.719595,-2.5157204,-1.2580354,-0.0015160714,1.2540002,2.5100622,0.08135036,0.09324367,0.047443874,0.0072618118,0.028183023,-0.058438573,-0.0063994043,0.020968817,-0.014102388,-0.06317933,0.1995203,0.19975354,0.20032762,0.20044887,0.19994965
44577710,0.99136853,3.6147954,-2.5166674,-1.2589458,-0.0022508884,1.2533375,2.5092688,0.044756234,0.056723945,-0.0006485265,-0.04803043,-0.020037973,-0.024385951,0.039859723,0.07104334,0.026174994,-0.03279809,0.19955128,0.19969754,0.20026192,0.2004644,0.20002492
44776350,0.98340607,3.616019,-2.5157695,-1.257506,-0.000795641,1.2542608,2.5098476,0.06004632,0.09603523,0.045651287,-0.021379221,-0.012547546,-0.091521345,-0.026847223,0.027298924,-0.0038304552,-0.07722397,0.1993211,0.1995492,0.20040053,0.20069851,0.20003057
44974981,1.1156673,3.55728,-2.5175717,-1.2585917,-0.0015391463,1.2530133,2.507946,0.10450713,0.11716804,0.042552013,-0.01611955,0.022041384,-0.048830763,0.033788454,0.07125718,0.011983287,-0.062210053,0.19910234,0.1992663,0.20044419,0.20100912,0.20017797
45178586,1.245089,3.5393243,-2.517264,-1.258456,-0.0011649013,1.2537067,2.5085986,0.038264975,0.056253694,-0.013991473,-0.07520097,-0.043071985,-0.027185755,0.05255594,0.094153546,0.040345054,-0.03457652,0.19923922,0.19924904,0.2002963,0.20093507,0.20028032
45377219,1.3493147,3.5461047,-2.5208664,-1.2615955,-0.003892583,1.250771,2.5051222,0.0934395,0.103470474,0.06349368,0.028870821,0.047296815,-0.007291848,0.038009495,0.06146638,0.030766455,-0.011681249,0.19914646,0.19901545,0.20024405,0.20113714,0.20045677
45575851,1.6607457,3.700853,-2.520284,-1.2610004,-0.0024473444,1.2527277,2.5065475,0.07668711,0.10540213,0.0038858345,-0.087170996,-0.0424145,-0.0347914,0.08127236,0.14419112,0.06729108,-0.043145422,0.1993652,0.19878623,0.19988245,0.20114346,0.20082276
45779454,-0.8605049,3.6900468,-2.5164928,-1.2614394,-0.0077824374,1.2485976,2.508045,0.056456305,0.1116159,-0.13309364,-0.33832717,-0.22164619,-0.23759101,0.03744236,0.17426479,-0.01578549,-0.26972345,0.1998786,0.20124906,0.20089133,0.19930199,0.19867902
45978091,-0.60710764,3.8920414,-2.5141482,-1.2583473,-0.0046641664,1.2509917,2.5099633,0.08614725,0.13317706,0.03513484,-0.07303287,-0.04156093,-0.11428222,0.0043840986,0.08592996,0.017932873,-0.106175125,0.1995621,0.20104851,0.20108531,0.19962093,0.19868322
46176724,-0.76684123,3.7712722,-2.514099,-1.2586509,-0.0047335904,1.2514151,2.5104606,0.057450935,0.09948338,-0.010149511,-0.12043496,-0.07878532,-0.07414856,0.055115573,0.13512732,0.055697046,-0.07400586,0.19978003,0.20108956,0.20089208,0.1994614,0.19877702
46375360,-0.3937481,3.68155,-2.5088294,-1.2524213,0.0010971146,1.2560465,2.5147464,0.12519704,0.14218387,0.011901899,-0.08618923,-0.016167795,-0.118274316,0.024505533,0.08497231,-0.020247478,-0.14624035,0.1992542,0.2009436,0.2013296,0.19987531,0.19859718
46578961,-0.03154576,3.5286527,-2.4976435,-1.2401788,0.014040812,1.2683707,2.5259886,0.11078377,0.16408074,0.056646217,-0.06346444,-0.030262806,-0.10338836,0.027283583,0.11834922,0.04453502,-0.09285918,0.19898376,0.20046715,0.20130731,0.2003375,0.1989042
46777592,-1.3648632,3.5523777,-2.4922683,-1.2366443,0.019173786,1.2763114,2.5340836,0.02611424,0.07269125,-0.039277855,-0.15526134,-0.11516444,0.018112577,0.15131696,0.23667297,0.15683424,0.021519385,0.20023115,0.20054153,0.20010325,0.19952235,0.19960168
46976232,-2.7882411,3.6169763,-2.4999273,-1.2441119,0.013408674,1.2714005,2.5280094,0.094365284,0.15188588,0.057708334,-0.05825344,-0.03555583,-0.0315345,0.08625693,0.17745921,0.116041414,-0.0132657215,0.20061393,0.20002799,0.19940436,0.19960286,0.2003508
47174869,-2.2225308,3.6128292,-2.51086,-1.2558758,0.0008863481,1.2592403,2.5168293,0.05503364,0.13294065,-0.014471788,-0.18352102,-0.14030917,-0.14862576,0.0315078,0.16141048,0.06114261,-0.13041544,0.20077519,0.20047042,0.19951625,0.1992304,0.20000774
47373502,-2.3898003,3.544278,-2.5097685,-1.2544428,0.002580967,1.2607555,2.517973,0.09309638,0.15030375,0.018021522,-0.12120291,-0.07453811,-0.11678506,0.04081162,0.14414279,0.050043836,-0.11130597,0.20069873,0.20030928,0.1994933,0.19937696,0.20012173
47577104,-0.5612049,3.8508613,-2.5100994,-1.2535698,0.002430606,1.2587761,2.5158823,0.1384378,0.17483619,0.008613632,-0.13063523,-0.05012943,-0.17095943,0.0154927075,0.10790527,-0.021849379,-0.1941911,0.19988436,0.20026304,0.20027857,0.19990839,0.19966567
47775916,-0.44656843,3.6938102,-2.5152009,-1.2591906,-0.008071714,1.2457906,2.5062325,0.17777836,0.13319528,-0.074311055,-0.15817438,-0.002373917,-0.21526656,-0.011474088,0.009161815,-0.18180588,-0.32064372,0.19877249,0.20176846,0.20232123,0.19965832,0.19747953
47974374,-0.37243587,3.597311,-2.541637,-1.2850806,-0.036265507,1.2156372,2.4771633,0.1693503,0.1620332,-0.045787048,-0.16856897,-0.035809465,-0.17490907,0.04216437,0.10271269,-0.076048575,-0.24877298,0.19790393,0.20226403,0.20350146,0.19988069,0.19644979
48177973,-0.50408036,3.6372051,-2.540157,-1.2859449,-0.04602734,1.2026948,2.4711783,0.2657668,0.14862081,-0.12950441,-0.18771812,0.056845903,-0.23994325,0.015857786,-0.015240505,-0.2895912,-0.4306314,0.19641946,0.20546277,0.20695718,0.1987738,0.19238679
48381577,-0.6901251,3.7017386,-2.5206032,-1.2730235,-0.04336741,1.2055874,2.484539,0.20153494,0.0741913,-0.22138669,-0.28454554,-0.02192549,-0.26921412,0.0029351413,-0.03088285,-0.32348937,-0.47548127,0.19644831,0.21038894,0.2098685,0.19564359,0.18765059
48580371,-0.7709181,3.6129599,-2.516079,-1.270313,-0.03968341,1.2116532,2.4911437,0.11935589,0.11102295,-0.11315876,-0.25291175,-0.10893561,-0.07649239,0.1607689,0.22942115,0.03718877,-0.15799153,0.19753495,0.21071838,0.20894976,0.19479351,0.18800348
48778847,-0.7013197,3.649194,-2.508862,-1.2630584,-0.03679734,1.2117832,2.4939222,0.21114817,0.17626648,-0.07838743,-0.21147701,-0.031022847,-0.21783376,0.042397067,0.09388356,-0.13366915,-0.33274263,0.19618846,0.21204397,0.21110585,0.19474567,0.18591598
48977483,-0.44944236,3.4587674,-2.5071027,-1.2547033,-0.03465736,1.2034435,2.4852703,0.40622205,0.3408113,0.05359541,-0.07225521,0.14783789,-0.25403646,0.031503573,0.06314674,-0.20205837,-0.4063751,0.19119915,0.21191931,0.2162138,0.19773671,0.18293095
49176119,-0.63286614,3.5915408,-2.4999084,-1.2559547,-0.042576402,1.1997204,2.4909818,0.116688505,0.013186187,-0.28636086,-0.38526806,-0.13491422,-0.21640038,0.07204901,0.069071546,-0.21781293,-0.4051358,0.19303758,0.2166048,0.21701029,0.1936487,0.1796986
49374860,-0.59072036,3.4566107,-2.4918866,-1.249317,-0.048045594,1.1879187,2.4875216,0.2932952,0.19831698,-0.0888038,-0.19091935,0.048618365,-0.34013999,-0.06249425,-0.058838636,-0.33362502,-0.5192638,0.18982515,0.22075258,0.22274962,0.1927669,0.17390572
49578355,-0.59861964,3.4769936,-2.505556,-1.2618101,-0.05646711,1.1809013,2.4772935,0.21303852,0.18744712,-0.056694992,-0.20320855,-0.036573507,-0.022771388,0.23550922,0.29794505,0.085063994,-0.12705836,0.19048499,0.21929361,0.22122662,0.19334874,0.17564604
49781956,-0.6424372,3.4744203,-2.5277581,-1.2858156,-0.08335503,1.1539437,2.4531896,0.051799983,0.10744613,-0.071044,-0.25092041,-0.17886162,-0.20547953,0.009615496,0.13161847,0.0027448386,-0.21588293,0.19033545,0.22079325,0.22223109,0.19245145,0.17418884
49980592,-0.580167,3.3593187,-2.5564353,-1.3103476,-0.11089056,1.1205634,2.4188685,0.11052519,0.22504014,0.08169854,-0.13313104,-0.12223819,-0.34665245,-0.14815798,0.02244763,-0.05546069,-0.29336295,0.18735208,0.22034897,0.22516784,0.19440278,0.17272834
50179312,-0.5243137,3.324191,-2.5781054,-1.3272316,-0.123170614,1.106664,2.399215,0.22974662,0.3465286,0.2231016,0.020813942,0.016732857,-0.16600728,0.012105256,0.17705636,0.11736326,-0.103129745,0.18663359,0.21749893,0.22431558,0.19668692,0.17486495
50377867,-0.75542325,3.555409,-2.580253,-1.3383745,-0.12599944,1.1179779,2.4115672,0.09025058,0.3542322,0.2645511,-0.05698839,-0.18031733,-0.014135912,0.17867176,0.48191863,0.5032244,0.19052836,0.19347684,0.2178541,0.21726534,0.19258602,0.17881778
50576498,-0.9304564,3.2830644,-2.5707157,-1.3430803,-0.14402984,1.1046803,2.415798,-0.29899836,0.16226333,0.1683746,-0.2891604,-0.5978273,-0.26524422,-0.10703726,0.3703923,0.54027545,0.14094222,0.1958647,0.2268973,0.21975508,0.18543237,0.1720505
50775135,-1.1691065,3.0446024,-2.5569017,-1.3497204,-0.15948361,1.1030211,2.4334874,-0.26642537,0.21042415,0.3536003,-0.029299006,-0.43991512,-0.05774936,-0.03590843,0.40917537,0.70531327,0.41169557,0.20360014,0.23748265,0.21719754,0.17453778,0.16718183
50973796,-1.4069142,2.8682826,-2.540892,-1.3620052,-0.17908797,1.1057657,2.4603646,-0.14476977,0.27329808,0.5528649,0.32104087,-0.14325853,0.16473846,0.024214149,0.3585588,0.75418794,0.6331622,0.2161568,0.25065354,0.21071686,0.15989207,0.16258064
51177370,-1.4593638,2.6756458,-2.5157654,-1.3656012,-0.20062484,1.0986713,2.48513,-0.123032,0.15572315,0.53677905,0.5240785,0.07641828,0.37663326,0.08090824,0.22693536,0.6647266,0.7662051,0.22446863,0.26830995,0.20980555,0.14529644,0.15211947
51380973,-1.4824872,2.57271,-2.517106,-1.3809634,-0.22575203,1.0796525,2.482654,-0.15717925,0.005932763,0.38730526,0.5123326,0.13005356,0.2449021,-0.09423418,-0.08091353,0.3185153,0.54371697,0.22803909,0.27785647,0.20980226,0.13807386,0.14622825
51579607,-1.5193338,2.4524302,-2.5109932,-1.393967,-0.2489586,1.0666519,2.490778,0.14825287,0.22142303,0.5093896,0.6663648,0.4077145,0.2963857,0.019361988,-0.02911979,0.25360796,0.48260888,0.23402931,0.28957224,0.20786718,0.12867054,0.1398608
51778264,-1.5261793,2.447017,-2.5124261,-1.3969208,-0.25188607,1.0648757,2.4894285,-0.007599607,0.04514475,0.06852561,0.023659915,-0.030669034,0.11147392,0.112660155,0.16178432,0.20360777,0.16764072,0.23465128,0.2901544,0.20745133,0.12807624,0.1396668
51976880,-1.5191616,2.4493449,-2.514936,-1.398112,-0.25301653,1.06153,2.4855502,0.25331485,0.30808395,0.0484063,-0.24822678,-0.093719944,-0.22578482,0.08227646,0.26749063,0.059080902,-0.29366156,0.23358557,0.28944388,0.20825496,0.12896012,0.13975547
52180479,-1.5530366,2.3971906,-2.516442,-1.4082845,-0.26674053,1.0553305,2.4879467,0.21426818,0.26650906,-0.12958413,-0.54250526,-0.286004,-0.25216767,0.20237154,0.448717,0.119072184,-0.38225773,0.23763265,0.293805,0.20575745,0.12470387,0.13810107
52379120,-1.542542,2.3780007,-2.5222049,-1.4147209,-0.27652484,1.0431933,2.4792597,0.2517632,0.22516672,-0.062289085,-0.2881999,-0.05310734,-0.20825431,0.09104104,0.19891928,-0.069943115,-0.36033577,0.2362344,0.29532957,0.20754597,0.12447257,0.13641754
52577792,-1.5460896,2.3693802,-2.5275116,-1.4210043,-0.28395808,1.0357912,2.4737482,0.11951281,0.021611191,-0.0821486,-0.057448834,0.090039,-0.020764643,0.04575405,-0.01532242,-0.15127075,-0.15129936,0.23615889,0.29611763,0.20784864,0.12406311,0.13581167
52776388,-1.5297513,2.3481488,-2.5235376,-1.4188693,-0.2850807,1.0329146,2.475191,0.21870913,0.09814371,0.07868169,0.20713535,0.3075045,0.09246849,0.056371868,-0.071170114,-0.14218031,-0.019399438,0.23515259,0.29820865,0.20940338,0.123338334,0.13389704
52975021,-1.5120177,2.3301158,-2.519395,-1.4160006,-0.28522447,1.0304601,2.4766505,0.27851957,0.18462646,0.1477185,0.22768667,0.322788,0.022737492,0.018273052,-0.0704201,-0.14552599,-0.074450806,0.23392344,0.30001995,0.21108563,0.1228602,0.1321108
53178623,-1.4927844,2.3394785,-2.5187635,-1.4129512,-0.28194556,1.0296414,2.4744918,0.32288042,0.26932818,0.16895433,0.14123282,0.25555676,0.010285165,0.09465425,0.08300868,-0.030450642,-0.08145696,0.23177588,0.2989865,0.21285982,0.12437484,0.13200295
53377317,-1.4977725,2.3091261,-2.5129225,-1.4113723,-0.28304815,1.0312835,2.481247,0.1349462,0.16909757,-0.09442653,-0.377941,-0.2054249,-0.19231042,0.113304734,0.28076768,0.063143186,-0.28238362,0.23326191,0.30176845,0.2122172,0.122166745,0.1305857
53575894,-1.4978225,1.992134,-2.4694672,-1.4082474,-0.31590536,1.0156177,2.5216799,0.024410605,0.20823511,-0.34339273,-1.0787821,-0.7963068,-0.5785537,0.11628451,0.5973525,0.19232664,-0.673082,0.24161743,0.33496562,0.21169432,0.100643605,0.111078955
53779495,-1.5080609,1.4557022,-2.3994873,-1.4096103,-0.37691504,0.98616934,2.5912898,0.13644671,0.44770682,-0.34869975,-1.5714502,-1.1667258,-0.8526113,0.20242015,0.9973242,0.44031602,-0.98948926,0.25531292,0.4005692,0.2031704,0.06381845,0.07712896
53978130,-1.5073217,0.9107436,-2.309203,-1.4097356,-0.45303395,0.94862735,2.6823883,-0.011409938,0.29604858,-0.49774373,-1.9229975,-1.4525771,-0.9187108,0.18721294,1.072106,0.5306318,-1.1409338,0.261634,0.48930728,0.18075137,0.0282522,0.04005508
54176766,-1.5527465,0.65807945,-2.2576737,-1.4247535,-0.5043461,0.94520015,2.7551165,-0.095532715,0.088213146,-0.49584073,-1.730176,-1.2729845,-0.5211072,0.33288887,1.0461,0.6400052,-0.8180368,0.27714005,0.5396319,0.14526804,0.012967645,0.024992248
54380375,-1.5441252,0.61344516,-2.2403355,-1.4173639,-0.5038536,0.95181185,2.768342,0.06015235,0.114993155,-0.18713206,-0.8705236,-0.55420846,-0.3560281,0.08325546,0.46423635,0.2069339,-0.5865828,0.27566245,0.55236113,0.13958009,0.010770918,0.021625511
54579003,-1.5333176,0.6147328,-2.2345057,-1.4074275,-0.49328858,0.958071,2.7753975,0.23395997,0.17703338,0.113809355,0.064007394,0.1851777,-0.043859456,0.015818816,0.037485976,-0.09200853,-0.14359148,0.27433437,0.55328923,0.14001216,0.010835815,0.02152849
54777638,-1.5230522,0.6014211,-2.2235339,-1.4007914,-0.49235517,0.95477694,2.7905838,0.13557872,0.02592998,0.09658283,0.39206153,0.39426744,0.20818661,0.05962295,-0.11210078,-0.16013162,0.19120924,0.27196988,0.55718684,0.13984099,0.010398959,0.020603323
54976276,-1.5190905,0.5848507,-2.2170327,-1.3995048,-0.49858683,0.945774,2.8027222,0.15542664,0.043955624,0.12915742,0.4569518,0.44263363,0.18676607,0.017341312,-0.17147182,-0.20881519,0.18333691,0.26997796,0.5617964,0.13890994,0.009788646,0.019527102
55174933,-1.5209552,0.5742422,-2.2194264,-1.4030282,-0.507276,0.93305695,2.806315,0.2953287,0.21477664,0.25891268,0.45326483,0.4635684,0.08901994,-0.0055099325,-0.115821786,-0.16530766,0.07055473,0.26812762,0.5655568,0.13821001,0.009360373,0.018745152
55378508,-1.5244122,0.57286566,-2.2245517,-1.4071766,-0.5119403,0.9255072,2.803204,0.17402162,0.12151879,0.12209927,0.18163115,0.22352666,0.05645581,0.038125247,0.004651988,-0.059079513,0.016476717,0.2672954,0.5665362,0.13824755,0.009320779,0.018600019
55577309,-1.5251262,0.57381237,-2.2268229,-1.4079046,-0.51147896,0.92384326,2.8016403,0.14356229,0.10479735,0.06568042,0.027401824,0.10819149,0.026716786,0.067402706,0.08562611,0.00037700683,-0.04059723,0.26700082,0.5667689,0.13825116,0.0093596615,0.018619506
55775782,-1.525918,0.57569295,-2.229136,-1.4081265,-0.5094938,0.9238376,2.7999008,0.16927093,0.13929144,0.06693554,-0.046233498,0.069044374,0.010030586,0.09728502,0.15396866,0.04879659,-0.08147156,0.26705182,0.566715,0.13810124,0.009419726,0.018712206
55974418,-1.528714,0.5771754,-2.2345724,-1.4109621,-0.5108073,0.9206632,2.7942743,0.17794354,0.16550285,0.0758698,-0.09978872,0.02205744,-0.07663229,0.04499362,0.13859573,0.034907788,-0.17197245,0.26662394,0.56696814,0.13821614,0.009470514,0.018721243
56178024,-1.5354562,0.5784356,-2.2422729,-1.4165952,-0.51414716,0.9162223,2.787038,0.16904892,0.16846251,0.070928544,-0.13874543,-0.01744824,-0.054151192,0.0855817,0.1999295,0.10075508,-0.14819379,0.2669761,0.5669682,0.1377744,0.009486668,0.018794645
56376784,-1.5443888,0.57639617,-2.2497497,-1.4240248,-0.52024204,0.9106199,2.779954,0.08786786,0.09154291,-0.015382178,-0.24616551,-0.117195874,-0.0624653,0.090419844,0.21589552,0.11313622,-0.16124704,0.2676814,0.56758523,0.13668983,0.009346611,0.018696895
56575290,-1.5495911,0.574726,-2.2554474,-1.4288864,-0.5243047,0.90613514,2.7739873,0.12927176,0.13401711,0.014795594,-0.23710793,-0.093766555,-0.109021366,0.05809073,0.19338427,0.08143993,-0.21755585,0.2675848,0.5684105,0.13620688,0.0092512835,0.018546585
56778892,-1.5529249,0.5771215,-2.262004,-1.4305358,-0.5275886,0.9024144,2.7651515,0.19062237,0.20034769,0.11669734,-0.07899423,0.01573056,-0.06092126,0.065651424,0.17548943,0.09976456,-0.13396125,0.26779085,0.56811595,0.13609643,0.009320656,0.018676165
56972562,-1.5646032,0.57635605,-2.2717028,-1.4405043,-0.53600484,0.8937156,2.7576752,0.08265237,0.13071969,0.15903114,0.0890612,0.012663338,0.083522476,0.10491595,0.17183757,0.22728504,0.13478816,0.26873255,0.568214,0.13509652,0.009239905,0.018717073
57171273,-1.5695692,0.574141,-2.2738626,-1.4465606,-0.5381845,0.8906347,2.7587535,-0.04209665,0.024802014,0.11544606,0.119983956,-0.049351748,0.01634214,-0.023013346,0.016362071,0.14292394,0.13465115,0.26865363,0.56878823,0.13478534,0.009161528,0.018611258
57379810,-1.5729386,0.5738355,-2.276624,-1.4493555,-0.5399891,0.887893,2.7573886,0.11026813,0.12589145,0.1467029,0.13111946,0.091221176,0.100559205,0.10126253,0.12508276,0.14809701,0.12494009,0.268927,0.5689476,0.13437481,0.009129733,0.018620783
57578405,-1.5779725,0.5747953,-2.2815444,-1.4535881,-0.5428914,0.8845515,2.7527711,0.12736794,0.077793,-0.01795474,-0.10803703,0.05132778,0.05126277,0.1365314,0.16424814,0.03120007,-0.0682827,0.26936668,0.568637,0.13412635,0.009155576,0.018714344
57777036,-1.5708867,0.5764296,-2.2812662,-1.4503459,-0.54017967,0.88313085,2.7507308,0.30206063,0.25120986,0.12485991,-0.014412403,0.18375356,-0.115428105,0.0047990233,0.055047233,-0.105201766,-0.26230973,0.26666528,0.56947607,0.1360124,0.009307742,0.018538501
57975792,-1.560801,0.5752813,-2.2759743,-1.4436462,-0.5348561,0.88572526,2.7538822,0.21328455,0.1669578,0.035672557,-0.12009448,0.07978109,-0.15174845,-0.021850131,0.037861675,-0.121572874,-0.29956245,0.2643053,0.5708331,0.13730769,0.009326739,0.018227167
58174307,-1.5547987,0.57410413,-2.2686737,-1.4364834,-0.52704,0.8940836,2.7617097,0.11954774,0.070458874,-0.063773036,-0.21883593,-0.013206277,-0.008617185,0.12239799,0.17984802,0.016546179,-0.16057533,0.2649414,0.57097256,0.13662544,0.009251107,0.018209532
58372943,-1.5521116,0.5702612,-2.2623286,-1.4318024,-0.5224575,0.90066785,2.7691858,0.021583661,-0.019559734,-0.14768153,-0.30612177,-0.11470111,-0.025931623,0.10358226,0.1660757,0.015012924,-0.1671902,0.266118,0.57157665,0.13519226,0.009036561,0.018076578
58576549,-1.5485457,0.5730538,-2.2612467,-1.4285676,-0.5177605,0.9037549,2.7698293,0.24973702,0.22401643,0.10430282,-0.06879049,0.09975025,-0.027880512,0.10377797,0.18041,0.049534757,-0.15200129,0.265794,0.5710654,0.13575016,0.009173297,0.018217094
58775213,-1.552842,0.56723607,-2.261642,-1.4315069,-0.52184874,0.901829,2.7703388,-0.06572726,-0.083958566,-0.19084692,-0.35426491,-0.20837523,-0.066060305,0.055713348,0.13089389,0.018017873,-0.17350514,0.26657087,0.5723426,0.13428421,0.008881554,0.017920783
58978782,-1.5568297,0.56931186,-2.2657263,-1.4342932,-0.5229152,0.90051615,2.7668061,0.19600064,0.17579639,0.06604809,-0.09845632,0.05332251,0.0183708,0.14141957,0.21583985,0.09885162,-0.093165815,0.267258,0.5715861,0.13408756,0.008953681,0.018114677
59177418,-1.5543734,0.5674948,-2.2660437,-1.4342808,-0.5242288,0.89764947,2.7649422,0.12468018,0.105096474,0.0006298702,-0.15412825,-0.009665467,-0.16201454,-0.045600183,0.024114981,-0.0874505,-0.2680118,0.26557943,0.5727958,0.1348628,0.008923224,0.017838694
59381018,-1.5551481,0.5672089,-2.268226,-1.435913,-0.5260213,0.8950277,2.7621546,0.13101447,0.115311086,0.023554169,-0.116315395,0.009183283,-0.08439943,0.019752188,0.083777815,-0.012927379,-0.17671981,0.26494852,0.5731747,0.13518898,0.008928975,0.017758826
59579677,-1.557835,0.5673877,-2.2707171,-1.4381042,-0.5276934,0.89337933,2.7599134,0.09951326,0.08997613,0.016085638,-0.10387639,-0.0056190304,-0.013417814,0.07391478,0.13099681,0.055344857,-0.08594811,0.26521304,0.57307285,0.13499641,0.008926525,0.01779123
59778292,-1.5576342,0.56843543,-2.2736084,-1.439674,-0.52946055,0.88993335,2.7558296,0.18124893,0.17455165,0.106704175,-0.007393174,0.08103491,-0.12731141,-0.045370925,0.009988565,-0.05781539,-0.19255146,0.26401052,0.5733193,0.13591966,0.00901031,0.017740266
59976961,-1.5641203,0.5701963,-2.280313,-1.4453769,-0.5340118,0.8851991,2.7495215,0.16655847,0.16613404,0.097500935,-0.029457878,0.05439824,0.0062971488,0.0942653,0.15857646,0.09570408,-0.055381462,0.26446357,0.57272017,0.13585106,0.009074667,0.017890472
60180527,-1.5720584,0.57105374,-2.2884688,-1.4528338,-0.5407465,0.87831825,2.7415726,0.14528169,0.1455921,0.063088685,-0.0883902,0.011675848,-0.031609993,0.07336346,0.1496647,0.075516015,-0.10465169,0.264715,0.57242185,0.13578741,0.009106785,0.017968941
60379163,-1.5814378,0.5731616,-2.2981088,-1.4612768,-0.54788053,0.87107503,2.7323236,0.19088444,0.19568926,0.11015104,-0.054449797,0.045425538,-0.016748615,0.095313184,0.17992912,0.107018195,-0.08931765,0.26526254,0.571662,0.13573033,0.009188619,0.018156452
60577799,-1.5839039,0.5713023,-2.2997541,-1.463372,-0.5501651,0.86913896,2.7310362,0.08309062,0.08888963,-0.009430565,-0.19696073,-0.082521066,-0.07101568,0.056929182,0.1529606,0.06982373,-0.15370187,0.26541916,0.5721006,0.13531479,0.0091027105,0.01806272
60781401,-1.5749937,0.5660061,-2.2905936,-1.4558477,-0.54452693,0.87459075,2.7397902,0.018497422,0.028136,-0.07886702,-0.28857517,-0.16663785,-0.15110384,-0.0096385665,0.09878579,0.011396997,-0.23888196,0.26442888,0.5739094,0.13511097,0.008899003,0.01765174
60980055,-1.5559175,0.5645478,-2.2736938,-1.4388406,-0.52834374,0.8894309,2.7554066,0.13105406,0.1371457,0.031548083,-0.16945085,-0.045890503,-0.15385364,-0.017047215,0.08520959,-0.003494516,-0.24306956,0.2630638,0.5748116,0.13578914,0.008886265,0.017449249
61178674,-1.5379691,0.56442446,-2.259039,-1.4234433,-0.51351404,0.90237325,2.7683277,0.16479217,0.17244893,0.07439125,-0.11635695,-0.0035221064,-0.16605674,-0.037122134,0.06074298,-0.019715868,-0.24765554,0.26142296,0.5754468,0.1368813,0.0089442665,0.017304696
61377307,-1.5307962,0.56451577,-2.249846,-1.4142703,-0.50336903,0.91369194,2.7787712,0.11914225,0.13790764,0.057246562,-0.12432641,-0.042550996,-0.003985971,0.113148764,0.21177557,0.15600015,-0.063076094,0.26264903,0.5749379,0.13606685,0.008914113,0.017432129
61570977,-1.5325463,0.56373346,-2.247821,-1.4128176,-0.50087893,0.91829455,2.7829642,0.08609781,0.11471364,0.04231142,-0.14341016,-0.079895236,0.033515006,0.1485719,0.25385427,0.2133049,-0.011932448,0.26461238,0.57437706,0.13461767,0.008819252,0.017573705
61779545,-1.5384929,0.5618854,-2.2507887,-1.4166226,-0.5043796,0.9163697,2.7816324,0.04893265,0.096780285,0.043887913,-0.14493263,-0.12109649,-0.014160611,0.093107656,0.20906362,0.20120078,-0.030301131,0.26589388,0.5743673,0.1334539,0.008698539,0.017586328
61978180,-1.5483379,0.5620978,-2.2594566,-1.4250405,-0.51207674,0.90941423,2.7738512,0.120647214,0.17569977,0.122704975,-0.08028789,-0.062008303,-0.07313417,0.040143233,0.1663042,0.16429412,-0.08490723,0.2667488,0.57393605,0.13293284,0.008689614,0.017692827
62176816,-1.5632763,0.5608093,-2.273097,-1.4389741,-0.52588606,0.8962916,2.761014,0.08678569,0.1475171,0.0883082,-0.13610782,-0.11479984,-0.093894385,0.031447668,0.17060861,0.1677916,-0.10739567,0.26731798,0.57401246,0.13236226,0.008624335,0.017682973
62380418,-1.5744888,0.56328267,-2.279608,-1.4417602,-0.5297847,0.89730763,2.7569141,0.224215,0.33028108,0.31569454,0.080513984,0.009207472,-0.019954905,0.08957409,0.25565386,0.32928386,0.034265295,0.27188948,0.5714767,0.12976657,0.008592751,0.018274462
62579056,-1.5886157,0.53939486,-2.2806215,-1.4525781,-0.5466774,0.88604474,2.7624745,-0.1586107,0.08892253,0.22526312,-0.025419548,-0.398187,0.06874883,0.1150679,0.3563809,0.6781087,0.34325618,0.27370813,0.57714784,0.12463804,0.007522409,0.01698351
62777689,-1.6236736,0.49312276,-2.2818651,-1.4774102,-0.5793481,0.86882895,2.7806249,-0.15534559,0.24147877,0.5324654,0.25142822,-0.4411362,0.072808266,0.063407004,0.39062732,0.97807145,0.5735911,0.28084895,0.5864075,0.11230998,0.005584442,0.014849169
62976325,-1.6274443,0.4573307,-2.273416,-1.4826893,-0.60170805,0.8521375,2.7945173,-0.29421666,0.0762475,0.34110045,0.04977867,-0.596158,0.017753065,0.027340472,0.3455727,0.9023771,0.47123152,0.27885643,0.59782004,0.10639639,0.004366688,0.012560468
63179926,-1.6382866,0.43701935,-2.2623136,-1.4858125,-0.6064348,0.8589803,2.8191028,-0.046306144,0.2143517,0.369273,0.09709725,-0.3222126,0.1137763,0.1651749,0.42097822,0.7937349,0.3997355,0.28531426,0.6003837,0.09881079,0.0036399153,0.011851313
63378729,-1.6537368,0.42705694,-2.2632823,-1.4905776,-0.61436415,0.8619096,2.82706,0.06633675,0.2884448,0.40936625,0.1457785,-0.19507632,0.04450494,0.10576239,0.33799523,0.6503497,0.27240756,0.29301834,0.59923136,0.09275418,0.003237631,0.011758332
63577201,-1.668109,0.41026968,-2.2642562,-1.5036038,-0.6306451,0.8522976,2.8345768,-0.13076915,0.123593055,0.28596082,0.023127481,-0.39879128,0.04271537,0.08583838,0.33239883,0.7145478,0.32329166,0.2951067,0.6029048,0.088291325,0.0027714586,0.010925756
63775834,-1.6774095,0.40547767,-2.267451,-1.5074368,-0.6370487,0.8511858,2.8351955,0.025791623,0.21868326,0.32797766,0.09413099,-0.20606555,-0.061461806,-0.008775055,0.19413319,0.47494388,0.13417462,0.29899108,0.60215586,0.0853858,0.0026012626,0.010866011
63974470,-1.6750454,0.40542966,-2.261835,-1.503843,-0.6298307,0.85972124,2.8431325,0.15343425,0.21594584,0.19621271,0.0042129457,-0.008747891,-0.053493112,0.032165676,0.15281358,0.19278741,-0.048486233,0.30058724,0.600982,0.084811985,0.0026054366,0.011013374
64173278,-1.6701211,0.40534592,-2.2591305,-1.498813,-0.6273948,0.8613546,2.8442445,0.057042897,0.093819834,0.04791441,-0.13581905,-0.091193706,-0.12454446,-0.03207548,0.07239944,0.06386098,-0.15726645,0.30001682,0.6015009,0.08494325,0.0025968426,0.010942184
64381674,-1.6749879,0.40399227,-2.2613559,-1.5037203,-0.63038987,0.85941684,2.843598,0.034596242,0.079065815,0.054066427,-0.105316795,-0.09777358,-0.031835824,0.042609632,0.1392638,0.1573106,-0.039726943,0.3005846,0.6013876,0.08452319,0.0025726876,0.010931818
64575343,-1.6770755,0.40668303,-2.2652817,-1.5041865,-0.6307722,0.85841346,2.8386319,0.26842794,0.24855101,0.15906453,0.020651832,0.17040886,0.079149276,0.17026652,0.22637442,0.12435819,-0.022660762,0.30129638,0.6001864,0.08474657,0.002632339,0.011138299
64773981,-1.6553084,0.41144744,-2.245651,-1.4831271,-0.6048727,0.88242954,2.8567152,0.3743372,0.27366197,0.101718426,-0.012212634,0.31723142,0.2567183,0.37046695,0.37671235,0.12285426,0.036007524,0.3010952,0.5983769,0.086196885,0.0028031645,0.011527809
64972689,-1.6342039,0.40426117,-2.2333224,-1.4731104,-0.6017973,0.8773975,2.864399,0.41388386,0.23453455,-0.027894855,-0.13738205,0.37995112,-0.10996986,0.038526323,0.005414631,-0.4039583,-0.4564881,0.29214182,0.60568595,0.08888789,0.0027203208,0.010564076
65176217,-1.6282302,0.3968345,-2.2284868,-1.4715804,-0.60501075,0.87222207,2.8690586,0.29424345,0.10891614,-0.17388247,-0.31694654,0.23977955,-0.03249848,0.13623698,0.11503647,-0.31709087,-0.40559524,0.2885743,0.60977656,0.089093044,0.0025847799,0.009971232
65379819,-1.6242652,0.38824618,-2.2279189,-1.4747685,-0.6145912,0.8584926,2.8680022,0.31693798,0.14530668,-0.13571224,-0.31074584,0.23742884,-0.11863592,0.06117469,0.06089908,-0.356633,-0.48569864,0.2826626,0.6156707,0.090038665,0.0024380602,0.00919001
65578454,-1.6281004,0.37757146,-2.23089,-1.4832922,-0.6299914,0.8418782,2.8660073,0.23867959,0.07277882,-0.21790914,-0.43204367,0.13154428,-0.14129093,0.056629695,0.07647795,-0.34343645,-0.51888835,0.2786668,0.6212185,0.08946534,0.0022209932,0.00842835
65777143,-1.636002,0.37348944,-2.236746,-1.4908888,-0.63876027,0.8343577,2.8617258,0.3021266,0.1427367,-0.15818739,-0.41524118,0.16564608,0.050672226,0.2678761,0.30988485,-0.1128782,-0.33816093,0.27891362,0.6219566,0.088679135,0.0021527845,0.008297797
65975776,-1.6344929,0.36473206,-2.2337275,-1.4924554,-0.6455561,0.82719827,2.8660333,0.2541879,0.108223565,-0.19061843,-0.47564223,0.09383496,-0.102649525,0.1247004,0.18601055,-0.22185995,-0.48407155,0.2761897,0.6261475,0.08793018,0.0019861865,0.0077463845
66179329,-1.6252898,0.35756743,-2.2236989,-1.4848856,-0.6439734,0.8286065,2.8769615,0.18987478,0.07589057,-0.18235508,-0.46273386,0.024982572,-0.119875416,0.08907935,0.1630887,-0.17710626,-0.4470638,0.27420643,0.62966377,0.08699804,0.0018394699,0.007292319
66377966,-1.6239359,0.3555328,-2.2166808,-1.4796859,-0.6380375,0.8387047,2.8878005,0.07269021,0.0867487,-0.017620213,-0.27948186,-0.12497271,0.056547374,0.20192215,0.32940137,0.25484097,-0.05394265,0.27757457,0.62833726,0.08495739,0.0017744831,0.007356298
66576631,-1.6393679,0.34094414,-2.216363,-1.4900913,-0.6546371,0.8311,2.8998652,-0.0821653,0.18063778,0.35729477,0.09833489,-0.37266743,0.072782576,0.1170513,0.3643669,0.7919783,0.36608112,0.28198072,0.63077134,0.079004854,0.0014384511,0.0068044835
66775237,-1.6630346,0.2982216,-2.2025504,-1.510116,-0.69986486,0.8056844,2.944067,-0.2541319,0.24859911,0.69780153,0.4330811,-0.65223485,0.10448527,0.05752349,0.42389727,1.3515105,0.78112185,0.28617084,0.64306694,0.06514187,0.00072025025,0.0049000788
66978840,-1.6587073,0.2545915,-2.169676,-1.5187893,-0.7476193,0.76584536,3.0022316,-0.450471,0.08080312,0.601038,0.39849225,-0.86472094,0.21738029,0.13579535,0.488037,1.5556002,0.96507347,0.274335,0.6672553,0.055312157,0.0002939217,0.0028036316
67177473,-1.6499374,0.23122121,-2.13655,-1.5145878,-0.76594555,0.7592851,3.0565627,-0.26738665,0.12718645,0.5198429,0.3748118,-0.6287274,0.27321327,0.22790468,0.48938388,1.3344097,0.8246465,0.27122316,0.67863077,0.04802171,0.00015063254,0.0019737761
67376113,-1.6532677,0.2203004,-2.1245232,-1.5183847,-0.78331864,0.752286,3.0801778,-0.1322631,0.11816679,0.35779738,0.21955368,-0.4146536,0.32866883,0.3268978,0.51178473,1.0646684,0.65311104,0.2722037,0.6823014,0.04373081,0.00010182984,0.0016622202
67574747,-1.6412315,0.21772827,-2.1075597,-1.5061523,-0.7721819,0.76808405,3.1004093,-0.06785922,0.04999438,0.14402315,0.0038384497,-0.2526463,0.14941233,0.18191504,0.2981832,0.551736,0.26521808,0.27324992,0.68252474,0.04253071,9.202037e-05,0.0016026341
67778351,-1.6380807,0.21696745,-2.099941,-1.5006702,-0.7671695,0.7786382,3.1095316,0.12978226,0.17278163,0.18062934,0.0338768,0.0042233765,0.24112391,0.29391277,0.37384695,0.44745162,0.23687387,0.27669996,0.68011385,0.041462597,8.8752735e-05,0.0016347943
67976982,-1.6449842,0.21664971,-2.1055632,-1.507009,-0.7721976,0.7755191,3.1055667,0.026767928,0.06843047,0.07406202,-0.0748765,-0.097874664,0.023649395,0.07710022,0.15734112,0.22714671,0.016271353,0.27759272,0.67958426,0.041100986,8.709518e-05,0.0016349395
68175676,-1.6464643,0.2158209,-2.1048079,-1.5077541,-0.7750274,0.7750257,3.105848,-0.01487083,0.015068993,0.0005290285,-0.1679288,-0.13986069,0.065538645,0.13018239,0.21260363,0.24889523,0.029763222,0.27879953,0.6788868,0.04059682,8.456346e-05,0.0016323075
68379219,-1.6324663,0.21587306,-2.0912194,-1.493746,-0.7591171,0.7908691,3.1208096,0.23760082,0.17751881,0.05353183,-0.13427348,0.1791343,0.08288425,0.17720768,0.22114062,0.032256603,-0.103874326,0.27884665,0.6786841,0.04073708,8.597662e-05,0.0016461455
68577858,-1.6298052,0.214397,-2.0835135,-1.4885075,-0.7552439,0.800078,3.1304638,0.111468926,-0.007784575,-0.20674984,-0.41451567,0.092542544,0.18683672,0.30413532,0.3260242,-0.013037741,-0.10311234,0.2828083,0.67577237,0.039647654,8.294905e-05,0.0016886421
68776492,-1.6272038,0.21276149,-2.0798779,-1.4867187,-0.7557045,0.79909277,3.1358142,0.16146556,0.06317344,-0.11051562,-0.3128764,0.12915048,-0.009025812,0.10054019,0.13111135,-0.15734723,-0.26325318,0.28205317,0.6767748,0.03944717,7.956878e-05,0.0016453512
68975130,-1.6281174,0.21188098,-2.07656,-1.485613,-0.75496644,0.80515367,3.14156,-0.04402472,-0.02432476,-0.053102225,-0.22680834,-0.16055544,0.23160398,0.300353,0.37984434,0.38959172,0.17656004,0.2852105,0.67461205,0.038438443,7.582975e-05,0.0016632017
69173763,-1.6344558,0.2043454,-2.0710013,-1.4921172,-0.7708854,0.7975264,-3.1235101,-0.09425728,0.12908116,0.34391332,0.19763967,-0.3704918,0.23088491,0.23892623,0.41182613,0.93386006,0.508405,0.28707266,0.6760117,0.035394765,5.431605e-05,0.001466592
69377365,-1.6339136,0.18326998,-2.054027,-1.5058911,-0.8185317,0.746875,-3.0840304,-0.4427712,0.0007929504,0.48545623,0.37749177,-0.9051378,0.13751066,0.08080053,0.35181785,1.4550706,0.77428526,0.2722572,0.69506603,0.031791266,2.2637578e-05,0.00086295104
69576002,-1.6428366,0.15601417,-2.0339966,-1.5329784,-0.8965198,0.66605854,-3.0196495,-0.5095395,0.022497848,0.6171151,0.5468498,-1.1063774,0.2998184,0.23444498,0.54394734,1.9409878,1.0714413,0.25284734,0.72065234,0.02613307,4.6949126e-06,0.00036261778
69774637,-1.6832865,0.13964875,-2.0508032,-1.5840166,-0.9855814,0.578588,-3.0117116,-0.38049757,0.051049963,0.5510069,0.5648368,-0.93835086,0.1940968,0.1511178,0.38454545,1.6266576,0.82056975,0.24253139,0.7346562,0.022609754,1.4530133e-06,0.00020125543
69983206,-1.7775584,0.1353548,-2.135174,-1.6797826,-1.0925773,0.48046523,-3.0864508,-0.11579041,0.09148512,0.32799575,0.29164347,-0.44821316,0.2529843,0.2598065,0.38593912,1.0239937,0.52130413,0.24282491,0.73594785,0.021054702,9.432023e-07,0.00017154664
70176876,-1.8087347,0.13470481,-2.164291,-1.7106029,-1.1253536,0.44931582,-3.1137137,0.0937293,0.0034794658,-0.12652013,-0.30787045,0.13064691,0.15648985,0.22107893,0.22205162,-0.05614239,-0.052891195,0.24415152,0.7348251,0.020849133,9.216449e-07,0.00017337436
70375686,-1.8365177,0.12707013,-2.1818001,-1.7424234,-1.1748766,0.3900219,-3.109417,0.32103762,-0.019301042,-0.45669848,-0.7439625,0.6887119,0.18251085,0.2874503,0.17762834,-0.89091456,-0.4175547,0.24061805,0.7395726,0.019670049,5.502291e-07,0.00013880564
70579113,-1.8348469,0.11428484,-2.1716206,-1.7540503,-1.2082244,0.32148013,-3.0690148,0.6296528,0.16083196,-0.43483415,-0.8128609,1.1903749,0.26622903,0.38740915,0.22330786,-1.2781973,-0.5243662,0.22033916,0.759881,0.019702148,2.3739136e-07,7.7416335e-05
70777748,-1.827032,0.10386286,-2.1509738,-1.7552022,-1.2441015,0.2624172,-3.0260952,0.488608,0.068767205,-0.4478323,-0.77274597,1.0600477,0.19044895,0.26793158,0.09704553,-1.2780664,-0.46770966,0.20719436,0.7737484,0.019010052,9.9009974e-08,4.7075646e-05
70981350,-1.8143599,0.09991553,-2.134223,-1.7466222,-1.2460726,0.24871835,-3.000496,0.33779842,0.06876927,-0.24475783,-0.40849882,0.75078255,0.1676188,0.19067591,0.052583277,-0.856241,-0.20390585,0.20042448,0.78054124,0.018996738,6.9572884e-08,3.750652e-05
74973936,-1.4698198,0.0790813,-1.7658901,-1.4280727,-0.98784727,0.4039754,-2.5824869,0.19903721,0.16519347,0.083787814,-0.26129064,0.15296742,-0.017742306,0.06716296,0.14980379,0.111915216,-0.22697508,0.15139784,0.8278224,0.020773318,7.655211e-09,6.4688775e-06
75172572,-1.4763641,0.07812297,-1.7699295,-1.4353395,-0.9988704,0.38792217,-2.580793,-0.16822961,-0.060392335,0.03489369,-0.11834945,-0.46513927,-0.016371012,0.053213716,0.18502712,0.64570117,-0.017962873,0.15015788,0.8292851,0.020551182,6.345558e-09,5.8979936e-06
75376172,-1.4941946,0.07597372,-1.7814821,-1.4532,-1.0236626,0.35741094,-2.5795245,-0.05712209,0.1581111,0.39293164,0.42580292,-0.53394645,-0.11710495,-0.068486035,0.08886415,0.9228183,0.055508792,0.15101115,0.82958406,0.019399509,4.0565875e-09,5.259444e-06
75574808,-1.5060248,0.07338225,-1.7871325,-1.4664332,-1.0460198,0.32322764,-2.571934,-0.19228849,0.04226528,0.30901033,0.42450637,-0.6916925,-0.11788237,-0.08313036,0.06577021,0.96757764,0.10201621,0.14872523,0.8325535,0.018716983,2.4887061e-09,4.268499e-06
77377447,-1.5084213,0.06800471,-1.779949,-1.4702867,-1.0669298,0.27526444,-2.5195484,0.05395001,-0.09333685,-0.21233475,0.072654516,0.50150985,0.018008642,-0.106637836,-0.3241396,-1.0460013,0.10261179,0.14549592,0.83793634,0.016565077,5.940192e-10,2.5686206e-06
77576067,-1.5086167,0.06693868,-1.7779956,-1.4716032,-1.0724286,0.26148918,-2.5124953,0.13717332,0.021169573,-0.073243886,0.14960897,0.49061963,0.1783225,0.07947394,-0.092535764,-0.6723658,0.24980663,0.14312702,0.8403094,0.016561277,4.8454624e-10,2.260715e-06
77774704,-1.500259,0.066504516,-1.7685375,-1.4639219,-1.0672525,0.2620656,-2.5003734,0.21191603,0.12750265,0.026376724,-0.082150996,0.38614476,-0.16800861,-0.17081545,-0.21081065,-0.53495955,-0.2607183,0.14162812,0.84177715,0.016592722,4.3491344e-10,2.0986754e-06
77973340,-1.4990312,0.066009074,-1.767904,-1.4642068,-1.0693237,0.25286967,-2.500071,0.39645463,0.32593477,0.20944703,-0.1505161,0.45918164,-0.18536483,-0.11855666,-0.06676786,-0.23480207,-0.4092891,0.13773091,0.84506583,0.017201396,4.4503026e-10,1.8773615e-06
78172120,-1.5012033,0.06498866,-1.7630169,-1.4680274,-1.080114,0.23390652,-2.500313,0.1379576,0.09380178,0.0053178966,-0.35445893,0.13509712,-0.18822986,-0.111636095,-0.036558338,-0.08724073,-0.40277478,0.1359558,0.8466531,0.017389271,4.2420814e-10,1.7516966e-06
78375578,-1.5022413,0.06531511,-1.7705708,-1.4688758,-1.0771128,0.23645204,-2.5000672,0.073884025,0.042016745,-0.025613107,-0.32002372,0.061082974,-0.27175212,-0.20760393,-0.14251032,-0.16402629,-0.4457665,0.13412553,0.8482618,0.017611109,4.092892e-10,1.6352242e-06
78574214,-1.5025713,0.06515529,-1.7703556,-1.4692844,-1.0782683,0.23424983,-2.498544,0.0011520088,-0.023142725,-0.07748578,-0.3277232,-0.016626269,-0.053671896,0.0018449128,0.05958502,0.0546346,-0.20071808,0.1340099,0.8484438,0.017544711,3.8965636e-10,1.6063155e-06
78777823,-1.5019221,0.06493616,-1.7696677,-1.4692588,-1.0793955,0.2296721,-2.497332,0.1342355,0.0988167,0.033751994,-0.20843813,0.14746514,-0.24257478,-0.19355002,-0.14838108,-0.2054229,-0.3888737,0.13243338,0.84979916,0.017765982,3.8358614e-10,1.5197535e-06
78976579,-1.4914181,0.06422403,-1.7519852,-1.459781,-1.0757506,0.22886644,-2.4864023,0.07654467,0.072444305,0.047343314,-0.1349237,0.029215656,-0.058334798,-0.012687862,0.041471764,0.09872824,-0.16089562,0.13222888,0.84998703,0.01778245,3.7979092e-10,1.5053713e-06
79175088,-1.4858959,0.06385867,-1.745489,-1.4542947,-1.0712721,0.23202485,-2.4782236,0.013439864,0.108386695,0.20949188,0.21691683,-0.22605667,-0.16309911,-0.12798661,-0.045396328,0.37127146,-0.12697035,0.13231482,0.85004205,0.01764163,3.5363584e-10,1.4788334e-06
79378691,-1.4906118,0.061335567,-1.7423142,-1.4594676,-1.0862746,0.20403257,-2.4577382,-0.11481669,0.13486695,0.42948398,0.7027097,-0.665313,-0.12205291,-0.094839334,0.042354405,1.0350115,0.11161983,0.13241021,0.8511304,0.016458094,1.7620527e-10,1.2221784e-06
79577327,-1.4857492,0.055883117,-1.7225003,-1.4582796,-1.1086143,0.14009559,-2.4034846,-0.39439186,-0.02499491,0.42448887,0.96011794,-1.1884584,-0.11058736,-0.09429824,0.07563162,1.5230477,0.2780769,0.124876335,0.85970795,0.015415166,4.1998197e-11,6.452958e-07
79776058,-1.493644,0.051099688,-1.7210389,-1.4675692,-1.1349596,0.0781961,-2.354885,-0.29722634,0.084929675,0.5564427,1.2267933,-1.1416326,-0.07707155,-0.06275904,0.09940195,1.6153619,0.31475866,0.12122794,0.86517435,0.013597508,6.722682e-12,3.543132e-07
79979565,-1.50719,0.047192436,-1.7149372,-1.4835759,-1.1744359,0.012115803,-2.3306968,-0.22290708,0.08250098,0.4615146,1.0611917,-0.93254155,-0.098763585,-0.07755005,0.054255605,1.3178883,0.17381167,0.1191701,0.8683503,0.012479426,1.8399425e-12,2.3919122e-07
80178203,-1.5014406,0.04583876,-1.703863,-1.4784533,-1.1764984,0.00070351834,-2.3082433,-0.14318174,0.04728405,0.28317893,0.6689219,-0.6095763,0.021369934,0.044737577,0.1339941,0.96422654,0.15795195,0.11843658,0.86958766,0.011975549,9.762117e-13,2.0017158e-07
80381838,-1.4976621,0.045994043,-1.706506,-1.4734906,-1.165254,0.014104376,-2.2991886,0.027219392,0.12970755,0.25426266,0.43912667,-0.24243858,0.104670286,0.12849629,0.18749475,0.6721314,0.1468941,0.11954267,0.8688572,0.011599949,7.3214324e-13,1.9570491e-07
80580529,-1.4980828,0.045153,-1.6962372,-1.4749931,-1.177375,0.00029865804,-2.2928314,-0.005591586,0.07930501,0.18169458,0.32358253,-0.2350568,0.071403384,0.09516299,0.14835918,0.5653866,0.09491551,0.120084055,0.8685354,0.011380379,6.032654e-13,1.912308e-07
80779116,-1.5093781,0.044731148,-1.7055041,-1.4862134,-1.1908399,-0.013476099,-2.2979805,0.019022748,0.12883109,0.26427537,0.48031408,-0.26537913,-0.0042333603,0.01698792,0.075179935,0.58948696,0.049978733,0.120949,0.86798745,0.011063316,4.6208176e-13,1.8615508e-07
80977771,-1.5181041,0.044599824,-1.720507,-1.4941145,-1.1930747,-0.020042134,-2.2993884,-0.08943662,0.04648061,0.21815045,0.5300047,-0.42789274,0.041270375,0.056144238,0.114632964,0.7221787,0.13612759,0.12076206,0.8684518,0.010785973,3.1689815e-13,1.6981527e-07
81176348,-1.522498,0.044067692,-1.7222887,-1.4985112,-1.2003391,-0.03010624,-2.2952886,-0.0079899505,0.112865955,0.264897,0.5365366,-0.31477863,0.055476308,0.07215834,0.1276989,0.6816782,0.1295079,0.1215495,0.8680135,0.010436771,2.2304642e-13,1.6204224e-07
81375013,-1.5256082,0.043694388,-1.7233648,-1.5017624,-1.206063,-0.038677488,-2.2919056,-0.053698547,0.042663693,0.16453087,0.38770184,-0.3007475,0.13463211,0.14825284,0.19192398,0.63904524,0.19089508,0.12171668,0.8680434,0.010239648,1.7251188e-13,1.5426909e-07
81573622,-1.5242927,0.04293587,-1.7113069,-1.5016024,-1.2175303,-0.050543696,-2.2841642,0.009337768,0.08134706,0.17145264,0.32610863,-0.18208648,0.10345936,0.1181308,0.15551078,0.50600564,0.13275719,0.122243285,0.8676826,0.010073944,1.4618324e-13,1.5199421e-07
81777223,-1.5242102,0.042723462,-1.7097516,-1.5016104,-1.2193613,-0.054020856,-2.2795007,-0.048634633,0.021811202,0.109868556,0.25943595,-0.23635316,0.17873979,0.19355786,0.23084557,0.5764439,0.20596623,0.122451216,0.8676081,0.009940593,1.2265736e-13,1.4763495e-07
81980857,-1.5242515,0.042465545,-1.7077029,-1.5016311,-1.2216585,-0.057841074,-2.27283,0.01900798,0.09760079,0.19675197,0.37510198,-0.18662958,0.25408113,0.26764238,0.30592334,0.6832291,0.2920885,0.12332653,0.8669818,0.009691554,9.4928636e-14,1.447968e-07
82179514,-1.5323166,0.042632416,-1.7224114,-1.5086507,-1.2216846,-0.06315095,-2.273991,-0.0569005,0.03452213,0.15054272,0.36630952,-0.29309565,0.37969065,0.3933475,0.43573666,0.8698846,0.42915356,0.12380382,0.8667668,0.0094292695,6.6401955e-14,1.3702939e-07
82378103,-1.5370574,0.041841038,-1.7161548,-1.5148158,-1.2406744,-0.084129296,-2.2716115,-0.10124631,-0.029237643,0.06146002,0.2222898,-0.29285374,0.16244674,0.17690516,0.21426189,0.5712496,0.1903677,0.12358034,0.86706704,0.009352492,5.6155703e-14,1.3122208e-07
82576734,-1.5308022,0.042318955,-1.7187519,-1.5072914,-1.2230399,-0.06816298,-2.265353,0.0035208315,0.048115432,0.10318124,0.18779624,-0.122281104,0.21242452,0.22629392,0.2547077,0.49367774,0.21575284,0.12404176,0.8667098,0.009248279,5.0248254e-14,1.3067209e-07
82780338,-1.5322548,0.042305477,-1.7197312,-1.5086597,-1.2247132,-0.069236346,-2.2653203,0.065133825,0.089163035,0.11705628,0.13808677,-0.011918977,0.18662441,0.20107198,0.22431159,0.37771368,0.16916013,0.12455428,0.86627346,0.009172191,4.7484216e-14,1.3188857e-07
82978994,-1.5401855,0.041741256,-1.7174482,-1.5178134,-1.245378,-0.08734981,-2.2695937,0.07637523,0.08465777,0.09179428,0.0648354,0.037212998,0.16207123,0.17660093,0.19550765,0.2817701,0.12979233,0.124902114,0.865967,0.009130756,4.640586e-14,1.3317492e-07
83177608,-1.5420244,0.04171163,-1.7194123,-1.5198191,-1.2474297,-0.089914784,-2.2715204,0.2794304,0.2502701,0.20830904,0.07124209,0.33031216,0.08621514,0.10042,0.10798693,0.032426238,0.019880295,0.12420455,0.86657834,0.009216991,4.798671e-14,1.3086742e-07
83376246,-1.5383337,0.042105466,-1.7253217,-1.5148417,-1.2314342,-0.07753872,-2.2690477,0.06472367,-0.011110336,-0.114882186,-0.39633253,0.22591077,0.21887279,0.23443067,0.23008919,-0.041509867,0.10564053,0.124376275,0.866459,0.009164684,4.5556346e-14,1.3039595e-07
83579847,-1.547688,0.041747138,-1.7337283,-1.5243199,-1.2421416,-0.09189641,-2.2748945,0.10525972,0.005157411,-0.1320516,-0.5057135,0.3205493,0.21645975,0.23622906,0.23047656,-0.1318276,0.07016885,0.12427349,0.8666271,0.009099227,4.0879538e-14,1.2710959e-07
83778486,-1.589148,0.041409306,-1.7745827,-1.5661281,-1.2846586,-0.13900208,-2.3136857,0.18886931,0.09315176,-0.037117895,-0.38406765,0.39803427,0.22621292,0.24226087,0.23322755,-0.121986866,0.09392297,0.12321528,0.8676224,0.009162273,3.9022557e-14,1.2107117e-07
83977121,-1.6043665,0.04097815,-1.7888504,-1.5820477,-1.3026863,-0.16563405,-2.3245544,0.26763642,0.16803154,0.033345297,-0.31764463,0.488903,0.0057001114,0.019532084,0.0067168474,-0.3716777,-0.12422544,0.12089965,0.8697885,0.009311643,3.5212803e-14,1.0842839e-07
84175758,-1.6098549,0.040592812,-1.7928432,-1.5875379,-1.3099474,-0.17732473,-2.3246944,0.016721457,-0.08856569,-0.22899677,-0.5781793,0.2575546,0.11430961,0.12304425,0.10224712,-0.31518692,-0.0074071884,0.121434115,0.86944175,0.009124041,2.864063e-14,1.0605331e-07
84374392,-1.6136507,0.040238272,-1.7961354,-1.5917668,-1.3154495,-0.18786335,-2.3260543,0.21329303,0.11564848,-0.015619304,-0.354676,0.43431252,0.20124638,0.21205825,0.1965822,-0.18143749,0.08196187,0.11994511,0.8708261,0.0092285825,2.7268769e-14,9.9134326e-08
84573029,-1.6327204,0.039348237,-1.8039341,-1.6122988,-1.351881,-0.22432004,-2.3384066,0.106197715,0.012183413,-0.11459138,-0.44772774,0.318466,0.0017237663,0.013170123,-0.00014197826,-0.35958308,-0.11554098,0.119371496,0.8714523,0.009176097,2.3114985e-14,9.365779e-08
84776631,-1.628562,0.039455194,-1.808822,-1.6074843,-1.3350497,-0.22094218,-2.3318644,0.22466652,0.11937465,-0.023643183,-0.41230774,0.4609553,0.07634616,0.091634154,0.08052927,-0.31295413,-0.060495496,0.11759557,0.87313783,0.009266443,2.0469646e-14,8.51371e-08
84980233,-1.6261768,0.03844933,-1.7950827,-1.6066812,-1.3506591,-0.23616752,-2.3230002,0.18000013,0.067190096,-0.08557121,-0.49911055,0.43587232,0.17190951,0.18661577,0.17301238,-0.25241274,0.030222118,0.11642019,0.87429094,0.009288827,1.7864663e-14,7.9003314e-08
85178873,-1.6188371,0.038294528,-1.7873379,-1.5995829,-1.3443819,-0.23242505,-2.3142705,0.16863336,0.10322368,0.014836897,-0.22540475,0.31659698,0.08945787,0.09804183,0.08997232,-0.15523213,0.0067291856,0.115576334,0.87507015,0.009353384,1.7393064e-14,7.5941934e-08
85377506,-1.6252275,0.038282324,-1.7934196,-1.6059262,-1.3510845,-0.23932175,-2.319616,0.09555694,0.124166444,0.16279772,0.26370534,0.025800498,0.1253699,0.12411189,0.12932158,0.24616075,0.15259814,0.11588902,0.87481815,0.009292752,1.6541898e-14,7.618138e-08
85576142,-1.6415349,0.037759725,-1.8073045,-1.6223239,-1.3708329,-0.2655382,-2.3273516,-0.017807802,0.102958076,0.26637417,0.7059934,-0.30049452,0.011109114,-0.0004645586,0.016761303,0.48583448,0.1475985,0.11642485,0.8745575,0.009017594,1.15500184e-14,7.242775e-08
85774779,-1.6460104,0.037373655,-1.819491,-1.6264311,-1.3644494,-0.28315648,-2.3224812,-0.23907743,-0.08255561,0.12981878,0.7122955,-0.6046969,-0.03036213,-0.04662168,-0.02622974,0.5767168,0.14883888,0.11397311,0.8770193,0.009007562,7.702959e-15,6.0331566e-08
85973557,-1.6510633,0.036208495,-1.8107787,-1.6329973,-1.3911074,-0.3101874,-2.314488,-0.06791666,0.06258664,0.24032298,0.74355614,-0.37361872,0.08809638,0.07324076,0.08749306,0.5818771,0.2394681,0.113838054,0.8773912,0.008770666,5.0066013e-15,5.5086026e-08
86177069,-1.64624,0.036515377,-1.815116,-1.6266593,-1.370213,-0.3015399,-2.3061438,0.18370834,0.26871413,0.38488632,0.72166485,-0.016558811,0.08579981,0.07588816,0.08407569,0.40482545,0.1837039,0.115702964,0.875866,0.00843086,3.7078185e-15,5.6181698e-08
86375654,-1.6439773,0.035803247,-1.800593,-1.6259103,-1.3876591,-0.31343117,-2.2966151,-0.07396813,-0.010761712,0.07607828,0.3329807,-0.22265983,0.33879256,0.3307066,0.33550644,0.572435,0.41267717,0.115166724,0.87643284,0.008400351,3.1576774e-15,5.3260866e-08
86574344,-1.6448562,0.035630073,-1.8004624,-1.6267793,-1.3897443,-0.31783327,-2.2938786,0.032806564,0.10536828,0.20523268,0.50441134,-0.13739738,0.03503251,0.025126457,0.02980578,0.29833937,0.12142599,0.11564775,0.87608206,0.008270071,2.68286e-15,5.2669172e-08
86773039,-1.6497627,0.035993867,-1.8152691,-1.6301804,-1.3777192,-0.31815472,-2.2974858,0.14857823,0.22448915,0.32834357,0.63357526,-0.031418458,0.02149868,0.013172507,0.020758986,0.30933917,0.10627246,0.11707895,0.87489134,0.008029615,2.1522345e-15,5.358771e-08
86976530,-1.6430374,0.0358994,-1.807937,-1.6234808,-1.3718842,-0.3142783,-2.2884762,0.0036623888,0.058327213,0.13253558,0.34432426,-0.12849827,0.10868037,0.10501373,0.11332965,0.33112395,0.16299069,0.11721546,0.8748174,0.007967058,1.9393783e-15,5.284103e-08
87175175,-1.6407287,0.035892997,-1.8051871,-1.6211532,-1.3700652,-0.31313264,-2.2846427,0.04361534,0.06315919,0.08838042,0.14567254,-0.0088419225,0.49238145,0.49581468,0.5046743,0.6022459,0.49862516,0.11749505,0.8745886,0.007916423,1.8173348e-15,5.2856713e-08
87378771,-1.6338915,0.03535671,-1.7866839,-1.6156343,-1.3814778,-0.3131185,-2.2735105,0.12548217,0.13963975,0.15747052,0.19266187,0.0857178,0.27056074,0.27466834,0.28310454,0.3606162,0.27057207,0.11779863,0.87432516,0.007876086,1.7547977e-15,5.3207806e-08
87577498,-1.6341579,0.035921343,-1.7983817,-1.6144907,-1.3635734,-0.30656463,-2.2770863,0.07992075,0.09471855,0.11245439,0.13650756,0.03595639,0.08143723,0.0884788,0.101055145,0.1927185,0.07424259,0.11799025,0.8741579,0.007851727,1.721993e-15,5.345393e-08
87776040,-1.63139,0.035930414,-1.795404,-1.6116736,-1.3609513,-0.30396676,-2.2736247,0.03302247,0.04703349,0.06296104,0.07348928,-0.011085519,0.25832582,0.26770508,0.28326046,0.38070488,0.24433577,0.118297294,0.87389195,0.007810643,1.6596055e-15,5.3799436e-08
87979642,-1.6329011,0.035947967,-1.7967339,-1.6130978,-1.3623999,-0.3050135,-2.2745588,0.115556985,0.12385671,0.13139066,0.11062891,0.08332219,0.29662597,0.3084309,0.3258338,0.40871572,0.27152598,0.11876014,0.87348115,0.0077586616,1.6050398e-15,5.454752e-08
88178279,-1.6308801,0.03540436,-1.7828977,-1.6124206,-1.3787404,-0.30928954,-2.2682385,0.108825,0.11915512,0.12940253,0.115786254,0.07173298,0.2114799,0.22323108,0.24112129,0.33233905,0.1882428,0.119140446,0.87314415,0.007715395,1.5590397e-15,5.514375e-08
88376972,-1.6186453,0.0359906,-1.7824144,-1.5986753,-1.3479313,-0.28953323,-2.2599635,0.25404257,0.2619654,0.26840127,0.23768783,0.22122689,0.1027441,0.116348624,0.13615489,0.22448337,0.07265186,0.11950127,0.8728172,0.0076813935,1.5400418e-15,5.5868046e-08
88575551,-1.6073372,0.035415757,-1.7591975,-1.5888389,-1.3549018,-0.28452352,-2.2444298,0.20017016,0.18147703,0.15095007,0.005374126,0.22858582,0.15049219,0.16864073,0.18785322,0.18158758,0.08652449,0.119432546,0.8728733,0.007694055,1.5611958e-15,5.5917077e-08
88779186,-1.5929415,0.035921283,-1.7571311,-1.5730451,-1.322285,-0.26376763,-2.235332,0.2604092,0.21188742,0.13916364,-0.14577055,0.3551758,0.25626397,0.28190553,0.30365694,0.2008071,0.14795041,0.118964165,0.8732902,0.0077455416,1.6098747e-15,5.5309545e-08
88977790,-1.5895581,0.035212137,-1.7411977,-1.5712521,-1.3376569,-0.26867294,-2.2258859,0.17530519,0.11866032,0.03372926,-0.2992097,0.2861086,0.16361213,0.19352746,0.21897781,0.09866226,0.037285447,0.11865891,0.8735834,0.00775763,1.5736821e-15,5.4486968e-08
89176519,-1.5914096,0.0356918,-1.7553033,-1.5718118,-1.3219355,-0.26739234,-2.2321105,0.1924927,0.14817707,0.07866017,-0.22549255,0.2701686,-0.047893643,-0.014787793,0.018095613,-0.03735912,-0.17254424,0.1177851,0.8743907,0.007824067,1.5523724e-15,5.2453828e-08
89375065,-1.5878453,0.0351002,-1.739024,-1.5695543,-1.3365152,-0.2686015,-2.2225616,0.040278226,0.023443952,-0.008357257,-0.20055306,0.053617314,0.3401606,0.36996686,0.40536928,0.45306933,0.24675643,0.11881657,0.87346935,0.007714038,1.4712205e-15,5.4310625e-08
89583631,-1.5934672,0.035685044,-1.7571737,-1.5736578,-1.3235993,-0.26836383,-2.2334273,0.095393576,0.09379106,0.08259117,-0.05167588,0.07224234,-0.020353556,0.008494139,0.04647875,0.15445268,-0.09865379,0.118784554,0.87350136,0.0077139377,1.4586304e-15,5.4154068e-08
89782268,-1.6032481,0.03506639,-1.7542368,-1.5849963,-1.352503,-0.28443852,-2.237736,0.13680913,0.12262301,0.09484478,-0.081075884,0.14521432,0.030584455,0.058757305,0.09271026,0.14506125,-0.056162477,0.11872474,0.8735572,0.007717912,1.4521914e-15,5.4006957e-08
89980915,-1.6058815,0.034808494,-1.756223,-1.5878392,-1.3565787,-0.29196802,-2.2378793,0.18034574,0.09926762,-0.01932489,-0.45441163,0.34845752,0.12500846,0.15806913,0.18188703,-0.027695656,-0.029217124,0.11803877,0.87423134,0.007729778,1.3357116e-15,5.17822e-08
90174576,-1.5957326,0.03352079,-1.7422099,-1.5786989,-1.3539345,-0.30947256,-2.2124734,0.2965345,0.10867183,-0.15479636,-1.0053257,0.72040117,0.16860938,0.20917696,0.21670002,-0.40986818,-0.092154086,0.11501497,0.87728286,0.0077022044,7.7835287e-16,4.1383068e-08
90378177,-1.5731417,0.031916063,-1.7266887,-1.5569553,-1.326146,-0.33669618,-2.172229,0.5146151,0.27003336,-0.07038219,-1.164206,1.0791813,0.09974536,0.14362173,0.143666,-0.6934192,-0.21284801,0.10653926,0.8854306,0.008030178,3.419503e-16,2.4568473e-08
90571874,-1.5712079,0.029446138,-1.7036201,-1.5577371,-1.3569133,-0.38752374,-2.1331577,0.28581253,0.04655058,-0.28509638,-1.3838246,0.8508371,0.04029599,0.07900082,0.077509925,-0.72529644,-0.2499095,0.10322179,0.88900656,0.0077716326,1.0666385e-16,1.704478e-08
90780446,-1.5801833,0.028616477,-1.7214047,-1.5663254,-1.3550342,-0.42801264,-2.1330304,0.28504658,0.088714086,-0.1841965,-1.1375256,0.7546567,0.0057420135,0.038743332,0.043067217,-0.58587736,-0.23048085,0.10006286,0.8922327,0.0077044023,4.854563e-17,1.2725732e-08
90979052,-1.5758052,0.027699666,-1.7130973,-1.5627377,-1.357924,-0.45154476,-2.1140926,0.23822564,0.077680826,-0.14619726,-0.9644393,0.62514955,-0.1392329,-0.110058226,-0.10101827,-0.5870604,-0.33566064,0.09755725,0.8947643,0.007678438,2.6332119e-17,1.007942e-08
91177690,-1.576669,0.027034227,-1.7113458,-1.5639156,-1.3629577,-0.4677789,-2.1054173,0.13822287,-0.0025775284,-0.19927621,-0.943402,0.4801647,0.08015874,0.10701129,0.118481174,-0.28767064,-0.09374419,0.09694915,0.8955221,0.0075287926,1.6373266e-17,9.013776e-09
91376328,-1.5764111,0.026495313,-1.7083842,-1.5640167,-1.3671471,-0.4840981,-2.0953312,0.110523865,-0.012897909,-0.18598531,-0.86027426,0.41039348,-0.14099775,-0.115278155,-0.101197705,-0.4394666,-0.29824537,0.09615026,0.89642704,0.0074227233,1.0390072e-17,7.999516e-09
91574963,-1.5693955,0.026055323,-1.6995542,-1.5576742,-1.3645037,-0.49464223,-2.081544,0.33341646,0.22577736,0.07495233,-0.52227634,0.5973842,-0.22718072,-0.20540458,-0.19296671,-0.48424214,-0.36122102,0.093171924,0.8991936,0.007634535,8.483631e-18,6.5958137e-09
91778566,-1.56714,0.025724813,-1.6953431,-1.5556986,-1.3655795,-0.5050105,-2.0722752,0.10239249,0.0062180087,-0.1274938,-0.6544599,0.3427915,-0.23901597,-0.22296786,-0.21571463,-0.4855895,-0.34870118,0.09242556,0.8999817,0.007592763,6.2452455e-18,6.0072436e-09
91977202,-1.5679979,0.025476107,-1.6949661,-1.5566843,-1.3683612,-0.5130263,-2.0687022,0.069145866,-0.018042222,-0.13881893,-0.616163,0.2896646,-0.027712703,-0.014894053,-0.010073885,-0.25954401,-0.121428326,0.09221708,0.9002588,0.007524123,4.986114e-18,5.7189316e-09
92175837,-1.5623734,0.024916572,-1.6742188,-1.5524677,-1.3847059,-0.51455057,-2.0470471,0.09518022,0.02433969,-0.07412538,-0.47304827,0.27416694,-0.037143484,-0.0254689,-0.019255772,-0.21172564,-0.11645459,0.09182565,0.900664,0.007510382,4.3550935e-18,5.4727023e-09
92374475,-1.5556046,0.02486297,-1.6669652,-1.5458286,-1.378889,-0.51116675,-2.0386147,0.1435231,0.102969885,0.045817632,-0.2045594,0.2445737,-0.19419938,-0.18435472,-0.17540637,-0.26232868,-0.2484316,0.09123628,0.90120333,0.0075603076,4.2133896e-18,5.2644133e-09
92578077,-1.5627979,0.024858402,-1.67409,-1.5530449,-1.3863275,-0.51888883,-2.0456102,-0.0048288256,0.017233267,0.04488355,0.09417339,-0.06742615,-0.169316,-0.16087317,-0.14315218,-0.00030821562,-0.17917997,0.091122545,0.90130156,0.0075759464,4.251997e-18,5.235285e-09
92776718,-1.5735772,0.024603073,-1.6838324,-1.5637538,-1.3983862,-0.5346521,-2.052744,0.09750712,0.18941595,0.31181094,0.69913936,-0.14730878,-0.29107475,-0.2848984,-0.2584033,0.13597155,-0.24939847,0.09210125,0.900508,0.0073907156,3.4796668e-18,5.317644e-09
92975526,-1.577984,0.02454065,-1.7011545,-1.5670934,-1.384283,-0.55130184,-2.0640035,-0.12347682,-0.005313769,0.15331656,0.6797304,-0.43525088,-0.19410491,-0.19085336,-0.16412425,0.31216645,-0.12754059,0.09139762,0.9012568,0.007345568,2.6672114e-18,4.8799964e-09
93178958,-1.5842091,0.023832245,-1.6913503,-1.5747594,-1.4141661,-0.5672592,-2.0510783,-0.06759554,0.0319065,0.16528597,0.60594404,-0.33118087,-0.17575192,-0.17166841,-0.14747787,0.25987136,-0.12444484,0.09118505,0.901536,0.0072789514,2.1673925e-18,4.6479594e-09
93377588,-1.5765384,0.024090951,-1.6978661,-1.5658643,-1.385766,-0.56435835,-2.05511,-0.08229275,-0.017500624,0.06892751,0.34544015,-0.2550482,0.011749387,0.016463757,0.035383344,0.31457472,0.038935304,0.09091126,0.9018273,0.007261469,1.9373215e-18,4.4923967e-09
93571259,-1.5730879,0.023637386,-1.6790181,-1.5637039,-1.4046272,-0.56318575,-2.035198,0.091638975,0.14078556,0.20608427,0.40939713,-0.04006566,-0.055327415,-0.050503016,-0.03423834,0.18602598,-0.038431406,0.09138723,0.9014343,0.0071785073,1.7629731e-18,4.5350657e-09
93779985,-1.5677695,0.023548782,-1.6732825,-1.558417,-1.3998662,-0.56059134,-2.0281959,-0.01810518,0.038867146,0.11509486,0.3630502,-0.16958016,-0.13942003,-0.13592541,-0.1203593,0.12033534,-0.1139617,0.091396235,0.9014538,0.007150037,1.6504623e-18,4.4830823e-09
93978463,-1.562147,0.023826307,-1.6822462,-1.5514699,-1.3731186,-0.5583303,-2.0361192,-0.01153069,0.051022097,0.13465564,0.40817416,-0.17839819,-0.0977819,-0.093613505,-0.07639396,0.18769419,-0.071098566,0.09147021,0.9014267,0.00710313,1.493567e-18,4.4226e-09
94177105,-1.5555022,0.023292698,-1.6594707,-1.5462638,-1.3897321,-0.55829704,-2.0097122,-0.047041968,0.019659318,0.10895919,0.40459234,-0.22494185,0.14424443,0.1483283,0.1659261,0.44372308,0.17345023,0.091445155,0.9015138,0.007041104,1.2506094e-18,4.2890527e-09
94375741,-1.5627728,0.023554666,-1.6812891,-1.5521497,-1.3758833,-0.5692069,-2.0307052,0.045544893,0.11146489,0.19980784,0.49478525,-0.13030496,-0.07879448,-0.07488525,-0.057867408,0.21466446,-0.049949765,0.091878906,0.90117526,0.006945755,1.0825153e-18,4.283531e-09
94574476,-1.564493,0.023403743,-1.6822227,-1.5539532,-1.3788052,-0.5766382,-2.0293489,-0.058547355,0.010360032,0.10315494,0.42079455,-0.24129249,0.009128809,0.011537313,0.026817083,0.3006544,0.043922067,0.09173583,0.9013573,0.0069068247,9.400588e-19,4.150285e-09
94777972,-1.5584929,0.022879198,-1.6602058,-1.5493407,-1.3958882,-0.57523793,-2.003991,0.024341349,0.09271339,0.1846829,0.49931714,-0.15761477,-0.039466858,-0.03645003,-0.020620108,0.25343156,-0.0071561337,0.092086256,0.90109825,0.006815504,7.997075e-19,4.1157007e-09
94976612,-1.5607054,0.023092454,-1.6766161,-1.550162,-1.3773682,-0.58375406,-2.0188432,0.043609142,0.11734857,0.21650673,0.55707103,-0.1531105,0.06573427,0.06932938,0.086621165,0.3825966,0.09914982,0.09264556,0.9006701,0.0066843084,6.3313107e-19,4.0812336e-09
