timestamp,timestamp_sample,control[0],control[1],control[2],control[3],control[4],control[5],control[6],control[7]
1935664711,1935664455,-0.029427702,0.036862247,0.00472693,0.0,0.0,0.0,0.0,-1.0
1935668436,1935668177,-0.015391324,0.020799465,0.0056028813,0.0,0.0,0.0,0.0,-1.0
1935867053,1935866802,-0.009800869,0.0058396715,0.0051757284,0.0,0.0,0.0,0.0,-1.0
1935965115,1935964872,-0.031029912,0.042682506,0.008774173,0.0,0.0,0.0,0.0,-1.0
1936066918,1936066668,0.012553067,0.017647317,-0.008504581,0.0,0.0,0.0,0.0,-1.0
1936164990,1936164740,-0.060259927,0.0030041244,0.0015978527,0.0,0.0,0.0,0.0,-1.0
1936266825,1936266570,0.032743443,0.051740013,-0.0004919266,0.0,0.0,0.0,0.0,-1.0
1936367340,1936367095,-0.046636865,0.011117633,0.00014251855,0.0,0.0,0.0,0.0,-1.0
1936465408,1936465160,0.020527897,0.011190422,-0.0009796213,0.0,0.0,0.0,0.0,-1.0
1936567383,1936567139,-0.01683316,0.03660021,0.0025313888,0.0,0.0,0.0,0.0,-1.0
1936667757,1936667510,-0.012804832,0.0026226975,-0.002136719,0.0,0.0,0.0,0.0,-1.0
1936767065,1936766822,0.005891311,0.048849434,0.00031192173,0.0,0.0,0.0,0.0,-1.0
1936865147,1936864895,-0.04737541,0.0108302,-0.0024855179,0.0,0.0,0.0,0.0,-1.0
1936965694,1936965447,0.025452336,0.044267163,-0.0003836907,0.0,0.0,0.0,0.0,-1.0
1937067554,1937067306,-0.050482906,0.01712584,0.006680718,0.0,0.0,0.0,0.0,-1.0
1937165553,1937165313,0.02779702,0.017341686,-0.0043562218,0.0,0.0,0.0,0.0,-1.0
1937267358,1937267110,-0.010678511,0.022037376,0.003975337,0.0,0.0,0.0,0.0,-1.0
1937365611,1937365365,-0.027016824,0.015709497,-0.0019481222,0.0499388,0.0,0.0,0.0,-1.0
1937467227,1937466977,-0.1872046,0.026064532,-0.002199885,0.2136842,0.0,0.0,0.0,-1.0
1937565303,1937565048,-0.11625972,-0.014623018,-0.002948279,0.23578948,0.0,0.0,0.0,-1.0
1937665847,1937665601,-0.046595596,0.03864782,0.00093867985,0.26105264,0.0,0.0,0.0,-1.0
1937767642,1937767396,0.03685998,-0.056817498,-0.0029483521,0.3063158,0.0,0.0,0.0,-1.0
1937865739,1937865497,-0.040482588,0.011648451,-0.0049280077,0.34736842,0.0,0.0,0.0,-1.0
1937967510,1937967263,0.005144347,0.016013458,0.003307013,0.3989474,0.0,0.0,0.0,-1.0
1938065580,1938065334,-0.05814482,0.084242046,0.014799279,0.41473684,0.0,0.0,0.0,-1.0
1938166243,1938165994,-0.082986675,0.090338096,0.005224453,0.42947367,0.0,0.0,0.0,-1.0
1938264257,1938264006,0.0060808263,0.042331774,0.0062382347,0.46210527,0.0,0.0,0.0,-1.0
1938366004,1938365759,0.0075838403,0.037000835,0.017470773,0.46421054,0.0,0.0,0.0,-1.0
1938469043,1938468792,-0.049017604,0.0487232,0.0128044775,0.46421054,0.0,0.0,0.0,-1.0
1938565864,1938565621,-0.04406293,0.05612735,0.007500039,0.4694737,0.0,0.0,0.0,-1.0
1938667671,1938667419,-0.009221937,0.043415487,0.012212608,0.47578946,0.0,0.0,0.0,-1.0
1938766984,1938766731,0.0005837916,0.040513907,0.008163184,0.48526317,0.0,0.0,0.0,-1.0
1938866291,1938866042,-0.032811806,0.056043394,0.011276191,0.49894738,0.0,0.0,0.0,-1.0
1938964475,1938964231,-0.011296106,0.06361623,0.01961363,0.5094737,0.0,0.0,0.0,-1.0
1939066163,1939065912,0.033378568,-0.0093183685,0.011290143,0.5117993,0.0,0.0,0.0,-1.0
1939167951,1939167704,0.014418701,0.0052125114,0.01522791,0.51299876,0.0,0.0,0.0,-1.0
1939266017,1939265775,-0.005297063,-0.00059732073,0.0036780406,0.51299876,0.0,0.0,0.0,-1.0
1939367829,1939367572,-0.010831918,-0.014616666,0.0060111554,0.5141983,0.0,0.0,0.0,-1.0
1939464647,1939464401,-0.023731036,-0.007353493,0.020632813,0.51299876,0.0,0.0,0.0,-1.0
1939566444,1939566200,0.016718466,-0.027964184,0.016636712,0.5117993,0.0,0.0,0.0,-1.0
1939664515,1939664268,-0.027568515,-0.01921095,0.012663429,0.5165973,0.0,0.0,0.0,-1.0
1939766397,1939766154,-0.022726396,-0.00022866613,0.018631717,0.5261934,0.0,0.0,0.0,-1.0
1939869351,1939869100,0.01943394,-0.029360447,0.012681433,0.52019584,0.0,0.0,0.0,-1.0
1939966172,1939965929,0.01325852,-0.014151503,0.008420147,0.53099144,0.0,0.0,0.0,-1.0
1940067982,1940067730,-0.06254578,0.0035843635,-0.0068307086,0.55138314,0.0,0.0,0.0,-1.0
1940164796,1940164554,0.027321735,-0.049877614,-0.012990926,0.5621787,0.0,0.0,0.0,-1.0
1940266599,1940266350,-0.017580485,-0.027002798,-0.01206304,0.5633782,0.0,0.0,0.0,-1.0
1940364670,1940364422,-0.05498814,0.009515395,-0.02786338,0.56817627,0.0,0.0,0.0,-1.0
1940466460,1940466216,-0.012334705,-0.048488863,-0.02229427,0.56817627,0.0,0.0,0.0,-1.0
1940568298,1940568042,-0.009813945,-0.029106282,-0.032874804,0.56817627,0.0,0.0,0.0,-1.0
1940666333,1940666083,0.024693167,-0.051753,-0.029002823,0.56817627,0.0,0.0,0.0,-1.0
1940766887,1940766639,0.07069309,-0.06766733,-0.034479227,0.56817627,0.0,0.0,0.0,-1.0
1940865098,1940864853,-0.014523423,-0.031758096,-0.03806086,0.57537335,0.0,0.0,0.0,-1.0
1940966754,1940966505,0.067598626,-0.081505924,-0.044527184,0.5921665,0.0,0.0,0.0,-1.0
1941066064,1941065817,-0.006550169,-0.010279581,-0.04033318,0.5921665,0.0,0.0,0.0,-1.0
1941166615,1941166370,-0.04743448,0.023414267,-0.029795215,0.5921665,0.0,0.0,0.0,-1.0
1941267169,1941266924,0.039627187,-0.0077708997,-0.031490177,0.5873684,0.0,0.0,0.0,-1.0
1941365245,1941364997,0.032841407,-0.07175106,-0.039738853,0.5861689,0.0,0.0,0.0,-1.0
1941467043,1941466792,-0.07081922,-0.034118064,-0.0460784,0.5849694,0.0,0.0,0.0,-1.0
1941565104,1941564862,-0.023343334,-0.034760714,-0.05406865,0.5837699,0.0,0.0,0.0,-1.0
1941667039,1941666787,-0.035006646,0.014753054,-0.04928621,0.58137083,0.0,0.0,0.0,-1.0
1941764985,1941764729,-0.051269103,-0.011193241,-0.05368361,0.58017135,0.0,0.0,0.0,-1.0
1941866779,1941866524,-0.08921321,0.046618465,-0.04859409,0.58017135,0.0,0.0,0.0,-1.0
1941967323,1941967078,-0.0611978,0.010561901,-0.042653523,0.58017135,0.0,0.0,0.0,-1.0
1942065394,1942065149,-0.02446187,-0.02457733,-0.042980317,0.58017135,0.0,0.0,0.0,-1.0
1942167208,1942166951,0.022500012,-0.018203115,-0.047394224,0.58137083,0.0,0.0,0.0,-1.0
1942265272,1942265017,0.07858578,-0.018236084,-0.03767463,0.5825704,0.0,0.0,0.0,-1.0
1942367056,1942366811,0.078082204,-0.040378105,-0.04400121,0.5837699,0.0,0.0,0.0,-1.0
1942465219,1942464966,0.017259259,-0.05731617,-0.03504603,0.5825704,0.0,0.0,0.0,-1.0
1942565686,1942565437,-0.013067283,-0.024232319,-0.032460123,0.5837699,0.0,0.0,0.0,-1.0
1942667484,1942667233,-0.033318195,-7.658349e-05,-0.023311395,0.5849694,0.0,0.0,0.0,-1.0
1942765548,1942765304,0.062126786,-0.03116057,-0.022840304,0.5825704,0.0,0.0,0.0,-1.0
1942868592,1942868342,-0.021523066,0.03528902,-0.011121749,0.58137083,0.0,0.0,0.0,-1.0
1942965416,1942965170,-0.027019933,0.016660962,-0.005163264,0.57417375,0.0,0.0,0.0,-1.0
1943067216,1943066966,0.019851403,-0.038753387,-0.015679598,0.57417375,0.0,0.0,0.0,-1.0
1943165284,1943165037,-0.010277944,0.012302752,-0.015171318,0.57417375,0.0,0.0,0.0,-1.0
1943265956,1943265703,-0.01293122,-0.048496068,-0.008429583,0.57297426,0.0,0.0,0.0,-1.0
1943367628,1943367387,-0.011168094,-0.023829678,-0.017661499,0.5657772,0.0,0.0,0.0,-1.0
1943465706,1943465458,-0.032837562,0.0003939774,-0.013611707,0.5597797,0.0,0.0,0.0,-1.0
1943567501,1943567253,0.025289338,-0.025946278,-0.016819485,0.54778457,0.0,0.0,0.0,-1.0
1943665572,1943665324,0.043512437,-0.0354132,-0.016804934,0.5297919,0.0,0.0,0.0,-1.0
1943767369,1943767122,-0.011192228,-0.03136799,-0.0210078,0.5297919,0.0,0.0,0.0,-1.0
1943864201,1943863951,0.023768637,-0.041843366,-0.016205588,0.5321909,0.0,0.0,0.0,-1.0
1943965995,1943965745,0.012872772,-0.025548317,-0.020861555,0.536989,0.0,0.0,0.0,-1.0
1944067810,1944067566,-0.05743874,-0.019772766,-0.019943964,0.5621787,0.0,0.0,0.0,-1.0
1944165857,1944165612,-0.02642068,0.010542267,-0.014790649,0.5633782,0.0,0.0,0.0,-1.0
1944268940,1944268688,0.06138889,-0.05521575,-0.015034635,0.56817627,0.0,0.0,0.0,-1.0
1944364641,1944364396,0.08660434,-0.055688687,-0.0046783146,0.56937575,0.0,0.0,0.0,-1.0
1944467524,1944467275,-0.08339758,0.03291808,-0.004327781,0.57417375,0.0,0.0,0.0,-1.0
1944564345,1944564104,-0.023578428,0.02622961,-0.003910983,0.57417375,0.0,0.0,0.0,-1.0
1944666161,1944665901,-0.006310609,-0.014075085,-0.015981317,0.5705753,0.0,0.0,0.0,-1.0
1944767942,1944767695,-0.069681965,0.04054298,-0.0054729744,0.56937575,0.0,0.0,0.0,-1.0
1944866011,1944865766,0.04432428,-0.034147818,-0.009618479,0.56937575,0.0,0.0,0.0,-1.0
1944967824,1944967561,-0.043455333,0.008258332,-0.0030486432,0.5705753,0.0,0.0,0.0,-1.0
1945064635,1945064391,-0.072608806,0.046407964,8.322154e-05,0.56937575,0.0,0.0,0.0,-1.0
1945166571,1945166324,0.05315972,-0.04041385,-0.009803631,0.56817627,0.0,0.0,0.0,-1.0
1945264498,1945264258,-0.0387915,0.015736217,-0.011720677,0.56937575,0.0,0.0,0.0,-1.0
1945366307,1945366054,0.01480837,-0.022476478,-0.0051731085,0.5873684,0.0,0.0,0.0,-1.0
1945465627,1945465370,-0.034625106,0.012526031,-0.005419299,0.5897674,0.0,0.0,0.0,-1.0
1945566165,1945565921,-0.0205386,-0.016917434,-0.011893288,0.5897674,0.0,0.0,0.0,-1.0
1945666720,1945666477,-0.0004618766,-0.018454533,-0.009707862,0.595765,0.0,0.0,0.0,-1.0
1945764791,1945764545,-0.023628958,-0.032382242,-0.015826847,0.5969645,0.0,0.0,0.0,-1.0
1945866595,1945866342,0.027891738,-0.035338048,-0.010621113,0.5885679,0.0,0.0,0.0,-1.0
1945964799,1945964557,0.0019414551,-0.01582538,-0.010632308,0.5885679,0.0,0.0,0.0,-1.0
1946066454,1946066207,-0.023547728,-0.002061964,-0.018394334,0.5897674,0.0,0.0,0.0,-1.0
1946168264,1946168008,-0.011472441,-0.019506406,-0.019205226,0.5897674,0.0,0.0,0.0,-1.0
1946265086,1946264834,-0.047177497,-0.00967869,-0.019030754,0.5873684,0.0,0.0,0.0,-1.0
1946366871,1946366628,0.059084814,-0.04343536,-0.009602566,0.5861689,0.0,0.0,0.0,-1.0
1946464946,1946464700,-0.021430362,-0.033353914,-0.015541323,0.5861689,0.0,0.0,0.0,-1.0
1946566743,1946566495,0.012753171,0.008792334,-0.0032859833,0.5861689,0.0,0.0,0.0,-1.0
1946664807,1946664567,0.023200318,-0.041586466,-0.0054400843,0.5861689,0.0,0.0,0.0,-1.0
1946766685,1946766438,0.02034588,-0.04348565,-0.012504674,0.5861689,0.0,0.0,0.0,-1.0
1946865936,1946865675,-0.06022418,0.017775694,-0.0049903565,0.5861689,0.0,0.0,0.0,-1.0
1946965250,1946964993,0.053904768,-0.076585345,-0.010958009,0.5873684,0.0,0.0,0.0,-1.0
1947067028,1947066782,0.025272451,-0.01435502,-0.012611968,0.5837699,0.0,0.0,0.0,-1.0
1947165096,1947164854,-0.03393662,-0.034628697,-0.016962811,0.58137083,0.0,0.0,0.0,-1.0
1947266898,1947266650,0.07802784,-0.065080546,-0.008038228,0.58017135,0.0,0.0,0.0,-1.0
1947365009,1947364764,0.017022176,-0.026594065,-0.014772657,0.58017135,0.0,0.0,0.0,-1.0
1947466772,1947466521,0.008342009,-0.026506929,-0.019029208,0.58137083,0.0,0.0,0.0,-1.0
1947567343,1947567102,-0.048687134,-0.03414092,-0.025679203,0.58137083,0.0,0.0,0.0,-1.0
1947665394,1947665143,-0.040385928,-0.031494327,-0.025236811,0.58137083,0.0,0.0,0.0,-1.0
1947767178,1947766937,-0.048784893,0.027464082,-0.022039646,0.58137083,0.0,0.0,0.0,-1.0
1947865454,1947865203,-0.062213536,0.003454328,-0.02546283,0.58137083,0.0,0.0,0.0,-1.0
1947967051,1947966803,0.024771014,-0.07162141,-0.04022341,0.58137083,0.0,0.0,0.0,-1.0
1948065120,1948064875,0.06658298,-0.06337234,-0.039556134,0.5825704,0.0,0.0,0.0,-1.0
1948165678,1948165428,0.050595958,-0.09765526,-0.0372481,0.5825704,0.0,0.0,0.0,-1.0
1948267466,1948267224,-0.046403855,-0.06278429,-0.04178056,0.58137083,0.0,0.0,0.0,-1.0
1948365548,1948365301,-0.05259305,-0.013385793,-0.039343372,0.58017135,0.0,0.0,0.0,-1.0
1948467334,1948467091,0.012862768,-0.06626858,-0.05275676,0.58017135,0.0,0.0,0.0,-1.0
1948565415,1948565162,-0.060998645,-0.013698272,-0.04342347,0.57897186,0.0,0.0,0.0,-1.0
1948666093,1948665852,0.033145063,-0.056961045,-0.044869654,0.58017135,0.0,0.0,0.0,-1.0
1948765269,1948765028,0.031732153,-0.037581388,-0.036987033,0.58017135,0.0,0.0,0.0,-1.0
1948865831,1948865584,0.027195083,-0.043704346,-0.04088796,0.58017135,0.0,0.0,0.0,-1.0
1948967624,1948967378,0.053539257,-0.082823515,-0.0462039,0.58137083,0.0,0.0,0.0,-1.0
1949065693,1949065449,0.016549313,-0.048621174,-0.03811337,0.58137083,0.0,0.0,0.0,-1.0
1949167488,1949167246,-0.032371968,-0.08756386,-0.043375097,0.58017135,0.0,0.0,0.0,-1.0
1949265595,1949265348,0.026828071,-0.08134819,-0.029508544,0.58137083,0.0,0.0,0.0,-1.0
1949367368,1949367115,-0.019032458,-0.059524663,-0.033318345,0.58017135,0.0,0.0,0.0,-1.0
1949464350,1949464097,-0.041705504,-0.04218242,-0.024695782,0.58017135,0.0,0.0,0.0,-1.0
1949567245,1949566983,-0.009176008,0.00061261543,-0.0045999237,0.58017135,0.0,0.0,0.0,-1.0
1949667782,1949667532,-0.031842496,-0.04053071,-0.00976898,0.58017135,0.0,0.0,0.0,-1.0
1949765856,1949765607,-0.03135754,-0.035062406,-0.0058287545,0.58017135,0.0,0.0,0.0,-1.0
1949865166,1949864917,0.053039625,-0.09513069,-0.008575127,0.57897186,0.0,0.0,0.0,-1.0
1949965715,1949965471,-0.040071294,0.03040111,0.00047985686,0.5777723,0.0,0.0,0.0,-1.0
1950066279,1950066026,0.044684295,-0.06086214,-0.0014546801,0.57297426,0.0,0.0,0.0,-1.0
1950164387,1950164143,0.019247567,-0.053256188,0.0012176413,0.5525826,0.0,0.0,0.0,-1.0
1950266280,1950266025,0.069629796,-0.06212688,-0.007723549,0.55498165,0.0,0.0,0.0,-1.0
1950367944,1950367686,-0.038579524,-0.029990707,0.0007019262,0.55498165,0.0,0.0,0.0,-1.0
1950466009,1950465759,0.025495853,-0.05061043,-0.004089987,0.55858016,0.0,0.0,0.0,-1.0
1950567802,1950567554,-0.024353072,0.007604485,-0.006604247,0.5597797,0.0,0.0,0.0,-1.0
1950665872,1950665624,-0.04265379,-0.0045169187,-0.0046061887,0.5597797,0.0,0.0,0.0,-1.0
1950766437,1950766191,-0.010081651,-0.035489302,-0.014128289,0.5597797,0.0,0.0,0.0,-1.0
1950864492,1950864250,0.0047122105,-0.06181194,-0.019343955,0.57537335,0.0,0.0,0.0,-1.0
1950966294,1950966045,-0.10898169,-0.007144884,-0.020514915,0.5777723,0.0,0.0,0.0,-1.0
1951068145,1951067895,0.015199408,-0.0433379,-0.01691961,0.5777723,0.0,0.0,0.0,-1.0
1951166163,1951165914,-0.021515537,-0.00011505656,-0.025844436,0.57657284,0.0,0.0,0.0,-1.0
1951264234,1951263983,-0.094564214,-0.023451272,-0.027304405,0.57537335,0.0,0.0,0.0,-1.0
1951365032,1951364779,-0.018597506,-0.04382384,-0.017712796,0.57537335,0.0,0.0,0.0,-1.0
1951466580,1951466333,-0.021502951,-0.017147511,-0.018007055,0.57657284,0.0,0.0,0.0,-1.0
1951564658,1951564414,-0.11405481,-0.005783634,-0.016640581,0.57537335,0.0,0.0,0.0,-1.0
1951666453,1951666205,0.011086922,-0.005863342,-0.013782787,0.57537335,0.0,0.0,0.0,-1.0
1951768254,1951767995,-0.052206118,0.003344348,-0.019644134,0.57537335,0.0,0.0,0.0,-1.0
1951866341,1951866083,0.029925235,-0.066505514,-0.014171249,0.57537335,0.0,0.0,0.0,-1.0
1951966864,1951966621,0.003490661,-0.050626278,-0.026339589,0.57537335,0.0,0.0,0.0,-1.0
1952064952,1952064697,-0.014158067,-0.03796862,-0.020246828,0.57537335,0.0,0.0,0.0,-1.0
1952166878,1952166638,-0.0016059701,-0.026473384,-0.02329129,0.57537335,0.0,0.0,0.0,-1.0
1952264807,1952264558,0.05076385,-0.043415867,-0.027851658,0.57537335,0.0,0.0,0.0,-1.0
1952366601,1952366354,-0.056546155,-0.027801447,-0.019077748,0.57537335,0.0,0.0,0.0,-1.0
1952467172,1952466913,-0.05353946,-0.034758724,-0.014512156,0.57537335,0.0,0.0,0.0,-1.0
1952566479,1952566224,-0.034647517,0.012635232,-0.019289233,0.57537335,0.0,0.0,0.0,-1.0
1952667059,1952666809,-0.10860257,0.011281245,-0.014360605,0.57537335,0.0,0.0,0.0,-1.0
1952765098,1952764847,-0.023411904,0.02158087,-0.016957166,0.57537335,0.0,0.0,0.0,-1.0
1952866883,1952866641,-0.026929587,0.0069886926,-0.009377754,0.57537335,0.0,0.0,0.0,-1.0
1952965071,1952964828,0.034637064,-0.0767454,-0.016724365,0.57537335,0.0,0.0,0.0,-1.0
1953066759,1953066509,-0.026814481,-0.038381543,-0.022461977,0.57537335,0.0,0.0,0.0,-1.0
1953167311,1953167063,0.023746667,-0.053522263,-0.01991848,0.57657284,0.0,0.0,0.0,-1.0
1953266624,1953266376,-0.044083145,-0.03888611,-0.02358828,0.5861689,0.0,0.0,0.0,-1.0
1953367177,1953366929,-0.10172382,0.0013255049,-0.015488344,0.5861689,0.0,0.0,0.0,-1.0
1953465256,1953464998,-0.0068124593,-0.013805897,-0.022429608,0.5861689,0.0,0.0,0.0,-1.0
1953567044,1953566798,0.028778926,-0.061722524,-0.020677146,0.5861689,0.0,0.0,0.0,-1.0
1953665115,1953664868,-0.0060613947,-0.0075484975,-0.022394978,0.59336597,0.0,0.0,0.0,-1.0
1953765750,1953765505,0.030319214,-0.050013814,-0.03003305,0.59336597,0.0,0.0,0.0,-1.0
1953867502,1953867257,-0.07380132,-0.014337926,-0.03807645,0.5969645,0.0,0.0,0.0,-1.0
1953965535,1953965288,-0.0035152836,-0.042916633,-0.03202278,0.595765,0.0,0.0,0.0,-1.0
1954067329,1954067084,0.019125834,-0.105158344,-0.040514268,0.595765,0.0,0.0,0.0,-1.0
1954165405,1954165155,-0.009661033,-0.044229493,-0.045903474,0.595765,0.0,0.0,0.0,-1.0
1954267201,1954266950,-0.046559736,-0.012089192,-0.02951179,0.5969645,0.0,0.0,0.0,-1.0
1954365270,1954365024,-0.05139364,-0.0070036794,-0.023962215,0.5969645,0.0,0.0,0.0,-1.0
1954465819,1954465576,0.049050543,-0.041880906,-0.021231553,0.5969645,0.0,0.0,0.0,-1.0
1954567720,1954567474,-0.042817593,-0.05623032,-0.013802693,0.59336597,0.0,0.0,0.0,-1.0
1954665699,1954665443,0.010591935,-0.038056564,-0.013680594,0.59336597,0.0,0.0,0.0,-1.0
1954767480,1954767238,0.012402937,-0.035283085,-0.0075350488,0.5921665,0.0,0.0,0.0,-1.0
1954865563,1954865314,0.027829368,-0.11035491,-0.0093619535,0.5921665,0.0,0.0,0.0,-1.0
1954967363,1954967105,-0.04744517,-0.013299998,-0.00258197,0.5921665,0.0,0.0,0.0,-1.0
1955064182,1955063935,0.045891672,-0.052760575,0.0051124124,0.5921665,0.0,0.0,0.0,-1.0
1955165974,1955165730,-0.068651885,-0.022192439,-0.003299515,0.5921665,0.0,0.0,0.0,-1.0
1955267776,1955267527,-0.0018603925,-0.038130235,-0.0043522995,0.59336597,0.0,0.0,0.0,-1.0
1955365916,1955365658,0.0718841,-0.063734375,-0.008342851,0.5921665,0.0,0.0,0.0,-1.0
1955467643,1955467393,-0.102196984,0.03722948,-0.007633021,0.5921665,0.0,0.0,0.0,-1.0
1955565718,1955565466,0.06032516,-0.07067796,-0.0038838948,0.5921665,0.0,0.0,0.0,-1.0
1955666434,1955666181,-0.04211985,-0.029855534,-0.017077584,0.5921665,0.0,0.0,0.0,-1.0
1955764343,1955764090,0.01790535,-0.022408906,-0.015587414,0.59336597,0.0,0.0,0.0,-1.0
1955866143,1955865894,0.0035716218,-0.071518436,-0.008265448,0.59336597,0.0,0.0,0.0,-1.0
1955967929,1955967680,-0.022037521,-0.009596135,-0.023043608,0.5921665,0.0,0.0,0.0,-1.0
1956066003,1956065751,-0.033259764,-0.015328634,-0.017049529,0.59096694,0.0,0.0,0.0,-1.0
1956167810,1956167559,-0.0062403674,-0.06662898,-0.012531589,0.5921665,0.0,0.0,0.0,-1.0
1956265884,1956265622,-0.04471305,-0.082695186,-0.01910333,0.5897674,0.0,0.0,0.0,-1.0
1956366416,1956366172,0.06425091,-0.07911178,-0.028019913,0.56817627,0.0,0.0,0.0,-1.0
1956464625,1956464373,0.03934613,-0.04477668,-0.020731216,0.56937575,0.0,0.0,0.0,-1.0
1956566282,1956566039,-0.07283988,-0.04582465,-0.015296116,0.56817627,0.0,0.0,0.0,-1.0
1956668085,1956667835,-0.009714828,-0.07275969,-0.007968931,0.56817627,0.0,0.0,0.0,-1.0
1956766154,1956765907,-0.05439187,-0.066500165,-0.0070311544,0.56937575,0.0,0.0,0.0,-1.0
1956866706,1956866461,-0.05982654,-0.037973147,-0.016543493,0.56817627,0.0,0.0,0.0,-1.0
1956964786,1956964537,0.038105454,-0.09247523,-0.0062543508,0.56817627,0.0,0.0,0.0,-1.0
1957066580,1957066327,-0.0983244,-0.026086992,-0.018610409,0.56937575,0.0,0.0,0.0,-1.0
1957164652,1957164402,-0.066295765,-0.03699606,-0.023139454,0.5705753,0.0,0.0,0.0,-1.0
1957266534,1957266289,-0.022556374,-0.039658446,-0.017657842,0.5717748,0.0,0.0,0.0,-1.0
1957368244,1957367990,-0.063877895,0.00910933,-0.013971008,0.5717748,0.0,0.0,0.0,-1.0
1957466328,1957466066,-0.059321225,-0.075285815,-0.007165514,0.5717748,0.0,0.0,0.0,-1.0
1957566875,1957566619,-0.05870629,-0.0011526209,-0.016341778,0.5717748,0.0,0.0,0.0,-1.0
1957664938,1957664686,-0.04563939,-0.020515554,-0.015977455,0.5717748,0.0,0.0,0.0,-1.0
1957766728,1957766481,-0.060173877,-0.04130484,-0.0049537653,0.5717748,0.0,0.0,0.0,-1.0
1957864818,1957864566,0.015128263,-0.03900658,-0.01831905,0.5717748,0.0,0.0,0.0,-1.0
1957966585,1957966344,-0.040862903,-0.016061861,-0.01275193,0.5717748,0.0,0.0,0.0,-1.0
1958067225,1958066971,0.010673403,-0.035916515,-0.0066194916,0.5717748,0.0,0.0,0.0,-1.0
1958165222,1958164973,0.04535045,-0.037388757,-0.00885795,0.5837699,0.0,0.0,0.0,-1.0
1958267016,1958266770,0.002764783,-0.035503507,-0.017337214,0.5837699,0.0,0.0,0.0,-1.0
1958365087,1958364840,0.01483801,-0.050895967,-0.01938819,0.5837699,0.0,0.0,0.0,-1.0
1958466884,1958466635,-0.01073647,-0.051497936,-0.025594465,0.5837699,0.0,0.0,0.0,-1.0
1958564959,1958564707,0.025199309,-0.06723503,-0.02200595,0.5825704,0.0,0.0,0.0,-1.0
1958666765,1958666519,-0.032870848,0.003248222,-0.010230281,0.5825704,0.0,0.0,0.0,-1.0
1958767305,1958767057,0.0028740747,-0.04680926,-0.010899904,0.5825704,0.0,0.0,0.0,-1.0
1958865468,1958865221,-0.020196997,-0.04344799,-0.011961639,0.5825704,0.0,0.0,0.0,-1.0
1958967167,1958966923,0.013029169,-0.058623083,-0.012176792,0.5825704,0.0,0.0,0.0,-1.0
1959065253,1959064994,-0.034992076,-0.03889352,-0.016518867,0.58137083,0.0,0.0,0.0,-1.0
1959167224,1959166970,-0.031734988,-0.011383636,-0.0037687344,0.58137083,0.0,0.0,0.0,-1.0
1959265117,1959264865,0.054166704,-0.060514398,-0.007846052,0.58137083,0.0,0.0,0.0,-1.0
1959365659,1959365415,-0.050795358,-0.03212697,-0.007582763,0.58137083,0.0,0.0,0.0,-1.0
1959467462,1959467212,-0.013325582,-0.07434452,-0.013322504,0.5861689,0.0,0.0,0.0,-1.0
1959565527,1959565282,-0.060609285,-0.007112634,-0.008306609,0.59336597,0.0,0.0,0.0,-1.0
1959667401,1959667156,0.064614914,-0.102495015,-0.010511356,0.60776013,0.0,0.0,0.0,-1.0
1959765401,1959765150,-0.043817997,-0.04877861,-0.014500765,0.60776013,0.0,0.0,0.0,-1.0
1959867190,1959866944,-0.064521775,0.02752672,-0.013517175,0.60776013,0.0,0.0,0.0,-1.0
1959964153,1959963901,0.03490638,-0.051918317,-0.007108768,0.6065605,0.0,0.0,0.0,-1.0
1960065812,1960065570,-0.042945337,-0.009906269,-0.018869288,0.6065605,0.0,0.0,0.0,-1.0
1960167613,1960167365,-0.008079972,-0.061901957,-0.010507469,0.60416156,0.0,0.0,0.0,-1.0
1960265688,1960265436,0.070993386,-0.04051057,-0.020555453,0.6029621,0.0,0.0,0.0,-1.0
1960367478,1960367233,-0.04792046,-0.0043597417,-0.009377916,0.60416156,0.0,0.0,0.0,-1.0
1960465554,1960465303,-0.075620785,-0.026941558,-0.018893884,0.60416156,0.0,0.0,0.0,-1.0
1960567356,1960567099,-0.052724246,-0.0071426528,-0.022793626,0.60416156,0.0,0.0,0.0,-1.0
1960664178,1960663928,-0.025991943,-0.043559983,-0.021631235,0.60416156,0.0,0.0,0.0,-1.0
1960766080,1960765835,-0.030519474,-0.036109064,-0.03066315,0.60536104,0.0,0.0,0.0,-1.0
1960869025,1960868765,0.06019134,-0.056267746,-0.027541075,0.60536104,0.0,0.0,0.0,-1.0
1960965836,1960965591,-0.02462,-0.029676156,-0.023580676,0.60536104,0.0,0.0,0.0,-1.0
1961067672,1961067423,-0.014864908,-0.020772796,-0.033854477,0.60416156,0.0,0.0,0.0,-1.0
1961165705,1961165457,-0.015125324,-0.03801823,-0.028648354,0.60056305,0.0,0.0,0.0,-1.0
1961266265,1961266007,-0.03893339,-0.018704439,-0.027988013,0.5921665,0.0,0.0,0.0,-1.0
1961364334,1961364085,-0.033934295,-0.0521063,-0.02556286,0.57417375,0.0,0.0,0.0,-1.0
1961466137,1961465885,-0.11111069,0.055190213,-0.016330875,0.5717748,0.0,0.0,0.0,-1.0
1961567999,1961567752,0.058179628,-0.03537941,-0.015925962,0.56937575,0.0,0.0,0.0,-1.0
1961665988,1961665745,0.044287927,0.004292224,-0.01412596,0.5657772,0.0,0.0,0.0,-1.0
1961767794,1961767541,0.0577733,-0.056104265,-0.012075782,0.5657772,0.0,0.0,0.0,-1.0
1961864622,1961864371,0.002039404,-0.02137657,-0.015810354,0.5669768,0.0,0.0,0.0,-1.0
1961966411,1961966166,0.0049321433,-0.012777751,-0.020310558,0.5657772,0.0,0.0,0.0,-1.0
1962064485,1962064237,-0.007106548,-0.0048895925,-0.02581648,0.5669768,0.0,0.0,0.0,-1.0
1962166284,1962166033,-0.008798973,-0.02184544,-0.01782977,0.5669768,0.0,0.0,0.0,-1.0
1962268075,1962267829,0.0026535133,-0.03408431,-0.0146521665,0.56817627,0.0,0.0,0.0,-1.0
1962366177,1962365936,-0.040004548,-0.0010601843,-0.022667602,0.56817627,0.0,0.0,0.0,-1.0
1962466703,1962466454,-0.0891851,0.015320731,-0.0174482,0.56817627,0.0,0.0,0.0,-1.0
1962564770,1962564526,-0.053596936,-0.00951728,-0.01914608,0.56817627,0.0,0.0,0.0,-1.0
1962666758,1962666514,-0.025463726,-0.022559898,-0.015934616,0.56817627,0.0,0.0,0.0,-1.0
1962764642,1962764392,0.010858129,-0.041881166,-0.02414879,0.56817627,0.0,0.0,0.0,-1.0
1962866436,1962866188,-0.03529225,-0.051864482,-0.0275242,0.56817627,0.0,0.0,0.0,-1.0
1962968236,1962967983,-0.051341187,0.005894549,-0.018379554,0.56937575,0.0,0.0,0.0,-1.0
1963066326,1963066070,-0.02514824,-0.045651663,-0.018543443,0.56937575,0.0,0.0,0.0,-1.0
1963166942,1963166689,0.01773845,-0.026004033,-0.024059072,0.5705753,0.0,0.0,0.0,-1.0
1963264924,1963264680,0.052796002,-0.06901626,-0.023524784,0.5705753,0.0,0.0,0.0,-1.0
1963366720,1963366475,-0.06391395,-0.0457522,-0.028160341,0.57897186,0.0,0.0,0.0,-1.0
1963464940,1963464692,-0.03681846,-0.020247616,-0.023351943,0.59816396,0.0,0.0,0.0,-1.0
1963566584,1963566342,0.03355564,-0.06381926,-0.047495417,0.59816396,0.0,0.0,0.0,-1.0
1963667139,1963666896,-0.015106496,-0.048446678,-0.044602744,0.59816396,0.0,0.0,0.0,-1.0
1963765228,1963764969,-0.030999167,-0.058510292,-0.05439794,0.59816396,0.0,0.0,0.0,-1.0
1963868269,1963868006,-0.019725729,-0.055657282,-0.061535187,0.59816396,0.0,0.0,0.0,-1.0
1963965082,1963964834,0.051713664,-0.028962499,-0.043180898,0.595765,0.0,0.0,0.0,-1.0
1964066885,1964066633,0.005421901,-0.058071643,-0.026858736,0.5921665,0.0,0.0,0.0,-1.0
1964164981,1964164732,-0.006105359,-0.030201048,-0.0099024745,0.59936357,0.0,0.0,0.0,-1.0
1964266869,1964266616,0.03578775,-0.085662216,-0.020225124,0.60416156,0.0,0.0,0.0,-1.0
1964367299,1964367052,-0.039338637,-0.025311926,-0.01780858,0.60416156,0.0,0.0,0.0,-1.0
1964465372,1964465122,-0.05404784,0.0007548474,-0.016074413,0.6029621,0.0,0.0,0.0,-1.0
1964568415,1964568162,0.013010395,-0.05145725,-0.01952489,0.60176253,0.0,0.0,0.0,-1.0
1964665248,1964664996,0.050329562,-0.06397863,-0.023618605,0.60176253,0.0,0.0,0.0,-1.0
1964767043,1964766787,0.006308258,0.014968426,-0.013507544,0.60416156,0.0,0.0,0.0,-1.0
1964866355,1964866100,0.05150691,-0.07263422,-0.025118789,0.60416156,0.0,0.0,0.0,-1.0
1964965668,1964965412,-0.033694334,-0.023961987,-0.025427122,0.60416156,0.0,0.0,0.0,-1.0
1965065118,1965064864,-0.030122269,-0.04223449,-0.028571071,0.60416156,0.0,0.0,0.0,-1.0
1965165521,1965165277,-0.053019885,-0.00026363874,-0.012440811,0.60416156,0.0,0.0,0.0,-1.0
1965267319,1965267072,-0.081107646,-0.045267303,-0.033402834,0.60536104,0.0,0.0,0.0,-1.0
1965365386,1965365144,-0.054392885,-0.05103956,-0.024228005,0.60536104,0.0,0.0,0.0,-1.0
1965467202,1965466942,-0.07939465,-0.00684447,-0.017964218,0.60176253,0.0,0.0,0.0,-1.0
1965565264,1965565011,-0.040905543,0.006445181,-0.015330668,0.60176253,0.0,0.0,0.0,-1.0
1965665824,1965665568,0.016058857,-0.063326366,-0.024453346,0.60176253,0.0,0.0,0.0,-1.0
1965765134,1965764880,-0.03555024,-0.050506312,-0.024401372,0.60176253,0.0,0.0,0.0,-1.0
1965865719,1965865476,-0.025577737,-0.021007407,-0.027075106,0.60176253,0.0,0.0,0.0,-1.0
1965967473,1965967227,0.01616352,0.0014149358,-0.019285059,0.60176253,0.0,0.0,0.0,-1.0
1966065590,1966065347,-0.06123247,-0.0040879273,-0.01868393,0.60176253,0.0,0.0,0.0,-1.0
1966167350,1966167096,0.010358523,-0.054397713,-0.022992553,0.60056305,0.0,0.0,0.0,-1.0
1966264175,1966263923,0.033942726,-0.08759929,-0.0154865235,0.57417375,0.0,0.0,0.0,-1.0
1966365967,1966365720,-0.042354472,-0.048343647,-0.0236744,0.5717748,0.0,0.0,0.0,-1.0
1966464046,1966463790,-0.07157453,-0.025825044,-0.023898358,0.57297426,0.0,0.0,0.0,-1.0
1966565830,1966565585,-0.071902886,-0.017770372,-0.01203662,0.57417375,0.0,0.0,0.0,-1.0
1966667659,1966667410,0.06948932,-0.03655514,-0.01474006,0.57297426,0.0,0.0,0.0,-1.0
1966765706,1966765466,0.039405253,-0.008733602,-0.017472135,0.57417375,0.0,0.0,0.0,-1.0
1966867502,1966867252,0.009578384,-0.04470368,-0.024305124,0.57417375,0.0,0.0,0.0,-1.0
1966964468,1966964227,-0.02672847,-0.015294704,-0.021591322,0.57417375,0.0,0.0,0.0,-1.0
1967066134,1967065882,0.013659384,-0.05965201,-0.018550882,0.57417375,0.0,0.0,0.0,-1.0
1967167919,1967167669,-0.003173628,-0.051782507,-0.026968408,0.57417375,0.0,0.0,0.0,-1.0
1967265994,1967265740,-0.013993447,-0.025645887,-0.026224278,0.57417375,0.0,0.0,0.0,-1.0
1967367781,1967367536,-0.006605618,-0.04840373,-0.020727796,0.57417375,0.0,0.0,0.0,-1.0
1967465902,1967465647,0.0198836,-0.04508834,-0.020456895,0.57417375,0.0,0.0,0.0,-1.0
1967566408,1967566162,-0.02907801,-0.00011147204,-0.019576374,0.57417375,0.0,0.0,0.0,-1.0
1967664481,1967664233,-0.11974988,0.027126083,-0.020822713,0.57417375,0.0,0.0,0.0,-1.0
1967766399,1967766154,0.021206686,-0.009276845,-0.015149842,0.57417375,0.0,0.0,0.0,-1.0
1967868070,1967867824,0.00212292,-0.04686779,-0.019889051,0.57417375,0.0,0.0,0.0,-1.0
1967966174,1967965927,0.0026250875,-0.0442041,-0.016859883,0.57417375,0.0,0.0,0.0,-1.0
1968066694,1968066449,0.05106557,-0.09379499,-0.01849633,0.57417375,0.0,0.0,0.0,-1.0
1968164772,1968164520,-0.012580537,-0.059564788,-0.016219102,0.57417375,0.0,0.0,0.0,-1.0
1968266567,1968266315,-0.0017511912,-0.038673542,-0.021118417,0.57537335,0.0,0.0,0.0,-1.0
1968364632,1968364387,-0.03101085,-0.04988166,-0.017210089,0.57657284,0.0,0.0,0.0,-1.0
1968466430,1968466182,-0.006417764,-0.070454046,-0.01705477,0.57657284,0.0,0.0,0.0,-1.0
1968568335,1968568084,0.008306416,-0.04744358,-0.022565745,0.57537335,0.0,0.0,0.0,-1.0
1968666306,1968666049,-0.0039900136,-0.051372513,-0.022922775,0.57537335,0.0,0.0,0.0,-1.0
1968766847,1968766603,-0.07249795,0.0015664279,-0.015220785,0.57537335,0.0,0.0,0.0,-1.0
1968864925,1968864675,-0.005045773,-0.024797313,-0.020396287,0.5849694,0.0,0.0,0.0,-1.0
1968966723,1968966470,-0.012164787,-0.015067097,-0.022872008,0.59456545,0.0,0.0,0.0,-1.0
1969064827,1969064583,-0.024460452,-0.011149838,-0.022941442,0.59456545,0.0,0.0,0.0,-1.0
1969166590,1969166338,0.01531828,-0.046891402,-0.021483153,0.60056305,0.0,0.0,0.0,-1.0
1969265906,1969265651,0.062193707,-0.08871444,-0.028115721,0.60176253,0.0,0.0,0.0,-1.0
1969365279,1969365026,-0.032744426,-0.02094104,-0.034264904,0.60176253,0.0,0.0,0.0,-1.0
1969464533,1969464277,-0.015037572,-0.009707233,-0.031582393,0.60176253,0.0,0.0,0.0,-1.0
1969565072,1969564829,-0.013799258,-0.024405153,-0.026636725,0.60176253,0.0,0.0,0.0,-1.0
1969666879,1969666625,-0.016276613,-0.028873648,-0.021554867,0.60176253,0.0,0.0,0.0,-1.0
1969764943,1969764696,-0.01905299,-0.0037435018,-0.025261678,0.60176253,0.0,0.0,0.0,-1.0
1969866760,1969866511,0.04994055,-0.054743044,-0.03875086,0.60176253,0.0,0.0,0.0,-1.0
1969964822,1969964563,0.011201982,-0.059230447,-0.034899026,0.60176253,0.0,0.0,0.0,-1.0
1970065370,1970065118,-0.08668088,0.010370951,-0.024671556,0.60176253,0.0,0.0,0.0,-1.0
1970167187,1970166943,-0.020185191,-0.0068150004,-0.02285685,0.60176253,0.0,0.0,0.0,-1.0
1970265242,1970264984,0.081174105,-0.08179138,-0.027965326,0.60176253,0.0,0.0,0.0,-1.0
1970367034,1970366784,-0.0269011,-0.007719065,-0.021145318,0.60176253,0.0,0.0,0.0,-1.0
1970465269,1970465023,-0.05075806,-0.007932949,-0.027705347,0.60176253,0.0,0.0,0.0,-1.0
1970565651,1970565405,-0.08082423,-9.415783e-05,-0.019298153,0.60176253,0.0,0.0,0.0,-1.0
1970667447,1970667205,0.08862159,-0.058484513,-0.033539765,0.60056305,0.0,0.0,0.0,-1.0
1970765520,1970765272,-0.026242936,-0.039251175,-0.03092877,0.60176253,0.0,0.0,0.0,-1.0
1970867311,1970867067,-0.035235062,-0.02556598,-0.026267223,0.60176253,0.0,0.0,0.0,-1.0
1970965384,1970965140,-0.029132314,-0.026850387,-0.027723636,0.60176253,0.0,0.0,0.0,-1.0
1971067187,1971066936,-0.022367707,-0.024925787,-0.014083839,0.60176253,0.0,0.0,0.0,-1.0
1971165254,1971165005,0.05733341,-0.027068442,-0.018065102,0.60176253,0.0,0.0,0.0,-1.0
1971265954,1971265694,0.048000287,-0.06017211,-0.024155784,0.59816396,0.0,0.0,0.0,-1.0
1971367600,1971367355,-0.018518802,0.0075527006,-0.011204289,0.595765,0.0,0.0,0.0,-1.0
1971465730,1971465483,0.12256153,-0.026415328,-0.016172368,0.595765,0.0,0.0,0.0,-1.0
1971567465,1971567223,-0.0453767,-0.044250354,-0.019577801,0.59816396,0.0,0.0,0.0,-1.0
1971665539,1971665293,-0.01415771,0.0047316616,-0.025231535,0.59936357,0.0,0.0,0.0,-1.0
1971767370,1971767110,0.047494303,-0.065875486,-0.015258219,0.59816396,0.0,0.0,0.0,-1.0
1971864166,1971863918,0.04966667,-0.029006585,-0.020020159,0.59816396,0.0,0.0,0.0,-1.0
1971965964,1971965714,0.0075830044,-0.047162678,-0.021584563,0.59816396,0.0,0.0,0.0,-1.0
1972067874,1972067629,-0.078854226,0.0039472673,-0.015519462,0.59816396,0.0,0.0,0.0,-1.0
1972165834,1972165587,-0.02069629,0.023260564,-0.0073944707,0.59936357,0.0,0.0,0.0,-1.0
1972265156,1972264899,-0.018446006,-0.05715724,-0.015036135,0.59936357,0.0,0.0,0.0,-1.0
1972365689,1972365448,-0.048642877,0.0107113,-0.013167209,0.59936357,0.0,0.0,0.0,-1.0
1972466247,1972466002,0.013145542,-0.021987755,-0.00031085804,0.59816396,0.0,0.0,0.0,-1.0
1972564318,1972564073,0.066089235,-0.06569306,-0.014016358,0.59816396,0.0,0.0,0.0,-1.0
1972667367,1972667111,0.06380362,-0.018477906,-0.0018721683,0.59816396,0.0,0.0,0.0,-1.0
1972767912,1972767664,-0.03370245,-0.012688629,-0.0088059725,0.59816396,0.0,0.0,0.0,-1.0
1972866130,1972865872,-0.050784785,0.021761071,-0.0006936138,0.59816396,0.0,0.0,0.0,-1.0
1972967774,1972967531,-0.0074229976,-0.023798835,-0.01446616,0.59816396,0.0,0.0,0.0,-1.0
1973065864,1973065606,-0.038959023,0.0007037629,-0.0014556492,0.59816396,0.0,0.0,0.0,-1.0
1973166398,1973166156,0.030603882,-0.063864715,-0.010039785,0.59816396,0.0,0.0,0.0,-1.0
1973264479,1973264228,-0.026391272,-0.0016155227,-0.013105146,0.59816396,0.0,0.0,0.0,-1.0
1973366271,1973366023,0.014609603,-0.07076665,-0.0076782107,0.59936357,0.0,0.0,0.0,-1.0
1973468109,1973467864,-0.034686215,-0.010342359,-0.008135032,0.60056305,0.0,0.0,0.0,-1.0
1973566157,1973565896,-0.02886008,-0.022590857,-0.01678846,0.60056305,0.0,0.0,0.0,-1.0
1973664297,1973664039,-0.026290039,-0.026467476,-0.018043423,0.60176253,0.0,0.0,0.0,-1.0
1973764766,1973764516,-0.04275786,0.0067144823,-0.018225387,0.60176253,0.0,0.0,0.0,-1.0
1973866579,1973866326,-0.012375261,-0.030052323,-0.026147477,0.58017135,0.0,0.0,0.0,-1.0
1973964805,1973964563,-0.005990725,-0.033922892,-0.026341273,0.58137083,0.0,0.0,0.0,-1.0
1974066430,1974066178,0.024747705,-0.02835473,-0.028155563,0.57897186,0.0,0.0,0.0,-1.0
1974168229,1974167976,-0.028535072,-0.007127651,-0.016631609,0.58017135,0.0,0.0,0.0,-1.0
1974266305,1974266045,-0.035046365,0.013669434,-0.02615902,0.5825704,0.0,0.0,0.0,-1.0
1974364368,1974364116,-0.04754698,-0.009099087,-0.029780345,0.5837699,0.0,0.0,0.0,-1.0
1974464929,1974464679,-0.02781628,0.0052935225,-0.016556608,0.60416156,0.0,0.0,0.0,-1.0
1974566708,1974566466,-0.005936379,-0.046411958,-0.022115353,0.60056305,0.0,0.0,0.0,-1.0
1974664798,1974664537,-0.002987846,-0.028768286,-0.032553464,0.59936357,0.0,0.0,0.0,-1.0
1974766729,1974766482,-0.010962583,-0.013844368,-0.016966155,0.60176253,0.0,0.0,0.0,-1.0
1974868374,1974868128,0.00407579,-0.054919362,-0.019221896,0.60176253,0.0,0.0,0.0,-1.0
1974965214,1974964959,0.07353015,-0.081140764,-0.015135588,0.59816396,0.0,0.0,0.0,-1.0
1975067005,1975066757,-0.10284552,0.0006452868,-0.016475337,0.59816396,0.0,0.0,0.0,-1.0
1975165085,1975164828,-0.0435846,0.028893564,-0.009987108,0.59936357,0.0,0.0,0.0,-1.0
1975266889,1975266643,0.017208438,-0.06517254,-0.022415955,0.5861689,0.0,0.0,0.0,-1.0
1975364941,1975364692,-0.021038018,-0.05350896,-0.018879114,0.5861689,0.0,0.0,0.0,-1.0
1975467981,1975467729,-0.038210083,0.008308685,-0.014003739,0.5861689,0.0,0.0,0.0,-1.0
1975567499,1975567237,0.015830265,-0.035196587,-0.009438787,0.5861689,0.0,0.0,0.0,-1.0
1975666601,1975666350,0.05956765,-0.020828476,-0.013795441,0.5861689,0.0,0.0,0.0,-1.0
1975767157,1975766911,-0.023260916,-0.019916788,-0.0045517683,0.5861689,0.0,0.0,0.0,-1.0
1975865236,1975864981,0.03043451,-0.03954319,-0.015438637,0.5861689,0.0,0.0,0.0,-1.0
1975967018,1975966775,-0.043903876,-0.019149033,-0.019109188,0.5873684,0.0,0.0,0.0,-1.0
1976065091,1976064846,-0.08671918,0.012097322,-0.014829952,0.5885679,0.0,0.0,0.0,-1.0
1976165643,1976165400,0.0016874799,-0.030621793,-0.0030701323,0.59816396,0.0,0.0,0.0,-1.0
1976267446,1976267201,-0.08168234,0.0016942875,-0.013999008,0.60776013,0.0,0.0,0.0,-1.0
1976365599,1976365349,0.009291474,-0.027911507,-0.0011110493,0.6065605,0.0,0.0,0.0,-1.0
1976467305,1976467063,-0.099311724,-0.015437794,-0.013549932,0.60536104,0.0,0.0,0.0,-1.0
1976565380,1976565135,-0.071365595,0.04382462,-0.003739272,0.60416156,0.0,0.0,0.0,-1.0
1976667173,1976666929,-0.022705268,-0.02693722,-0.015632497,0.60536104,0.0,0.0,0.0,-1.0
1976765250,1976765001,-0.056992196,0.017652571,-0.012433515,0.60536104,0.0,0.0,0.0,-1.0
1976865797,1976865555,0.0127856415,-0.012974938,-0.024757048,0.60536104,0.0,0.0,0.0,-1.0
1976967596,1976967351,-0.086615264,0.044401877,-0.042429198,0.60416156,0.0,0.0,0.0,-1.0
1977065678,1977065427,-0.06598347,-0.01010052,-0.04942082,0.60416156,0.0,0.0,0.0,-1.0
1977167515,1977167271,0.0112413075,0.027565451,-0.050191104,0.60416156,0.0,0.0,0.0,-1.0
1977265534,1977265289,-0.041154645,0.019189384,-0.05495698,0.60416156,0.0,0.0,0.0,-1.0
1977367336,1977367084,-0.040961467,-0.0020699652,-0.057126,0.60416156,0.0,0.0,0.0,-1.0
1977464349,1977464103,-0.08010132,0.0019321558,-0.06764069,0.60536104,0.0,0.0,0.0,-1.0
1977565968,1977565710,-0.03608932,0.025203243,-0.052440874,0.60536104,0.0,0.0,0.0,-1.0
1977667753,1977667506,-0.01008131,-0.032474488,-0.042873792,0.60536104,0.0,0.0,0.0,-1.0
1977765821,1977765576,-0.062140208,0.0330545,-0.040436894,0.60536104,0.0,0.0,0.0,-1.0
1977867622,1977867372,0.06062999,-0.055074945,-0.037874173,0.60536104,0.0,0.0,0.0,-1.0
1977965762,1977965514,-0.030748457,-0.036952734,-0.02858509,0.60536104,0.0,0.0,0.0,-1.0
1978065010,1978064760,0.010497978,-0.011889782,-0.028887084,0.60536104,0.0,0.0,0.0,-1.0
1978164321,1978164070,-0.023972785,-0.016821466,-0.01870263,0.60536104,0.0,0.0,0.0,-1.0
1978266271,1978266027,-0.036555666,-0.030315792,-0.028267734,0.60536104,0.0,0.0,0.0,-1.0
1978367908,1978367660,0.03380116,-0.055833593,-0.010712955,0.60536104,0.0,0.0,0.0,-1.0
1978465978,1978465731,0.06318442,-0.06277262,-0.023988701,0.60536104,0.0,0.0,0.0,-1.0
1978567772,1978567530,-0.038158476,-0.017085522,-0.010619822,0.60536104,0.0,0.0,0.0,-1.0
1978665857,1978665600,-0.038954813,-0.009189709,-0.022825934,0.60776013,0.0,0.0,0.0,-1.0
1978766398,1978766156,0.06610774,-0.05288106,-0.032914635,0.60416156,0.0,0.0,0.0,-1.0
1978864481,1978864225,0.03815675,-0.058304537,-0.022710482,0.60056305,0.0,0.0,0.0,-1.0
1978966310,1978966069,-0.027665505,0.007168974,-0.0117306225,0.60176253,0.0,0.0,0.0,-1.0
1979068191,1979067947,-0.09288083,-0.0040970403,-0.028336506,0.60056305,0.0,0.0,0.0,-1.0
1979166151,1979165895,-0.06652622,0.016822988,-0.021743078,0.59936357,0.0,0.0,0.0,-1.0
1979266689,1979266440,0.030967997,-0.034562238,-0.020942973,0.59816396,0.0,0.0,0.0,-1.0
1979364815,1979364567,-0.010620627,-0.029517608,-0.023584042,0.59816396,0.0,0.0,0.0,-1.0
1979466555,1979466307,-0.017289236,0.01882988,0.0066898777,0.5969645,0.0,0.0,0.0,-1.0
1979564626,1979564379,-0.021071756,-0.015526851,0.011505099,0.5969645,0.0,0.0,0.0,-1.0
1979666429,1979666174,-0.04957832,0.0036610842,-0.0105031775,0.595765,0.0,0.0,0.0,-1.0
1979768221,1979767969,0.003175751,-0.02563427,-0.0033838497,0.5969645,0.0,0.0,0.0,-1.0
1979865139,1979864889,-0.027308047,-0.029068846,-0.006458596,0.595765,0.0,0.0,0.0,-1.0
1979966851,1979966596,-0.02528941,-0.05195274,-0.03555218,0.59336597,0.0,0.0,0.0,-1.0
1980066162,1980065910,-0.009436403,-0.03162373,-0.03815703,0.5969645,0.0,0.0,0.0,-1.0
1980166703,1980166461,-0.048285674,0.003405197,-0.037944023,0.595765,0.0,0.0,0.0,-1.0
1980264788,1980264535,-0.04144307,-0.00086093514,-0.08189377,0.59336597,0.0,0.0,0.0,-1.0
1980366591,1980366349,-0.014801493,-0.047043283,-0.0835434,0.5897674,0.0,0.0,0.0,-1.0
1980467132,1980466882,-0.010816238,-0.030057387,-0.087168224,0.5537821,0.0,0.0,0.0,-1.0
1980565202,1980564954,-0.05430761,-0.03844177,-0.08255041,0.51899636,0.0,0.0,0.0,-1.0
1980667059,1980666813,-0.014847725,0.013842209,-0.093366265,0.51899636,0.0,0.0,0.0,-1.0
1980765073,1980764821,-0.029275,0.05471554,-0.1232967,0.51779675,0.0,0.0,0.0,-1.0
1980866872,1980866629,-0.006372683,0.016634943,-0.114081316,0.51779675,0.0,0.0,0.0,-1.0
1980964941,1980964691,0.033574652,-0.0077803293,-0.11038016,0.52019584,0.0,0.0,0.0,-1.0
1981064259,1981064003,-0.06676328,-0.021767156,-0.09208831,0.52019584,0.0,0.0,0.0,-1.0
1981167287,1981167037,-0.0011269198,-0.005321098,-0.0998293,0.54898405,0.0,0.0,0.0,-1.0
1981265381,1981265138,0.025361938,-0.059664797,-0.092109755,0.5705753,0.0,0.0,0.0,-1.0
1981367163,1981366907,0.016359892,-0.046279646,-0.07493912,0.56937575,0.0,0.0,0.0,-1.0
1981466496,1981466249,0.010714967,-0.05165532,-0.08104261,0.57417375,0.0,0.0,0.0,-1.0
1981567012,1981566771,0.03520939,0.020231955,-0.06671539,0.5885679,0.0,0.0,0.0,-1.0
1981665099,1981664846,0.05542115,-0.016279176,-0.064184956,0.60176253,0.0,0.0,0.0,-1.0
1981765809,1981765566,-0.044635955,-0.00734763,-0.060031794,0.6029621,0.0,0.0,0.0,-1.0
1981867449,1981867191,0.002457434,-0.036176503,-0.08358354,0.60176253,0.0,0.0,0.0,-1.0
1981965508,1981965266,0.07815449,-0.015280685,-0.05415932,0.6029621,0.0,0.0,0.0,-1.0
1982067318,1982067066,0.0015466042,0.030241558,-0.0468838,0.6029621,0.0,0.0,0.0,-1.0
1982166621,1982166372,-0.020063942,0.024176916,-0.053000882,0.6101591,0.0,0.0,0.0,-1.0
1982267254,1982266995,-0.05495779,-0.005617546,-0.06733992,0.60536104,0.0,0.0,0.0,-1.0
1982365259,1982364997,-0.019346572,-0.044609092,-0.08066267,0.60776013,0.0,0.0,0.0,-1.0
1982464566,1982464316,0.014348929,-0.045301482,-0.06797858,0.60536104,0.0,0.0,0.0,-1.0
1982567732,1982567487,0.02311872,-0.055215824,-0.061824255,0.5921665,0.0,0.0,0.0,-1.0
1982665658,1982665417,-0.0015713708,-0.0030830991,-0.04212181,0.5837699,0.0,0.0,0.0,-1.0
1982767459,1982767214,-0.028570032,0.008229271,-0.034722555,0.5837699,0.0,0.0,0.0,-1.0
1982865536,1982865285,0.014239424,-0.0013103962,-0.024396254,0.5849694,0.0,0.0,0.0,-1.0
1982967329,1982967080,-0.018373318,-0.0102087,-0.015905922,0.5861689,0.0,0.0,0.0,-1.0
1983064167,1983063915,0.019260718,-0.011079147,-0.007000641,0.5861689,0.0,0.0,0.0,-1.0
1983166018,1983165772,0.032374673,-0.060094047,0.0027952963,0.5861689,0.0,0.0,0.0,-1.0
1983267752,1983267502,0.011029519,-0.0024520697,0.011143277,0.5849694,0.0,0.0,0.0,-1.0
1983365943,1983365693,0.040608313,-0.047690265,0.0076093352,0.58137083,0.0,0.0,0.0,-1.0
1983467620,1983467369,-0.0004115762,0.0010111958,-0.0027659,0.5837699,0.0,0.0,0.0,-1.0
1983566950,1983566702,-0.028720211,-0.0013556343,-0.0032920125,0.5849694,0.0,0.0,0.0,-1.0
1983666252,1983665995,0.013626468,-0.0018243785,-0.00913459,0.5861689,0.0,0.0,0.0,-1.0
1983765553,1983765306,0.04075366,-0.014006567,-0.018751746,0.5837699,0.0,0.0,0.0,-1.0
1983866104,1983865860,0.037537552,-0.048261166,-0.037470277,0.5849694,0.0,0.0,0.0,-1.0
1983967903,1983967655,0.024658982,-0.028244464,-0.04038289,0.5861689,0.0,0.0,0.0,-1.0
1984065969,1984065726,0.027807109,0.025534287,-0.034054007,0.6161567,0.0,0.0,0.0,-1.0
1984167854,1984167603,0.1043589,-0.07161727,-0.042103745,0.6125581,0.0,0.0,0.0,-1.0
1984265846,1984265593,0.010499622,0.008594641,-0.042456202,0.62575275,0.0,0.0,0.0,-1.0
1984366401,1984366148,0.015090174,-0.0038550468,-0.0341151,0.6233537,0.0,0.0,0.0,-1.0
1984464475,1984464221,0.01479504,0.03230375,-0.04717159,0.6137576,0.0,0.0,0.0,-1.0
1984566270,1984566021,-0.010327929,-0.048470333,-0.056637213,0.6137576,0.0,0.0,0.0,-1.0
1984665584,1984665329,-0.046176963,0.06176564,-0.050856475,0.60176253,0.0,0.0,0.0,-1.0
1984766139,1984765888,-0.014608917,-0.010309881,-0.056956816,0.5885679,0.0,0.0,0.0,-1.0
1984866684,1984866435,-0.001704275,-0.026878424,-0.06684088,0.5897674,0.0,0.0,0.0,-1.0
1984964776,1984964535,-0.025201071,-0.0041661654,-0.012786203,0.59096694,0.0,0.0,0.0,-1.0
1985067798,1985067545,-0.009049606,-0.031950608,0.012676233,0.5921665,0.0,0.0,0.0,-1.0
1985164623,1985164374,0.009305416,-0.04549891,0.013078717,0.5897674,0.0,0.0,0.0,-1.0
1985266609,1985266361,0.03049382,-0.06508611,0.023375915,0.59096694,0.0,0.0,0.0,-1.0
1985368224,1985367969,-0.016032752,0.022718389,0.017541463,0.5825704,0.0,0.0,0.0,-1.0
1985466284,1985466036,0.028382678,-0.08436892,0.01905559,0.57417375,0.0,0.0,0.0,-1.0
1985566863,1985566616,-0.075910896,0.0074129314,0.0064960863,0.5777723,0.0,0.0,0.0,-1.0
1985664919,1985664661,0.0014768273,-0.026705284,0.012383987,0.57897186,0.0,0.0,0.0,-1.0
1985766761,1985766517,0.015026215,-0.034656245,-0.008632363,0.57897186,0.0,0.0,0.0,-1.0
1985866029,1985865774,0.063709326,-0.03723627,-0.015550822,0.57897186,0.0,0.0,0.0,-1.0
1985966575,1985966324,-0.074807756,0.011179399,-0.038504466,0.57897186,0.0,0.0,0.0,-1.0
1986066035,1986065787,-0.04525973,-0.008955766,-0.0030904782,0.57897186,0.0,0.0,0.0,-1.0
1986165210,1986164962,0.0024925063,0.0046266047,0.029665789,0.57897186,0.0,0.0,0.0,-1.0
1986268242,1986267987,0.06147882,-0.030765614,0.04411562,0.5777723,0.0,0.0,0.0,-1.0
1986365062,1986364816,-0.088689856,0.010601355,0.05088521,0.5777723,0.0,0.0,0.0,-1.0
1986466865,1986466613,-0.09884788,0.02111835,0.037886444,0.5777723,0.0,0.0,0.0,-1.0
1986566176,1986565927,0.0057669636,0.022636792,0.025042415,0.5777723,0.0,0.0,0.0,-1.0
1986666730,1986666478,0.029997973,-0.045766678,0.023741793,0.5777723,0.0,0.0,0.0,-1.0
1986764823,1986764568,-0.023228895,-0.05362157,0.007465489,0.5777723,0.0,0.0,0.0,-1.0
1986865467,1986865220,-0.019235224,-0.0057097124,-0.008541383,0.5777723,0.0,0.0,0.0,-1.0
1986967150,1986966899,0.059150387,-0.018417846,-0.0055485363,0.5777723,0.0,0.0,0.0,-1.0
1987065222,1987064970,-0.011938661,-0.0032816872,-0.018560743,0.5777723,0.0,0.0,0.0,-1.0
1987167016,1987166767,0.054933432,-0.03833354,-0.025124148,0.5777723,0.0,0.0,0.0,-1.0
1987266329,1987266080,-0.037033122,-0.038002208,-0.023047652,0.5777723,0.0,0.0,0.0,-1.0
1987365635,1987365387,0.03216411,0.021634188,-0.031465515,0.5777723,0.0,0.0,0.0,-1.0
1987467437,1987467187,0.030073574,0.0032225128,-0.036211614,0.57897186,0.0,0.0,0.0,-1.0
1987565510,1987565258,0.025803389,-0.042570893,-0.038486,0.5897674,0.0,0.0,0.0,-1.0
1987667385,1987667138,-0.028964566,-0.0024551805,-0.04060513,0.59336597,0.0,0.0,0.0,-1.0
1987765368,1987765125,-0.02497152,-0.024048716,-0.030269904,0.5921665,0.0,0.0,0.0,-1.0
1987867166,1987866921,0.04733454,-0.016847312,-0.02959345,0.63055074,0.0,0.0,0.0,-1.0
1987965242,1987964991,0.016886432,-0.012430747,-0.025668494,0.62935126,0.0,0.0,0.0,-1.0
1988065790,1988065546,0.07649392,-0.060418457,0.00026877585,0.62935126,0.0,0.0,0.0,-1.0
1988167590,1988167341,0.025366645,-0.0021259554,-0.00013688183,0.62935126,0.0,0.0,0.0,-1.0
1988265666,1988265415,0.060540684,-0.061980058,0.0009813892,0.62935126,0.0,0.0,0.0,-1.0
1988367461,1988367208,0.005662509,-0.023065768,0.0023956716,0.62935126,0.0,0.0,0.0,-1.0
1988465628,1988465383,0.025286555,-0.014140178,-0.013334851,0.62695223,0.0,0.0,0.0,-1.0
1988567330,1988567075,0.030826822,-0.056385875,-0.00863527,0.62575275,0.0,0.0,0.0,-1.0
1988664151,1988663906,0.07155707,-0.05387802,-0.013714642,0.62575275,0.0,0.0,0.0,-1.0
1988765955,1988765704,0.08061187,-0.07517364,-0.01046574,0.62455326,0.0,0.0,0.0,-1.0
1988867741,1988867496,0.04070869,-0.011151309,-0.0069593256,0.62455326,0.0,0.0,0.0,-1.0
1988965809,1988965567,-0.047289785,-0.026525322,-0.02686636,0.62455326,0.0,0.0,0.0,-1.0
1989067610,1989067363,0.03729869,-0.018446457,-0.01617247,0.6233537,0.0,0.0,0.0,-1.0
1989165715,1989165470,-0.038956404,-0.03124394,-0.028681453,0.6233537,0.0,0.0,0.0,-1.0
1989266264,1989266010,0.03760896,-0.03704052,-0.021590969,0.6221542,0.0,0.0,0.0,-1.0
1989364300,1989364059,0.0025265808,-0.023257151,-0.023441808,0.62455326,0.0,0.0,0.0,-1.0
1989466113,1989465858,0.01780231,-0.0077759163,-0.021388656,0.6197552,0.0,0.0,0.0,-1.0
1989564386,1989564138,0.0089710215,-0.02017077,-0.021138579,0.6209547,0.0,0.0,0.0,-1.0
1989665968,1989665722,-0.02348898,-0.04588282,-0.038902264,0.6221542,0.0,0.0,0.0,-1.0
1989767764,1989767517,0.08262534,-0.014742757,-0.031601228,0.6221542,0.0,0.0,0.0,-1.0
1989865839,1989865588,0.030042605,-0.045799647,-0.03790358,0.57417375,0.0,0.0,0.0,-1.0
1989966393,1989966142,-0.025571851,-0.01567216,-0.041359276,0.57417375,0.0,0.0,0.0,-1.0
1990064552,1990064310,0.021135435,-0.0053795623,-0.039550886,0.57417375,0.0,0.0,0.0,-1.0
1990166268,1990166011,-0.01826972,-0.036114484,-0.03406933,0.56817627,0.0,0.0,0.0,-1.0
1990264332,1990264081,0.011921317,-0.032826614,-0.036926273,0.55858016,0.0,0.0,0.0,-1.0
1990366253,1990366002,-0.029205067,-0.019269956,-0.03148021,0.5597797,0.0,0.0,0.0,-1.0
1990466674,1990466430,-0.029273158,0.0019023943,-0.027124349,0.55858016,0.0,0.0,0.0,-1.0
1990564746,1990564502,0.007324276,-0.035689533,-0.040906623,0.5597797,0.0,0.0,0.0,-1.0
1990666567,1990666319,-0.012709595,-0.041048557,-0.03726557,0.5621787,0.0,0.0,0.0,-1.0
1990764637,1990764397,-0.04399797,0.026587449,-0.03534896,0.5609792,0.0,0.0,0.0,-1.0
1990866470,1990866224,-0.029410418,-0.0029874332,-0.040653836,0.5657772,0.0,0.0,0.0,-1.0
1990968217,1990967962,-0.036805257,-0.017906945,-0.046575546,0.56817627,0.0,0.0,0.0,-1.0
1991066275,1991066030,0.015178429,-0.032649174,-0.040521417,0.56817627,0.0,0.0,0.0,-1.0
1991166927,1991166683,-0.05467686,0.003957816,-0.040280998,0.56817627,0.0,0.0,0.0,-1.0
1991264903,1991264656,-0.015917126,-0.04277227,-0.049375813,0.56937575,0.0,0.0,0.0,-1.0
1991366702,1991366456,0.013610718,-0.055518717,-0.053819854,0.56937575,0.0,0.0,0.0,-1.0
1991464764,1991464522,-0.04661674,0.0023406283,-0.04751423,0.5717748,0.0,0.0,0.0,-1.0
1991566570,1991566320,-0.04666795,-0.02492054,-0.05107919,0.57297426,0.0,0.0,0.0,-1.0
1991664640,1991664389,-0.036005013,-0.058660936,-0.055272892,0.57297426,0.0,0.0,0.0,-1.0
1991765219,1991764967,0.017707678,-0.02749741,-0.05282299,0.5921665,0.0,0.0,0.0,-1.0
1991866985,1991866739,0.021701055,-0.017080361,-0.05166033,0.59336597,0.0,0.0,0.0,-1.0
1991965155,1991964909,-0.0678515,-0.007598319,-0.055794682,0.59336597,0.0,0.0,0.0,-1.0
1992066854,1992066606,-0.11051309,-0.0099095795,-0.057390213,0.59336597,0.0,0.0,0.0,-1.0
1992164925,1992164681,-0.018270481,-0.06746511,-0.074039645,0.63175035,0.0,0.0,0.0,-1.0
1992266725,1992266473,-0.0714267,-0.056700464,-0.066928014,0.63175035,0.0,0.0,0.0,-1.0
1992364802,1992364544,-0.03896532,-0.030489348,-0.069566645,0.63175035,0.0,0.0,0.0,-1.0
1992465347,1992465100,-0.01752382,-0.040926002,-0.06391767,0.63175035,0.0,0.0,0.0,-1.0
1992567134,1992566893,-0.063114695,-0.036017917,-0.055672895,0.63175035,0.0,0.0,0.0,-1.0
1992665222,1992664965,-0.07884349,0.0045911414,-0.05716958,0.63175035,0.0,0.0,0.0,-1.0
1992767033,1992766787,-0.0944359,0.010648632,-0.038534403,0.62935126,0.0,0.0,0.0,-1.0
1992865076,1992864832,-0.030734897,-0.0052452763,-0.03369743,0.62935126,0.0,0.0,0.0,-1.0
1992966873,1992966627,-0.05229789,-0.03833451,-0.037904754,0.62575275,0.0,0.0,0.0,-1.0
1993067605,1993067363,-0.0004360149,-0.038736414,-0.02319194,0.62575275,0.0,0.0,0.0,-1.0
1993165544,1993165298,0.0055175885,-0.04794462,-0.030959483,0.62575275,0.0,0.0,0.0,-1.0
1993264811,1993264565,-0.04064513,0.012603913,-0.025061531,0.62575275,0.0,0.0,0.0,-1.0
1993365365,1993365119,0.027379613,-0.041772705,-0.031909853,0.62695223,0.0,0.0,0.0,-1.0
1993468408,1993468157,-0.023685073,-0.044689506,-0.02917913,0.62695223,0.0,0.0,0.0,-1.0
1993565232,1993564986,-0.0512064,-0.0117624905,-0.03534081,0.6281518,0.0,0.0,0.0,-1.0
1993667041,1993666783,0.045330774,-0.057862595,-0.036757816,0.6281518,0.0,0.0,0.0,-1.0
1993767606,1993767363,-0.058121927,-0.0070841755,-0.045855407,0.6281518,0.0,0.0,0.0,-1.0
1993865799,1993865548,-0.09274477,0.015841385,-0.037352182,0.6281518,0.0,0.0,0.0,-1.0
1993967447,1993967207,0.048344307,-0.03418952,-0.048620306,0.6281518,0.0,0.0,0.0,-1.0
1994065528,1994065274,-0.006504188,-0.053430546,-0.040649444,0.6281518,0.0,0.0,0.0,-1.0
1994167323,1994167069,-0.0006926113,-0.00097523164,-0.04118733,0.6281518,0.0,0.0,0.0,-1.0
1994264143,1994263898,-0.014011378,-0.0693494,-0.04508903,0.6281518,0.0,0.0,0.0,-1.0
1994367210,1994366938,0.013390706,-0.051282585,-0.032073505,0.6281518,0.0,0.0,0.0,-1.0
1994467747,1994467490,-0.05047558,-0.02191316,-0.041541155,0.60776013,0.0,0.0,0.0,-1.0
1994565820,1994565565,-0.05790531,-0.017367264,-0.04121184,0.5777723,0.0,0.0,0.0,-1.0
1994665238,1994664980,0.017617533,-0.024695696,-0.037839282,0.57897186,0.0,0.0,0.0,-1.0
1994765673,1994765429,-0.06744057,-0.022923812,-0.03413318,0.57897186,0.0,0.0,0.0,-1.0
1994866263,1994866014,-0.0074617257,-0.04143362,-0.03258124,0.57897186,0.0,0.0,0.0,-1.0
1994964303,1994964054,-0.059694942,0.0058499924,-0.033830307,0.57537335,0.0,0.0,0.0,-1.0
1995067345,1995067092,0.037608936,-0.0018743294,-0.029838655,0.56817627,0.0,0.0,0.0,-1.0
1995167894,1995167650,-0.07323479,0.013657809,-0.026245518,0.52499384,0.0,0.0,0.0,-1.0
1995265975,1995265717,-0.0050079077,-0.061661698,-0.030864574,0.5165973,0.0,0.0,0.0,-1.0
1995367752,1995367511,0.004784779,0.008751813,-0.02477835,0.5165973,0.0,0.0,0.0,-1.0
1995464668,1995464416,-0.017555604,-0.006104157,-0.025564296,0.51899636,0.0,0.0,0.0,-1.0
1995566430,1995566185,-0.024823146,-0.013982954,-0.032152206,0.51899636,0.0,0.0,0.0,-1.0
1995664459,1995664207,0.00502938,-0.018267456,-0.026761562,0.51899636,0.0,0.0,0.0,-1.0
1995766256,1995766003,0.010429925,-0.02828412,-0.022914803,0.5285924,0.0,0.0,0.0,-1.0
1995868045,1995867798,-0.0096606575,-0.07230499,-0.028122192,0.55018353,0.0,0.0,0.0,-1.0
1995966129,1995965870,0.057742417,0.012010719,-0.019172247,0.56817627,0.0,0.0,0.0,-1.0
1996065437,1996065183,-0.011715939,0.018953297,-0.012483057,0.5717748,0.0,0.0,0.0,-1.0
1996164750,1996164497,-0.024429895,0.0023510298,-0.010867692,0.57297426,0.0,0.0,0.0,-1.0
1996266570,1996266327,0.058110747,-0.05655081,-0.028916268,0.57537335,0.0,0.0,0.0,-1.0
1996364603,1996364361,0.014350939,-0.06516644,-0.027065117,0.5873684,0.0,0.0,0.0,-1.0
1996466404,1996466157,-0.081177555,0.047991466,-0.036106404,0.5897674,0.0,0.0,0.0,-1.0
1996567149,1996566900,0.0009395923,-0.018971246,-0.042023085,0.59096694,0.0,0.0,0.0,-1.0
1996666269,1996666023,0.06708961,-0.07325629,-0.056635994,0.6029621,0.0,0.0,0.0,-1.0
1996766819,1996766578,-0.06127213,-0.027512562,-0.069834776,0.60776013,0.0,0.0,0.0,-1.0
1996864906,1996864651,-0.07128042,-8.159183e-05,-0.0754287,0.6089596,0.0,0.0,0.0,-1.0
1996966689,1996966445,-0.050638314,0.018991869,-0.08351799,0.6329498,0.0,0.0,0.0,-1.0
1997064867,1997064622,-0.05899716,-0.050921038,-0.089197315,0.6401469,0.0,0.0,0.0,-1.0
1997166555,1997166311,-0.055639427,0.026737481,-0.09304666,0.6461444,0.0,0.0,0.0,-1.0
1997268362,1997268108,-0.0456786,0.05886909,-0.08418999,0.6533415,0.0,0.0,0.0,-1.0
1997365327,1997365079,-0.00433367,0.04418173,-0.09525417,0.6533415,0.0,0.0,0.0,-1.0
1997466981,1997466732,0.0012413813,-0.04018107,-0.09717173,0.652142,0.0,0.0,0.0,-1.0
1997565065,1997564807,0.017602213,0.043779958,-0.09285915,0.6533415,0.0,0.0,0.0,-1.0
1997666847,1997666598,-0.0065170885,-0.0509103,-0.09779612,0.6461444,0.0,0.0,0.0,-1.0
1997764917,1997764670,-0.025113547,-0.056615863,-0.08658366,0.6485435,0.0,0.0,0.0,-1.0
1997866815,1997866557,-0.07175862,-0.019348739,-0.07956693,0.6485435,0.0,0.0,0.0,-1.0
1997967284,1997967028,-0.010472202,-0.009414221,-0.07029309,0.6461444,0.0,0.0,0.0,-1.0
1998066584,1998066333,0.0042101853,-0.013562806,-0.071805455,0.6401469,0.0,0.0,0.0,-1.0
1998167262,1998167005,-0.117425375,-0.03603164,-0.074903056,0.6389473,0.0,0.0,0.0,-1.0
1998265219,1998264959,-0.09826934,-0.009636391,-0.066489995,0.6209547,0.0,0.0,0.0,-1.0
1998367011,1998366753,0.025796534,-0.024064215,-0.052242186,0.61495715,0.0,0.0,0.0,-1.0
1998465067,1998464824,0.025084922,-0.015944032,-0.03689931,0.56817627,0.0,0.0,0.0,-1.0
1998566867,1998566619,-0.032218315,-0.0064507676,-0.035041723,0.56817627,0.0,0.0,0.0,-1.0
1998667422,1998667175,0.014134833,-0.06282881,-0.035442185,0.56817627,0.0,0.0,0.0,-1.0
1998765496,1998765245,0.018748999,-0.019581491,-0.029831814,0.56817627,0.0,0.0,0.0,-1.0
1998867289,1998867043,0.04584546,-0.056323793,-0.028490262,0.56817627,0.0,0.0,0.0,-1.0
1998965456,1998965205,0.0008588316,0.031476974,-0.032792024,0.5705753,0.0,0.0,0.0,-1.0
1999064674,1999064424,-0.08165846,0.012584981,-0.029474871,0.5921665,0.0,0.0,0.0,-1.0
1999165236,1999164985,-0.023335433,0.022593843,-0.026073888,0.60536104,0.0,0.0,0.0,-1.0
1999265776,1999265531,0.036412384,-0.06472411,-0.028292928,0.62935126,0.0,0.0,0.0,-1.0
1999367582,1999367329,-0.018726349,-0.05736833,-0.03411811,0.6281518,0.0,0.0,0.0,-1.0
1999465650,1999465403,-0.07296575,0.02682056,-0.04191769,0.6281518,0.0,0.0,0.0,-1.0
1999567441,1999567198,-0.030351594,-0.044871133,-0.04109907,0.6281518,0.0,0.0,0.0,-1.0
1999665513,1999665265,-0.03389923,-0.04808125,-0.04689545,0.6281518,0.0,0.0,0.0,-1.0
1999767372,1999767118,0.009707542,-0.011482346,-0.034750585,0.6281518,0.0,0.0,0.0,-1.0
1999864139,1999863891,-0.0005265866,-0.029360607,-0.040801052,0.62695223,0.0,0.0,0.0,-1.0
1999965941,1999965686,0.0012808476,-0.018346349,-0.047019504,0.62695223,0.0,0.0,0.0,-1.0
2000067730,2000067484,0.02202197,-0.025215872,-0.04301186,0.62695223,0.0,0.0,0.0,-1.0
2000165799,2000165552,0.0049136374,-0.010752513,-0.04095967,0.62575275,0.0,0.0,0.0,-1.0
2000267592,2000267350,0.0058792136,-0.03748828,-0.04476441,0.60536104,0.0,0.0,0.0,-1.0
2000365671,2000365420,0.0108391475,-0.026346568,-0.042834103,0.59456545,0.0,0.0,0.0,-1.0
2000464988,2000464738,-0.016066622,-0.056083474,-0.04091115,0.59336597,0.0,0.0,0.0,-1.0
2000564304,2000564057,-0.015791727,-0.022499328,-0.04767398,0.595765,0.0,0.0,0.0,-1.0
2000666086,2000665841,-0.054296214,-0.0120226545,-0.04155915,0.59456545,0.0,0.0,0.0,-1.0
2000767879,2000767635,0.025800664,-0.043698844,-0.043158416,0.5921665,0.0,0.0,0.0,-1.0
2000866175,2000865923,0.0138879465,-0.023688236,-0.03479713,0.5657772,0.0,0.0,0.0,-1.0
2000967745,2000967501,-0.021157745,0.0115651935,-0.03683394,0.5645777,0.0,0.0,0.0,-1.0
2001065827,2001065573,-0.022560235,-0.024853703,-0.04588494,0.5657772,0.0,0.0,0.0,-1.0
2001166371,2001166127,-0.04142756,-0.040642772,-0.055353735,0.5657772,0.0,0.0,0.0,-1.0
2001264455,2001264204,-0.030130535,-0.007391595,-0.0339142,0.5669768,0.0,0.0,0.0,-1.0
2001366248,2001365994,-0.04756369,0.014126875,-0.043415084,0.56817627,0.0,0.0,0.0,-1.0
2001468039,2001467789,-0.025604425,0.0046502063,-0.044445872,0.56817627,0.0,0.0,0.0,-1.0
2001566113,2001565860,-0.018261293,-0.019214112,-0.049987447,0.5849694,0.0,0.0,0.0,-1.0
2001666800,2001666548,-0.060898807,-0.052448306,-0.044965655,0.59336597,0.0,0.0,0.0,-1.0
2001764732,2001764485,0.027132656,-0.06481739,-0.04546274,0.60176253,0.0,0.0,0.0,-1.0
2001866524,2001866281,-0.060558744,-0.005183684,-0.03952992,0.6161567,0.0,0.0,0.0,-1.0
2001964604,2001964354,-0.098945156,0.014509334,-0.027049532,0.6161567,0.0,0.0,0.0,-1.0
2002066402,2002066161,0.08371004,-0.09909736,-0.016210418,0.61495715,0.0,0.0,0.0,-1.0
2002168209,2002167960,-0.03872474,0.036351208,0.00527186,0.6173562,0.0,0.0,0.0,-1.0
2002266272,2002266016,0.020493995,-0.041295413,0.004646038,0.6173562,0.0,0.0,0.0,-1.0
2002366814,2002366568,0.089268304,-0.08775404,0.030050097,0.6173562,0.0,0.0,0.0,-1.0
2002464972,2002464723,-6.0665912e-05,-0.0148458,0.049474586,0.6173562,0.0,0.0,0.0,-1.0
2002566678,2002566435,0.05908541,-0.02873017,0.046109658,0.6173562,0.0,0.0,0.0,-1.0
2002664752,2002664506,0.03571416,-0.048093338,0.051067326,0.6221542,0.0,0.0,0.0,-1.0
2002766543,2002766301,0.028569382,-0.02924436,0.047748663,0.62575275,0.0,0.0,0.0,-1.0
2002868375,2002868124,-0.040652517,0.00642783,0.04647539,0.62575275,0.0,0.0,0.0,-1.0
2002965173,2002964927,-0.033342257,0.0063191215,0.040282343,0.62455326,0.0,0.0,0.0,-1.0
2003066974,2003066723,0.018276243,-0.014659693,0.042739816,0.6233537,0.0,0.0,0.0,-1.0
2003165041,2003164793,0.02305521,-0.025672272,0.037555207,0.6221542,0.0,0.0,0.0,-1.0
2003266943,2003266697,-0.020214938,-0.008211138,0.029333139,0.6197552,0.0,0.0,0.0,-1.0
2003364916,2003364660,-0.006003104,-0.023609126,0.03102167,0.6221542,0.0,0.0,0.0,-1.0
2003466698,2003466455,0.023846522,-0.012389632,0.022686487,0.6233537,0.0,0.0,0.0,-1.0
