timestamp,timestamp_sample,baro_device_id,baro_alt_meter,baro_temp_celcius,baro_pressure_pa,rho
1935650364,1935632721,3997730,408.99142,23.619999,96508.0,1.1466746
1935710824,1935688034,3997730,408.94653,23.63,96508.5,1.1466806
1935811429,1935793628,3997730,408.92535,23.63,96508.75,1.1466836
1936032654,1936009889,3997730,409.03372,23.63,96507.5,1.1466688
1936243977,1936223552,3997730,409.0126,23.63,96507.75,1.1466718
1936455055,1936437386,3997730,408.64526,23.63,96512.0,1.1467222
1936616138,1936598266,3997730,408.94653,23.63,96508.5,1.1466806
1936837135,1936814402,3997730,408.88312,23.63,96509.25,1.1466895
1937048313,1937028148,3997730,408.7325,23.63,96511.0,1.1467103
1937259601,1937241963,3997730,408.90424,23.63,96509.0,1.1466866
1937420612,1937402962,3997730,408.92535,23.63,96508.75,1.1466836
1937641770,1937619144,3997730,408.99142,23.63,96507.99,1.1466746
1937863577,1937838872,3997730,409.1473,23.63,96506.2,1.1466533
1938023961,1938006264,3997730,408.9703,23.63,96508.25,1.1466776
1938245180,1938222543,3997730,409.03372,23.63,96507.49,1.1466687
1938456249,1938436129,3997730,408.88312,23.64,96509.25,1.1466895
1938667957,1938649763,3997730,408.88312,23.63,96509.25,1.1466895
1938828500,1938810794,3997730,408.94653,23.63,96508.5,1.1466806
1939049505,1939026879,3997730,408.84082,23.64,96509.74,1.1466954
1939260665,1939240547,3997730,408.94653,23.64,96508.5,1.1466806
1939422066,1939401373,3997730,408.77475,23.64,96510.49,1.1467043
1939653001,1939630374,3997730,408.94653,23.64,96508.5,1.1466806
1939864212,1939844083,3997730,408.90424,23.63,96509.0,1.1466866
1940025051,1940004935,3997730,408.99142,23.63,96507.99,1.1466746
1940236137,1940218402,3997730,408.88312,23.64,96509.25,1.1466895
1940457192,1940434523,3997730,409.0786,23.64,96506.99,1.1466627
1940618074,1940595292,3997730,409.05484,23.64,96507.25,1.1466658
1940829239,1940809036,3997730,408.90424,23.64,96508.99,1.1466864
1941040425,1941022705,3997730,409.18695,23.64,96505.75,1.1466479
1941261620,1941238984,3997730,408.928,23.64,96508.74,1.1466835
1941422566,1941399845,3997730,409.1632,23.64,96506.0,1.1466509
1941633732,1941613512,3997730,408.83817,23.64,96509.75,1.1466955
1941845550,1941827199,3997730,409.0786,23.64,96506.99,1.1466627
1942066001,1942043312,3997730,409.37985,23.64,96503.5,1.1466212
1942226862,1942204094,3997730,409.5331,23.64,96501.75,1.1466005
1942438057,1942417772,3997730,409.64142,23.64,96500.5,1.1465856
1942649815,1942631523,3997730,409.7498,23.64,96499.25,1.1465707
1942810066,1942792435,3997730,409.6626,23.64,96500.24,1.1465825
1943031378,1943008610,3997730,409.96646,23.64,96496.75,1.146541
1943242628,1943222448,3997730,409.87927,23.64,96497.75,1.1465529
1943454220,1943436059,3997730,410.02988,23.64,96496.0,1.146532
1943614757,1943597024,3997730,409.9215,23.64,96497.25,1.146547
1943835806,1943813084,3997730,410.02988,23.64,96496.0,1.146532
1944046929,1944026768,3997730,410.29147,23.64,96492.99,1.1464964
1944257969,1944240184,3997730,410.28882,23.64,96493.0,1.1464964
1944418619,1944400982,3997730,410.162,23.64,96494.49,1.1465142
1944639795,1944617075,3997730,410.11707,23.64,96494.99,1.1465201
1944851041,1944830882,3997730,409.726,23.64,96499.5,1.1465737
1945062494,1945044710,3997730,409.83432,23.64,96498.25,1.1465589
1945223409,1945205756,3997730,409.61765,23.64,96500.75,1.1465886
1945444531,1945421869,3997730,409.7498,23.64,96499.25,1.1465707
1945665775,1945648144,3997730,409.9427,23.64,96497.0,1.146544
1945826569,1945808928,3997730,409.5331,23.64,96501.75,1.1466005
1946047770,1946025121,3997730,410.162,23.64,96494.49,1.1465142
1946259036,1946238816,3997730,409.9427,23.64,96497.0,1.146544
1946419861,1946399626,3997730,409.9004,23.64,96497.5,1.1465499
1946630942,1946613335,3997730,409.9215,23.64,96497.25,1.146547
1946852101,1946829485,3997730,409.87927,23.64,96497.75,1.1465529
1947063204,1947043057,3997730,410.00873,23.65,96496.25,1.146535
1947224080,1947203953,3997730,409.85812,23.65,96498.0,1.1465559
1947435192,1947417544,3997730,410.02988,23.65,96496.0,1.146532
1947656202,1947633570,3997730,409.8132,23.65,96498.5,1.1465619
1947817036,1947794335,3997730,410.09592,23.65,96495.24,1.1465231
1948028186,1948008029,3997730,410.1831,23.64,96494.25,1.1465113
1948239504,1948221684,3997730,410.13818,23.65,96494.75,1.1465173
1948420099,1948389944,3997730,410.27295,23.65,96493.2,1.1464989
1948631385,1948611062,3997730,410.28882,23.65,96493.0,1.1464964
1948862654,1948839955,3997730,410.3126,23.65,96492.75,1.1464934
1949023574,1949000870,3997730,410.4632,23.65,96491.0,1.1464727
1949234749,1949214595,3997730,410.37866,23.65,96491.99,1.1464845
1949445981,1949428264,3997730,410.4209,23.65,96491.5,1.1464787
1949626919,1949596699,3997730,410.30997,23.65,96492.79,1.1464939
1949838072,1949817789,3997730,410.50815,23.65,96490.5,1.1464667
1950049173,1950031409,3997730,410.76706,23.65,96487.5,1.1464311
1950210112,1950192277,3997730,410.61646,23.65,96489.24,1.1464518
1950431046,1950408308,3997730,410.59268,23.65,96489.5,1.1464549
1950642068,1950621912,3997730,410.39716,23.65,96491.75,1.1464816
1950853053,1950835425,3997730,410.3549,23.65,96492.24,1.1464875
1951013964,1950996282,3997730,410.65875,23.65,96488.74,1.1464459
1951235476,1951212440,3997730,410.8754,23.65,96486.26,1.1464163
1951446318,1951426139,3997730,410.3337,23.65,96492.5,1.1464906
1951657414,1951639708,3997730,410.61646,23.65,96489.24,1.1464518
1951818300,1951800603,3997730,410.2703,23.65,96493.24,1.1464994
1952039321,1952016647,3997730,410.3549,23.65,96492.25,1.1464876
1952250393,1952230202,3997730,410.4843,23.65,96490.75,1.1464697
1952461523,1952443889,3997730,410.39716,23.65,96491.75,1.1464816
1952622444,1952604661,3997730,410.00873,23.65,96496.25,1.146535
1952844266,1952820961,3997730,410.1831,23.65,96494.24,1.1465112
1953064939,1953047234,3997730,410.376,23.65,96492.0,1.1464846
1953225705,1953208033,3997730,410.50815,23.65,96490.5,1.1464667
1953446927,1953424204,3997730,410.39716,23.65,96491.75,1.1464816
1953658042,1953637864,3997730,410.02988,23.65,96496.0,1.146532
1953818987,1953798825,3997730,410.37866,23.66,96491.99,1.1464845
1954030061,1954012424,3997730,410.37866,23.65,96491.99,1.1464845
1954251252,1954228547,3997730,410.162,23.65,96494.49,1.1465142
1954463785,1954442276,3997730,410.13818,23.66,96494.74,1.1465172
1954633466,1954615715,3997730,410.3337,23.66,96492.5,1.1464906
1954854684,1954831805,3997730,410.376,23.66,96492.0,1.1464846
1955015496,1954992829,3997730,410.37866,23.66,96491.99,1.1464845
1955226863,1955206588,3997730,410.2703,23.66,96493.24,1.1464994
1955438038,1955420331,3997730,410.89655,23.65,96486.0,1.1464133
1955659374,1955636581,3997730,410.6376,23.66,96489.0,1.146449
1955820123,1955797484,3997730,410.39716,23.66,96491.75,1.1464816
1956031535,1956011282,3997730,410.80936,23.66,96486.99,1.1464251
1956242761,1956225097,3997730,411.04715,23.65,96484.25,1.1463925
1956464948,1956441417,3997730,411.32986,23.66,96481.0,1.1463538
1956635000,1956614852,3997730,411.65488,23.66,96477.25,1.1463094
1956846243,1956828595,3997730,411.43823,23.66,96479.75,1.146339
1957007273,1956989456,3997730,411.48053,23.66,96479.25,1.1463331
1957228405,1957205622,3997730,411.48053,23.66,96479.25,1.1463331
1957439361,1957419182,3997730,411.20044,23.66,96482.49,1.1463716
1957650534,1957632867,3997730,411.30875,23.66,96481.25,1.1463568
1957811170,1957793530,3997730,411.026,23.66,96484.5,1.1463954
1958032334,1958009624,3997730,411.07095,23.66,96484.0,1.1463895
1958253624,1958235890,3997730,411.24268,23.66,96481.99,1.1463656
1958414471,1958396828,3997730,410.74594,23.66,96487.74,1.146434
1958645784,1958625539,3997730,410.8754,23.66,96486.26,1.1464163
1958856930,1958839246,3997730,410.67987,23.66,96488.5,1.146443
1959017751,1959000099,3997730,411.00488,23.66,96484.75,1.1463984
1959238951,1959216309,3997730,410.9626,23.66,96485.24,1.1464043
1959450226,1959429946,3997730,411.09207,23.66,96483.75,1.1463865
1959661352,1959643558,3997730,411.09207,23.66,96483.75,1.1463865
1959822133,1959804475,3997730,410.65875,23.66,96488.74,1.1464459
1960043276,1960020603,3997730,410.72217,23.66,96488.0,1.146437
1960254366,1960234236,3997730,410.61646,23.66,96489.24,1.1464518
1960465604,1960447875,3997730,410.59268,23.66,96489.5,1.1464549
1960626448,1960608804,3997730,410.72217,23.66,96488.0,1.146437
1960847732,1960825103,3997730,410.76706,23.66,96487.5,1.1464311
1961018713,1960998552,3997730,410.59534,23.66,96489.49,1.1464548
1961229794,1961212130,3997730,410.89655,23.66,96486.0,1.1464133
1961451054,1961428421,3997730,411.15814,23.67,96482.99,1.1463776
1961662333,1961642054,3997730,411.15814,23.66,96482.99,1.1463776
1961823051,1961802911,3997730,411.30875,23.66,96481.25,1.1463568
1962034228,1962016563,3997730,411.28497,23.66,96481.5,1.1463598
1962255399,1962232772,3997730,411.13437,23.67,96483.25,1.1463807
1962466400,1962446173,3997730,411.35104,23.66,96480.75,1.1463509
1962627249,1962607027,3997730,411.20044,23.66,96482.49,1.1463716
1962838235,1962820585,3997730,411.26382,23.67,96481.75,1.1463628
1963019303,1962988990,3997730,411.20834,23.66,96482.39,1.1463704
1963230609,1963210213,3997730,411.30875,23.66,96481.25,1.1463568
1963461691,1963439062,3997730,411.1132,23.67,96483.5,1.1463836
1963622595,1963599876,3997730,411.13437,23.66,96483.25,1.1463807
1963833770,1963813597,3997730,410.72217,23.66,96488.0,1.146437
1964044917,1964027217,3997730,411.07095,23.66,96484.0,1.1463895
1964225900,1964195569,3997730,410.82782,23.66,96486.8,1.1464227
1964437152,1964416984,3997730,411.17664,23.66,96482.75,1.1463747
1964648287,1964630609,3997730,410.74594,23.66,96487.74,1.146434
1964809055,1964791402,3997730,411.15814,23.67,96482.99,1.1463776
1965030320,1965007615,3997730,410.93884,23.67,96485.5,1.1464074
1965241391,1965221181,3997730,410.89655,23.66,96486.0,1.1464133
1965452425,1965434733,3997730,411.026,23.67,96484.5,1.1463954
1965613207,1965595595,3997730,410.9626,23.67,96485.25,1.1464044
1965834561,1965811776,3997730,411.07095,23.67,96484.0,1.1463895
1966045737,1966025489,3997730,411.52542,23.66,96478.75,1.1463271
1966256815,1966239127,3997730,411.43823,23.66,96479.75,1.146339
1966417675,1966400040,3997730,411.28497,23.66,96481.5,1.1463598
1966638904,1966616266,3997730,411.41708,23.67,96480.0,1.146342
1966849985,1966829862,3997730,411.54654,23.67,96478.5,1.1463242
1967060982,1967043353,3997730,411.37482,23.66,96480.49,1.1463479
1967221823,1967204191,3997730,411.30875,23.67,96481.25,1.1463568
1967443297,1967420267,3997730,411.52542,23.67,96478.75,1.1463271
1967663933,1967646271,3997730,411.35104,23.67,96480.75,1.1463509
1967824776,1967807033,3997730,411.28763,23.67,96481.49,1.1463597
1968045997,1968023241,3997730,411.54654,23.66,96478.5,1.1463242
1968257122,1968236947,3997730,411.32986,23.67,96480.99,1.1463538
1968417944,1968397798,3997730,411.45935,23.66,96479.5,1.1463361
1968629135,1968611386,3997730,411.28763,23.67,96481.49,1.1463597
1968850533,1968827845,3997730,411.09207,23.66,96483.75,1.1463865
1969062480,1969041618,3997730,410.80936,23.66,96487.0,1.1464251
1969232573,1969214907,3997730,410.9626,23.66,96485.24,1.1464043
1969454391,1969431006,3997730,410.7882,23.67,96487.24,1.1464281
1969624823,1969604500,3997730,410.7248,23.67,96487.99,1.1464369
1969835843,1969818139,3997730,410.65875,23.67,96488.74,1.1464459
1970057117,1970034365,3997730,410.8754,23.67,96486.25,1.1464163
1970217972,1970195319,3997730,410.50815,23.67,96490.5,1.1464667
1970429281,1970409054,3997730,410.67987,23.66,96488.49,1.1464429
1970641209,1970622826,3997730,410.76706,23.67,96487.49,1.146431
1970861778,1970839116,3997730,410.50815,23.67,96490.5,1.1464667
1971023464,1971000032,3997730,410.7248,23.67,96487.99,1.1464369
1971243967,1971226356,3997730,411.00488,23.67,96484.75,1.1463984
1971465182,1971442555,3997730,411.1132,23.67,96483.5,1.1463836
1971626018,1971603337,3997730,411.09207,23.67,96483.75,1.1463865
1971837159,1971816924,3997730,410.83047,23.67,96486.76,1.1464223
1972048306,1972030637,3997730,411.24268,23.67,96482.0,1.1463658
1972209002,1972191397,3997730,411.26382,23.67,96481.75,1.1463628
1972430184,1972407527,3997730,411.04977,23.67,96484.24,1.1463925
1972641364,1972621128,3997730,410.93884,23.67,96485.5,1.1464074
1972852518,1972834838,3997730,410.9626,23.67,96485.25,1.1464044
1973013407,1972995787,3997730,411.22156,23.67,96482.25,1.1463687
1973244540,1973224419,3997730,411.07095,23.67,96484.0,1.1463895
1973455815,1973438072,3997730,411.74207,23.67,96476.25,1.1462975
1973616639,1973598983,3997730,411.5677,23.67,96478.25,1.1463212
1973837864,1973815223,3997730,411.63376,23.67,96477.5,1.1463124
1974048904,1974028773,3997730,411.63376,23.67,96477.5,1.1463124
1974260293,1974242485,3997730,411.76324,23.67,96476.0,1.1462945
1974421091,1974403454,3997730,411.63376,23.67,96477.5,1.1463124
1974642267,1974619627,3997730,411.54654,23.67,96478.5,1.1463242
1974863326,1974845683,3997730,411.67603,23.67,96477.0,1.1463064
1975024304,1975006645,3997730,411.5677,23.67,96478.25,1.1463212
1975245586,1975222849,3997730,411.82663,23.67,96475.25,1.1462855
1975456710,1975436578,3997730,411.91385,23.67,96474.25,1.1462737
1975617697,1975597562,3997730,411.78436,23.67,96475.75,1.1462915
1975828692,1975811085,3997730,411.78436,23.67,96475.75,1.1462915
1976050035,1976027402,3997730,412.0671,23.67,96472.5,1.1462529
1976261092,1976240970,3997730,411.8927,23.67,96474.5,1.1462766
1976422012,1976401834,3997730,411.9165,23.67,96474.24,1.1462736
1976633146,1976615505,3997730,411.84778,23.67,96475.0,1.1462826
1976854327,1976831599,3997730,411.76324,23.67,96476.0,1.1462945
1977065495,1977045339,3997730,411.5677,23.67,96478.25,1.1463212
1977226246,1977206121,3997730,411.63376,23.67,96477.5,1.1463124
1977437475,1977419828,3997730,411.78436,23.67,96475.75,1.1462915
1977658542,1977635909,3997730,412.02216,23.67,96473.0,1.1462588
1977819459,1977796698,3997730,411.8055,23.67,96475.5,1.1462885
1978030572,1978010395,3997730,411.93497,23.67,96474.0,1.1462708
1978241767,1978224123,3997730,411.74207,23.67,96476.25,1.1462975
1978462856,1978440226,3997730,411.97992,23.67,96473.5,1.1462648
1978623908,1978601150,3997730,412.00104,23.67,96473.25,1.1462618
1978835073,1978814843,3997730,411.8927,23.67,96474.5,1.1462766
1979046123,1979028491,3997730,412.04333,23.67,96472.75,1.1462559
1979267430,1979244739,3997730,412.02216,23.67,96473.0,1.1462588
1979428369,1979405572,3997730,412.08823,23.67,96472.25,1.1462499
1979639514,1979619363,3997730,412.04333,23.67,96472.75,1.1462559
1979850648,1979832942,3997730,412.02216,23.67,96473.0,1.1462588
1980011455,1979993823,3997730,412.10934,23.67,96472.0,1.1462469
1980232699,1980210004,3997730,412.2177,23.67,96470.74,1.146232
1980443845,1980423655,3997730,412.3049,23.67,96469.74,1.1462201
1980654978,1980637305,3997730,412.10934,23.67,96472.0,1.1462469
1980815792,1980798166,3997730,412.71445,23.67,96465.0,1.1461638
1981037100,1981014379,3997730,412.26263,23.67,96470.24,1.146226
1981248573,1981228019,3997730,412.65103,23.66,96465.75,1.1461726
1981419123,1981401491,3997730,412.4344,23.67,96468.25,1.1462024
1981640398,1981617667,3997730,412.1754,23.67,96471.25,1.1462381
1981851501,1981831264,3997730,412.4555,23.67,96467.99,1.1461993
1982023288,1981998216,3997730,412.31808,23.67,96469.6,1.1462184
1982243675,1982221002,3997730,412.23883,23.67,96470.49,1.146229
1982465282,1982440604,3997730,411.88477,23.67,96474.59,1.1462778
1982625674,1982608062,3997730,412.41324,23.67,96468.49,1.1462053
1982847027,1982824308,3997730,412.28375,23.67,96469.99,1.1462231
1983058180,1983037945,3997730,412.08823,23.67,96472.25,1.1462499
1983218942,1983198786,3997730,411.8927,23.67,96474.5,1.1462766
1983429967,1983412359,3997730,412.0671,23.67,96472.5,1.1462529
1983651172,1983628509,3997730,412.0671,23.67,96472.5,1.1462529
1983862305,1983842126,3997730,412.04333,23.67,96472.75,1.1462559
1984023371,1984003074,3997730,411.95612,23.67,96473.75,1.1462678
1984234432,1984216824,3997730,412.10934,23.67,96472.0,1.1462469
1984455547,1984432853,3997730,412.10934,23.67,96472.0,1.1462469
1984616465,1984593743,3997730,411.93497,23.66,96474.0,1.1462708
1984827514,1984807258,3997730,411.63376,23.67,96477.5,1.1463124
1985038519,1985020842,3997730,411.72095,23.67,96476.5,1.1463004
1985259614,1985236959,3997730,412.00104,23.67,96473.25,1.1462618
1985420582,1985397818,3997730,412.04333,23.67,96472.75,1.1462559
1985631731,1985611465,3997730,411.95612,23.67,96473.75,1.1462678
1985842763,1985825117,3997730,412.26263,23.67,96470.24,1.146226
1986063878,1986041194,3997730,412.13052,23.66,96471.75,1.1462439
1986224622,1986201983,3997730,412.3049,23.67,96469.75,1.1462202
1986435969,1986415650,3997730,412.00104,23.66,96473.25,1.1462618
1986647056,1986629354,3997730,411.8055,23.67,96475.5,1.1462885
1986807964,1986790335,3997730,412.04333,23.66,96472.75,1.1462559
1987029137,1987006485,3997730,411.72095,23.67,96476.5,1.1463004
1987240463,1987220102,3997730,411.8055,23.66,96475.5,1.1462885
1987451592,1987433914,3997730,412.02216,23.66,96473.0,1.1462588
1987612521,1987594844,3997730,412.10934,23.66,96472.0,1.1462469
1987843842,1987823643,3997730,411.63376,23.67,96477.5,1.1463124
1988055069,1988037193,3997730,411.026,23.66,96484.5,1.1463954
1988215668,1988198058,3997730,411.37216,23.66,96480.5,1.146348
1988436887,1988414199,3997730,410.93884,23.66,96485.5,1.1464074
1988647925,1988627765,3997730,411.32986,23.67,96481.0,1.1463538
1988859163,1988841395,3997730,411.24268,23.66,96482.0,1.1463658
1989020033,1989002395,3997730,410.89655,23.66,96486.0,1.1464133
1989241258,1989218568,3997730,411.1132,23.66,96483.5,1.1463836
1989462586,1989444846,3997730,411.15814,23.66,96482.99,1.1463776
1989623407,1989605768,3997730,411.22156,23.66,96482.25,1.1463687
1989844473,1989821846,3997730,411.45935,23.66,96479.5,1.1463361
1990015211,1989995069,3997730,411.30875,23.66,96481.25,1.1463568
1990246538,1990223891,3997730,411.22156,23.66,96482.25,1.1463687
1990457644,1990437529,3997730,411.82663,23.66,96475.25,1.1462855
1990618551,1990598342,3997730,411.72095,23.66,96476.49,1.1463003
1990829793,1990812136,3997730,411.74207,23.66,96476.25,1.1462975
1991051004,1991028332,3997730,411.58884,23.66,96478.0,1.1463182
1991262109,1991241952,3997730,411.17926,23.66,96482.74,1.1463746
1991423025,1991402813,3997730,411.24268,23.66,96482.0,1.1463658
1991634131,1991616430,3997730,411.37216,23.66,96480.5,1.146348
1991855381,1991832710,3997730,410.93884,23.66,96485.5,1.1464074
1992066495,1992046366,3997730,410.98373,23.66,96485.0,1.1464014
1992227466,1992207308,3997730,411.1132,23.66,96483.5,1.1463836
1992438461,1992420802,3997730,411.026,23.66,96484.5,1.1463954
1992659431,1992636778,3997730,410.83313,23.66,96486.74,1.1464221
1992820224,1992797575,3997730,410.4843,23.66,96490.75,1.1464697
1993031674,1993011408,3997730,410.52927,23.66,96490.25,1.1464638
1993242902,1993225208,3997730,410.29147,23.66,96492.99,1.1464964
1993463856,1993441197,3997730,410.44208,23.65,96491.25,1.1464757
1993624810,1993602114,3997730,410.93884,23.65,96485.5,1.1464074
1993835977,1993815738,3997730,410.85428,23.66,96486.5,1.1464193
1994047134,1994029461,3997730,411.1132,23.66,96483.5,1.1463836
1994227979,1994197808,3997730,411.07095,23.66,96484.0,1.1463895
1994438967,1994418826,3997730,410.9177,23.65,96485.74,1.1464102
1994650180,1994632566,3997730,411.45935,23.65,96479.5,1.1463361
1994811229,1994793471,3997730,411.65488,23.65,96477.25,1.1463094
1995032316,1995009671,3997730,411.65488,23.65,96477.25,1.1463094
1995243396,1995223237,3997730,411.67603,23.65,96477.0,1.1463064
1995404691,1995384029,3997730,411.87155,23.65,96474.74,1.1462796
1995635368,1995612698,3997730,411.8055,23.65,96475.5,1.1462885
1995856654,1995832455,3997730,411.45142,23.65,96479.6,1.1463373
1996017462,1995999809,3997730,411.45935,23.64,96479.51,1.1463362
1996238592,1996215923,3997730,411.28763,23.65,96481.49,1.1463597
1996449783,1996429646,3997730,411.24268,23.64,96482.0,1.1463658
1996661038,1996643249,3997730,411.00488,23.64,96484.75,1.1463984
1996821820,1996804157,3997730,410.83047,23.64,96486.75,1.1464221
1997043486,1997020365,3997730,410.4632,23.65,96491.0,1.1464727
1997264079,1997246387,3997730,410.50815,23.65,96490.5,1.1464667
1997424954,1997407128,3997730,410.39716,23.64,96491.75,1.1464816
1997646035,1997623302,3997730,410.24652,23.64,96493.49,1.1465023
1997857036,1997836839,3997730,410.24652,23.64,96493.5,1.1465024
1998017842,1997997725,3997730,410.2703,23.64,96493.24,1.1464994
1998229018,1998211368,3997730,410.4843,23.64,96490.75,1.1464697
1998450437,1998427632,3997730,410.2254,23.64,96493.74,1.1465052
1998661541,1998641292,3997730,410.24652,23.64,96493.5,1.1465024
1998822313,1998802153,3997730,410.4843,23.64,96490.75,1.1464697
1999033561,1999015911,3997730,410.52927,23.64,96490.25,1.1464638
1999254653,1999232003,3997730,410.4209,23.63,96491.5,1.1464787
1999465833,1999445628,3997730,410.3337,23.64,96492.5,1.1464906
1999626695,1999606579,3997730,410.2254,23.64,96493.75,1.1465054
1999837771,1999820164,3997730,410.162,23.64,96494.49,1.1465142
2000059023,2000036305,3997730,410.89655,23.64,96486.0,1.1464133
2000219939,2000197233,3997730,410.50815,23.63,96490.5,1.1464667
2000431069,2000410915,3997730,410.67987,23.64,96488.5,1.146443
2000642203,2000624577,3997730,410.76706,23.63,96487.5,1.1464311
2000823228,2000800587,3997730,411.09207,23.63,96483.75,1.1463865
2001034412,2001014150,3997730,410.89655,23.63,96486.01,1.1464133
2001245508,2001227901,3997730,410.85428,23.63,96486.5,1.1464193
2001466704,2001444063,3997730,410.76706,23.63,96487.5,1.1464311
2001627669,2001605039,3997730,411.17926,23.63,96482.74,1.1463746
2001838786,2001818596,3997730,410.80936,23.63,96487.0,1.1464251
2002049807,2002032200,3997730,410.8754,23.63,96486.25,1.1464163
2002210657,2002192966,3997730,411.04715,23.63,96484.25,1.1463925
2002431832,2002409152,3997730,410.50815,23.63,96490.49,1.1464666
2002643097,2002622930,3997730,410.93884,23.619999,96485.5,1.1464074
2002853978,2002836363,3997730,411.00488,23.63,96484.75,1.1463984
2003014831,2002997113,3997730,410.65875,23.63,96488.74,1.1464459
2003235918,2003213218,3997730,410.93884,23.619999,96485.51,1.1464075
2003447086,2003426879,3997730,411.20044,23.619999,96482.5,1.1463717
2003658214,2003640557,3997730,411.37216,23.63,96480.5,1.146348
2003819036,2003801396,3997730,411.35104,23.619999,96480.74,1.1463509
2004040337,2004017657,3997730,411.43823,23.619999,96479.75,1.146339
2004251459,2004231157,3997730,411.37216,23.619999,96480.5,1.146348
2004462811,2004444650,3997730,411.50165,23.619999,96479.0,1.1463301
2004623209,2004605527,3997730,411.52542,23.619999,96478.75,1.1463271
2004844474,2004821753,3997730,411.45935,23.619999,96479.5,1.1463361
2005055512,2005035366,3997730,411.45935,23.619999,96479.5,1.1463361
2005266813,2005249069,3997730,411.30875,23.619999,96481.25,1.1463568
2005427609,2005409988,3997730,411.67603,23.619999,96477.0,1.1463064
2005648929,2005626180,3997730,411.69717,23.619999,96476.74,1.1463033
2005860036,2005839897,3997730,411.58884,23.619999,96478.0,1.1463182
2006020987,2006000827,3997730,411.26382,23.619999,96481.74,1.1463627
2006232132,2006214463,3997730,411.26382,23.609999,96481.75,1.1463628
2006453364,2006430550,3997730,411.1132,23.619999,96483.5,1.1463836
2006664396,2006644250,3997730,411.13437,23.619999,96483.25,1.1463807
2006825593,2006804993,3997730,411.41708,23.609999,96480.0,1.146342
2007056397,2007033769,3997730,411.00488,23.609999,96484.74,1.1463983
2007267509,2007247283,3997730,411.28763,23.609999,96481.49,1.1463597
2007428473,2007408237,3997730,411.58884,23.609999,96478.0,1.1463182
2007639576,2007621858,3997730,411.58884,23.609999,96478.0,1.1463182
2007860713,2007838060,3997730,411.74207,23.609999,96476.24,1.1462973
2008021721,2007998943,3997730,411.78436,23.609999,96475.75,1.1462915
2008242953,2008225185,3997730,411.95612,23.609999,96473.75,1.1462678
2008464244,2008441327,3997730,411.78436,23.609999,96475.75,1.1462915
2008624934,2008602246,3997730,411.97992,23.609999,96473.5,1.1462648
2008836833,2008815899,3997730,412.04333,23.609999,96472.75,1.1462559
2009006962,2008989342,3997730,411.85043,23.609999,96474.99,1.1462826
2009227912,2009205269,3997730,412.0671,23.609999,96472.5,1.1462529
2009439078,2009418931,3997730,411.91385,23.609999,96474.25,1.1462737
2009650398,2009632599,3997730,412.00104,23.6,96473.25,1.1462618
2009811087,2009793411,3997730,411.52542,23.609999,96478.75,1.1463271
2010032080,2010009445,3997730,411.30875,23.609999,96481.25,1.1463568
2010253616,2010235878,3997730,411.39328,23.609999,96480.25,1.146345
2010414547,2010396866,3997730,411.026,23.6,96484.5,1.1463954
2010635661,2010613022,3997730,411.84778,23.6,96475.0,1.1462826
2010846796,2010826675,3997730,411.54654,23.609999,96478.5,1.1463242
2011058200,2011040344,3997730,411.43823,23.6,96479.75,1.146339
2011219024,2011201360,3997730,411.30875,23.6,96481.25,1.1463568
2011450057,2011429936,3997730,411.37216,23.6,96480.5,1.146348
2011661383,2011643590,3997730,411.87155,23.6,96474.75,1.1462796
2011822315,2011804570,3997730,411.52542,23.6,96478.75,1.1463271
2012043485,2012020833,3997730,411.87155,23.6,96474.75,1.1462796
2012264810,2012247128,3997730,412.02216,23.6,96473.0,1.1462588
2012425600,2012407987,3997730,411.69717,23.6,96476.75,1.1463034
2012657020,2012636751,3997730,412.41324,23.6,96468.49,1.1462053
2012868168,2012850317,3997730,412.19656,23.6,96471.0,1.1462351
2013028708,2013011080,3997730,412.1754,23.6,96471.25,1.1462381
2013249877,2013227233,3997730,412.52155,23.6,96467.24,1.1461904
2013460871,2013440733,3997730,411.91385,23.6,96474.25,1.1462737
2013621733,2013601550,3997730,412.2177,23.59,96470.74,1.146232
2013853035,2013830363,3997730,412.2177,23.6,96470.74,1.146232
2014064154,2014044010,3997730,412.41324,23.59,96468.5,1.1462053
2014235085,2014210921,3997730,412.57706,23.6,96466.6,1.1461828
2014456291,2014433599,3997730,412.3472,23.59,96469.25,1.1462142
2014617133,2014594388,3997730,412.6061,23.59,96466.25,1.1461786
2014828265,2014807979,3997730,412.23883,23.59,96470.49,1.146229
2015039369,2015021672,3997730,412.0671,23.59,96472.5,1.1462529
2015260360,2015237706,3997730,412.04333,23.59,96472.75,1.1462559
2015421254,2015398541,3997730,412.1754,23.59,96471.25,1.1462381
2015632588,2015612350,3997730,411.84778,23.59,96475.0,1.1462826
2015843778,2015826040,3997730,411.74207,23.59,96476.25,1.1462975
2016064731,2016042028,3997730,412.0671,23.59,96472.5,1.1462529
2016225741,2016202983,3997730,412.00104,23.59,96473.25,1.1462618
2016436842,2016416669,3997730,411.50165,23.59,96479.0,1.1463301
2016648116,2016630400,3997730,411.95612,23.59,96473.75,1.1462678
2016808944,2016791313,3997730,411.91385,23.59,96474.25,1.1462737
2017030178,2017007488,3997730,411.63376,23.59,96477.5,1.1463124
2017241306,2017221147,3997730,411.65488,23.59,96477.25,1.1463094
2017452485,2017434787,3997730,412.02216,23.58,96473.0,1.1462588
2017613231,2017595578,3997730,411.91385,23.59,96474.25,1.1462737
2017834449,2017811689,3997730,412.2177,23.58,96470.74,1.146232
2018045678,2018025512,3997730,412.19656,23.59,96471.0,1.1462351
2018257055,2018239329,3997730,412.4978,23.58,96467.5,1.1461935
2018417877,2018400272,3997730,412.3049,23.58,96469.75,1.1462202
2018639027,2018616404,3997730,412.4344,23.58,96468.25,1.1462024
2018850149,2018829957,3997730,412.56384,23.58,96466.75,1.1461846
2019062332,2019043799,3997730,412.65103,23.58,96465.75,1.1461726
2019222251,2019204560,3997730,412.585,23.58,96466.5,1.1461816
2019443507,2019420819,3997730,412.73822,23.58,96464.75,1.1461608
2019654831,2019634523,3997730,412.4978,23.58,96467.5,1.1461935
2019866008,2019848240,3997730,412.02216,23.58,96473.0,1.1462588
2020026767,2020009161,3997730,412.10934,23.58,96472.0,1.1462469
2020247868,2020225216,3997730,411.67603,23.58,96476.99,1.1463063
2020459132,2020438882,3997730,411.52542,23.58,96478.75,1.1463271
2020619982,2020599813,3997730,411.82663,23.58,96475.25,1.1462855
2020831108,2020813479,3997730,411.87155,23.58,96474.75,1.1462796
2021053114,2021029603,3997730,411.84778,23.58,96475.0,1.1462826
2021223162,2021203002,3997730,412.02216,23.57,96473.0,1.1462588
2021435372,2021416603,3997730,411.84778,23.57,96475.0,1.1462826
2021655441,2021632784,3997730,411.65488,23.57,96477.25,1.1463094
2021866411,2021846281,3997730,411.95612,23.57,96473.75,1.1462678
2022027241,2022007035,3997730,411.95612,23.58,96473.75,1.1462678
2022239875,2022220754,3997730,412.13052,23.57,96471.75,1.1462439
2022459614,2022436904,3997730,411.84778,23.57,96475.0,1.1462826
2022620307,2022597643,3997730,412.26263,23.57,96470.24,1.146226
2022831553,2022811242,3997730,411.84778,23.57,96475.0,1.1462826
2023042637,2023024866,3997730,412.28375,23.57,96470.0,1.1462232
2023263910,2023241071,3997730,411.95612,23.57,96473.75,1.1462678
2023424533,2023401861,3997730,412.3049,23.57,96469.74,1.1462201
2023645812,2023628087,3997730,412.28375,23.57,96469.99,1.1462231
2023866919,2023844135,3997730,412.3921,23.57,96468.74,1.1462083
2024027651,2024005025,3997730,412.04333,23.57,96472.75,1.1462559
2024238798,2024218571,3997730,412.00104,23.56,96473.25,1.1462618
2024409873,2024385523,3997730,412.33398,23.56,96469.4,1.146216
2024630941,2024608253,3997730,412.1754,23.56,96471.25,1.1462381
2024842040,2024821880,3997730,412.37094,23.56,96468.99,1.1462113
2025053075,2025035440,3997730,412.37094,23.56,96468.99,1.1462113
2025234285,2025211428,3997730,412.19656,23.56,96471.0,1.1462351
2025445055,2025424908,3997730,412.3472,23.56,96469.25,1.1462142
2025656305,2025638581,3997730,411.8055,23.56,96475.5,1.1462885
2025817090,2025799445,3997730,412.10934,23.56,96472.0,1.1462469
2026038266,2026015470,3997730,411.93497,23.56,96474.0,1.1462708
2026249389,2026229179,3997730,411.87155,23.56,96474.75,1.1462796
2026460513,2026442809,3997730,411.8927,23.56,96474.5,1.1462766
2026621229,2026603570,3997730,411.84778,23.56,96475.0,1.1462826
2026842306,2026819616,3997730,411.84778,23.56,96475.0,1.1462826
2027053256,2027033132,3997730,411.76324,23.55,96476.0,1.1462945
2027264533,2027246776,3997730,412.0671,23.55,96472.5,1.1462529
2027425305,2027407671,3997730,411.82663,23.55,96475.25,1.1462855
2027646594,2027623938,3997730,411.82663,23.55,96475.25,1.1462855
2027857527,2027837372,3997730,411.8927,23.56,96474.5,1.1462766
2028018784,2027998303,3997730,412.04333,23.55,96472.75,1.1462559
2028249472,2028226825,3997730,412.02216,23.55,96473.0,1.1462588
2028460820,2028440562,3997730,412.19656,23.55,96471.0,1.1462351
2028621586,2028601374,3997730,412.02216,23.55,96473.0,1.1462588
2028832755,2028815112,3997730,411.95612,23.55,96473.75,1.1462678
2029053870,2029031171,3997730,411.78436,23.55,96475.75,1.1462915
2029265922,2029244811,3997730,411.72095,23.55,96476.5,1.1463004
2029435866,2029418171,3997730,411.43823,23.55,96479.75,1.146339
2029657044,2029634363,3997730,411.30875,23.539999,96481.25,1.1463568
2029817963,2029795288,3997730,411.8055,23.55,96475.49,1.1462884
2030029135,2030008882,3997730,411.76324,23.55,96476.0,1.1462945
2030240295,2030222504,3997730,411.58884,23.55,96478.0,1.1463182
2030461517,2030438706,3997730,411.74207,23.55,96476.25,1.1462975
2030622335,2030599634,3997730,411.65488,23.539999,96477.25,1.1463094
2030833655,2030813352,3997730,411.69717,23.539999,96476.74,1.1463033
2031044678,2031026985,3997730,411.39328,23.539999,96480.25,1.146345
2031265944,2031243117,3997730,411.45935,23.539999,96479.5,1.1463361
2031426710,2031404072,3997730,411.54654,23.539999,96478.5,1.1463242
2031637766,2031617656,3997730,411.28497,23.539999,96481.5,1.1463598
2031848816,2031831210,3997730,411.69717,23.539999,96476.75,1.1463034
2032009719,2031992081,3997730,411.39328,23.539999,96480.25,1.146345
2032230967,2032208261,3997730,411.50165,23.539999,96479.0,1.1463301
2032441968,2032421785,3997730,411.50165,23.539999,96479.0,1.1463301
2032653129,2032635495,3997730,411.35104,23.539999,96480.75,1.1463509
2032814045,2032796382,3997730,411.26382,23.529999,96481.75,1.1463628
2033035260,2033012489,3997730,411.69717,23.539999,96476.75,1.1463034
2033246369,2033226138,3997730,411.87155,23.529999,96474.74,1.1462796
2033457339,2033439701,3997730,411.69717,23.529999,96476.75,1.1463034
2033618174,2033600521,3997730,411.82663,23.529999,96475.25,1.1462855
2033849683,2033829456,3997730,412.00104,23.529999,96473.25,1.1462618
2034060697,2034043086,3997730,411.97992,23.529999,96473.5,1.1462648
2034221533,2034203808,3997730,412.23883,23.529999,96470.49,1.146229
2034442517,2034419798,3997730,411.95612,23.529999,96473.75,1.1462678
2034653567,2034633361,3997730,412.3049,23.529999,96469.74,1.1462201
2034864811,2034847023,3997730,412.15164,23.529999,96471.5,1.146241
2035045478,2035015293,3997730,412.075,23.529999,96472.4,1.1462517
2035256846,2035236616,3997730,411.97992,23.519999,96473.5,1.1462648
2035467983,2035450266,3997730,412.2177,23.519999,96470.74,1.146232
2035628819,2035611183,3997730,411.97992,23.519999,96473.5,1.1462648
2035850128,2035827423,3997730,411.69717,23.519999,96476.75,1.1463034
2036061370,2036041118,3997730,411.82663,23.519999,96475.25,1.1462855
2036232216,2036208062,3997730,411.74472,23.519999,96476.2,1.1462969
2036453493,2036430744,3997730,411.32986,23.519999,96481.0,1.1463538
2036664573,2036644429,3997730,411.45935,23.519999,96479.5,1.1463361
2036825325,2036805107,3997730,411.72095,23.51,96476.5,1.1463004
2037036319,2037018671,3997730,411.26382,23.519999,96481.75,1.1463628
2037257394,2037234696,3997730,411.65488,23.519999,96477.25,1.1463094
2037418341,2037395568,3997730,411.60995,23.519999,96477.75,1.1463152
2037629380,2037609187,3997730,411.24268,23.519999,96482.0,1.1463658
2037840550,2037822835,3997730,411.52542,23.519999,96478.75,1.1463271
2038061641,2038038978,3997730,411.28497,23.519999,96481.5,1.1463598
2038222698,2038199766,3997730,411.5677,23.51,96478.25,1.1463212
2038443611,2038425991,3997730,411.63376,23.51,96477.5,1.1463124
2038665711,2038642064,3997730,411.8055,23.51,96475.5,1.1462885
2038835742,2038815528,3997730,411.97992,23.51,96473.5,1.1462648
2039046945,2039029180,3997730,411.45935,23.51,96479.5,1.1463361
2039268275,2039245532,3997730,411.87155,23.51,96474.75,1.1462796
2039429156,2039406430,3997730,411.95612,23.51,96473.75,1.1462678
2039640411,2039620091,3997730,411.87155,23.51,96474.75,1.1462796
2039852017,2039833772,3997730,411.78436,23.51,96475.75,1.1462915
2040012364,2039994693,3997730,411.93497,23.51,96474.0,1.1462708
2040233673,2040210862,3997730,411.87155,23.51,96474.75,1.1462796
2040444759,2040424486,3997730,412.10934,23.5,96472.0,1.1462469
2040656946,2040638212,3997730,412.0671,23.5,96472.5,1.1462529
2040816670,2040799041,3997730,412.15164,23.5,96471.5,1.146241
2041037897,2041015176,3997730,412.00104,23.5,96473.25,1.1462618
2041249027,2041228784,3997730,412.28375,23.5,96469.99,1.1462231
2041460235,2041442499,3997730,412.19656,23.5,96471.0,1.1462351
2041620942,2041603247,3997730,412.04333,23.5,96472.75,1.1462559
2041842099,2041819410,3997730,412.0671,23.5,96472.5,1.1462529
2042063399,2042045665,3997730,411.97992,23.5,96473.5,1.1462648
2042224106,2042206445,3997730,411.5677,23.5,96478.25,1.1463212
2042445294,2042422608,3997730,411.87155,23.5,96474.75,1.1462796
2042656465,2042636311,3997730,411.63376,23.5,96477.5,1.1463124
2042817244,2042797072,3997730,411.69717,23.5,96476.74,1.1463033
2043028308,2043010659,3997730,411.72095,23.49,96476.49,1.1463003
2043249577,2043226945,3997730,411.26382,23.5,96481.75,1.1463628
2043460581,2043440451,3997730,411.26382,23.49,96481.74,1.1463627
2043621533,2043601335,3997730,411.32986,23.5,96480.99,1.1463538
2043832738,2043815086,3997730,411.32986,23.49,96481.0,1.1463538
2044063983,2044043816,3997730,411.13437,23.49,96483.25,1.1463807
2044224943,2044204650,3997730,411.00488,23.49,96484.74,1.1463983
2044456144,2044433505,3997730,411.1132,23.49,96483.5,1.1463836
2044617001,2044594350,3997730,410.93884,23.49,96485.5,1.1464074
2044828383,2044808190,3997730,410.8754,23.49,96486.24,1.1464162
2045039422,2045021702,3997730,410.8754,23.49,96486.24,1.1464162
2045260460,2045237802,3997730,410.59534,23.49,96489.49,1.1464548
2045421343,2045398650,3997730,410.76706,23.49,96487.5,1.1464311
2045632555,2045612274,3997730,410.701,23.49,96488.24,1.1464399
2045843701,2045825903,3997730,410.85428,23.48,96486.5,1.1464193
2046024737,2045994480,3997730,410.82782,23.48,96486.805,1.1464229
2046235930,2046215731,3997730,410.93884,23.48,96485.5,1.1464074
2046447192,2046429525,3997730,411.17664,23.48,96482.75,1.1463747
2046608022,2046590384,3997730,410.80936,23.48,96487.0,1.1464251
2046829139,2046806465,3997730,410.8754,23.48,96486.25,1.1464163
2047040120,2047019971,3997730,410.89655,23.48,96486.0,1.1464133
2047251496,2047233783,3997730,410.55038,23.48,96490.0,1.1464608
2047412283,2047394636,3997730,411.13437,23.48,96483.24,1.1463805
2047633525,2047610805,3997730,410.72217,23.48,96488.0,1.146437
2047844588,2047824358,3997730,410.57156,23.48,96489.75,1.1464578
2048055816,2048038068,3997730,410.9177,23.47,96485.74,1.1464102
2048216621,2048198986,3997730,410.93884,23.47,96485.51,1.1464075
2048437949,2048415090,3997730,410.76706,23.48,96487.5,1.1464311
2048648957,2048628705,3997730,411.17664,23.47,96482.75,1.1463747
2048860032,2048842258,3997730,411.1132,23.47,96483.5,1.1463836
2049020752,2049003128,3997730,410.9626,23.47,96485.24,1.1464043
2049242091,2049219344,3997730,411.1132,23.47,96483.5,1.1463836
2049453250,2049433063,3997730,411.48053,23.47,96479.25,1.1463331
2049664689,2049646791,3997730,411.37216,23.47,96480.5,1.146348
2049825307,2049807651,3997730,411.07095,23.47,96484.0,1.1463895
2050046541,2050023861,3997730,410.98373,23.47,96485.0,1.1464014
2050257677,2050237555,3997730,411.04977,23.46,96484.24,1.1463925
2050418564,2050398417,3997730,411.00488,23.47,96484.75,1.1463984
2050629804,2050612181,3997730,411.07095,23.47,96484.0,1.1463895
2050851328,2050828564,3997730,411.09207,23.46,96483.74,1.1463865
2051062418,2051042196,3997730,410.98373,23.46,96485.0,1.1464014
2051223264,2051203130,3997730,410.83047,23.46,96486.76,1.1464223
2051434459,2051416749,3997730,410.376,23.46,96492.0,1.1464846
2051655414,2051632788,3997730,410.3337,23.46,96492.5,1.1464906
2051866433,2051846286,3997730,410.1831,23.46,96494.24,1.1465112
2052027854,2052007094,3997730,410.37866,23.46,96491.99,1.1464845
2052258535,2052235914,3997730,410.4843,23.46,96490.75,1.1464697
2052419407,2052396701,3997730,410.8754,23.449999,96486.24,1.1464162
2052630575,2052610404,3997730,410.376,23.449999,96492.0,1.1464846
2052841692,2052824035,3997730,410.376,23.449999,96492.0,1.1464846
2053062802,2053040182,3997730,410.65875,23.449999,96488.74,1.1464459
2053223727,2053200961,3997730,411.39328,23.449999,96480.25,1.146345
2053435005,2053414698,3997730,411.41708,23.449999,96480.0,1.146342
2053646152,2053628426,3997730,411.65488,23.449999,96477.25,1.1463094
2053807063,2053789261,3997730,411.72095,23.449999,96476.5,1.1463004
2054028092,2054005413,3997730,411.97992,23.449999,96473.5,1.1462648
2054239191,2054219000,3997730,411.95612,23.449999,96473.75,1.1462678
2054450779,2054432656,3997730,412.2177,23.449999,96470.74,1.146232
2054611145,2054593468,3997730,412.56384,23.449999,96466.75,1.1461846
2054832181,2054809553,3997730,412.52155,23.439999,96467.25,1.1461905
2055053451,2055035750,3997730,412.52155,23.449999,96467.25,1.1461905
2055214132,2055196520,3997730,412.67218,23.439999,96465.5,1.1461697
2055435495,2055412682,3997730,412.65103,23.439999,96465.75,1.1461726
2055646535,2055626423,3997730,412.97607,23.439999,96462.0,1.1461282
2055857875,2055840067,3997730,412.91,23.439999,96462.76,1.1461371
2056018680,2056001048,3997730,413.08438,23.439999,96460.74,1.1461132
2056239913,2056217211,3997730,412.93378,23.43,96462.5,1.146134
2056450990,2056430809,3997730,413.3222,23.439999,96457.99,1.1460805
2056662178,2056644456,3997730,413.1689,23.439999,96459.75,1.1461014
2056822989,2056805340,3997730,412.8466,23.43,96463.5,1.1461459
2057054279,2057034025,3997730,413.1689,23.43,96459.75,1.1461014
2057265284,2057247594,3997730,412.9549,23.43,96462.24,1.146131
2057426188,2057408561,3997730,413.08438,23.43,96460.76,1.1461134
2057647392,2057624689,3997730,412.47665,23.43,96467.75,1.1461965
2057858425,2057838287,3997730,412.54272,23.43,96467.0,1.1461875
2058019309,2057999152,3997730,412.8677,23.43,96463.24,1.1461428
2058230377,2058212607,3997730,412.585,23.43,96466.5,1.1461816
2058451338,2058428658,3997730,412.56384,23.42,96466.75,1.1461846
2058612894,2058589553,3997730,412.4344,23.42,96468.24,1.1462023
2058833491,2058815779,3997730,412.78052,23.43,96464.24,1.1461548
2059054669,2059031959,3997730,412.41324,23.42,96468.49,1.1462053
2059265811,2059245589,3997730,412.4344,23.42,96468.24,1.1462023
2059436816,2059412582,3997730,412.21243,23.42,96470.8,1.1462326
2059658113,2059635377,3997730,412.69333,23.42,96465.25,1.1461668
2059818941,2059796312,3997730,412.3049,23.42,96469.74,1.1462201
2060030225,2060009947,3997730,412.47665,23.42,96467.74,1.1461964
2060241307,2060223588,3997730,412.93378,23.42,96462.5,1.146134
2060462479,2060439719,3997730,412.9549,23.42,96462.24,1.146131
2060623238,2060600585,3997730,412.65103,23.42,96465.75,1.1461726
2060834353,2060814117,3997730,412.82544,23.41,96463.74,1.1461488
2061065668,2061035359,3997730,412.94168,23.42,96462.41,1.146133
2061226463,2061203806,3997730,412.65103,23.41,96465.75,1.1461726
2061437714,2061417461,3997730,412.585,23.41,96466.5,1.1461816
2061648765,2061631115,3997730,412.65103,23.41,96465.74,1.1461726
2061809742,2061792054,3997730,412.73822,23.41,96464.75,1.1461608
2062030844,2062008221,3997730,412.47665,23.41,96467.75,1.1461965
2062252012,2062227870,3997730,412.43967,23.41,96468.195,1.1462017
2062412794,2062395188,3997730,412.08823,23.4,96472.25,1.1462499
2062634170,2062611244,3997730,412.08823,23.4,96472.25,1.1462499
2062844981,2062824825,3997730,412.15164,23.4,96471.5,1.146241
2063056251,2063038617,3997730,412.08823,23.4,96472.25,1.1462499
2063217245,2063199533,3997730,412.41324,23.4,96468.5,1.1462053
2063438251,2063415602,3997730,411.58884,23.4,96478.0,1.1463182
2063649583,2063629468,3997730,410.8754,23.4,96486.24,1.1464162
2063860691,2063843070,3997730,410.83047,23.4,96486.76,1.1464223
2064021585,2064003942,3997730,410.7882,23.4,96487.24,1.1464281
2064242960,2064220047,3997730,410.85428,23.4,96486.49,1.1464192
2064463949,2064446241,3997730,411.026,23.39,96484.5,1.1463954
2064624802,2064606993,3997730,412.0671,23.4,96472.5,1.1462529
2064845941,2064823259,3997730,411.43823,23.39,96479.75,1.146339
2065057517,2065036911,3997730,411.1555,23.39,96483.0,1.1463777
2065227957,2065210250,3997730,411.5677,23.39,96478.25,1.1463212
2065449251,2065426436,3997730,411.09207,23.39,96483.75,1.1463865
2065660263,2065640100,3997730,411.63376,23.39,96477.5,1.1463124
2065821266,2065801022,3997730,411.91385,23.39,96474.25,1.1462737
2066032526,2066014714,3997730,411.95612,23.39,96473.75,1.1462678
2066253519,2066230820,3997730,412.02216,23.38,96473.0,1.1462588
2066464707,2066444546,3997730,412.37094,23.38,96468.99,1.1462113
2066625671,2066605457,3997730,412.52155,23.38,96467.24,1.1461904
2066836985,2066819189,3997730,412.7594,23.38,96464.49,1.1461577
2067058042,2067035276,3997730,412.56384,23.38,96466.75,1.1461846
2067218826,2067196192,3997730,412.82544,23.38,96463.74,1.1461488
2067429998,2067409825,3997730,412.585,23.38,96466.5,1.1461816
2067641157,2067623429,3997730,412.3049,23.369999,96469.74,1.1462201
2067862131,2067839456,3997730,412.26263,23.369999,96470.24,1.146226
2068023053,2068000327,3997730,412.04333,23.369999,96472.75,1.1462559
2068234138,2068214008,3997730,411.8927,23.369999,96474.5,1.1462766
2068445280,2068427647,3997730,411.76324,23.38,96476.0,1.1462945
2068666420,2068643695,3997730,412.08823,23.369999,96472.25,1.1462499
2068837445,2068817302,3997730,412.3049,23.369999,96469.74,1.1462201
2069048654,2069031047,3997730,412.08823,23.369999,96472.25,1.1462499
2069209636,2069191939,3997730,412.13052,23.359999,96471.75,1.1462439
2069430890,2069408203,3997730,412.3472,23.359999,96469.24,1.1462141
2069642420,2069622104,3997730,412.10934,23.359999,96472.0,1.1462469
2069853512,2069835694,3997730,411.50165,23.359999,96479.0,1.1463301
2070014230,2069996495,3997730,411.58884,23.359999,96478.0,1.1463182
2070235230,2070212561,3997730,411.45935,23.359999,96479.49,1.146336
2070446568,2070426443,3997730,411.69717,23.359999,96476.75,1.1463034
2070657734,2070640008,3997730,411.74207,23.359999,96476.25,1.1462975
2070818518,2070800887,3997730,411.97992,23.359999,96473.5,1.1462648
2071039634,2071016980,3997730,412.0671,23.359999,96472.5,1.1462529
2071260829,2071236646,3997730,411.86627,23.35,96474.805,1.1462803
2071421747,2071404080,3997730,412.3472,23.35,96469.24,1.1462141
2071642882,2071620236,3997730,412.02216,23.35,96473.0,1.1462588
2071853837,2071833726,3997730,412.80164,23.35,96463.99,1.1461518
2072024802,2072000591,3997730,412.42117,23.35,96468.4,1.1462041
2072246025,2072223347,3997730,412.91,23.35,96462.76,1.1461371
2072407611,2072384182,3997730,412.97607,23.35,96462.0,1.1461282
2072628245,2072610593,3997730,413.0606,23.35,96461.0,1.1461163
2072849634,2072826958,3997730,413.4094,23.35,96457.0,1.1460687
2073010621,2072987697,3997730,413.6023,23.34,96454.76,1.1460421
2073251680,2073228953,3997730,413.4094,23.34,96457.0,1.1460687
2073462786,2073442641,3997730,413.4094,23.34,96457.0,1.1460687
2073623953,2073603677,3997730,413.53888,23.35,96455.5,1.1460509
2073835052,2073817372,3997730,413.38828,23.34,96457.25,1.1460717
2074056201,2074033558,3997730,413.53888,23.34,96455.49,1.1460508
2074267236,2074247087,3997730,413.49658,23.34,96456.0,1.1460569
2074428251,2074408008,3997730,413.2799,23.34,96458.5,1.1460866
2074639173,2074621524,3997730,413.3222,23.34,96458.0,1.1460806
2074860306,2074837621,3997730,413.1716,23.33,96459.74,1.1461014
2075021117,2074998457,3997730,413.2799,23.33,96458.5,1.1460866
2075232295,2075212027,3997730,412.8677,23.33,96463.24,1.1461428
2075443644,2075425729,3997730,412.7594,23.33,96464.5,1.1461579
2075664681,2075641868,3997730,412.3049,23.34,96469.74,1.1462201
2075825447,2075802783,3997730,412.38943,23.33,96468.75,1.1462083
2076036501,2076016388,3997730,412.13052,23.33,96471.75,1.1462439
2076247610,2076229970,3997730,411.76324,23.33,96476.0,1.1462945
2076408460,2076390846,3997730,411.87155,23.33,96474.75,1.1462796
2076629572,2076606847,3997730,411.97992,23.33,96473.5,1.1462648
2076840978,2076820411,3997730,411.37216,23.32,96480.5,1.146348
2077011562,2076993861,3997730,412.04333,23.32,96472.75,1.1462559
2077233214,2077210068,3997730,411.58884,23.32,96478.0,1.1463182
2077453916,2077436259,3997730,411.78436,23.32,96475.75,1.1462915
2077615608,2077597276,3997730,411.60995,23.32,96477.75,1.1463152
2077836162,2077813544,3997730,411.26382,23.32,96481.75,1.1463628
2078047344,2078027176,3997730,410.98373,23.32,96485.0,1.1464014
2078258531,2078240833,3997730,411.09207,23.31,96483.75,1.1463865
2078419477,2078401629,3997730,410.7882,23.32,96487.25,1.1464281
2078640512,2078617804,3997730,410.9626,23.32,96485.25,1.1464044
2078851916,2078831452,3997730,411.00488,23.31,96484.75,1.1463984
2079062805,2079045167,3997730,410.89655,23.31,96486.0,1.1464133
2079223866,2079206024,3997730,410.65875,23.31,96488.75,1.146446
2079444930,2079422246,3997730,410.39716,23.31,96491.75,1.1464816
2079656025,2079635887,3997730,410.85428,23.3,96486.5,1.1464193
2079867207,2079849488,3997730,410.59534,23.3,96489.49,1.1464548
2080028056,2080010338,3997730,410.29147,23.31,96492.99,1.1464964
2080249156,2080226389,3997730,410.4843,23.31,96490.75,1.1464697
2080460255,2080440074,3997730,410.37866,23.31,96491.99,1.1464845
2080621290,2080600938,3997730,410.11707,23.3,96494.99,1.1465201
2080832335,2080814610,3997730,410.3126,23.3,96492.75,1.1464934
2081053301,2081030594,3997730,409.85812,23.3,96498.0,1.1465559
2081265794,2081244384,3997730,410.13818,23.3,96494.75,1.1465173
2081435611,2081417885,3997730,410.24652,23.3,96493.5,1.1465024
2081656846,2081634107,3997730,410.0748,23.3,96495.49,1.1465261
2081817650,2081794959,3997730,410.11707,23.3,96494.99,1.1465201
2082028813,2082008656,3997730,409.9004,23.3,96497.5,1.1465499
2082240096,2082222390,3997730,410.13818,23.289999,96494.74,1.1465172
2082462333,2082438604,3997730,410.00873,23.3,96496.25,1.146535
2082632155,2082612018,3997730,410.1831,23.289999,96494.25,1.1465113
2082843485,2082825787,3997730,409.7709,23.289999,96499.0,1.1465677
2083064659,2083041850,3997730,410.26767,23.289999,96493.25,1.1464994
2083225407,2083202765,3997730,410.00873,23.289999,96496.25,1.146535
2083446794,2083429028,3997730,409.87927,23.289999,96497.75,1.1465529
2083607651,2083590044,3997730,410.13818,23.289999,96494.74,1.1465172
2083828695,2083805994,3997730,409.59653,23.289999,96501.0,1.1465915
2084039786,2084019674,3997730,410.20425,23.289999,96493.99,1.1465082
2084250831,2084233167,3997730,410.26767,23.289999,96493.25,1.1464994
2084411621,2084393968,3997730,410.28882,23.289999,96493.0,1.1464964
2084642885,2084622764,3997730,410.4209,23.289999,96491.5,1.1464787
2084854125,2084836482,3997730,410.4632,23.279999,96491.0,1.1464727
2085014981,2084997362,3997730,410.701,23.279999,96488.26,1.1464401
2085236246,2085213477,3997730,410.7882,23.279999,96487.26,1.1464282
2085447314,2085427128,3997730,410.65875,23.279999,96488.75,1.146446
2085658499,2085640833,3997730,411.00488,23.279999,96484.74,1.1463983
2085819349,2085801680,3997730,410.7248,23.279999,96487.99,1.1464369
2086040506,2086017788,3997730,410.9177,23.269999,96485.76,1.1464105
2086251519,2086231332,3997730,410.98373,23.269999,96485.0,1.1464014
2086462750,2086445103,3997730,411.1132,23.279999,96483.5,1.1463836
2086643824,2086621170,3997730,410.93884,23.269999,96485.51,1.1464075
2086855029,2086834857,3997730,411.07095,23.269999,96484.0,1.1463895
2087066201,2087048567,3997730,410.9177,23.269999,96485.74,1.1464102
2087227173,2087209445,3997730,410.72217,23.269999,96488.0,1.146437
2087448175,2087425528,3997730,410.57156,23.269999,96489.75,1.1464578
2087659441,2087639162,3997730,410.55038,23.269999,96490.0,1.1464608
2087820389,2087800162,3997730,410.72217,23.269999,96488.0,1.146437
2088031592,2088013875,3997730,410.6376,23.269999,96488.99,1.1464489
2088252780,2088230112,3997730,410.6376,23.269999,96488.99,1.1464489
2088463940,2088443791,3997730,410.76706,23.269999,96487.49,1.146431
2088624884,2088604685,3997730,411.39328,23.26,96480.25,1.146345
2088836035,2088818399,3997730,410.9626,23.26,96485.25,1.1464044
2089057374,2089034613,3997730,411.35104,23.26,96480.75,1.1463509
2089218424,2089195532,3997730,411.45935,23.26,96479.5,1.1463361
2089429347,2089409209,3997730,411.45935,23.26,96479.5,1.1463361
2089640548,2089622854,3997730,411.28763,23.26,96481.49,1.1463597
2089861918,2089839078,3997730,411.48053,23.25,96479.25,1.1463331
2090022722,2090000036,3997730,411.43823,23.25,96479.75,1.146339
2090233800,2090213611,3997730,411.69717,23.25,96476.74,1.1463033
2090444876,2090427256,3997730,411.87155,23.25,96474.75,1.1462796
2090605815,2090588019,3997730,411.48053,23.25,96479.25,1.1463331
2090826963,2090804274,3997730,411.35104,23.25,96480.75,1.1463509
2091038177,2091017993,3997730,410.9177,23.24,96485.75,1.1464103
2091249307,2091231628,3997730,411.00488,23.24,96484.74,1.1463983
2091410029,2091392393,3997730,410.9626,23.24,96485.25,1.1464044
2091631270,2091608484,3997730,410.9177,23.24,96485.76,1.1464105
2091842422,2091822159,3997730,410.52927,23.24,96490.25,1.1464638
2092053389,2092035719,3997730,410.59268,23.24,96489.5,1.1464549
2092214227,2092196468,3997730,410.4843,23.24,96490.75,1.1464697
2092435282,2092412602,3997730,410.701,23.24,96488.24,1.1464399
2092646353,2092626208,3997730,410.00873,23.24,96496.25,1.146535
2092857497,2092839873,3997730,409.8132,23.24,96498.5,1.1465619
2093018736,2093000636,3997730,409.4882,23.24,96502.25,1.1466063
2093239478,2093216818,3997730,409.3376,23.24,96504.0,1.1466272
2093450655,2093430376,3997730,409.401,23.23,96503.25,1.1466182
2093661820,2093644130,3997730,409.09976,23.23,96506.75,1.1466599
2093823179,2093804969,3997730,409.1632,23.23,96506.0,1.1466509
2094043868,2094021152,3997730,409.726,23.23,96499.5,1.1465737
2094255199,2094234938,3997730,410.13818,23.23,96494.74,1.1465172
2094466128,2094448504,3997730,410.4843,23.22,96490.75,1.1464697
2094627568,2094609227,3997730,410.93884,23.22,96485.5,1.1464074
2094848110,2094825440,3997730,411.48053,23.22,96479.25,1.1463331
2095059313,2095039124,3997730,411.76324,23.22,96476.0,1.1462945
2095220337,2095200062,3997730,412.23883,23.22,96470.5,1.1462291
2095431949,2095413709,3997730,412.52155,23.22,96467.24,1.1461904
2095652639,2095629998,3997730,412.8466,23.22,96463.5,1.1461459
2095863997,2095843660,3997730,413.4094,23.21,96456.99,1.1460686
2096024656,2096004504,3997730,413.4094,23.21,96456.99,1.1460686
2096235938,2096218121,3997730,414.1228,23.21,96448.75,1.1459707
2096457054,2096434344,3997730,414.0594,23.21,96449.5,1.1459796
2096668177,2096648060,3997730,414.40555,23.21,96445.49,1.145932
2096829129,2096808968,3997730,414.2523,23.21,96447.25,1.1459528
2097040186,2097022413,3997730,414.38443,23.21,96445.74,1.1459349
2097261373,2097238584,3997730,414.73056,23.21,96441.75,1.1458875
2097422046,2097399328,3997730,414.77283,23.21,96441.25,1.1458815
2097643298,2097625575,3997730,414.68564,23.199999,96442.25,1.1458935
2097864890,2097841766,3997730,414.86002,23.199999,96440.25,1.1458697
2098035313,2098015169,3997730,414.64334,23.199999,96442.75,1.1458994
2098246582,2098228862,3997730,414.57996,23.199999,96443.49,1.1459082
2098407320,2098389635,3997730,414.83887,23.199999,96440.5,1.1458727
2098628516,2098605858,3997730,414.64334,23.199999,96442.75,1.1458994
2098849839,2098832063,3997730,414.40555,23.199999,96445.49,1.145932
2099010451,2098992836,3997730,414.57996,23.199999,96443.49,1.1459082
2099231604,2099208903,3997730,414.53503,23.189999,96443.99,1.1459142
2099442684,2099422551,3997730,414.23117,23.189999,96447.5,1.1459558
2099653911,2099636286,3997730,414.14658,23.189999,96448.5,1.1459677
2099814868,2099797099,3997730,413.84274,23.189999,96452.0,1.1460093
2100045848,2100025699,3997730,414.03827,23.189999,96449.74,1.1459825
2100256903,2100239214,3997730,413.56,23.189999,96455.25,1.146048
2100417626,2100399961,3997730,413.3671,23.189999,96457.49,1.1460745
2100638789,2100616055,3997730,413.19272,23.189999,96459.5,1.1460984
2100849891,2100829686,3997730,413.49658,23.18,96455.99,1.1460568
2101061273,2101043488,3997730,412.69333,23.18,96465.25,1.1461668
2101222115,2101204446,3997730,412.23883,23.18,96470.49,1.146229
2101443409,2101420659,3997730,412.2177,23.18,96470.74,1.146232
2101654523,2101634375,3997730,412.32605,23.18,96469.49,1.1462171
2101865634,2101847975,3997730,412.32605,23.18,96469.49,1.1462171
2102026505,2102008855,3997730,412.47665,23.18,96467.74,1.1461964
2102247795,2102225032,3997730,412.4344,23.18,96468.24,1.1462023
2102458942,2102438738,3997730,412.52155,23.17,96467.25,1.1461905
2102619701,2102599574,3997730,412.69333,23.17,96465.25,1.1461668
2102830879,2102813195,3997730,412.73822,23.17,96464.75,1.1461608
2103051942,2103029217,3997730,412.95224,23.17,96462.26,1.1461312
2103263249,2103242848,3997730,412.9549,23.17,96462.24,1.146131
2103433634,2103416025,3997730,412.9972,23.17,96461.75,1.1461252
2103654880,2103632241,3997730,413.30106,23.17,96458.24,1.1460835
2103865933,2103845797,3997730,413.19272,23.17,96459.5,1.1460984
2104026917,2104006703,3997730,413.75555,23.17,96453.0,1.1460212
2104237984,2104220357,3997730,413.6472,23.17,96454.25,1.146036
2104459137,2104436491,3997730,413.6472,23.17,96454.26,1.1460361
2104620109,2104597325,3997730,413.66837,23.17,96454.0,1.146033
2104831309,2104811109,3997730,413.86386,23.16,96451.74,1.1460062
2105042490,2105024858,3997730,413.4728,23.16,96456.25,1.1460599
2105263724,2105240864,3997730,413.34332,23.16,96457.75,1.1460776
2105424423,2105401710,3997730,413.235,23.16,96459.0,1.1460925
2105637115,2105615410,3997730,413.36447,23.16,96457.5,1.1460747
2105806603,2105788854,3997730,412.73822,23.16,96464.75,1.1461608
2106027629,2106004901,3997730,412.8677,23.16,96463.24,1.1461428
2106238733,2106218477,3997730,412.69333,23.15,96465.25,1.1461668
2106449707,2106432001,3997730,413.1478,23.15,96460.0,1.1461043
2106610598,2106592893,3997730,412.9972,23.15,96461.75,1.1461252
2106831658,2106808965,3997730,413.1689,23.15,96459.75,1.1461014
2107053055,2107035350,3997730,413.0606,23.15,96461.0,1.1461163
2107213818,2107196169,3997730,413.21387,23.15,96459.25,1.1460955
2107434920,2107412238,3997730,413.38828,23.15,96457.25,1.1460717
2107645994,2107625823,3997730,413.1293,23.15,96460.24,1.1461072
2107857402,2107839648,3997730,412.8889,23.15,96463.0,1.14614
2108018096,2108000417,3997730,412.97607,23.15,96462.0,1.1461282
2108239206,2108216557,3997730,412.52155,23.14,96467.25,1.1461905
2108450333,2108430161,3997730,412.52155,23.14,96467.25,1.1461905
2108661378,2108643763,3997730,412.3049,23.14,96469.74,1.1462201
2108822309,2108804606,3997730,411.78436,23.14,96475.75,1.1462915
2109043533,2109020909,3997730,411.8927,23.14,96474.5,1.1462766
2109254560,2109234445,3997730,411.58884,23.14,96478.0,1.1463182
2109465818,2109448143,3997730,411.52542,23.13,96478.75,1.1463271
2109626891,2109609173,3997730,411.26382,23.13,96481.75,1.1463628
2109848069,2109825414,3997730,411.1132,23.14,96483.5,1.1463836
2110059369,2110039113,3997730,410.9626,23.14,96485.25,1.1464044
2110220405,2110200188,3997730,411.1132,23.14,96483.5,1.1463836
2110431548,2110413882,3997730,411.00488,23.13,96484.74,1.1463983
2110662695,2110642572,3997730,411.22156,23.13,96482.25,1.1463687
2110823718,2110803521,3997730,410.72217,23.13,96488.0,1.146437
2111034854,2111017244,3997730,411.00488,23.13,96484.75,1.1463984
2111255889,2111233260,3997730,410.52927,23.13,96490.25,1.1464638
2111426898,2111406748,3997730,410.4843,23.13,96490.75,1.1464697
2111637910,2111620249,3997730,410.4209,23.13,96491.5,1.1464787
2111859177,2111836561,3997730,410.39716,23.13,96491.75,1.1464816
2112020067,2111997360,3997730,410.7882,23.119999,96487.24,1.1464281
2112241323,2112217089,3997730,410.89655,23.119999,96486.01,1.1464133
2112462569,2112439903,3997730,410.98373,23.119999,96485.0,1.1464014
2112623502,2112600802,3997730,411.37216,23.119999,96480.5,1.146348
2112834484,2112814314,3997730,411.22156,23.119999,96482.25,1.1463687
2113065815,2113043111,3997730,411.26382,23.119999,96481.75,1.1463628
2113226638,2113203971,3997730,411.24268,23.109999,96481.99,1.1463656
2113438046,2113417689,3997730,411.48053,23.109999,96479.25,1.1463331
2113648932,2113631269,3997730,411.22156,23.109999,96482.25,1.1463687
2113809955,2113792186,3997730,411.04715,23.119999,96484.25,1.1463925
2114031280,2114008458,3997730,411.24268,23.109999,96481.99,1.1463656
2114242404,2114222240,3997730,411.39328,23.109999,96480.25,1.146345
2114453399,2114435785,3997730,411.54654,23.109999,96478.5,1.1463242
2114614375,2114596609,3997730,411.41708,23.109999,96480.0,1.146342
2114835531,2114812752,3997730,411.37216,23.109999,96480.5,1.146348
2115056748,2115032534,3997730,411.58884,23.1,96478.01,1.1463183
2115217615,2115199924,3997730,411.74207,23.1,96476.25,1.1462975
2115438838,2115416129,3997730,411.58884,23.1,96478.0,1.1463182
2115650052,2115629812,3997730,411.95612,23.1,96473.75,1.1462678
2115861247,2115843567,3997730,411.76324,23.1,96475.99,1.1462944
2116022242,2116004498,3997730,411.74207,23.1,96476.25,1.1462975
2116243409,2116220710,3997730,411.5677,23.09,96478.25,1.1463212
2116454533,2116434367,3997730,411.58884,23.1,96478.0,1.1463182
2116665688,2116648054,3997730,411.84778,23.09,96475.0,1.1462826
2116826761,2116808972,3997730,411.67603,23.09,96476.99,1.1463063
