timestamp,yaw_composite,yaw_variance,yaw[0],yaw[1],yaw[2],yaw[3],yaw[4],innov_vn[0],innov_vn[1],innov_vn[2],innov_vn[3],innov_vn[4],innov_ve[0],innov_ve[1],innov_ve[2],innov_ve[3],innov_ve[4],weight[0],weight[1],weight[2],weight[3],weight[4]
1937484356,2.941,3.7360072,-2.5132742,-1.2566371,0.0,1.2566371,2.5132742,0.0,0.0,0.0,0.0,0.0,0.0,0.0,0.0,0.0,0.0,0.2,0.2,0.2,0.2,0.2
1937494286,2.5128198,3.5530589,-2.513411,-1.256774,-0.00013683013,1.2565002,2.5131373,0.0,0.0,0.0,0.0,0.0,0.0,0.0,0.0,0.0,0.0,0.2,0.2,0.2,0.2,0.2
1937682980,-0.23053841,3.6055853,-2.5134575,-1.2568101,-0.00026076622,1.2563118,2.512997,-0.004521297,0.0018783272,-0.012283305,-0.02743541,-0.02263832,-0.05688917,-0.039919265,-0.028588874,-0.03855604,-0.056046676,0.19997647,0.2000192,0.20003536,0.20000266,0.19996628
1937881647,0.84478796,3.7218323,-2.5138915,-1.2571952,-0.0005813925,1.2559825,2.5125978,0.025252244,0.020885997,0.0063252803,0.0016911421,0.013387954,0.036087893,0.049980406,0.05012099,0.03631694,0.027642919,0.19997641,0.19998509,0.20001435,0.20002379,0.20000036
1938080239,1.2332395,3.5533173,-2.515205,-1.2585284,-0.0018994529,1.2546939,2.5113122,-0.004252933,0.019895962,0.024809806,0.0036980473,-0.014263175,-0.012355669,-0.009676498,0.014118647,0.026144613,0.009782928,0.19998884,0.19998527,0.20000203,0.20001598,0.20000786
1938283825,2.9296925,3.731259,-2.5201087,-1.2634858,-0.0067397975,1.2499794,2.5065584,0.016012989,0.039386373,0.022789098,-0.0108424965,-0.015031127,-0.0034255087,0.021621155,0.051590256,0.045066893,0.011064753,0.20004307,0.19996785,0.19993705,0.19999325,0.20005882
1938477482,-2.9555762,3.7395475,-2.5229442,-1.2663597,-0.009669253,1.2470543,2.5036914,-0.015585447,0.006086292,0.00044342037,-0.024719117,-0.03462183,-0.01937299,-0.0063994806,0.01822374,0.020462872,-0.0027740635,0.20004454,0.19999236,0.1999507,0.19997716,0.20003521
1938686134,-2.3696244,3.5783646,-2.529309,-1.2726974,-0.016076881,1.2405765,2.4972405,0.0039813137,0.01701567,0.00057516526,-0.022622133,-0.020514833,-0.0390537,-0.017532777,0.0015159706,-0.008235399,-0.03330942,0.20001426,0.20000347,0.19998781,0.19998899,0.20000541
1938884664,-1.2801025,3.5501575,-2.5322402,-1.2759917,-0.019761568,1.2370136,2.494143,-0.037513684,-0.012359917,-0.04428257,-0.08917028,-0.08498633,-0.04559155,-0.0038514764,0.03297151,0.013989706,-0.034567703,0.20006642,0.20020396,0.20005949,0.19983289,0.19983725
1939083288,-1.2280242,3.5503564,-2.5308344,-1.2748244,-0.01887932,1.2379581,2.495411,-0.0074909236,0.004124766,-0.036171548,-0.07272879,-0.054996505,-0.04949122,-0.0033347863,0.021991216,-0.008512384,-0.052712794,0.20009325,0.20034344,0.20011872,0.19973011,0.1997145
1939281926,-0.8207785,3.7523077,-2.529603,-1.2733887,-0.017620588,1.2389023,2.4963384,0.047137078,0.054532025,0.0095610265,-0.025691025,-0.0024534166,-0.067124866,-0.017417971,0.0050036144,-0.030849855,-0.07546426,0.19994399,0.2003531,0.20027395,0.19981629,0.19961272
1939480539,-0.31816027,3.6372645,-2.5278497,-1.2711966,-0.015660042,1.2402805,2.4975884,0.07511159,0.08059341,0.040728938,0.010547895,0.031797566,-0.079658106,-0.03593217,-0.017186414,-0.049306974,-0.08795662,0.19969335,0.20029783,0.2004907,0.20000517,0.199513
1939679164,-0.32531708,3.6382613,-2.5331926,-1.2765458,-0.021066548,1.2348458,2.4921932,0.07511159,0.08059341,0.040728938,0.010547895,0.031797566,-0.079658106,-0.03593217,-0.017186414,-0.049306974,-0.08795662,0.19969335,0.20029783,0.2004907,0.20000517,0.199513
1939877811,-0.72351265,3.855833,-2.5356061,-1.2793173,-0.02358953,1.2328331,2.4902484,0.006394999,0.0632039,0.04693923,-0.019919727,-0.045053545,-0.017867852,0.017748948,0.082743034,0.08742355,0.025219178,0.19990166,0.20034452,0.20031098,0.19984774,0.19959514
1940081380,-1.1283259,3.5658653,-2.5330896,-1.2774884,-0.022123927,1.234761,2.4928262,-0.04047219,0.017436158,-0.0034993235,-0.07438998,-0.097289264,-0.024893004,0.015992835,0.08368991,0.08474034,0.01758817,0.20010127,0.20062548,0.20028447,0.1995508,0.19943796
1940280006,-0.9548015,3.6413655,-2.5240228,-1.2682693,-0.0130440965,1.2436029,2.5016599,0.015273973,0.056839112,0.019756978,-0.044863585,-0.04765302,-0.074633405,-0.022058908,0.03375312,0.015749045,-0.051333144,0.19999804,0.20062189,0.20038557,0.19961673,0.19937785
1940478630,-0.74492246,3.7996252,-2.5092072,-1.2533398,0.0014931498,1.2577839,2.5160134,0.052542932,0.047706015,0.012716951,-0.0041537657,0.020480579,-0.07832481,-0.043083407,-0.036755584,-0.068093896,-0.09383272,0.19984366,0.20069633,0.20058593,0.19966578,0.19920824
1940682221,-0.7481475,3.7709715,-2.489573,-1.2342203,0.019541256,1.2756838,2.5348957,0.06641792,0.03276581,-0.016090903,-0.012764271,0.038293082,-0.103840664,-0.06339151,-0.08282111,-0.13534477,-0.14839977,0.19977917,0.20111981,0.2009112,0.19944334,0.1987465
1940885812,-0.8018033,3.6822221,-2.471009,-1.2179898,0.031593475,1.2874758,2.5507197,0.13362649,0.05590929,-0.045043733,-0.030137245,0.08052765,-0.18623774,-0.10532749,-0.15397629,-0.26522547,-0.2853584,0.19966437,0.20286837,0.20209695,0.19842954,0.19694081
1941084437,-0.9557349,3.553502,-2.4605727,-1.210659,0.036089513,1.2933232,2.5602512,0.10770115,0.001426518,-0.079247594,-0.023511782,0.09281346,-0.11559651,-0.065577224,-0.15056244,-0.25421482,-0.23279235,0.20024507,0.20447452,0.20248854,0.19707869,0.1957132
1941283064,-1.0276537,3.503992,-2.4575338,-1.2101889,0.034231152,1.2925957,2.5625682,0.12839404,-0.0007209927,-0.048829824,0.050538458,0.1613208,-0.023029238,-0.015337527,-0.13509718,-0.21892193,-0.14925957,0.20073414,0.20581053,0.20280164,0.19595313,0.19470054
1941486653,-1.0002203,3.4765203,-2.4524643,-1.2090833,0.029334033,1.287933,2.564107,0.26469082,0.13792053,0.094642326,0.194927,0.3015296,-0.082067594,-0.07901417,-0.19793336,-0.2771217,-0.20484668,0.20082557,0.20851734,0.20432167,0.19421697,0.1921184
1941685279,-1.079896,3.4373415,-2.451243,-1.2104648,0.026805203,1.287346,2.565854,0.08814627,0.005360551,0.040613137,0.1474354,0.17776942,-0.00067420304,-0.06642159,-0.16569254,-0.16366468,-0.059882715,0.2016608,0.20955281,0.20409223,0.19307415,0.19161998
1941883906,-1.352797,3.4031246,-2.4460595,-1.2140459,0.022230973,1.2912068,2.5758681,0.2691196,0.31002635,0.43573192,0.47630057,0.3713738,0.0682099,-0.05099903,-0.05114183,0.07000284,0.14561231,0.2053344,0.21223797,0.20198375,0.18922853,0.1912154
1942082529,-1.2916175,3.2376263,-2.4255984,-1.2143779,0.0013463516,1.2782345,2.589157,-0.20055595,0.022616573,0.27561545,0.21221071,-0.09010109,0.3895594,0.2003871,0.34900573,0.64235455,0.6669358,0.20876847,0.22388476,0.20505594,0.18008782,0.18220301
1942281160,-1.3220274,3.0650663,-2.4075267,-1.2213922,-0.025956653,1.2634524,2.6034534,-0.32298914,0.055023033,0.40304086,0.24698007,-0.22521144,0.18456876,-0.044603646,0.23021436,0.6658532,0.63416755,0.21432176,0.23739168,0.20652537,0.16876332,0.17299792
1942479928,-1.4927677,2.885712,-2.3958037,-1.2470717,-0.0647833,1.2551626,2.6278405,-0.28201175,0.22742641,0.66806126,0.43929124,-0.19516969,0.08631267,-0.18130049,0.19481131,0.7697235,0.69175136,0.22889674,0.25363758,0.19992572,0.15137006,0.16616985
1942678406,-1.5249236,2.5170882,-2.3666015,-1.273363,-0.12602109,1.2287098,2.660481,-0.36366028,0.17310047,0.65636307,0.41344577,-0.2868757,0.28609014,0.004343629,0.39576522,1.0354059,0.9389391,0.24581015,0.28454974,0.19591133,0.12558396,0.14814474
1942886961,-1.5581417,2.2579792,-2.355,-1.3005623,-0.17570232,1.2047738,2.6767604,-0.3352512,0.1587975,0.63220024,0.42401618,-0.27604085,0.16982609,-0.09260926,0.2503603,0.8923615,0.80019,0.25900286,0.30770674,0.19068262,0.107331865,0.13527596
1943080685,-1.5352077,1.9360367,-2.3275652,-1.3198435,-0.2345613,1.1678264,2.6963775,-0.38266557,0.057418883,0.49104738,0.3078697,-0.3464737,0.41311958,0.1851998,0.4834802,1.0839982,0.9902593,0.26784047,0.3403112,0.18965517,0.08729963,0.1148936
1943279358,-1.56137,1.7755525,-2.322619,-1.3417134,-0.2710734,1.1496545,2.7049363,-0.23974372,0.14531589,0.52227575,0.36032867,-0.23799692,0.17379317,-0.003999293,0.2508219,0.7947304,0.6929341,0.27660823,0.35717925,0.18408103,0.07609246,0.106038995
1943482837,-1.5956665,1.6967685,-2.3246794,-1.3584127,-0.28972,1.1452497,2.710601,-0.14029351,0.19956052,0.50735927,0.3275561,-0.18784729,0.017752975,-0.10075861,0.13977832,0.60547495,0.4658333,0.28477874,0.36480317,0.17753722,0.06986423,0.103016675
1943681463,-1.5859596,1.5918787,-2.3126729,-1.3620517,-0.30877066,1.1342962,2.7187715,-0.31641158,0.0030421251,0.23734307,-0.0059422217,-0.44006324,0.11299437,0.066949576,0.33088654,0.7190661,0.5007506,0.28718835,0.37743556,0.17628966,0.06353305,0.09555338
1943885054,-1.5699563,1.491574,-2.297546,-1.36094,-0.32543978,1.124221,2.7296023,-0.3582202,-0.034937717,0.10762176,-0.2566365,-0.6102595,-0.028891444,0.032376975,0.35942924,0.66697186,0.3072495,0.28832325,0.39018387,0.17572945,0.057727598,0.088035986
1944083782,-1.5818979,1.3907678,-2.2862554,-1.3681351,-0.34581828,1.1201472,2.7462537,-0.2259202,0.095544726,0.15381058,-0.3213616,-0.594605,-0.06064862,0.09797183,0.4786816,0.7100448,0.21994936,0.29500377,0.40143484,0.17001182,0.05108865,0.08246095
1944287270,-1.5928272,1.2851517,-2.273833,-1.3755622,-0.36813316,1.1149331,2.765644,-0.19939731,0.10778329,0.08938697,-0.48280665,-0.66447383,-0.1469208,0.09411475,0.5147542,0.66746795,0.065966934,0.30191723,0.41338438,0.16377065,0.044423666,0.07650405
1944485895,-1.5983396,1.2194164,-2.2684188,-1.3815019,-0.38351136,1.1074884,2.7742493,-0.096438915,0.17764539,0.1335749,-0.44109985,-0.566869,-0.2570161,-0.0020813942,0.4006682,0.5129384,-0.09485838,0.3053981,0.42121583,0.16032515,0.04056453,0.072496474
1944684524,-1.6064906,1.1489484,-2.260534,-1.3877546,-0.40003023,1.1029345,2.7877696,-0.13102293,0.10998513,0.054969206,-0.48843956,-0.5771757,-0.16885716,0.07900575,0.4492398,0.53348994,-0.04304862,0.31027433,0.42950666,0.15552501,0.03630847,0.068385504
1944883275,-1.5977495,1.0778588,-2.2487931,-1.3894184,-0.41777438,1.0914416,2.799069,-0.29306486,-0.08171493,-0.1113745,-0.57862383,-0.67192197,-0.16581517,0.0369384,0.35331872,0.4474464,-0.047824442,0.31044865,0.44036585,0.15403877,0.03248581,0.06266099
1945076805,-1.597223,1.0778208,-2.2481933,-1.3889272,-0.41729572,1.0919639,2.799606,-0.29306486,-0.08171493,-0.1113745,-0.57862383,-0.67192197,-0.16581517,0.0369384,0.35331872,0.4474464,-0.047824442,0.31044865,0.44036585,0.15403877,0.03248581,0.06266099
1945285362,-1.6014693,0.97789323,-2.234703,-1.3974382,-0.44309947,1.0806166,2.8186195,-0.22439241,0.03397146,0.09376156,-0.35189173,-0.5805325,-0.10713273,0.040609002,0.36279514,0.58909416,0.10449508,0.31478906,0.45454895,0.14803036,0.026897982,0.05573371
1945483987,-1.5866932,0.91392857,-2.2202563,-1.3965067,-0.45799437,1.0674039,2.8304589,-0.33552673,-0.024808377,0.092517644,-0.3780536,-0.7125728,-0.1596145,-0.03066647,0.32521835,0.653166,0.12955287,0.31223956,0.46644497,0.14752084,0.023814062,0.04998063
1945682650,-1.586494,0.913948,-2.220055,-1.3963087,-0.45779282,1.0676055,2.8306599,-0.33552673,-0.024808377,0.092517644,-0.3780536,-0.7125728,-0.1596145,-0.03066647,0.32521835,0.653166,0.12955287,0.31223956,0.46644497,0.14752084,0.023814062,0.04998063
1945881238,-1.5415071,0.76208204,-2.168826,-1.3858774,-0.49122813,1.03914,2.8751247,-0.31823072,-0.0022118092,0.2170898,-0.09906764,-0.5927466,0.1637761,0.19439662,0.47494283,0.93535143,0.5475568,0.30321372,0.4978862,0.14593096,0.016707944,0.036261182
1946079863,-1.5329208,0.72230387,-2.152834,-1.3827391,-0.49880582,1.0359418,2.8919227,-0.27507246,-0.014998987,0.19243774,-0.033928722,-0.48243865,0.094708085,0.099338055,0.3112707,0.725689,0.4330149,0.30220473,0.50616497,0.1437318,0.014822133,0.033076275
1946283455,-1.5319278,0.6978218,-2.1428018,-1.3820201,-0.5026216,1.0376347,2.9052699,-0.13322541,0.076550536,0.27086994,0.13236439,-0.27011213,0.10387272,0.082270265,0.23049712,0.59462154,0.40238374,0.30343884,0.5106992,0.14081822,0.013601002,0.03144269
1946482075,-1.523067,0.6690872,-2.1286745,-1.3794128,-0.5093868,1.033125,2.9180288,-0.23367587,-0.04987012,0.14127375,0.055455655,-0.3283653,0.2687267,0.2289657,0.34135205,0.6829272,0.5502163,0.301474,0.5174586,0.13975444,0.012347617,0.028965265
1946685670,-1.5201186,0.6426846,-2.120212,-1.3822646,-0.5210602,1.0231205,2.9256523,-0.18359315,-0.012927465,0.19057886,0.16273327,-0.23647192,0.29645318,0.23171628,0.31192374,0.65799725,0.5861958,0.29952094,0.52386,0.1386671,0.011227527,0.026724527
1946884295,-1.5116708,0.6209489,-2.1108136,-1.3821537,-0.5303596,1.0118167,2.9306002,-0.24244568,-0.091549024,0.10822235,0.12379189,-0.26292947,0.31097853,0.2335388,0.28555965,0.6128901,0.58969307,0.29549673,0.5301496,0.13934688,0.010418213,0.024588522
1947082924,-1.5019586,0.6039682,-2.09982,-1.3790826,-0.5346021,1.0054811,2.9380689,-0.1514663,-0.036095705,0.14834821,0.22640756,-0.11893225,0.32599586,0.23272955,0.24082708,0.5205585,0.57502794,0.29219747,0.5351582,0.13988638,0.009801682,0.022956315
1947281578,-1.4885863,0.5966182,-2.0911674,-1.3731341,-0.5338419,1.0010709,2.9397764,-0.25382447,-0.17658901,-0.012236536,0.12525253,-0.16736238,0.25541455,0.14844072,0.11275607,0.33556294,0.4678472,0.28768334,0.53837657,0.14236435,0.009669925,0.021905826
1947485137,-1.4779017,0.58367616,-2.0783894,-1.3670006,-0.5329016,0.9998102,2.9510763,0.015332103,0.072023846,0.22363517,0.39140716,0.13117126,0.30874008,0.19521523,0.13710439,0.3264264,0.50008726,0.28537366,0.5421444,0.14252128,0.009198888,0.02076179
1947683762,-1.463567,0.5715857,-2.0655963,-1.3599508,-0.5323751,0.99494797,2.9589076,-0.075929016,-0.027506117,0.13212575,0.3444833,0.074664414,0.3571903,0.22480059,0.14346755,0.3314464,0.55662864,0.28106093,0.5463438,0.14426093,0.008850359,0.019483944
1947882387,-1.4484128,0.55751103,-2.050095,-1.351278,-0.5309134,0.99174774,2.9710062,-0.038609862,0.016878217,0.18655379,0.40940452,0.11600054,0.35306156,0.21438187,0.1326524,0.33667672,0.5706203,0.27717397,0.55090183,0.14536767,0.008393309,0.018163241
1948081013,-1.4299471,0.5449455,-2.0310082,-1.3381716,-0.52448815,0.9944354,2.9872384,-0.09947395,-0.0193456,0.15990007,0.34552053,0.014512993,0.30482656,0.17909735,0.12697005,0.36663508,0.54788876,0.273806,0.5549748,0.1462134,0.007978336,0.017027345
1948279638,-1.4123449,0.5302938,-2.0107727,-1.3251481,-0.51906294,0.9971227,3.0061126,-0.09618202,0.0062189996,0.20250747,0.37413052,-0.005204752,0.29947335,0.17522705,0.14120561,0.42151654,0.5756909,0.27085796,0.55948895,0.14636,0.0074574593,0.015835622
1948488199,-1.4005065,0.5132691,-1.9949142,-1.3180053,-0.5214349,0.99224263,3.0208395,-0.15411398,-0.017110582,0.18619469,0.28561732,-0.13800228,0.33185142,0.2356453,0.25179482,0.5800719,0.6339133,0.2676868,0.56476384,0.14620894,0.006840172,0.014500301
1948681857,-1.4020569,0.49836752,-1.9893208,-1.3202056,-0.5311622,0.98456854,3.029522,-0.15991716,0.013660431,0.19267407,0.13467611,-0.28655237,0.17879331,0.15391243,0.25880778,0.6141917,0.46687025,0.26719755,0.5687724,0.14421473,0.006242661,0.013572735
1948880480,-1.4073784,0.47855732,-1.9816511,-1.3238453,-0.54449266,0.97764546,3.0449936,-0.18198994,0.022065803,0.17138256,-0.04959832,-0.4517023,0.15530968,0.20383763,0.39585298,0.7699832,0.41517568,0.26848552,0.5735174,0.14002487,0.0054355254,0.012536675
1949079112,-1.4212676,0.4537489,-1.9765157,-1.3339647,-0.5671224,0.9660994,3.0635839,-0.2053267,0.010891587,0.12433222,-0.23415752,-0.5884378,0.14974856,0.26187575,0.5192743,0.8884012,0.36105567,0.27157763,0.57901496,0.13356018,0.004467164,0.011380046
1949282696,-1.4293468,0.42957553,-1.9683323,-1.3415972,-0.5902809,0.9501403,3.0826738,-0.33700246,-0.1457552,-0.06059116,-0.43718237,-0.7218972,0.1537621,0.27928174,0.5301483,0.8542877,0.3102498,0.27216712,0.5854783,0.1286637,0.0036356722,0.010055222
1949481509,-1.4554888,0.41975522,-1.9790558,-1.3602846,-0.6108215,0.9449429,3.0854406,0.053357393,0.19483323,0.24222897,-0.099580005,-0.27802205,0.17365289,0.29477894,0.5038732,0.73879784,0.2574736,0.27896705,0.58540773,0.122371614,0.003241522,0.010012031
1949684914,-1.4831605,0.41013873,-1.9944683,-1.3838711,-0.6390996,0.92814386,3.079657,-0.17165762,-0.08930838,-0.094599724,-0.40569368,-0.43627366,0.23255408,0.35211486,0.5174535,0.625938,0.22572899,0.28313768,0.58627707,0.117931806,0.0029017595,0.009751757
1949883537,-1.5072374,0.40772438,-2.013475,-1.4054687,-0.6610602,0.91223454,3.064329,-0.043720573,-0.015225261,-0.039708525,-0.23229462,-0.18758106,0.19720376,0.27624822,0.36418617,0.37825686,0.15402818,0.28567052,0.5857319,0.11599649,0.0028079958,0.009793092
1950082163,-1.52363,0.4071638,-2.0266135,-1.4197385,-0.67476344,0.9036074,3.0532296,-0.0718008,-0.09254685,-0.1481737,-0.26441878,-0.12762861,0.23469257,0.29277158,0.3243603,0.2388829,0.1415503,0.28782368,0.5847177,0.11474988,0.0027788098,0.00993002
1950280938,-1.5318607,0.40757167,-2.0336154,-1.4269017,-0.6810203,0.89988947,3.0465014,-0.023143679,-0.06906295,-0.13036953,-0.17483029,-0.013022721,0.2214014,0.2546997,0.2442295,0.116015255,0.11915606,0.28895503,0.58385485,0.11433428,0.0027933642,0.010062409
1950484379,-1.5389727,0.408376,-2.040071,-1.432789,-0.6859255,0.89761186,3.0402203,-0.059207544,-0.14189312,-0.22204973,-0.19319683,0.026124686,0.26041967,0.27183652,0.21294606,0.014089227,0.12864256,0.2901116,0.58274037,0.11407075,0.00282974,0.010247644
1950678039,-1.5404966,0.40878546,-2.0412142,-1.4335659,-0.6856349,0.89965075,3.0387838,-0.011348188,-0.12718683,-0.23245855,-0.16137363,0.12577264,0.27909583,0.28144145,0.18891722,-0.080105305,0.10827178,0.29091302,0.58177364,0.11402742,0.0028722556,0.010413785
1950876664,-1.5343593,0.40674308,-2.034547,-1.4278625,-0.68085134,0.90434897,3.0456922,0.06294462,-0.08645931,-0.21248049,-0.08456517,0.26145917,0.23394042,0.22107804,0.0886417,-0.24732906,0.030630827,0.29072335,0.58189654,0.11413637,0.0028643028,0.01037935
1951085350,-1.5196898,0.4058346,-2.02176,-1.4152355,-0.6683527,0.913808,3.055375,0.100587584,-0.05991025,-0.19021383,-0.03510423,0.32548523,0.3422451,0.3204664,0.17145622,-0.18484998,0.13245082,0.289175,0.5821654,0.11540439,0.0029198674,0.010335317
1951283846,-1.5033889,0.40387383,-2.0077214,-1.4018315,-0.6565451,0.92120653,3.0664208,0.11072603,-0.043282114,-0.15102331,0.04925595,0.36069348,0.3189227,0.27527404,0.11079651,-0.21631122,0.14349437,0.28681636,0.5831777,0.116905734,0.0029474276,0.01015279
1951482472,-1.490899,0.3993539,-1.9944429,-1.3909776,-0.64873743,0.92730397,3.0805082,0.08844049,-0.070785336,-0.17342706,0.060107272,0.3655873,0.21110445,0.15373361,-0.027266383,-0.35807425,0.04295057,0.2855795,0.5845352,0.117118575,0.0028757867,0.009890986
1951681097,-1.4815311,0.39701387,-1.9889352,-1.386025,-0.6460697,0.9231582,3.081237,0.07478758,-0.07906168,-0.15654892,0.13565315,0.38769078,0.38997185,0.30526507,0.10279155,-0.20092273,0.26184803,0.28185666,0.5861539,0.119469255,0.0029153947,0.00960484
1951879803,-1.4776741,0.3939473,-1.9869643,-1.3853644,-0.64798903,0.91661173,3.080862,0.07339061,-0.065867566,-0.1317391,0.14358543,0.36633173,0.30295926,0.22072285,0.03238046,-0.24009192,0.19266129,0.27918446,0.58768284,0.120900735,0.002904016,0.009328006
1952083315,-1.4709201,0.39189404,-1.9836177,-1.3825873,-0.64737546,0.91113824,3.0800982,0.057203434,-0.068656646,-0.1175453,0.16287555,0.34475878,0.3555861,0.26704824,0.08337641,-0.1559006,0.27238697,0.27581012,0.5891799,0.12301816,0.0029313662,0.009060475
1952281939,-1.4600532,0.38723648,-1.9750873,-1.3766384,-0.6460505,0.90490323,3.0855832,0.17356911,0.062925756,0.03453435,0.32401752,0.45696056,0.29642874,0.19935274,0.019592404,-0.18067563,0.245632,0.27158445,0.591966,0.12500905,0.002872818,0.008567733
1952485529,-1.4526092,0.3851983,-1.9701397,-1.3724363,-0.6439513,0.90209097,3.0875185,0.02208297,-0.072754376,-0.0870592,0.19130665,0.2879014,0.30899012,0.21216953,0.04505968,-0.12167275,0.28166127,0.26879954,0.5933104,0.12668136,0.0028787265,0.008330005
1952684224,-1.4456227,0.3835872,-1.9652189,-1.3678703,-0.6412742,0.9009349,3.0903547,0.05596377,-0.04251069,-0.078620285,0.14491402,0.289683,0.26902968,0.19626719,0.04987347,-0.1393069,0.206774,0.26665264,0.5943212,0.12799202,0.0028838455,0.008150325
1952882783,-1.4455229,0.38400534,-1.9669695,-1.3689613,-0.6420361,0.89840615,3.0865006,0.029411897,-0.06401343,-0.12829131,-0.010023162,0.1893169,0.282171,0.25338626,0.15309566,-0.04832673,0.17454767,0.26570556,0.5942428,0.12896311,0.0029355173,0.008152938
1953081405,-1.4506894,0.3838262,-1.9711311,-1.3732439,-0.6458546,0.89622056,3.0833375,0.0334128,-0.02878642,-0.118624255,-0.18847367,0.040400594,0.13343465,0.17892456,0.17284918,0.0045936108,-0.015022874,0.26654384,0.59383196,0.12847485,0.0029316882,0.008217633
1953284997,-1.4522841,0.38267908,-1.9709009,-1.3738282,-0.6466716,0.89727277,3.0853624,0.034414843,-0.012366354,-0.10881677,-0.252148,-0.021052167,0.05858463,0.13235039,0.1649139,0.016976833,-0.09990013,0.26747048,0.59371275,0.12768793,0.0028945985,0.008234213
1953483709,-1.4537878,0.3805313,-1.969393,-1.3738229,-0.64742994,0.89939135,3.0899596,0.0053121746,-0.05568382,-0.17387441,-0.33471265,-0.049647763,0.04614073,0.13057393,0.16303283,-0.023766637,-0.14734948,0.26882687,0.5937253,0.12639807,0.0028222937,0.008227318
1953682294,-1.451604,0.37947527,-1.9661175,-1.3709894,-0.644581,0.9034254,3.0942855,0.124390885,0.03553909,-0.10447391,-0.23527694,0.11376561,0.11296344,0.19054085,0.19608516,-0.05234909,-0.11565721,0.2694555,0.59354746,0.12593895,0.0028059105,0.0082521895
1953880872,-1.4517735,0.3777775,-1.9626716,-1.3685461,-0.64176685,0.9109839,3.101649,0.00887996,-0.10667831,-0.26197672,-0.34572312,0.052285194,0.16224122,0.22566551,0.19797653,-0.10521233,-0.090721846,0.27183676,0.5928498,0.124201186,0.0027502738,0.00836209
1954079498,-1.4486212,0.374425,-1.9565821,-1.3644321,-0.6391608,0.9157405,3.1108353,0.06801361,-0.07344965,-0.23477781,-0.24377656,0.18298846,0.10050547,0.13801312,0.06628877,-0.2845567,-0.16083688,0.2727362,0.5932382,0.12307323,0.0026649486,0.008287433
1954288077,-1.4455872,0.37085605,-1.9508699,-1.3609707,-0.63719225,0.9191389,3.118979,0.08958751,-0.058030337,-0.22162753,-0.21500292,0.2211416,0.102772474,0.13476187,0.053485632,-0.31026107,-0.1614514,0.27322745,0.59386003,0.122159265,0.002579415,0.008173811
1954481729,-1.4433548,0.36929432,-1.949657,-1.3602197,-0.6375189,0.916509,3.1188917,0.15286687,0.017862324,-0.11458434,-0.05401987,0.31006712,0.19841486,0.20421737,0.107436776,-0.21399868,-0.01478076,0.27193466,0.59453404,0.12289386,0.0025778394,0.008059611
1954685308,-1.4508417,0.3686055,-1.9576855,-1.3684424,-0.6462105,0.90667975,3.1101704,0.10635418,0.0125493705,-0.07906171,-0.03744056,0.21603483,0.14401293,0.14811867,0.08059543,-0.14297324,-0.0041835904,0.2713005,0.59483296,0.1232787,0.00257954,0.0080083
1954883930,-1.4630343,0.36877352,-1.9698843,-1.3804824,-0.65795636,0.8952449,3.0979612,-0.022707552,-0.06809084,-0.10720962,-0.07273298,0.040327877,0.11891562,0.11495966,0.07576889,-0.029545426,0.054942906,0.27146026,0.5946538,0.12326256,0.0025874206,0.008036014
1955082565,-1.4711965,0.36850762,-1.9782605,-1.3891008,-0.6669033,0.8855552,3.0892444,0.024244227,0.028125852,0.04584288,0.08419691,0.04690989,0.20329642,0.18651128,0.17162454,0.18908536,0.23079193,0.27107438,0.594894,0.123455,0.0025830835,0.00799353
1955276215,-1.4761174,0.3665398,-1.9827701,-1.3950175,-0.6746659,0.8763827,3.084988,-0.11507787,-0.054976642,0.022858113,0.050602704,-0.14835681,0.15392041,0.12892067,0.14793241,0.30200756,0.27805603,0.27017674,0.59589624,0.12356926,0.002532739,0.007824994
1955484773,-1.4762763,0.36211124,-1.9819081,-1.3971622,-0.6808139,0.8673937,3.0865812,-0.18644579,-0.07685502,0.054254174,0.074486196,-0.26873374,0.121124625,0.088505745,0.13676977,0.41170144,0.33116072,0.26834157,0.59801847,0.123735584,0.0024256154,0.0074787484
1955683397,-1.4757208,0.3539925,-1.9749153,-1.3962913,-0.6859192,0.8637055,3.1001692,-0.07976825,0.06664386,0.23251632,0.23311597,-0.21004999,0.17050087,0.13905501,0.21519184,0.5776126,0.43683684,0.26857054,0.6006099,0.12156466,0.0021909946,0.0070639597
1955882023,-1.4749173,0.342139,-1.9654217,-1.396214,-0.6956627,0.85416603,3.118489,-0.11528955,0.053716697,0.25516117,0.28968003,-0.24905452,0.26590502,0.21691942,0.291744,0.721029,0.58965755,0.26782033,0.604934,0.11896162,0.0018770496,0.0064070323
1956080654,-1.4672322,0.32998604,-1.950472,-1.391233,-0.7022176,0.8442683,3.1404104,-0.20867792,-0.0282311,0.18380271,0.2134944,-0.3653761,0.26162124,0.21520972,0.29913557,0.76158124,0.6016544,0.26510897,0.6102121,0.1174094,0.0015989203,0.0056706583
1956284239,-1.4640945,0.31963694,-1.9390627,-1.3889489,-0.70963424,0.8367123,-3.1229403,-0.13725267,0.034706518,0.23412473,0.2578488,-0.2995206,0.23680866,0.19791234,0.28100228,0.7256742,0.5565978,0.26418018,0.6142623,0.11504893,0.0013688186,0.005139772
1956482866,-1.4578762,0.31191978,-1.927533,-1.3844022,-0.7131052,0.8311761,-3.1063766,-0.17582703,-0.021527857,0.15708551,0.17898175,-0.32894593,0.19585323,0.1631993,0.23830521,0.64246845,0.4814353,0.2624163,0.6177504,0.11389952,0.0012177499,0.004715968
1956681495,-1.4514989,0.30558705,-1.9182041,-1.38099,-0.7182665,0.8209999,-3.0946789,-0.21944147,-0.09991279,0.049463764,0.1083539,-0.3174401,0.3296548,0.28981936,0.33198786,0.6537633,0.5719352,0.2591759,0.6214439,0.11397189,0.0011071,0.004301134
1956880115,-1.4518622,0.30367818,-1.917132,-1.3821988,-0.7212244,0.8171994,-3.0930402,-0.05573162,0.00687702,0.09997726,0.18742225,-0.07527268,0.16883647,0.12748075,0.12749362,0.30381453,0.32530808,0.25841865,0.6224796,0.11383966,0.0010733441,0.0041887183
1957083706,-1.4433172,0.30356425,-1.9093133,-1.3745433,-0.71410906,0.8229948,-3.086681,-0.038499035,-0.044060133,-0.02839619,0.05107507,0.016291395,0.24650884,0.21725547,0.18228662,0.17701149,0.27888632,0.2575397,0.6228119,0.114414744,0.0010787984,0.004154829
1957282503,-1.4268655,0.30334377,-1.8941568,-1.359107,-0.69963044,0.8354429,-3.0728736,0.031516787,-0.02310012,-0.050951593,0.06832303,0.16839242,0.22516954,0.18683386,0.10886395,-0.021465778,0.19224465,0.25642118,0.62316847,0.11520128,0.0010892169,0.004119876
1957480957,-1.4126844,0.3033715,-1.8806074,-1.3449423,-0.6848068,0.8505189,-3.0602498,-0.059301496,-0.1536525,-0.2246388,-0.10352747,0.1258906,0.263224,0.22901416,0.12795138,-0.10728037,0.16130865,0.25647217,0.6228035,0.11546024,0.0011060864,0.0041580065
1957684548,-1.4024061,0.3033907,-1.8703245,-1.3346663,-0.6745236,0.8608011,-3.049971,-0.059301496,-0.1536525,-0.2246388,-0.10352747,0.1258906,0.263224,0.22901416,0.12795138,-0.10728037,0.16130865,0.25647217,0.6228035,0.11546024,0.0011060864,0.0041580065
1957883173,-1.3929148,0.29745215,-1.8595561,-1.3282717,-0.6733051,0.85580844,-3.0381014,0.18069698,0.024549237,-0.10789384,0.037427995,0.45430058,0.16820788,0.13213086,-0.013173342,-0.40921104,-0.029613853,0.25331235,0.6255327,0.116230525,0.0010464585,0.003877966
1958081940,-1.3816803,0.29228547,-1.8478955,-1.3204693,-0.6712035,0.8505727,-3.0261328,0.23503932,0.055103004,-0.099904634,0.05764809,0.54811764,0.1943869,0.1553449,-0.008689642,-0.4684162,-0.03770256,0.24959393,0.6284432,0.11737553,0.0009931646,0.003594161
1958285392,-1.3697817,0.28738746,-1.8354887,-1.311473,-0.6672212,0.84829056,-3.0133364,0.19996674,0.011216208,-0.15266137,0.005363576,0.5297279,0.23351127,0.19343555,0.023326278,-0.46258092,-0.012218237,0.2463922,0.6309614,0.11834031,0.0009470755,0.0033590347
1958484020,-1.3702329,0.2796766,-1.8289006,-1.3115853,-0.6750485,0.8400489,-2.9976146,0.12921943,-0.07259626,-0.2469944,-0.07694974,0.48793843,0.06518018,0.020132363,-0.16294211,-0.6851607,-0.19546765,0.24628772,0.63369685,0.11607159,0.0008284547,0.0031153564
1958682640,-1.3680519,0.27273253,-1.8204153,-1.3092284,-0.67842466,0.8366205,-2.9816206,0.105395645,-0.10476081,-0.28656688,-0.10700299,0.48719376,0.14147717,0.09218669,-0.09990597,-0.6520932,-0.12534189,0.24626896,0.6360117,0.1140661,0.00073515164,0.002918029
1958881364,-1.3650657,0.26451087,-1.8119388,-1.308545,-0.6872715,0.8217436,-2.9667003,0.24409518,0.030985832,-0.16126128,-0.008229777,0.61990607,0.07503575,0.03455007,-0.1495806,-0.71946037,-0.2081784,0.24329875,0.64017314,0.113300875,0.0006358888,0.002591298
1959079897,-1.3617781,0.25702643,-1.8047477,-1.3085212,-0.69668776,0.80398536,-2.955311,0.28131363,0.072639555,-0.114591524,0.038984954,0.66182506,0.10522443,0.061419785,-0.12154108,-0.6881526,-0.16617864,0.23917337,0.64451855,0.11346842,0.0005584645,0.0022812376
1959283482,-1.3686898,0.25037697,-1.8042941,-1.3146099,-0.70940256,0.7921634,-2.9455307,0.09590461,-0.10843234,-0.28673938,-0.1169624,0.49050435,0.08663869,0.033687353,-0.15417981,-0.71602637,-0.16489285,0.23970503,0.6468302,0.11085768,0.00048223225,0.0021249675
1959482108,-1.3676345,0.24320035,-1.7974524,-1.3150586,-0.71856266,0.778286,-2.9317644,0.20597935,-0.005339816,-0.19108185,-0.016521394,0.61992157,0.104130924,0.048541486,-0.14572364,-0.7363391,-0.1530115,0.23748295,0.65047014,0.1097337,0.0004143336,0.0018988987
1959680851,-1.3700656,0.23531863,-1.7910842,-1.3177254,-0.73118687,0.76346004,-2.91436,0.1873391,-0.020359114,-0.19952533,-0.011410937,0.61331296,0.0018578768,-0.061003327,-0.25912148,-0.84912735,-0.23767436,0.23666444,0.65414906,0.10716152,0.00033828293,0.0016868025
1959879361,-1.364332,0.22756658,-1.7786587,-1.3145119,-0.7394104,0.74723226,-2.8940823,0.2958767,0.08587544,-0.10337451,0.054410636,0.71892124,0.015740097,-0.038861513,-0.22814184,-0.83835983,-0.23872983,0.23302579,0.6589374,0.106315576,0.00027847095,0.0014428213
1960077984,-1.3636264,0.22304544,-1.7738191,-1.3135266,-0.7424902,0.7441563,-2.8838246,0.045006596,-0.15377581,-0.32239574,-0.122272454,0.486925,0.23243958,0.16004324,-0.039212286,-0.6302485,0.02515918,0.23306549,0.6604623,0.104851976,0.00025113,0.001368998
1960281575,-1.3546805,0.21680135,-1.759774,-1.3073974,-0.74675,0.730833,-2.864201,0.32216024,0.13892266,-0.015518993,0.1770777,0.73769665,0.03606665,-0.03404963,-0.22088236,-0.77178365,-0.14831704,0.22898343,0.66492146,0.10470663,0.00021201937,0.0011765076
1960480281,-1.3551062,0.21226463,-1.75432,-1.3078638,-0.75370705,0.722628,-2.8512144,0.14777558,-0.017278075,-0.16574141,-0.038810283,0.5072181,-0.01443845,-0.06481713,-0.21760881,-0.721985,-0.20164967,0.2285734,0.6671929,0.10296668,0.00018297145,0.0010841142
1960683791,-1.3566012,0.20981689,-1.7528746,-1.3093579,-0.75879294,0.71710604,-2.8457634,0.09833188,-0.03416997,-0.19093025,-0.27873722,0.28951657,0.0014027357,0.022328675,-0.032960773,-0.43419284,-0.25153244,0.22835803,0.6683261,0.102105744,0.00016975799,0.001040426
1960877451,-1.343544,0.2067146,-1.7380563,-1.2986282,-0.7532425,0.7159846,-2.8285418,0.18914704,0.09476985,-0.07819239,-0.45819548,0.15738441,-0.19871289,-0.08061367,-0.0071793795,-0.27618366,-0.5541543,0.2251844,0.6708731,0.10283282,0.00015769916,0.0009519604
1961086007,-1.3318697,0.20229317,-1.7228259,-1.2888054,-0.7498019,0.7126793,-2.8078089,0.17961128,0.09940748,-0.09079355,-0.64646393,0.031186387,-0.17700285,-0.0023664236,0.14196336,-0.06869364,-0.60884583,0.22249542,0.6737054,0.10279877,0.0001406527,0.0008597188
1961284654,-1.3311095,0.19630721,-1.7151986,-1.2886034,-0.7576897,0.6997716,-2.7890568,0.13582551,0.06243971,-0.14130573,-0.8188522,-0.08514768,-0.14558244,0.06660092,0.25734594,0.08262277,-0.63551885,0.22130573,0.676747,0.10106329,0.00011644902,0.00076750136
1961483258,-1.3157967,0.19105873,-1.6991439,-1.278913,-0.75729084,0.68209994,-2.771343,0.24483886,0.18444028,-0.0029121041,-0.6825206,0.007391244,-0.40642178,-0.19629568,0.0018264949,-0.1255663,-0.8773185,0.2132523,0.68194777,0.10406528,0.00010432303,0.0006303898
1961681889,-1.3242909,0.18681109,-1.7014829,-1.2866323,-0.77038777,0.66810304,-2.7636285,0.093327135,0.049975306,-0.10462898,-0.71913385,-0.1417846,-0.068540215,0.1205641,0.30633986,0.23961717,-0.4817239,0.21387194,0.6836745,0.10177494,8.893886e-05,0.0005895542
1961880509,-1.3281419,0.18319301,-1.7006487,-1.291488,-0.78174436,0.65094686,-2.7552295,-0.07504201,-0.087162346,-0.18970352,-0.7027927,-0.31414682,-0.21106422,-0.052431345,0.11836678,0.14286536,-0.52079844,0.21210517,0.6862399,0.10104535,7.712219e-05,0.00053250074
1962079148,-1.3246768,0.18175277,-1.6977775,-1.2898738,-0.78236824,0.64482564,-2.753553,0.16392463,0.18751085,0.14025608,-0.27637786,-0.096506216,-0.27954274,-0.14761531,0.01409024,0.14769465,-0.48504084,0.20944567,0.68757755,0.10239591,7.6395736e-05,0.0005044239
1962282725,-1.3194549,0.17987879,-1.6916336,-1.2861923,-0.7819982,0.6395495,-2.7457674,-0.027722985,0.03359276,0.036529094,-0.3153837,-0.33545816,-0.24811321,-0.13060552,0.035586655,0.2857036,-0.36513156,0.20714106,0.6891661,0.10314742,7.3043484e-05,0.00047244277
1962481351,-1.3148726,0.17757292,-1.6857135,-1.2836714,-0.7840369,0.62940276,-2.737288,-0.17353785,-0.07895014,-0.030100435,-0.3151121,-0.5189448,-0.23360622,-0.13155007,0.035478055,0.3880797,-0.2676885,0.20401846,0.69131994,0.1041617,6.860209e-05,0.00043133198
1962679978,-1.3135059,0.17518334,-1.6821454,-1.2835379,-0.7882048,0.61889124,-2.7295783,-0.15996608,-0.040141165,0.04981938,-0.1457341,-0.5168085,-0.15158308,-0.07241583,0.08242935,0.5084357,-0.101890445,0.201995,0.69314194,0.104400575,6.351081e-05,0.00039907687
1962878602,-1.305112,0.17311102,-1.6739408,-1.2779173,-0.7866506,0.6105428,-2.7213662,-0.23272829,-0.10175547,0.0070114434,-0.14475968,-0.5949012,-0.29120243,-0.22272325,-0.074208975,0.3857687,-0.20381081,0.19789939,0.6952427,0.106433816,6.1715036e-05,0.0003623606
1963087158,-1.3082429,0.17143513,-1.6741837,-1.2799253,-0.7901726,0.6084384,-2.7165987,0.07716416,0.20438434,0.3177619,0.21953075,-0.25386044,-0.14092362,-0.088306546,0.039830923,0.48044652,-0.029488444,0.19928628,0.6954478,0.10484758,5.771902e-05,0.00036059122
1963280818,-1.3030617,0.17023785,-1.6692604,-1.2765177,-0.7891868,0.60317725,-2.711895,-0.22559023,-0.116968304,-0.015118748,-0.069886446,-0.49320263,-0.20536882,-0.16950649,-0.070102036,0.30271983,-0.09405261,0.1966673,0.69672227,0.10621402,5.693445e-05,0.00033950913
1963484409,-1.3004783,0.16955265,-1.6662841,-1.2742958,-0.78828347,0.60254115,-2.709346,-0.059463516,0.029742047,0.118817165,0.10834207,-0.26291528,-0.1991731,-0.17999554,-0.10991657,0.19034868,-0.08804345,0.19613843,0.69698006,0.10648963,5.6725647e-05,0.00033521059
1963683036,-1.3026478,0.16928373,-1.668166,-1.2763768,-0.7905549,0.60035944,-2.7107265,-0.009387374,0.054307416,0.123702824,0.15178588,-0.13580284,-0.12519878,-0.12272197,-0.08495957,0.12253368,-0.024629056,0.1962544,0.6969944,0.1063598,5.6403947e-05,0.0003350527
1963886626,-1.3111159,0.16912192,-1.6767462,-1.2852234,-0.79982734,0.5898574,-2.719373,-0.15107231,-0.10989833,-0.059412956,-0.006980777,-0.21420348,-0.010115981,-0.01946938,-0.006939411,0.12043625,0.075478196,0.19571039,0.6972259,0.10667591,5.639312e-05,0.00033131306
1964085252,-1.344409,0.16902612,-1.7096497,-1.3181938,-0.8328535,0.55757236,-2.7516952,0.003563173,0.027222864,0.06885395,0.17644471,0.008488618,-0.110894024,-0.14065063,-0.16031694,-0.10251498,-0.015278339,0.1961477,0.69711334,0.10634966,5.6038116e-05,0.00033321572
1964283876,-1.3813473,0.16903979,-1.7469162,-1.3552932,-0.8698536,0.52037597,-2.7894473,-0.19470325,-0.18540683,-0.15580226,-0.032393515,-0.14926963,0.016679287,-0.020697951,-0.056560934,-0.049969554,0.10292989,0.19595078,0.69708896,0.10657037,5.654669e-05,0.00033340167
1964482502,-1.3995059,0.16898888,-1.7650489,-1.3734611,-0.8873615,0.5028119,-2.806682,-0.038969256,-0.031410255,0.00079304725,0.15109497,0.024308406,0.017938077,-0.028056443,-0.07456672,-0.079059005,0.11794686,0.19597524,0.69717383,0.10646259,5.6104538e-05,0.00033222933
1964686093,-1.4065348,0.16887774,-1.7718223,-1.3802943,-0.8941439,0.49655557,-2.8131685,-0.09746382,-0.07746549,-0.032443866,0.11930069,-0.061786197,-0.08144641,-0.12535757,-0.16306162,-0.12614626,0.035557866,0.19626735,0.69707936,0.10626354,5.5959234e-05,0.0003337943
1964884718,-1.4102587,0.16847345,-1.7752053,-1.3841324,-0.89854366,0.4913082,-2.8159168,-0.114701495,-0.060386628,0.024787396,0.20955566,-0.13966347,-0.028710961,-0.076025605,-0.09954727,0.04613912,0.15250558,0.19606462,0.69728726,0.106261976,5.5388762e-05,0.000330686
1965083507,-1.4123496,0.167466,-1.7757589,-1.3860102,-0.9018841,0.4869992,-2.813821,-0.0784723,0.0069552064,0.13209096,0.36924386,-0.14709927,-0.02921784,-0.086441875,-0.1048125,0.13498217,0.2234754,0.19620857,0.6977215,0.10569193,5.3124986e-05,0.0003248306
1965281971,-1.4155507,0.16579346,-1.7750627,-1.3877578,-0.9058967,0.4842621,-2.806638,0.050070103,0.15899694,0.31086248,0.5671725,-0.06345472,-0.03284526,-0.090830326,-0.09795308,0.21754146,0.260875,0.19798866,0.6980756,0.10356604,4.8257945e-05,0.00032140405
1965485560,-1.4102094,0.16421787,-1.7693366,-1.3838462,-0.90473086,0.4792072,-2.799948,-0.2857481,-0.16259305,0.009109095,0.3004933,-0.41666812,-0.032892704,-0.097866654,-0.10582268,0.25288904,0.2977991,0.19572383,0.6994226,0.10450511,4.6740002e-05,0.00030174098
1965684185,-1.4192283,0.16178782,-1.7716323,-1.3900275,-0.91425675,0.4734392,-2.7910933,0.17003141,0.2984512,0.47424632,0.76162434,0.022412121,-0.004332423,-0.06610525,-0.068149924,0.30832446,0.33003384,0.19940554,0.69968355,0.100570865,3.957165e-05,0.00030046908
1965882938,-1.4212346,0.15955131,-1.7698158,-1.3920144,-0.92070174,0.46272364,-2.7825336,-0.059397727,0.05896597,0.22642909,0.52737844,-0.18182997,0.13781643,0.07128513,0.057979465,0.4015938,0.463768,0.19903088,0.7011766,0.09947622,3.5060162e-05,0.0002812229
1966081436,-1.4160538,0.15819864,-1.7640469,-1.3880556,-0.92034924,0.4571411,-2.7762299,-0.25179183,-0.15497461,-0.011048675,0.2840684,-0.33129904,0.06497908,-0.002996564,-0.029742599,0.24137032,0.35878974,0.19692464,0.702461,0.10031547,3.3990447e-05,0.0002649651
1966280061,-1.417727,0.15681975,-1.7626026,-1.3894103,-0.924852,0.45044136,-2.7692673,0.11541428,0.18549488,0.2957602,0.5512588,0.07783998,0.21369565,0.15217972,0.118790746,0.3046248,0.45137244,0.19710436,0.70340556,0.09920506,3.090088e-05,0.0002540781
1966483658,-1.4207289,0.15592448,-1.7635078,-1.3921489,-0.9296149,0.4444524,-2.766414,0.12240715,0.17091054,0.25551945,0.4887709,0.12298536,0.14153934,0.082454205,0.04047966,0.15607953,0.3391447,0.19731767,0.7039854,0.098420404,2.8989034e-05,0.00024756446
1966682380,-1.4236946,0.15557626,-1.7660742,-1.3950641,-0.93291754,0.44090465,-2.7682745,-0.11631995,-0.092346445,-0.031089485,0.21392058,-0.052134946,-0.0045030117,-0.07252073,-0.13729155,-0.11113596,0.1709292,0.19735764,0.7040981,0.09826946,2.863186e-05,0.00024631704
1966885869,-1.4244133,0.15519334,-1.7658535,-1.3956437,-0.9343613,0.43898618,-2.766316,0.10947342,0.11516269,0.14775786,0.3256946,0.18438771,0.026536942,-0.02570939,-0.08182132,-0.104281306,0.14025474,0.19749048,0.70433855,0.09789952,2.7819482e-05,0.00024363675
1967084494,-1.420354,0.15494457,-1.761433,-1.3918786,-0.9305072,0.44144577,-2.7603488,0.11900133,0.11609216,0.13883173,0.30977002,0.21094325,0.11236024,0.060245514,-0.00013101101,-0.051592827,0.21185267,0.19706902,0.70476466,0.09790018,2.7204533e-05,0.00023885802
1967283120,-1.4176242,0.15474094,-1.7581848,-1.3889518,-0.9278672,0.44429612,-2.7561765,-0.018783055,-0.02217976,-0.0018084422,0.15709212,0.0682998,-0.02333939,-0.07192373,-0.12857533,-0.17924559,0.06847143,0.19733773,0.70479065,0.09760607,2.6817326e-05,0.00023860892
1967481802,-1.4156486,0.15457603,-1.7555991,-1.3866435,-0.92573786,0.4470908,-2.7525303,0.0022617355,0.002353564,0.023659665,0.16535214,0.07224332,-0.084929764,-0.12746733,-0.17551976,-0.20966154,0.00050860643,0.19781879,0.70472974,0.09718574,2.6404417e-05,0.000239319
1967680371,-1.4179211,0.15430085,-1.7568079,-1.3884958,-0.9281438,0.44523108,-2.7518332,0.18798012,0.19231308,0.21664496,0.3499718,0.24336763,-0.094061136,-0.13300395,-0.17487228,-0.19188356,-0.0088498,0.19840512,0.70475805,0.09657213,2.5644282e-05,0.00023901259
1967878998,-1.4199064,0.15406655,-1.7582709,-1.3904021,-0.93052596,0.44259176,-2.7523415,0.028268218,0.036874145,0.06975685,0.23185039,0.08705738,0.01992464,-0.026427627,-0.074671745,-0.08355534,0.12722164,0.1984866,0.7048857,0.09636493,2.5232963e-05,0.00023760767
1968082587,-1.4230564,0.15398419,-1.761267,-1.3934034,-0.9334581,0.4401031,-2.7551074,-0.10818589,-0.097401366,-0.063009426,0.094650015,-0.057036433,-0.054234028,-0.0986681,-0.14367485,-0.14380014,0.05286187,0.19871636,0.7048094,0.09621051,2.5157336e-05,0.0002384492
1968281236,-1.424392,0.1538068,-1.7622535,-1.3946241,-0.9348967,0.4387465,-2.755486,-0.052398168,-0.039883487,-0.0014240965,0.17186466,0.0020999461,-0.015640378,-0.064263344,-0.11321187,-0.11095679,0.10277772,0.19887294,0.7048382,0.09602586,2.490776e-05,0.00023813326
1968479839,-1.4277179,0.15332071,-1.7638046,-1.3973902,-0.93882936,0.4351373,-2.7538512,0.3612704,0.36565018,0.3925738,0.5439302,0.42473888,-0.09064734,-0.13470829,-0.18256342,-0.20399928,0.00526917,0.19963522,0.704995,0.095109776,2.3667926e-05,0.00023631188
1968683429,-1.4295791,0.15292868,-1.7648557,-1.399201,-0.9425116,0.43051183,-2.7541206,0.14006306,0.13597149,0.15215172,0.2897981,0.2170801,0.04076326,-0.0011746883,-0.050934196,-0.09954357,0.118721545,0.19954975,0.70523983,0.094953634,2.3189736e-05,0.00023362506
1968882062,-1.4304624,0.15284686,-1.7654955,-1.3998429,-0.9430502,0.4307001,-2.7543843,-0.13077395,-0.14237471,-0.13353172,0.006475769,-0.034356248,-0.027214348,-0.071674764,-0.12811226,-0.2045185,0.043739498,0.19992612,0.70510936,0.09470642,2.3080844e-05,0.0002350119
1969080719,-1.4302105,0.15244952,-1.7637588,-1.3991687,-0.9434346,0.4303334,-2.7499423,0.3363382,0.32144415,0.32058161,0.41739345,0.41979697,-0.28301162,-0.31548738,-0.3598807,-0.43732274,-0.24174905,0.20049831,0.70527524,0.0939714,2.2082371e-05,0.00023303082
1969284271,-1.4254255,0.15242983,-1.7589165,-1.3943138,-0.93851775,0.43549368,-2.7450562,-0.09172403,-0.110444196,-0.11930362,-0.050050586,-0.0123213045,0.040093362,0.014842391,-0.02322483,-0.107889056,0.060619354,0.20061424,0.70522535,0.09390482,2.2070439e-05,0.000233557
1969482896,-1.4223124,0.152397,-1.755769,-1.3913815,-0.934941,0.43841928,-2.7409196,0.12879498,0.10945468,0.10188933,0.18434694,0.21603715,0.022324622,-0.0069559813,-0.049967468,-0.14016968,0.050053596,0.20039827,0.70543694,0.09391176,2.182924e-05,0.00023128011
1969686494,-1.4180803,0.15211837,-1.7509587,-1.3873664,-0.9319533,0.4398055,-2.7348974,0.41854703,0.40580606,0.40464586,0.48508728,0.48867568,-0.00073742867,-0.027773201,-0.0649274,-0.13097245,0.033251405,0.19999027,0.7058571,0.09390449,2.1334265e-05,0.00022680254
1969885154,-1.4147362,0.15212464,-1.7476573,-1.3840516,-0.92862767,0.44305125,-2.7316735,-0.07505655,-0.066459745,-0.047247574,0.024300985,-0.061647296,0.0004261732,-0.01859057,-0.03593588,-0.022873163,0.052945495,0.19994627,0.7058683,0.0939374,2.1355612e-05,0.00022669301
1970083738,-1.4138783,0.15200867,-1.7462237,-1.3827546,-0.92728907,0.44565484,-2.729288,0.14744063,0.18937069,0.23541203,0.25846696,0.05552739,-0.043641567,-0.03992951,-0.014624238,0.13121474,0.01684928,0.20063144,0.70566577,0.09345299,2.1083939e-05,0.00022871348
1970282365,-1.4186505,0.1514953,-1.7493017,-1.386137,-0.9304032,0.44664538,-2.7296634,0.26064217,0.34339565,0.4161521,0.33708376,0.019411564,-0.085805416,-0.041758537,0.050154567,0.369721,-0.041196585,0.20282188,0.7049548,0.09196723,2.033649e-05,0.00023578684
1970481012,-1.4293556,0.15032205,-1.7576308,-1.3958678,-0.94134545,0.43707404,-2.7338884,0.09711322,0.21264684,0.32148385,0.25892273,-0.21584353,-0.11133778,-0.06419551,0.047742963,0.48274797,-0.020318866,0.20428696,0.7048709,0.09058718,1.9015935e-05,0.00023592485
1970679615,-1.4389321,0.1486828,-1.7633984,-1.4036264,-0.9506516,0.43116435,-2.733161,0.16576669,0.30002058,0.4244185,0.33549762,-0.20604001,-0.09775472,-0.03813386,0.09746373,0.6095686,-0.0028260946,0.20711546,0.70442384,0.08820467,1.7117398e-05,0.00023887263
1970883206,-1.4410542,0.1466329,-1.7616962,-1.4052342,-0.9559757,0.4235304,-2.7244732,-0.04226043,0.09495492,0.22398467,0.14247386,-0.41795418,-0.023515105,0.034636497,0.17006552,0.69506305,0.07753241,0.20778601,0.7052461,0.086724065,1.5043775e-05,0.00022869719
1971081831,-1.4466972,0.1450958,-1.7639309,-1.4096957,-0.962526,0.41820902,-2.720672,0.07982448,0.20949234,0.33747572,0.30184114,-0.25873297,-0.05456102,-0.010763049,0.104010105,0.5944406,0.062274456,0.20966348,0.70519507,0.08490089,1.3535778e-05,0.00022709458
1971280456,-1.451948,0.14392953,-1.7663357,-1.413748,-0.9691365,0.41350874,-2.7190335,0.11686714,0.22496305,0.33234042,0.3055059,-0.1649554,-0.036605477,-0.0006996393,0.094212055,0.50548273,0.060838938,0.21152747,0.70488095,0.083350815,1.2510754e-05,0.0002281748
1971479082,-1.4563909,0.14295492,-1.7692868,-1.4186099,-0.9764683,0.4026572,-2.7190332,-0.1723438,-0.08138878,0.008469194,-0.019368086,-0.4121132,0.04414487,0.07588172,0.15752351,0.5069245,0.12216258,0.2107556,0.7058226,0.08319155,1.1754283e-05,0.00021848983
1971677707,-1.459755,0.14253385,-1.7720213,-1.421853,-0.9802602,0.39868224,-2.7206905,0.039945945,0.10574607,0.16036879,0.06483887,-0.16867529,-0.09582472,-0.05112481,0.033097744,0.30753428,-0.085020185,0.210947,0.7059042,0.08291996,1.1499293e-05,0.00021729713
1971881298,-1.4612951,0.14187184,-1.7724855,-1.4233965,-0.9831003,0.39456865,-2.7191892,-0.020816423,0.03347887,0.062496915,-0.13360167,-0.24586941,-0.05951941,0.0106499195,0.11888349,0.3774792,-0.1201272,0.21091083,0.70626265,0.082602054,1.1043058e-05,0.00021335896
1972080172,-1.4644462,0.14136223,-1.7746271,-1.4257109,-0.98524284,0.39503404,-2.7197504,0.27019584,0.31008416,0.31093156,0.016345784,0.037069358,-0.013406396,0.08079898,0.20998704,0.44197023,-0.14738274,0.21234722,0.70569515,0.08172917,1.0773109e-05,0.00021761394
1972283515,-1.4695318,0.14049178,-1.7776827,-1.4298283,-0.9902158,0.39206454,-2.7193294,0.1517426,0.17794652,0.155573,-0.20682421,-0.076349586,0.0554595,0.16485083,0.30518794,0.5033808,-0.13184798,0.21400698,0.7052922,0.08047117,1.0133619e-05,0.00021951123
1972487106,-1.4721102,0.13985817,-1.7802061,-1.4329001,-0.9941905,0.3856758,-2.721603,0.1705891,0.18827242,0.15823331,-0.19821705,-0.032165717,-0.17692626,-0.07194102,0.05928719,0.22390914,-0.3688774,0.21312463,0.70587265,0.08077831,1.0016722e-05,0.0002144427
1972685731,-1.47752,0.13947098,-1.7854158,-1.4382815,-0.998592,0.3811443,-2.7253358,0.19999644,0.20650597,0.16630422,-0.18059091,0.02942853,-0.05271542,0.046631813,0.16581118,0.28610867,-0.25076115,0.21326227,0.7059419,0.080572516,9.84279e-06,0.00021348173
1972884557,-1.4811318,0.13879381,-1.7875953,-1.4418535,-1.0038283,0.37438148,-2.7248394,-0.11452441,-0.11167006,-0.14702809,-0.43085855,-0.247659,-0.045823455,0.034709215,0.13017869,0.21943206,-0.21035624,0.21331048,0.7063535,0.08011785,9.320864e-06,0.00020878935
1973082982,-1.4786091,0.13846126,-1.7852594,-1.4400272,-1.002954,0.37217548,-2.7226126,0.05676812,0.053190418,0.015881754,-0.23486179,-0.044951223,-0.231942,-0.16264969,-0.08335298,-0.027002871,-0.38346237,0.2120688,0.7070804,0.08063858,9.268515e-06,0.00020289054
1973281607,-1.4765158,0.13824601,-1.7831212,-1.4379858,-1.0022513,0.3725357,-2.7215347,0.21200806,0.19808924,0.15601929,-0.051326938,0.15568659,-0.012850046,0.04142201,0.09815478,0.10332477,-0.149266,0.21187155,0.70713466,0.080781825,9.332376e-06,0.0002026443
1973485206,-1.476221,0.13827041,-1.7833685,-1.4378959,-1.0018384,0.37264282,-2.7226973,0.28799182,0.26426658,0.21675542,0.044118017,0.27204424,0.04911959,0.09091079,0.12832391,0.08608639,-0.076431036,0.21151504,0.70719403,0.081078775,9.492051e-06,0.000202588
1973683945,-1.4723984,0.13813682,-1.779566,-1.4343365,-0.9986955,0.37452316,-2.7188346,0.09807278,0.070509955,0.021720335,-0.13082802,0.100681536,-0.10572624,-0.07060015,-0.0428468,-0.10540748,-0.22325873,0.21104473,0.7074835,0.081262164,9.453324e-06,0.00020021752
1973882449,-1.4652976,0.13823298,-1.7730519,-1.4275358,-0.9905157,0.38200605,-2.7120697,0.19001357,0.15486687,0.10126702,-0.029316872,0.22183342,0.037508488,0.06429911,0.07867336,-0.01900661,-0.074484825,0.21061726,0.70766115,0.081512995,9.517664e-06,0.00019897996
1974081075,-1.4594482,0.13804542,-1.7668332,-1.4217594,-0.9853369,0.38628224,-2.705094,0.01736805,-0.02035356,-0.072758414,-0.17484623,0.068430975,-0.12667423,-0.10862559,-0.10569924,-0.22119206,-0.2243492,0.21047077,0.70787096,0.08145192,9.365986e-06,0.00019698952
1974284670,-1.4544946,0.13792567,-1.761699,-1.4168692,-0.980788,0.390252,-2.6995609,0.05320209,0.014742725,-0.035213515,-0.113693275,0.11684568,-0.033105254,-0.021976113,-0.02745688,-0.1525141,-0.11738002,0.21034913,0.70800483,0.08144107,9.287925e-06,0.00019577015
1974483448,-1.451933,0.13779649,-1.7589856,-1.4144224,-0.9787233,0.39153403,-2.6964698,0.0831784,0.041278556,-0.008255497,-0.057404578,0.16880366,-0.021091223,-0.019235373,-0.037181497,-0.18383753,-0.09123671,0.21013789,0.70818543,0.08147325,9.212513e-06,0.00019420208
1974681918,-1.45197,0.13760088,-1.7586145,-1.4145532,-0.97951263,0.38967705,-2.695228,0.10348344,0.063549146,0.019655317,-0.0026119053,0.19614045,-0.14455229,-0.14974564,-0.17496032,-0.32180494,-0.1967246,0.2099542,0.7084318,0.08141291,9.047447e-06,0.00019193532
1974880542,-1.4494288,0.13733855,-1.7556039,-1.412043,-0.97870433,0.389787,-2.6925902,0.05991374,0.018161848,-0.025301382,-0.03055869,0.16500251,0.026472092,0.015904784,-0.016431212,-0.17531288,-0.017176151,0.20981005,0.70856845,0.081421815,8.982264e-06,0.00019074699
1975084133,-1.4509901,0.13727888,-1.7573036,-1.4139038,-0.9798073,0.38732904,-2.693038,0.14839247,0.102452055,0.057472125,0.072936416,0.27357993,0.0021941662,-0.015443981,-0.058031917,-0.23909056,-0.033085227,0.20935267,0.7089115,0.08153908,8.877139e-06,0.00018792119
1975282810,-1.4536729,0.13685463,-1.7590652,-1.4166054,-0.9847476,0.38110125,-2.6942756,0.10907753,0.05996345,0.010975048,0.020633444,0.24010645,-0.102386415,-0.119384706,-0.16271508,-0.3544799,-0.14397347,0.20921275,0.7091899,0.081403434,8.657551e-06,0.00018534495
1975486363,-1.4566183,0.136663,-1.7618829,-1.4199116,-0.98769337,0.3761572,-2.695285,0.19155477,0.14063084,0.09528944,0.14614113,0.3458345,-0.022511542,-0.0517205,-0.11014354,-0.32127142,-0.04098648,0.20864028,0.7096864,0.081483655,8.459277e-06,0.00018124537
1975684975,-1.4573207,0.13606907,-1.7614659,-1.4208742,-0.9915494,0.36957854,-2.6937973,0.24240425,0.18764096,0.1380899,0.18670781,0.40605512,-0.113672614,-0.14351553,-0.20445895,-0.43021703,-0.13671684,0.2080547,0.71030265,0.08145835,8.149942e-06,0.00017610608
1975883600,-1.4590453,0.1355074,-1.7621657,-1.4230506,-0.9957099,0.3618044,-2.692189,0.34795296,0.29247227,0.24273601,0.29535633,0.5158194,-0.18506008,-0.21643156,-0.279431,-0.5098933,-0.20577365,0.20720558,0.711149,0.081468344,7.764875e-06,0.00016930305
1976082291,-1.4614011,0.13487943,-1.7630103,-1.4256124,-1.0004346,0.35397527,-2.6899095,0.33924288,0.28564098,0.2392515,0.30248183,0.5076767,-0.27986223,-0.3139097,-0.37904936,-0.6064273,-0.29163373,0.2067883,0.7118768,0.08116428,7.290335e-06,0.0001632752
1976280852,-1.4629471,0.13438968,-1.7632518,-1.4270977,-1.0033995,0.3494929,-2.6875467,0.15760204,0.102383286,0.05230263,0.100067586,0.3241947,-0.21014756,-0.24059457,-0.30219465,-0.5323745,-0.23178083,0.20686315,0.7122372,0.08073275,6.9296457e-06,0.00016003524
1976479477,-1.4668097,0.13408029,-1.766547,-1.4310359,-1.008155,0.3435854,-2.689643,0.08958849,0.038826138,-0.003861636,0.06592855,0.2545415,-0.0043110847,-0.03968984,-0.10491985,-0.32543862,-0.008069575,0.20670941,0.7125078,0.08061819,6.765864e-06,0.00015787402
1976683068,-1.4688293,0.13385732,-1.7677094,-1.4328843,-1.0096004,0.34167877,-2.6877441,0.12513953,0.08324799,0.049901813,0.12196979,0.2678322,-0.22414732,-0.25746977,-0.3161053,-0.5030015,-0.21827692,0.20708892,0.7126428,0.08010562,6.4766377e-06,0.00015627376
1976881722,-1.4679853,0.13357258,-1.765875,-1.4318444,-1.0094255,0.34144574,-2.6840136,0.14893371,0.116778255,0.09444252,0.17516187,0.26969248,-0.21754831,-0.25026643,-0.30362988,-0.455585,-0.19751352,0.20742977,0.7127369,0.07967195,6.2465033e-06,0.0001550592
1977080366,-1.4559486,0.13354644,-1.7536834,-1.4197717,-0.99749017,0.35330078,-2.6714802,0.12869948,0.12918308,0.1376388,0.19893579,0.15414962,-0.022830486,-0.03981483,-0.059487104,-0.0769065,0.014407694,0.20748906,0.7127512,0.079598665,6.208781e-06,0.00015486575
1977278944,-1.4393805,0.13357383,-1.7370472,-1.4029315,-0.9803365,0.37163126,-2.6548197,0.20748577,0.23990312,0.27519554,0.29165685,0.12832284,-0.19731414,-0.19167423,-0.16990602,-0.04700482,-0.15901852,0.20797667,0.71247476,0.07938564,6.216015e-06,0.00015662341
1977482535,-1.4203329,0.13343489,-1.7179114,-1.3836097,-0.960723,0.3923941,-2.6356091,0.17593323,0.23941484,0.29696304,0.23967262,-0.017899036,-0.21201348,-0.17604613,-0.1041708,0.16470844,-0.19063592,0.20846835,0.71220034,0.07916659,6.2186423e-06,0.00015836608
1977681165,-1.4159775,0.13282847,-1.7123944,-1.3784798,-0.95671517,0.39877468,-2.6298263,0.28496566,0.3674693,0.42967254,0.25743645,-0.00923273,-0.17613566,-0.10224211,0.023063898,0.40318352,-0.20679176,0.20982532,0.7115974,0.07840924,6.099657e-06,0.0001618598
1977884751,-1.4112247,0.13195024,-1.7080712,-1.3752395,-0.95543265,0.39341283,-2.6256614,-0.088407904,-0.0007332191,0.057940453,-0.18387307,-0.4257822,-0.37812996,-0.28351378,-0.13134927,0.2911191,-0.44547796,0.20706168,0.71316314,0.079617195,6.0617926e-06,0.00015188701
1978083377,-1.4218185,0.13096528,-1.7184225,-1.3869181,-0.9691981,0.37405217,-2.6349123,-0.029283065,0.049376033,0.091804154,-0.20324633,-0.36805174,-0.30745882,-0.20013613,-0.037542284,0.36812365,-0.4167089,0.20505546,0.7144632,0.080332085,5.8969017e-06,0.000143548
1978286968,-1.4371502,0.13022062,-1.7337735,-1.4028304,-0.9860651,0.3543995,-2.649956,0.15627149,0.2218753,0.2468755,-0.08015701,-0.1631584,-0.29295033,-0.180358,-0.017838955,0.34900784,-0.4347431,0.20397647,0.71511525,0.08076283,5.8427213e-06,0.00013956847
1978485595,-1.4510624,0.1293948,-1.7466278,-1.4166237,-1.0009695,0.33857125,-2.6606596,0.15419978,0.21157531,0.22619441,-0.116414785,-0.15068379,-0.13732696,-0.02280879,0.1380701,0.47855228,-0.29649854,0.20415533,0.7153445,0.0803569,5.6015174e-06,0.00013767199
1978684225,-1.4611406,0.12881431,-1.7563624,-1.4271402,-1.0113862,0.3253098,-2.6677465,0.036947716,0.07848203,0.07861079,-0.2526183,-0.22005352,-0.17631549,-0.07022923,0.07347697,0.3485909,-0.342444,0.20341752,0.71602,0.08042381,5.4016255e-06,0.00013332893
1978882846,-1.4652278,0.12823255,-1.7598737,-1.4314171,-1.0166527,0.31832168,-2.6699843,0.09642932,0.13166215,0.1271389,-0.19127192,-0.13826221,-0.14608288,-0.045544207,0.08872205,0.3361473,-0.31056726,0.20304695,0.71642727,0.08038988,5.2568403e-06,0.00013070786
1979081473,-1.478531,0.12780532,-1.7722496,-1.4443254,-1.029998,0.30561924,-2.6806848,0.14371145,0.1736227,0.16869357,-0.11093985,-0.059725247,0.0014411211,0.089429855,0.20650983,0.42064965,-0.14431703,0.20375817,0.71628964,0.07981605,5.0902468e-06,0.00013106494
1979280096,-1.4957073,0.12757494,-1.7895254,-1.4618148,-1.0478342,0.28643903,-2.6980507,0.10692086,0.13214765,0.12894264,-0.10018637,-0.061405785,-0.18533415,-0.11310732,-0.016640246,0.16203189,-0.3041224,0.20318396,0.7166065,0.08007527,5.0859044e-06,0.00012931797
1979478721,-1.5223955,0.12743068,-1.8157123,-1.4880205,-1.0737908,0.26218662,-2.723528,0.23966804,0.26293597,0.2612058,0.059614122,0.088443086,0.061816692,0.12579024,0.2116344,0.37342042,-0.04204452,0.20407994,0.71621937,0.079564475,5.0218364e-06,0.00013129618
1979682345,-1.5521058,0.12731063,-1.8453013,-1.5178407,-1.1038682,0.23146687,-2.7529082,0.011007447,0.030602276,0.03254335,-0.11057197,-0.10450231,-0.09244573,-0.04607606,0.017430842,0.14452314,-0.16349196,0.20388624,0.71636945,0.079608925,4.9917767e-06,0.00013038983
1979881113,-1.5630069,0.1273271,-1.8563203,-1.5287287,-1.114567,0.22101714,-2.7642016,0.19649635,0.2064366,0.20264363,0.09191069,0.121316954,-0.0595212,-0.025401294,0.019279122,0.096806884,-0.11883187,0.20391703,0.71631455,0.079632565,5.0175145e-06,0.00013076726
1980084560,-1.5607809,0.12734376,-1.8542955,-1.5266907,-1.1126065,0.22229975,-2.7624934,0.01916799,0.021146193,0.015931442,-0.04174362,-0.011277333,-0.29392457,-0.2772442,-0.25671488,-0.22914952,-0.32744324,0.20356758,0.7164666,0.07983086,5.0422245e-06,0.00012999597
1980283156,-1.5470812,0.12734555,-1.8406192,-1.5130533,-1.099078,0.23549058,-2.7487874,0.072730646,0.06283909,0.048234254,0.011842564,0.083874375,-0.16637272,-0.15961677,-0.15619022,-0.18340975,-0.19665807,0.20344275,0.71654004,0.07988259,5.0382628e-06,0.00012958184
1980481779,-1.5429907,0.12738787,-1.8367317,-1.5090684,-1.0950177,0.23935515,-2.7452233,0.16086382,0.14758056,0.13289,0.12317008,0.19285752,0.25793678,0.2561232,0.24792492,0.19806504,0.24112427,0.20325176,0.71659255,0.08002129,5.072194e-06,0.00012938415
1980680536,-1.5772151,0.12736338,-1.8709711,-1.5434215,-1.1294836,0.20432922,-2.7795134,0.11267255,0.090465486,0.07099983,0.09533957,0.1838241,0.07026869,0.05595547,0.028982043,-0.06818122,0.06690347,0.20302977,0.71671474,0.08012183,5.0705426e-06,0.00012871038
1980879032,-1.6336361,0.12728539,-1.9271029,-1.5998136,-1.186069,0.14752157,-2.8352425,0.026466995,-0.003087163,-0.030124009,-0.0066518486,0.11733535,-0.058100104,-0.0746755,-0.10766339,-0.23400122,-0.06795448,0.20310101,0.71674997,0.08001553,5.021368e-06,0.00012839075
1981082622,-1.7209165,0.12713282,-2.013911,-1.6871144,-1.273824,0.059073575,-2.921352,0.11813003,0.085437715,0.058379084,0.10702565,0.2285481,-0.09590459,-0.12056315,-0.16448331,-0.31206155,-0.0929147,0.20308709,0.71688634,0.07989421,4.9366135e-06,0.00012742955
1981286214,-1.8353375,0.12697065,-2.127821,-1.8015035,-1.3886414,-0.05620913,-3.034587,0.06058523,0.026216656,-4.5835972e-05,0.068532616,0.18432994,-0.058250904,-0.08905476,-0.14095664,-0.30227584,-0.044330537,0.20317262,0.7169689,0.07972685,4.8530037e-06,0.00012676322
1981484949,-1.9524771,0.12665495,-2.2437725,-1.918369,-1.5064301,-0.17433393,3.1346104,0.11971298,0.081603795,0.054684997,0.14841789,0.2646634,-0.23987961,-0.2789746,-0.34232843,-0.52751756,-0.21351546,0.20368272,0.7170076,0.07917902,4.6532614e-06,0.00012600495
1981683463,-2.055829,0.12615599,-2.3454359,-2.021545,-1.6113601,-0.2808853,3.0361128,0.34483123,0.30319294,0.2737597,0.37652826,0.5033853,-0.357471,-0.40029836,-0.46965432,-0.6727543,-0.32817012,0.20398918,0.71732897,0.07855408,4.356922e-06,0.00012343793
1981882138,-2.147539,0.1257974,-2.4362483,-2.1132774,-1.7042605,-0.37520444,2.946985,0.17230198,0.12810037,0.0976772,0.2140921,0.3439945,-0.07817429,-0.12575132,-0.20184839,-0.42118567,-0.041980565,0.20393382,0.71762556,0.07831502,4.201889e-06,0.00012142903
1982085680,-2.2230563,0.1254284,-2.5110366,-2.1889377,-1.7811052,-0.4538423,2.8736672,0.16196695,0.11571717,0.08544874,0.22025141,0.34741104,0.0022378564,-0.051216543,-0.13514757,-0.36997342,0.048485458,0.20364793,0.718014,0.07821495,4.07069e-06,0.000119047574
1982284386,-2.2994893,0.12491503,-2.586042,-2.2652855,-1.859139,-0.5336057,2.8015106,0.2178463,0.16445813,0.12515444,0.24581686,0.41725793,-0.17717868,-0.22933817,-0.31493562,-0.5746155,-0.14455783,0.20377797,0.7183659,0.07773574,3.840317e-06,0.00011654502
1982482930,-2.3686342,0.12413362,-2.653028,-2.3345938,-1.9314308,-0.6099963,2.739128,0.49373522,0.4330002,0.38395703,0.48677146,0.7062504,-0.38121623,-0.4311853,-0.51747227,-0.80212253,-0.3643207,0.20342802,0.7192315,0.07722583,3.4971567e-06,0.000111200454
1982681557,-2.455664,0.12357505,-2.7395582,-2.421839,-2.021485,-0.7036746,2.6571004,0.36166146,0.2937823,0.23662645,0.33305842,0.592418,-0.11647642,-0.16762757,-0.25839514,-0.5725084,-0.10715002,0.20255762,0.7201299,0.07720286,3.297322e-06,0.00010634495
1982880182,-2.5477777,0.122934595,-2.829973,-2.5141056,-2.1158204,-0.8012865,2.5704093,0.32350394,0.25584573,0.19644988,0.27254522,0.5460956,-0.2690197,-0.31487492,-0.3991541,-0.7066821,-0.27062556,0.20228596,0.7208035,0.076804966,3.061388e-06,0.00010248284
