timestamp,ref_timestamp,ref_lat,ref_lon,x,y,z,delta_xy[0],delta_xy[1],delta_z,vx,vy,vz,z_deriv,delta_vxy[0],delta_vxy[1],delta_vz,ax,ay,az,heading,delta_heading,ref_alt,dist_bottom,eph,epv,evh,evv,vxy_max,vz_max,hagl_min,hagl_max,xy_valid,z_valid,v_xy_valid,v_z_valid,xy_reset_counter,z_reset_counter,vxy_reset_counter,vz_reset_counter,heading_reset_counter,xy_global,z_global,dist_bottom_valid
25640330,15979159,34.0348452,108.7564995,0.0137199,0.594056,0.149879,-0.0933915,-0.202356,0.0,-0.0165351,-0.0409456,0.0502398,0.00938173,0.100294,-0.185719,0.08782,-0.564986,-0.0391921,-0.12076,0.196465,-0.0267188,421.849,0.1,0.334091,0.395362,0.170107,0.106501,inf,inf,inf,inf,1,1,1,1,2,0,2,1,3,1,1,1
25650266,15979159,34.0348452,108.7564995,0.0141465,0.594807,0.149998,-0.0933915,-0.202356,0.0,-0.0140555,-0.0408692,0.0509723,0.0101444,0.100294,-0.185719,0.08782,0.0791911,-0.0931371,0.000353641,0.196332,-0.0267188,421.849,0.1,0.334965,0.393533,0.170871,0.106421,inf,inf,inf,inf,1,1,1,1,2,0,2,1,3,1,1,1
25749606,15979159,34.0348452,108.7564995,0.017115,0.600394,0.151484,-0.0933915,-0.202356,0.0,-0.0135463,-0.0441523,0.051334,0.0111265,0.100294,-0.185719,0.08782,0.571513,-0.44157,0.0693013,0.196154,-0.0267188,421.849,0.1,0.344165,0.397894,0.178632,0.10812,inf,inf,inf,inf,1,1,1,1,2,0,2,1,3,1,1,1
25849054,15979159,34.0348452,108.7564995,0.0192967,0.604828,0.154154,-0.0933915,-0.202356,0.0,-0.0238833,-0.0332563,0.0477102,0.00915511,0.100294,-0.185719,0.08782,0.731392,1.71493,-0.691489,0.196651,-0.0267188,421.849,0.1,0.333965,0.395042,0.169554,0.106438,inf,inf,inf,inf,1,1,1,1,2,0,2,1,3,1,1,1
25948295,15979159,34.0348452,108.7564995,0.0220981,0.610444,0.156726,-0.0933915,-0.202356,0.0,-0.0144266,-0.0407096,0.0474111,0.0103016,0.100294,-0.185719,0.08782,0.392368,-0.26417,0.628941,0.196637,-0.0267188,421.849,0.1,0.343163,0.396873,0.177169,0.107845,inf,inf,inf,inf,1,1,1,1,2,0,2,1,3,1,1,1
26047638,15979159,34.0348452,108.7564995,0.0236019,0.614639,0.158429,-0.0933915,-0.202356,0.0,-0.0110279,-0.0417499,0.0565086,0.0197053,0.100294,-0.185719,0.08782,-0.502771,-0.713564,-0.694749,0.195604,-0.0267188,421.849,0.1,0.332909,0.394036,0.168145,0.106162,inf,inf,inf,inf,1,1,1,1,2,0,2,1,3,1,1,1
26146981,15979159,34.0348452,108.7564995,0.0254518,0.621905,0.158414,-0.0933915,-0.202356,0.0,-0.0142386,-0.0352673,0.0511497,0.0131092,0.100294,-0.185719,0.08782,0.0365239,0.82076,1.62659,0.195041,-0.0267188,421.849,0.1,0.342089,0.395857,0.175597,0.107556,inf,inf,inf,inf,1,1,1,1,2,0,2,1,3,1,1,1
26246325,15979159,34.0348452,108.7564995,0.0264669,0.627257,0.158073,-0.0933915,-0.202356,0.0,-0.0109577,-0.0452344,0.0448898,0.0053389,0.100294,-0.185719,0.08782,0.245832,-0.854498,-1.17582,0.194692,-0.0267188,421.849,0.1,0.331904,0.393052,0.166777,0.105884,inf,inf,inf,inf,1,1,1,1,2,0,2,1,3,1,1,1
26345672,15979159,34.0348452,108.7564995,0.0290627,0.633972,0.155292,-0.0933915,-0.202356,0.0,-0.0143111,-0.0297391,0.0529053,0.00978512,0.100294,-0.185719,0.08782,0.629652,-0.242061,-0.385443,0.1943,-0.0267188,421.849,0.1,0.341068,0.394861,0.174049,0.107269,inf,inf,inf,inf,1,1,1,1,2,0,2,1,3,1,1,1
26440045,15979159,34.0348452,108.7564995,0.0307476,0.638303,0.152487,-0.0933915,-0.202356,0.0,-0.0168464,-0.0407569,0.0465255,0.000153515,0.100294,-0.185719,0.08782,-1.64223,0.840145,1.02129,0.192592,-0.0267188,421.849,0.1,0.330132,0.393909,0.164903,0.105707,inf,inf,inf,inf,1,1,1,1,2,0,2,1,3,1,1,1
26549324,15979159,34.0348452,108.7564995,0.0345684,0.645031,0.148895,-0.0933915,-0.202356,0.0,-0.0172174,-0.0401772,0.0490294,-0.000602577,0.100294,-0.185719,0.08782,-1.22192,0.0839437,1.1046,0.191796,-0.0267188,421.849,0.1,0.340166,0.396429,0.172819,0.107291,inf,inf,inf,inf,1,1,1,1,2,0,2,1,3,1,1,1
26648793,15979159,34.0348452,108.7564995,0.0367935,0.650273,0.145186,-0.0933915,-0.202356,0.0,-0.00819649,-0.0368526,0.0451263,-0.00734157,0.100294,-0.185719,0.08782,-0.433732,-1.38563,0.901047,0.191123,-0.0267188,421.849,0.1,0.330108,0.393647,0.164769,0.105659,inf,inf,inf,inf,1,1,1,1,2,0,2,1,3,1,1,1
26748013,15979159,34.0348452,108.7564995,0.0387089,0.657019,0.139656,-0.0933915,-0.202356,0.0,-0.0087976,-0.0316062,0.0370817,-0.019422,0.100294,-0.185719,0.08782,1.02754,-0.430546,-0.165234,0.190882,-0.0267188,421.849,0.1,0.339273,0.395476,0.171801,0.107039,inf,inf,inf,inf,1,1,1,1,2,0,2,1,3,1,1,1
26847355,15979159,34.0348452,108.7564995,0.0397506,0.662638,0.135154,-0.0933915,-0.202356,0.0,-0.0139945,-0.033462,0.0354823,-0.0235329,0.100294,-0.185719,0.08782,0.643528,1.43593,-0.713332,0.190007,-0.0267188,421.849,0.1,0.329259,0.392724,0.163705,0.105409,inf,inf,inf,inf,1,1,1,1,2,0,2,1,3,1,1,1
26946699,15979159,34.0348452,108.7564995,0.0405933,0.669509,0.13057,-0.0933915,-0.202356,0.0,-0.0169297,-0.0291573,0.0401714,-0.0208841,0.100294,-0.185719,0.08782,-0.156815,-0.82451,-0.32918,0.188903,-0.0267188,421.849,0.1,0.338423,0.397053,0.173917,0.107064,inf,inf,inf,inf,1,1,1,1,2,0,2,1,3,1,1,1
27046073,15979159,34.0348452,108.7564995,0.040761,0.674595,0.126418,-0.0933915,-0.202356,0.0,-0.0165177,-0.0379943,0.0367952,-0.0256007,0.100294,-0.185719,0.08782,-0.605343,-0.518258,-0.673069,0.188402,-0.0267188,421.849,0.1,0.328371,0.394252,0.170831,0.105425,inf,inf,inf,inf,1,1,1,1,2,0,2,1,3,1,1,1
27145387,15979159,34.0348452,108.7564995,0.0414966,0.681344,0.120289,-0.0933915,-0.202356,0.0,-0.024197,-0.0322309,0.0290885,-0.0362163,0.100294,-0.185719,0.08782,-1.22949,2.18741,-0.290425,0.188708,-0.0267188,421.849,0.1,0.33751,0.396072,0.187472,0.106803,inf,inf,inf,inf,1,1,1,1,2,0,2,1,3,1,1,1
27249698,15979159,34.0348452,108.7564995,0.0422174,0.686161,0.116452,-0.0933915,-0.202356,0.0,-0.0199536,-0.0308769,0.0319808,-0.0336346,0.100294,-0.185719,0.08782,-2.80701,0.91504,-0.169481,0.187737,-0.0267188,421.849,0.102904,0.327496,0.393302,0.184961,0.105185,inf,inf,inf,inf,1,1,1,1,2,0,2,1,3,1,1,1
27349041,15979159,34.0348452,108.7564995,0.0467662,0.692887,0.113339,-0.0933915,-0.202356,0.0,-0.0186681,-0.0279258,0.0282951,-0.0365851,0.100294,-0.185719,0.08782,-3.61073,-0.95471,-1.09091,0.186844,-0.0267188,421.849,0.106017,0.336624,0.395107,0.204767,0.106563,inf,inf,inf,inf,1,1,1,1,2,0,2,1,3,1,1,1
27448426,15979159,34.0348452,108.7564995,0.0502893,0.698681,0.11195,-0.0933915,-0.202356,0.0,-0.0125627,-0.0172261,0.029438,-0.0330001,0.100294,-0.185719,0.08782,-1.59679,1.88582,-0.470648,0.186139,-0.0267188,421.849,0.107406,0.326702,0.392375,0.199435,0.104983,inf,inf,inf,inf,1,1,1,1,2,0,2,1,3,1,1,1
27542762,15979159,34.0348452,108.7564995,0.0530856,0.705229,0.111143,-0.0933915,-0.202356,0.0,0.00724194,-0.0241389,0.0355069,-0.0246822,0.100294,-0.185719,0.08782,2.06241,-0.413358,0.542599,0.185446,-0.0267188,421.849,0.108212,0.334926,0.393491,0.217826,0.106164,inf,inf,inf,inf,1,1,1,1,2,0,2,1,3,1,1,1
27642106,15979159,34.0348452,108.7564995,0.0551484,0.711021,0.112564,-0.0933915,-0.202356,0.0,-0.00640081,-0.0227297,0.0256813,-0.0297805,0.100294,-0.185719,0.08782,-1.05483,-0.0558508,-2.19298,0.184882,-0.0267188,421.849,0.108686,0.325074,0.393278,0.207738,0.104862,inf,inf,inf,inf,1,1,1,1,2,0,2,1,3,1,1,1
27751386,15979159,34.0348452,108.7564995,0.0573374,0.718224,0.11583,-0.0933915,-0.202356,0.0,-0.00285601,-0.0137963,0.0307882,-0.0183339,0.100294,-0.185719,0.08782,-0.569776,1.28971,-0.844023,0.184615,-0.0267188,421.849,0.107735,0.335246,0.393275,0.22965,0.106165,inf,inf,inf,inf,1,1,1,1,2,0,2,1,3,1,1,1
27840795,15979159,34.0348452,108.7564995,0.0585116,0.722266,0.116857,-0.0933915,-0.202356,0.0,-0.00690779,-0.0213609,0.0306592,-0.0156988,0.100294,-0.185719,0.08782,0.846235,0.288633,-0.47073,0.183085,-0.0267188,421.849,0.106709,0.324318,0.392405,0.213492,0.104677,inf,inf,inf,inf,1,1,1,1,2,0,2,1,3,1,1,1
27950073,15979159,34.0348452,108.7564995,0.0611777,0.727575,0.114846,-0.0933915,-0.202356,0.0,-9.32336e-05,-0.0195922,0.035833,-0.0107977,0.100294,-0.185719,0.08782,0.0463636,1.30166,0.998535,0.18286,-0.0267188,421.849,0.108719,0.334618,0.394894,0.233799,0.106248,inf,inf,inf,inf,1,1,1,1,2,0,2,1,3,1,1,1
28049418,15979159,34.0348452,108.7564995,0.0630689,0.732108,0.112117,-0.0933915,-0.202356,0.0,-0.0119951,-0.0188912,0.0343034,-0.0133423,0.100294,-0.185719,0.08782,-1.69572,1.36396,1.03819,0.181405,-0.0267188,421.849,0.111449,0.324442,0.392204,0.216871,0.104674,inf,inf,inf,inf,1,1,1,1,2,0,2,1,3,1,1,1
28148759,15979159,34.0348452,108.7564995,0.0659077,0.738798,0.10931,-0.0933915,-0.202356,0.0,0.00065793,-0.0181865,0.0350415,-0.0136674,0.100294,-0.185719,0.08782,1.14165,-0.539225,0.238552,0.181026,-0.0267188,421.849,0.114255,0.333989,0.394008,0.233794,0.106046,inf,inf,inf,inf,1,1,1,1,2,0,2,1,3,1,1,1
28248110,15979159,34.0348452,108.7564995,0.0673253,0.744754,0.106405,-0.0933915,-0.202356,0.0,-0.00900744,0.0059577,0.0243903,-0.0252882,0.100294,-0.185719,0.08782,-1.62035,4.40029,-0.940744,0.180558,-0.0267188,421.849,0.117161,0.323735,0.391343,0.215651,0.104477,inf,inf,inf,inf,1,1,1,1,2,0,2,1,3,1,1,1
28342481,15979159,34.0348452,108.7564995,0.0666792,0.751074,0.103061,-0.0933915,-0.202356,0.0,0.00253149,-0.0219066,0.0318027,-0.0193517,0.100294,-0.185719,0.08782,0.995258,-4.01338,0.399785,0.179979,-0.0267188,421.849,0.120504,0.332346,0.394943,0.229462,0.105927,inf,inf,inf,inf,1,1,1,1,2,0,2,1,3,1,1,1
28451758,15979159,34.0348452,108.7564995,0.0662959,0.756952,0.0984054,-0.0933915,-0.202356,0.0,-0.00249565,0.00497858,0.0338407,-0.0193952,0.100294,-0.185719,0.08782,-1.38083,5.63058,1.71199,0.180649,-0.0267188,421.849,0.12516,0.323081,0.392946,0.212665,0.104549,inf,inf,inf,inf,1,1,1,1,2,0,2,1,3,1,1,1
28551275,15979159,34.0348452,108.7564995,0.0657716,0.76342,0.094984,-0.0933915,-0.202356,0.0,-0.00373671,-0.0131676,0.037418,-0.0163739,0.100294,-0.185719,0.08782,0.369969,-3.85328,1.38665,0.182041,-0.0267188,421.849,0.128582,0.332804,0.394756,0.226599,0.105919,inf,inf,inf,inf,1,1,1,1,2,0,2,1,3,1,1,1
28650446,15979159,34.0348452,108.7564995,0.0652072,0.767998,0.0909493,-0.0933915,-0.202356,0.0,-0.00208483,-0.0140013,0.0243459,-0.030588,0.100294,-0.185719,0.08782,1.06285,-7.09825,-2.56044,0.184579,-0.0267188,421.849,0.132616,0.322454,0.392096,0.208657,0.104358,inf,inf,inf,inf,1,1,1,1,2,0,2,1,3,1,1,1
28749791,15979159,34.0348452,108.7564995,0.0671774,0.77183,0.0864723,-0.0933915,-0.202356,0.0,-0.0099178,0.0298512,0.0229356,-0.0332999,0.100294,-0.185719,0.08782,-3.03278,9.88568,0.90201,0.192551,-0.0267188,421.849,0.137093,0.332228,0.393901,0.22127,0.105718,inf,inf,inf,inf,1,1,1,1,2,0,2,1,3,1,1,1
28849133,15979159,34.0348452,108.7564995,0.0676498,0.77778,0.0829905,-0.0933915,-0.202356,0.0,-0.00669862,0.0218411,0.0247317,-0.0313683,0.100294,-0.185719,0.08782,1.05265,-0.931115,0.850227,0.203424,-0.0267188,421.849,0.140575,0.321845,0.391264,0.204092,0.104162,inf,inf,inf,inf,1,1,1,1,2,0,2,1,3,1,1,1
28948477,15979159,34.0348452,108.7564995,0.0651231,0.789193,0.0809095,-0.0933915,-0.202356,0.0,-0.0115976,0.0441151,0.00144574,-0.0536408,0.100294,-0.185719,0.08782,-0.195514,-2.17728,-3.76522,0.214536,-0.0267188,421.849,0.142656,0.331648,0.393037,0.215568,0.105507,inf,inf,inf,inf,1,1,1,1,2,0,2,1,3,1,1,1
29047870,15979159,34.0348452,108.7564995,0.0623691,0.802287,0.0748363,-0.0933915,-0.202356,0.0,-0.0254114,0.0831096,-0.0116964,-0.0664812,0.100294,-0.185719,0.08782,-1.48884,6.35232,1.90867,0.221105,-0.0267188,421.849,0.148729,0.321252,0.392867,0.199309,0.104231,inf,inf,inf,inf,1,1,1,1,2,0,2,1,3,1,1,1
29147165,15979159,34.0348452,108.7564995,0.0591408,0.818296,0.0671536,-0.0933915,-0.202356,0.0,-0.0416575,0.0890358,-0.0115776,-0.066132,0.100294,-0.185719,0.08782,1.36559,-4.45927,1.34798,0.215663,-0.0267188,421.849,0.156412,0.331068,0.39466,0.209791,0.105578,inf,inf,inf,inf,1,1,1,1,2,0,2,1,3,1,1,1
29246511,15979159,34.0348452,108.7564995,0.0553637,0.837617,0.0606006,-0.0933915,-0.202356,0.0,-0.0502206,0.154609,-0.0222085,-0.0758358,0.100294,-0.185719,0.08782,-0.89428,2.98306,1.10154,0.198132,-0.0267188,421.849,0.162965,0.320685,0.392003,0.194496,0.104037,inf,inf,inf,inf,1,1,1,1,2,0,2,1,3,1,1,1
29345958,15979159,34.0348452,108.7564995,0.0515127,0.859757,0.0529418,-0.0933915,-0.202356,0.0,-0.0688987,0.16557,-0.0569259,-0.109037,0.100294,-0.185719,0.08782,-0.113758,0.920561,1.49844,0.17282,-0.0267188,421.849,0.170624,0.330505,0.393773,0.204129,0.105366,inf,inf,inf,inf,1,1,1,1,2,0,2,1,3,1,1,1
29445198,15979159,34.0348452,108.7564995,0.0464871,0.883436,0.0414185,-0.0933915,-0.202356,0.0,-0.086991,0.198594,-0.103462,-0.153633,0.100294,-0.185719,0.08782,-1.27903,1.18722,-2.42097,0.144251,-0.0267188,421.849,0.182147,0.320128,0.391141,0.189794,0.103821,inf,inf,inf,inf,1,1,1,1,2,0,2,1,3,1,1,1
29544544,15979159,34.0348452,108.7564995,0.0432261,0.9118,0.0278201,-0.0933915,-0.202356,0.0,-0.091897,0.233362,-0.125323,-0.172738,0.100294,-0.185719,0.08782,0.885285,1.87077,3.1256,0.117349,-0.0267188,421.849,0.195745,0.329935,0.392897,0.198665,0.105161,inf,inf,inf,inf,1,1,1,1,2,0,2,1,3,1,1,1
29648899,15979159,34.0348452,108.7564995,0.0369061,0.940724,0.00932203,-0.0933915,-0.202356,0.0,-0.108244,0.206323,-0.178194,-0.224104,0.100294,-0.185719,0.08782,0.485358,-5.84767,-2.67914,0.0942316,-0.0267188,421.849,0.214244,0.319497,0.390282,0.185029,0.103614,inf,inf,inf,inf,1,1,1,1,2,0,2,1,3,1,1,1
29748202,15979159,34.0348452,108.7564995,0.0278109,0.967952,-0.0124128,-0.0933915,-0.202356,0.0,-0.112637,0.189612,-0.196311,-0.241011,0.100294,-0.185719,0.08782,0.684639,7.4592,1.36002,0.076125,-0.0267188,421.849,0.235978,0.329265,0.394513,0.193241,0.105216,inf,inf,inf,inf,1,1,1,1,2,0,2,1,3,1,1,1
29847533,15979159,34.0348452,108.7564995,0.0186265,0.989101,-0.0356934,-0.0933915,-0.202356,0.0,-0.13659,0.120067,-0.22452,-0.266489,0.100294,-0.185719,0.08782,0.675616,-12.0245,-0.619196,0.0587923,-0.0267188,421.849,0.259259,0.318932,0.391871,0.18066,0.103704,inf,inf,inf,inf,1,1,1,1,2,0,2,1,3,1,1,1
29941916,15979159,34.0348452,108.7564995,0.0117577,1.00237,-0.0569479,-0.0933915,-0.202356,0.0,-0.137022,0.0586956,-0.241206,-0.279274,0.100294,-0.185719,0.08782,-0.518224,-3.24173,-1.66007,0.0470505,-0.0267188,421.849,0.280514,0.32766,0.392946,0.187531,0.104818,inf,inf,inf,inf,1,1,1,1,2,0,2,1,3,1,1,1
30051195,15979159,34.0348452,108.7564995,0.000166243,1.01439,-0.0854019,-0.0933915,-0.202356,0.0,-0.155875,0.0577998,-0.261206,-0.296837,0.100294,-0.185719,0.08782,0.25546,-0.306817,-1.42185,0.0356858,-0.0267188,421.849,0.308968,0.318379,0.390997,0.176518,0.103448,inf,inf,inf,inf,1,1,1,1,2,0,2,1,3,1,1,1
30150671,15979159,34.0348452,108.7564995,-0.0130473,1.02213,-0.114385,-0.0933915,-0.202356,0.0,-0.17773,0.00292772,-0.272355,-0.307471,0.100294,-0.185719,0.08782,0.0880368,-6.63197,-1.88976,0.0295885,-0.0267188,421.849,0.337951,0.328088,0.392742,0.183671,0.104753,inf,inf,inf,inf,1,1,1,1,2,0,2,1,3,1,1,1
30249882,15979159,34.0348452,108.7564995,-0.0264383,1.03201,-0.144497,-0.0933915,-0.202356,0.0,-0.193155,0.0619976,-0.275909,-0.310046,0.100294,-0.185719,0.08782,-0.786526,2.59635,1.35969,0.0259795,-0.0267188,421.849,0.368063,0.31782,0.390149,0.172638,0.10325,inf,inf,inf,inf,1,1,1,1,2,0,2,1,3,1,1,1
30349226,15979159,34.0348452,108.7564995,-0.0355503,1.05071,-0.171447,-0.0933915,-0.202356,0.0,-0.193056,0.0497927,-0.286191,-0.316391,0.100294,-0.185719,0.08782,0.542838,-8.93661,-1.11177,0.0223747,-0.0267188,421.849,0.395013,0.327481,0.39436,0.179428,0.10485,inf,inf,inf,inf,1,1,1,1,2,0,2,1,3,1,1,1
30438824,15979159,34.0348452,108.7564995,-0.0461062,1.06674,-0.198052,-0.0933915,-0.202356,0.0,-0.202815,0.128369,-0.287083,-0.315964,0.100294,-0.185719,0.08782,-0.818162,7.0376,0.291239,0.0213869,-0.0267188,421.849,0.421617,0.316227,0.391082,0.168249,0.103135,inf,inf,inf,inf,1,1,1,1,2,0,2,1,3,1,1,1
30542965,15979159,34.0348452,108.7564995,-0.0567165,1.08602,-0.231897,-0.0933915,-0.202356,0.0,-0.158561,0.13611,-0.298108,-0.327546,0.100294,-0.185719,0.08782,-0.533479,4.67798,-0.572074,0.0207843,-0.0267188,421.849,0.455463,0.325733,0.392818,0.174684,0.104456,inf,inf,inf,inf,1,1,1,1,2,0,2,1,3,1,1,1
30642290,15979159,34.0348452,108.7564995,-0.0634867,1.10437,-0.265481,-0.0933915,-0.202356,0.0,-0.109944,0.153515,-0.292126,-0.322961,0.100294,-0.185719,0.08782,0.927521,-0.584226,1.79381,0.0207592,-0.0267188,421.849,0.489047,0.315635,0.390254,0.164958,0.102959,inf,inf,inf,inf,1,1,1,1,2,0,2,1,3,1,1,1
30741637,15979159,34.0348452,108.7564995,-0.0668092,1.12332,-0.30083,-0.0933915,-0.202356,0.0,-0.0350894,0.151248,-0.298329,-0.33253,0.100294,-0.185719,0.08782,1.01396,-1.59803,-2.37469,0.0229676,-0.0267188,421.849,0.524395,0.325091,0.391985,0.1711,0.104269,inf,inf,inf,inf,1,1,1,1,2,0,2,1,3,1,1,1
30850912,15979159,34.0348452,108.7564995,-0.0622977,1.14113,-0.33824,-0.0933915,-0.202356,0.0,0.0343102,0.115624,-0.278467,-0.315013,0.100294,-0.185719,0.08782,0.789789,-0.849171,2.56617,0.0239264,-0.0267188,421.849,0.561805,0.315925,0.39009,0.162489,0.102963,inf,inf,inf,inf,1,1,1,1,2,0,2,1,3,1,1,1
30950362,15979159,34.0348452,108.7564995,-0.0511255,1.15938,-0.37039,-0.0933915,-0.202356,0.0,0.0887679,0.128467,-0.27284,-0.310061,0.100294,-0.185719,0.08782,0.938553,-6.04813,2.25997,0.020862,-0.0267188,421.849,0.593956,0.325397,0.391821,0.168396,0.104287,inf,inf,inf,inf,1,1,1,1,2,0,2,1,3,1,1,1
31049600,15979159,34.0348452,108.7564995,-0.0365304,1.17493,-0.404212,-0.0933915,-0.202356,0.0,0.15087,0.0918833,-0.27416,-0.314487,0.100294,-0.185719,0.08782,0.954421,-10.5622,-1.22744,0.0184969,-0.0267188,421.849,0.627778,0.315297,0.389284,0.159651,0.102802,inf,inf,inf,inf,1,1,1,1,2,0,2,1,3,1,1,1
31148943,15979159,34.0348452,108.7564995,-0.0230872,1.1836,-0.442029,-0.0933915,-0.202356,0.0,0.143454,0.120141,-0.265601,-0.31254,0.100294,-0.185719,0.08782,-0.397517,7.43624,1.64436,0.0164383,-0.0267188,421.849,0.665595,0.324702,0.393472,0.165367,0.104357,inf,inf,inf,inf,1,1,1,1,2,0,2,1,3,1,1,1
31248291,15979159,34.0348452,108.7564995,-0.00633093,1.19519,-0.477994,-0.0933915,-0.202356,0.0,0.158526,0.0853268,-0.258509,-0.310059,0.100294,-0.185719,0.08782,0.609371,-2.85392,-0.0850676,0.0118724,-0.0267188,421.849,0.701559,0.314682,0.390907,0.157065,0.102882,inf,inf,inf,inf,1,1,1,1,2,0,2,1,3,1,1,1
31347651,15979159,34.0348452,108.7564995,0.0177463,1.2164,-0.510063,-0.0933915,-0.202356,0.0,0.158159,0.125455,-0.237642,-0.291369,0.100294,-0.185719,0.08782,-0.492704,2.3797,-1.55046,0.0067143,-0.0267188,421.849,0.733629,0.324023,0.392642,0.162564,0.104192,inf,inf,inf,inf,1,1,1,1,2,0,2,1,3,1,1,1
31446977,15979159,34.0348452,108.7564995,0.0366506,1.23364,-0.538374,-0.0933915,-0.202356,0.0,0.163398,0.115064,-0.168808,-0.224503,0.100294,-0.185719,0.08782,0.453951,9.13315,3.20072,0.0015499,-0.0267188,421.849,0.761939,0.314081,0.390098,0.154634,0.102714,inf,inf,inf,inf,1,1,1,1,2,0,2,1,3,1,1,1
31546319,15979159,34.0348452,108.7564995,0.0470253,1.24706,-0.5595,-0.0933915,-0.202356,0.0,0.153714,0.0937767,-0.0858712,-0.14344,0.100294,-0.185719,0.08782,0.689412,-5.56259,1.31727,-0.00548202,-0.0267188,421.849,0.783065,0.323355,0.39182,0.159964,0.104007,inf,inf,inf,inf,1,1,1,1,2,0,2,1,3,1,1,1
31645664,15979159,34.0348452,108.7564995,0.0591365,1.25932,-0.571425,-0.0933915,-0.202356,0.0,0.145076,0.101051,-0.0431803,-0.101111,0.100294,-0.185719,0.08782,-0.33144,-0.154523,-1.57884,-0.00736566,-0.0267188,421.849,0.794991,0.313441,0.389288,0.152346,0.102534,inf,inf,inf,inf,1,1,1,1,2,0,2,1,3,1,1,1
31745033,15979159,34.0348452,108.7564995,0.0737049,1.27221,-0.581123,-0.0933915,-0.202356,0.0,0.143871,0.109646,-0.00596036,-0.0651576,0.100294,-0.185719,0.08782,1.09503,-0.131701,1.15521,-0.00897859,-0.0267188,421.849,0.804688,0.322643,0.393468,0.157486,0.104091,inf,inf,inf,inf,1,1,1,1,2,0,2,1,3,1,1,1
31844351,15979159,34.0348452,108.7564995,0.0886048,1.28203,-0.584827,-0.0933915,-0.202356,0.0,0.137429,0.0285676,0.0448143,-0.0132269,0.100294,-0.185719,0.08782,0.52107,-0.956986,2.56821,-0.00630856,-0.0267188,421.849,0.808392,0.312759,0.390908,0.150239,0.102628,inf,inf,inf,inf,1,1,1,1,2,0,2,1,3,1,1,0
31943695,15979159,34.0348452,108.7564995,0.103416,1.28658,-0.581291,-0.0933915,-0.202356,0.0,0.120379,-0.0350729,0.0950727,0.0397641,0.100294,-0.185719,0.08782,-0.341382,-0.742968,-1.61662,-0.000156224,-0.0267188,421.849,0.804857,0.321891,0.392618,0.155308,0.103924,inf,inf,inf,inf,1,1,1,1,2,0,2,1,3,1,1,0
32043189,15979159,34.0348452,108.7564995,0.116987,1.28052,-0.570349,-0.0933915,-0.202356,0.0,0.126974,-0.155555,0.17583,0.123662,0.100294,-0.185719,0.08782,0.318874,1.87293,2.73363,0.0113812,-0.0267188,421.849,0.793915,0.311876,0.390051,0.148134,0.102441,inf,inf,inf,inf,1,1,1,1,2,0,2,1,3,1,1,0
32147350,15979159,34.0348452,108.7564995,0.127241,1.25302,-0.554798,-0.0933915,-0.202356,0.0,0.101237,-0.344103,0.250456,0.197144,0.100294,-0.185719,0.08782,0.540129,-0.162098,2.34683,0.0203166,-0.0267188,421.849,0.778363,0.32092,0.391747,0.1531,0.10371,inf,inf,inf,inf,1,1,1,1,2,0,2,1,3,1,1,0
32246701,15979159,34.0348452,108.7564995,0.13697,1.20986,-0.533239,-0.0933915,-0.202356,0.0,0.102452,-0.544456,0.308581,0.254896,0.100294,-0.185719,0.08782,0.413582,-4.05737,0.719736,0.0241471,-0.0267188,421.849,0.756804,0.311028,0.389218,0.146419,0.10224,inf,inf,inf,inf,1,1,1,1,2,0,2,1,3,1,1,0
32341071,15979159,34.0348452,108.7564995,0.149763,1.15705,-0.504275,-0.0933915,-0.202356,0.0,0.0952371,-0.736988,0.369908,0.318215,0.100294,-0.185719,0.08782,0.965805,-7.4105,1.53084,0.0280286,-0.0267188,421.849,0.727841,0.319073,0.392708,0.150865,0.103596,inf,inf,inf,inf,1,1,1,1,2,0,2,1,3,1,1,0
32450349,15979159,34.0348452,108.7564995,0.16088,1.08207,-0.46542,-0.0933915,-0.202356,0.0,0.09429,-0.781024,0.381731,0.334314,0.100294,-0.185719,0.08782,2.04165,-7.14407,2.34961,0.0276414,-0.0267188,421.849,0.688986,0.310163,0.39083,0.145005,0.102305,inf,inf,inf,inf,1,1,1,1,2,0,2,1,3,1,1,0
32549694,15979159,34.0348452,108.7564995,0.170025,1.00084,-0.429111,-0.0933915,-0.202356,0.0,0.0885292,-0.927871,0.336012,0.293827,0.100294,-0.185719,0.08782,-1.07146,-6.2989,-1.72622,0.0344847,-0.0267188,421.849,0.652677,0.31906,0.392535,0.150075,0.103588,inf,inf,inf,inf,1,1,1,1,2,0,2,1,3,1,1,0
32649037,15979159,34.0348452,108.7564995,0.177103,0.919439,-0.396378,-0.0933915,-0.202356,0.0,0.092604,-0.890284,0.297828,0.261171,0.100294,-0.185719,0.08782,2.14838,-8.37384,-1.31355,0.0382381,-0.0267188,421.849,0.619943,0.309377,0.390024,0.14399,0.102146,inf,inf,inf,inf,1,1,1,1,2,0,2,1,3,1,1,0
32748381,15979159,34.0348452,108.7564995,0.192103,0.859842,-0.361579,-0.0933915,-0.202356,0.0,0.196572,-0.7571,0.258584,0.232226,0.100294,-0.185719,0.08782,0.417627,2.21986,-1.70165,0.0383599,-0.0267188,421.849,0.585145,0.318228,0.391725,0.149139,0.103483,inf,inf,inf,inf,1,1,1,1,2,0,2,1,3,1,1,0
32847868,15979159,34.0348452,108.7564995,0.212079,0.803025,-0.336239,-0.0933915,-0.202356,0.0,0.257626,-0.632953,0.196054,0.175004,0.100294,-0.185719,0.08782,0.933976,2.35025,1.0071,0.0297369,-0.0267188,421.849,0.559804,0.308618,0.389233,0.143004,0.102012,inf,inf,inf,inf,1,1,1,1,2,0,2,1,3,1,1,0
32952036,15979159,34.0348452,108.7564995,0.239613,0.754972,-0.31753,-0.0933915,-0.202356,0.0,0.425812,-0.427394,0.159804,0.140804,0.100294,-0.185719,0.08782,1.51603,-0.900261,-2.85712,0.0236597,-0.0267188,421.849,0.541096,0.317428,0.390922,0.147877,0.10327,inf,inf,inf,inf,1,1,1,1,2,0,2,1,3,1,1,0
33041445,15979159,34.0348452,108.7564995,0.279977,0.727939,-0.304012,-0.0933915,-0.202356,0.0,0.580719,-0.225763,0.1458,0.127979,0.100294,-0.185719,0.08782,1.837,8.88251,2.83081,0.0165515,-0.0267188,421.849,0.527578,0.307066,0.390212,0.141824,0.101904,inf,inf,inf,inf,1,1,1,1,2,0,2,1,3,1,1,0
33150723,15979159,34.0348452,108.7564995,0.350771,0.710402,-0.292686,-0.0933915,-0.202356,0.0,0.776315,-0.0145806,0.121288,0.102206,0.100294,-0.185719,0.08782,1.88629,2.57186,0.986966,0.018305,-0.0267188,421.849,0.516252,0.316686,0.392586,0.147428,0.103311,inf,inf,inf,inf,1,1,1,1,2,0,2,1,3,1,1,0
33250074,15979159,34.0348452,108.7564995,0.437397,0.714235,-0.285142,-0.0933915,-0.202356,0.0,0.928544,0.138478,0.10686,0.0858392,0.100294,-0.185719,0.08782,1.47082,2.74765,1.32944,0.0242687,-0.0267188,421.849,0.508708,0.307206,0.390094,0.142101,0.101846,inf,inf,inf,inf,1,1,1,1,2,0,2,1,3,1,1,0
33349411,15979159,34.0348452,108.7564995,0.544757,0.731857,-0.279341,-0.0933915,-0.202356,0.0,1.04587,0.229111,0.0871447,0.0643822,0.100294,-0.185719,0.08782,2.55616,-4.60236,1.07715,0.0298445,-0.0267188,421.849,0.502906,0.315936,0.391801,0.14762,0.103098,inf,inf,inf,inf,1,1,1,1,2,0,2,1,3,1,1,0
33443788,15979159,34.0348452,108.7564995,0.654323,0.757673,-0.275595,-0.0933915,-0.202356,0.0,1.13615,0.324432,0.0456316,0.0220366,0.100294,-0.185719,0.08782,0.917575,-1.60581,0.0370585,0.0304235,-0.0267188,421.849,0.499161,0.305704,0.388678,0.14195,0.101501,inf,inf,inf,inf,1,1,1,1,2,0,2,1,3,1,1,0
33543148,15979159,34.0348452,108.7564995,0.773532,0.789547,-0.276848,-0.0933915,-0.202356,0.0,1.14826,0.324217,-0.021545,-0.0458462,0.100294,-0.185719,0.08782,0.622284,-9.18119,-2.24296,0.029647,-0.0267188,421.849,0.500413,0.314345,0.39035,0.147406,0.102782,inf,inf,inf,inf,1,1,1,1,2,0,2,1,3,1,1,0
33652529,15979159,34.0348452,108.7564995,0.906653,0.827458,-0.28737,-0.0933915,-0.202356,0.0,1.16161,0.370983,-0.094077,-0.120012,0.100294,-0.185719,0.08782,0.678134,-3.1177,1.42886,0.0302688,-0.0267188,421.849,0.510936,0.305862,0.38856,0.142948,0.101576,inf,inf,inf,inf,1,1,1,1,2,0,2,1,3,1,1,0
33741820,15979159,34.0348452,108.7564995,1.01775,0.860358,-0.300281,-0.0933915,-0.202356,0.0,1.14258,0.381268,-0.169492,-0.194175,0.100294,-0.185719,0.08782,-0.610737,0.382038,0.797607,0.0298971,-0.0267188,421.849,0.523847,0.313651,0.392027,0.147794,0.102945,inf,inf,inf,inf,1,1,1,1,2,0,2,1,3,1,1,0
33851100,15979159,34.0348452,108.7564995,1.14799,0.900426,-0.327804,-0.0933915,-0.202356,0.0,1.10573,0.382754,-0.265859,-0.29159,0.100294,-0.185719,0.08782,-0.458636,2.58155,0.806336,0.0290437,-0.0267188,421.849,0.55137,0.305179,0.387807,0.143074,0.10147,inf,inf,inf,inf,1,1,1,1,2,0,2,1,3,1,1,0
33945475,15979159,34.0348452,108.7564995,1.25522,0.935472,-0.361259,-0.0933915,-0.202356,0.0,1.07195,0.379981,-0.345202,-0.373513,0.100294,-0.185719,0.08782,1.04345,-4.37276,-0.901327,0.0280516,-0.0267188,421.849,0.584825,0.31296,0.39126,0.148061,0.102835,inf,inf,inf,inf,1,1,1,1,2,0,2,1,3,1,1,0
34044820,15979159,34.0348452,108.7564995,1.36444,0.971591,-0.406154,-0.0933915,-0.202356,0.0,1.04885,0.350343,-0.40872,-0.442129,0.100294,-0.185719,0.08782,1.18095,-6.63322,0.700013,0.0256708,-0.0267188,421.849,0.62972,0.303662,0.388809,0.142848,0.101441,inf,inf,inf,inf,1,1,1,1,2,0,2,1,3,1,1,0
34144164,15979159,34.0348452,108.7564995,1.47261,1.00206,-0.462673,-0.0933915,-0.202356,0.0,1.04385,0.342421,-0.461399,-0.504643,0.100294,-0.185719,0.08782,-0.0799108,-1.08543,1.27917,0.0233252,-0.0267188,421.849,0.686239,0.312274,0.390498,0.148753,0.102729,inf,inf,inf,inf,1,1,1,1,2,0,2,1,3,1,1,0
34243506,15979159,34.0348452,108.7564995,1.58176,1.02767,-0.52273,-0.0933915,-0.202356,0.0,1.02595,0.260105,-0.518534,-0.56869,0.100294,-0.185719,0.08782,0.341363,-1.37167,-1.18438,0.0207673,-0.0267188,421.849,0.746296,0.302981,0.388071,0.143391,0.101339,inf,inf,inf,inf,1,1,1,1,2,0,2,1,3,1,1,0
34352785,15979159,34.0348452,108.7564995,1.70963,1.04355,-0.59583,-0.0933915,-0.202356,0.0,1.02075,0.0992559,-0.527862,-0.587277,0.100294,-0.185719,0.08782,0.750337,-11.4847,1.96223,0.0131626,-0.0267188,421.849,0.819395,0.312486,0.390417,0.149507,0.102807,inf,inf,inf,inf,1,1,1,1,2,0,2,1,3,1,1,0
34442244,15979159,34.0348452,108.7564995,1.81004,1.04694,-0.655157,-0.0933915,-0.202356,0.0,1.03047,0.0346535,-0.496622,-0.563752,0.100294,-0.185719,0.08782,0.0273423,-5.26614,-0.420145,0.0129783,-0.0267188,421.849,0.878722,0.302306,0.387345,0.143503,0.101257,inf,inf,inf,inf,1,1,1,1,2,0,2,1,3,1,1,0
34551473,15979159,34.0348452,108.7564995,1.92385,1.03595,-0.729397,-0.0933915,-0.202356,0.0,0.987786,-0.0574146,-0.446057,-0.527809,0.100294,-0.185719,0.08782,-0.342111,7.41946,0.981214,0.0198649,-0.0267188,421.849,0.952962,0.311804,0.389671,0.149197,0.10269,inf,inf,inf,inf,1,1,1,1,2,0,2,1,3,1,1,0
34640885,15979159,34.0348452,108.7564995,2.01533,1.02223,-0.784239,-0.0933915,-0.202356,0.0,0.952417,-0.159661,-0.413924,-0.504167,0.100294,-0.185719,0.08782,-0.695619,-10.6005,-1.45402,0.0209562,-0.0267188,421.849,1.0078,0.301639,0.389006,0.142884,0.101358,inf,inf,inf,inf,1,1,1,1,2,0,2,1,3,1,1,0
34750160,15979159,34.0348452,108.7564995,2.13392,1.00877,-0.847498,-0.0933915,-0.202356,0.0,0.921918,-0.18031,-0.384832,-0.483683,0.100294,-0.185719,0.08782,-0.444893,-2.23037,1.92731,0.0249065,-0.0267188,421.849,1.07106,0.311118,0.391361,0.148398,0.102819,inf,inf,inf,inf,1,1,1,1,2,0,2,1,3,1,1,0
34849505,15979159,34.0348452,108.7564995,2.23362,0.997761,-0.905088,-0.0933915,-0.202356,0.0,0.874499,-0.143857,-0.377382,-0.484692,0.100294,-0.185719,0.08782,-1.07786,4.15251,-0.91776,0.0267297,-0.0267188,421.849,1.12865,0.301798,0.38892,0.142712,0.101439,inf,inf,inf,inf,1,1,1,1,2,0,2,1,3,1,1,0
34948849,15979159,34.0348452,108.7564995,2.32631,0.992944,-0.963266,-0.0933915,-0.202356,0.0,0.843608,-0.134189,-0.33839,-0.455548,0.100294,-0.185719,0.08782,0.572896,-2.4455,2.82459,0.0280298,-0.0267188,421.849,1.18683,0.310431,0.390617,0.147901,0.102726,inf,inf,inf,inf,1,1,1,1,2,0,2,1,3,1,1,0
35048194,15979159,34.0348452,108.7564995,2.41701,0.988314,-1.01023,-0.0933915,-0.202356,0.0,0.797219,-0.118887,-0.272458,-0.392499,0.100294,-0.185719,0.08782,-0.181889,-10.272,-1.12568,0.0306961,-0.0267188,421.849,1.2338,0.30109,0.388191,0.142494,0.101352,inf,inf,inf,inf,1,1,1,1,2,0,2,1,3,1,1,0
35147538,15979159,34.0348452,108.7564995,2.50953,0.98544,-1.04014,-0.0933915,-0.202356,0.0,0.773156,-0.0651355,-0.157765,-0.273267,0.100294,-0.185719,0.08782,-0.33233,-2.46214,-0.47893,0.0334975,-0.0267188,421.849,1.26371,0.309715,0.389868,0.147478,0.102629,inf,inf,inf,inf,1,1,1,1,2,0,2,1,3,1,1,0
35246914,15979159,34.0348452,108.7564995,2.59709,0.985864,-1.05576,-0.0933915,-0.202356,0.0,0.744955,-0.0348698,-0.00378184,-0.113899,0.100294,-0.185719,0.08782,-1.24276,1.62519,0.0423756,0.0344194,-0.0267188,421.849,1.27932,0.300392,0.387457,0.141613,0.101257,inf,inf,inf,inf,1,1,1,1,2,0,2,1,3,1,1,0
35341261,15979159,34.0348452,108.7564995,2.67603,0.99222,-1.05,-0.0933915,-0.202356,0.0,0.720031,0.0209734,0.165353,0.0637607,0.100294,-0.185719,0.08782,-0.0469795,3.2042,2.33256,0.0361457,-0.0267188,421.849,1.27356,0.308111,0.390899,0.145778,0.102614,inf,inf,inf,inf,1,1,1,1,2,0,2,1,3,1,1,0
35450538,15979159,34.0348452,108.7564995,2.76423,1.00215,-1.02623,-0.0933915,-0.202356,0.0,0.689842,0.0586127,0.289438,0.196896,0.100294,-0.185719,0.08782,-1.365,8.63228,-0.0137403,0.0361803,-0.0267188,421.849,1.2498,0.299595,0.389112,0.139978,0.101399,inf,inf,inf,inf,1,1,1,1,2,0,2,1,3,1,1,0
35540095,15979159,34.0348452,108.7564995,2.83866,1.01396,-0.998299,-0.0933915,-0.202356,0.0,0.671044,0.0471035,0.261849,0.180032,0.100294,-0.185719,0.08782,0.046447,-10.2779,-2.5448,0.0354456,-0.0267188,421.849,1.22187,0.307277,0.390155,0.144085,0.102504,inf,inf,inf,inf,1,1,1,1,2,0,2,1,3,1,1,0
35649223,15979159,34.0348452,108.7564995,2.92307,1.03113,-0.977207,-0.0933915,-0.202356,0.0,0.637159,0.112871,0.172239,0.0963481,0.100294,-0.185719,0.08782,-0.736677,0.510549,-2.04916,0.0366941,-0.0267188,421.849,1.20077,0.298864,0.388395,0.139318,0.101314,inf,inf,inf,inf,1,1,1,1,2,0,2,1,3,1,1,0
35748571,15979159,34.0348452,108.7564995,2.99571,1.05258,-0.972437,-0.0933915,-0.202356,0.0,0.617593,0.152164,0.0819576,0.00540206,0.100294,-0.185719,0.08782,-0.647545,0.0176368,-2.71245,0.0377729,-0.0267188,421.849,1.196,0.307422,0.390085,0.145174,0.102603,inf,inf,inf,inf,1,1,1,1,2,0,2,1,3,1,1,0
35842986,15979159,34.0348452,108.7564995,3.05905,1.07362,-0.975849,-0.0933915,-0.202356,0.0,0.583312,0.188056,0.00215772,-0.0747811,0.100294,-0.185719,0.08782,-0.711428,2.84394,0.506613,0.0419038,-0.0267188,421.849,1.19941,0.29729,0.387038,0.140298,0.10106,inf,inf,inf,inf,1,1,1,1,2,0,2,1,3,1,1,0
35952223,15979159,34.0348452,108.7564995,3.12808,1.10275,-0.984768,-0.0933915,-0.202356,0.0,0.560696,0.219738,-0.0775584,-0.150236,0.100294,-0.185719,0.08782,-1.48534,4.96694,-2.08346,0.0481531,-0.0267188,421.849,1.20833,0.306713,0.389352,0.147112,0.102527,inf,inf,inf,inf,1,1,1,1,2,0,2,1,3,1,1,0
36041671,15979159,34.0348452,108.7564995,3.18218,1.12685,-0.993461,-0.0933915,-0.202356,0.0,0.534396,0.217086,-0.0673179,-0.135311,0.100294,-0.185719,0.08782,0.00240852,-2.06886,0.432115,0.0533929,-0.0267188,421.849,1.21703,0.296584,0.388711,0.142392,0.101248,inf,inf,inf,inf,1,1,1,1,2,0,2,1,3,1,1,0
36145943,15979159,34.0348452,108.7564995,3.24582,1.15814,-0.99694,-0.0933915,-0.202356,0.0,0.525289,0.219634,-0.00854993,-0.0689591,0.100294,-0.185719,0.08782,-0.522735,-0.117935,2.29146,0.0577548,-0.0267188,421.849,1.22051,0.305168,0.390408,0.148391,0.102529,inf,inf,inf,inf,1,1,1,1,2,0,2,1,3,1,1,0
36245288,15979159,34.0348452,108.7564995,3.30425,1.18776,-0.993034,-0.0933915,-0.202356,0.0,0.500436,0.266561,0.0589293,0.0058521,0.100294,-0.185719,0.08782,-1.23557,4.21618,0.662364,0.0586523,-0.0267188,421.849,1.2166,0.295926,0.388007,0.142837,0.101157,inf,inf,inf,inf,1,1,1,1,2,0,2,1,3,1,1,0
36344765,15979159,34.0348452,108.7564995,3.36616,1.21709,-0.981516,-0.0933915,-0.202356,0.0,0.528544,0.248872,0.131275,0.0854649,0.100294,-0.185719,0.08782,-0.429712,3.19115,2.03173,0.0573113,-0.0267188,421.849,1.20508,0.304532,0.389701,0.148331,0.102439,inf,inf,inf,inf,1,1,1,1,2,0,2,1,3,1,1,0
36443981,15979159,34.0348452,108.7564995,3.43132,1.2463,-0.9637,-0.0933915,-0.202356,0.0,0.587311,0.284847,0.174696,0.135763,0.100294,-0.185719,0.08782,0.639859,7.52527,2.04143,0.055132,-0.0267188,421.849,1.18727,0.295311,0.387321,0.142483,0.101059,inf,inf,inf,inf,1,1,1,1,2,0,2,1,3,1,1,0
36543319,15979159,34.0348452,108.7564995,3.5073,1.28026,-0.939619,-0.0933915,-0.202356,0.0,0.667681,0.28063,0.185724,0.155759,0.100294,-0.185719,0.08782,1.39117,-1.59913,-1.95021,0.0502623,-0.0267188,421.849,1.16318,0.303919,0.389004,0.147504,0.102307,inf,inf,inf,inf,1,1,1,1,2,0,2,1,3,1,1,0
36642664,15979159,34.0348452,108.7564995,3.59182,1.31511,-0.91814,-0.0933915,-0.202356,0.0,0.78172,0.290663,0.214314,0.188608,0.100294,-0.185719,0.08782,1.24074,-2.34107,1.9216,0.0455521,-0.0267188,421.849,1.14171,0.294686,0.386636,0.141967,0.100926,inf,inf,inf,inf,1,1,1,1,2,0,2,1,3,1,1,0
36742007,15979159,34.0348452,108.7564995,3.6927,1.35653,-0.896916,-0.0933915,-0.202356,0.0,0.842084,0.342118,0.247923,0.222648,0.100294,-0.185719,0.08782,-0.476079,1.52861,-2.13025,0.0402228,-0.0267188,421.849,1.12048,0.303304,0.39072,0.147389,0.102452,inf,inf,inf,inf,1,1,1,1,2,0,2,1,3,1,1,0
36851323,15979159,34.0348452,108.7564995,3.80629,1.40075,-0.869042,-0.0933915,-0.202356,0.0,0.922875,0.358868,0.315905,0.289515,0.100294,-0.185719,0.08782,0.260344,10.1661,1.421,0.0361036,-0.0267188,421.849,1.09261,0.294895,0.388972,0.14243,0.101251,inf,inf,inf,inf,1,1,1,1,2,0,2,1,3,1,1,0
36940695,15979159,34.0348452,108.7564995,3.90441,1.42932,-0.846259,-0.0933915,-0.202356,0.0,0.964746,0.232505,0.336521,0.305602,0.100294,-0.185719,0.08782,-0.126915,0.628077,-1.77158,0.0339947,-0.0267188,421.849,1.06982,0.30269,0.390019,0.147088,0.102356,inf,inf,inf,inf,1,1,1,1,2,0,2,1,3,1,1,0
37049974,15979159,34.0348452,108.7564995,4.01679,1.4529,-0.819526,-0.0933915,-0.202356,0.0,0.939725,0.14741,0.364539,0.325217,0.100294,-0.185719,0.08782,0.516373,-0.177266,1.39564,0.0309658,-0.0267188,421.849,1.04309,0.2943,0.388282,0.142088,0.101126,inf,inf,inf,inf,1,1,1,1,2,0,2,1,3,1,1,0
37149501,15979159,34.0348452,108.7564995,4.10957,1.46143,-0.798449,-0.0933915,-0.202356,0.0,0.92721,-0.010804,0.435057,0.381996,0.100294,-0.185719,0.08782,-0.0352727,-2.8397,3.2789,0.0299216,-0.0267188,421.849,1.02201,0.302998,0.389974,0.147401,0.102393,inf,inf,inf,inf,1,1,1,1,2,0,2,1,3,1,1,0
37248661,15979159,34.0348452,108.7564995,4.19862,1.45337,-0.772239,-0.0933915,-0.202356,0.0,0.883626,-0.146841,0.473905,0.407387,0.100294,-0.185719,0.08782,0.358541,-3.39164,0.115377,0.0270313,-0.0267188,421.849,0.995804,0.293694,0.387585,0.14197,0.10101,inf,inf,inf,inf,1,1,1,1,2,0,2,1,3,1,1,0
37348005,15979159,34.0348452,108.7564995,4.28357,1.43838,-0.74178,-0.0933915,-0.202356,0.0,0.869534,-0.258372,0.522959,0.444441,0.100294,-0.185719,0.08782,-0.20053,-6.76717,-1.74473,0.0222561,-0.0267188,421.849,0.965346,0.302398,0.389265,0.146976,0.102251,inf,inf,inf,inf,1,1,1,1,2,0,2,1,3,1,1,0
37447349,15979159,34.0348452,108.7564995,4.36522,1.41143,-0.707237,-0.0933915,-0.202356,0.0,0.818198,-0.331782,0.518062,0.430952,0.100294,-0.185719,0.08782,0.110936,4.2738,-0.326891,0.0238507,-0.0267188,421.849,0.930803,0.293006,0.386884,0.141479,0.100868,inf,inf,inf,inf,1,1,1,1,2,0,2,1,3,1,1,0
37546694,15979159,34.0348452,108.7564995,4.4417,1.38519,-0.673116,-0.0933915,-0.202356,0.0,0.826751,-0.315944,0.496424,0.402709,0.100294,-0.185719,0.08782,2.45634,-6.76649,-1.22186,0.0244543,-0.0267188,421.849,0.896681,0.301704,0.390967,0.146878,0.102385,inf,inf,inf,inf,1,1,1,1,2,0,2,1,3,1,1,0
37646038,15979159,34.0348452,108.7564995,4.52053,1.36265,-0.64321,-0.0933915,-0.202356,0.0,0.840412,-0.319006,0.454853,0.353645,0.100294,-0.185719,0.08782,0.154498,-10.5754,-1.80695,0.0225402,-0.0267188,421.849,0.866776,0.292276,0.388561,0.141776,0.101035,inf,inf,inf,inf,1,1,1,1,2,0,2,1,3,1,1,0
37750349,15979159,34.0348452,108.7564995,4.599,1.34215,-0.623014,-0.0933915,-0.202356,0.0,0.853012,-0.234127,0.416628,0.302018,0.100294,-0.185719,0.08782,0.660392,-1.30789,1.90644,0.0235368,-0.0267188,421.849,0.84658,0.300991,0.390248,0.147401,0.102267,inf,inf,inf,inf,1,1,1,1,2,0,2,1,3,1,1,0
37849692,15979159,34.0348452,108.7564995,4.68471,1.33417,-0.6062,-0.0933915,-0.202356,0.0,0.941098,-0.154523,0.391303,0.266231,0.100294,-0.185719,0.08782,-0.16025,3.56832,-0.980442,0.024268,-0.0267188,421.849,0.829766,0.291666,0.387861,0.142594,0.100931,inf,inf,inf,inf,1,1,1,1,2,0,2,1,3,1,1,0
37949125,15979159,34.0348452,108.7564995,4.78579,1.34177,-0.592388,-0.0933915,-0.202356,0.0,1.0402,-0.103623,0.360235,0.225594,0.100294,-0.185719,0.08782,2.10402,-0.382847,-2.69185,0.023985,-0.0267188,421.849,0.815954,0.300432,0.389546,0.148658,0.102185,inf,inf,inf,inf,1,1,1,1,2,0,2,1,3,1,1,0
38043448,15979159,34.0348452,108.7564995,4.89142,1.35019,-0.577326,-0.0933915,-0.202356,0.0,1.14914,-0.0154012,0.34479,0.205284,0.100294,-0.185719,0.08782,1.36349,9.45521,1.63851,0.0257203,-0.0267188,421.849,0.800892,0.290169,0.386526,0.142726,0.100623,inf,inf,inf,inf,1,1,1,1,2,0,2,1,3,1,1,0
38142757,15979159,34.0348452,108.7564995,5.02209,1.36424,-0.560558,-0.0933915,-0.202356,0.0,1.26197,0.0103532,0.307658,0.168263,0.100294,-0.185719,0.08782,0.402521,1.51188,0.629787,0.0304271,-0.0267188,421.849,0.784124,0.298902,0.390596,0.148521,0.102127,inf,inf,inf,inf,1,1,1,1,2,0,2,1,3,1,1,0
38242101,15979159,34.0348452,108.7564995,5.1586,1.37904,-0.546391,-0.0933915,-0.202356,0.0,1.35922,0.0697477,0.274571,0.135689,0.100294,-0.185719,0.08782,0.239036,2.80778,-2.71124,0.0356949,-0.0267188,421.849,0.769956,0.289606,0.388197,0.143546,0.100747,inf,inf,inf,inf,1,1,1,1,2,0,2,1,3,1,1,0
38341445,15979159,34.0348452,108.7564995,5.29373,1.39206,-0.538464,-0.0933915,-0.202356,0.0,1.38673,0.0820871,0.235536,0.0938916,0.100294,-0.185719,0.08782,0.400439,-5.92829,-2.20774,0.0413586,-0.0267188,421.849,0.76203,0.298384,0.389867,0.149483,0.102007,inf,inf,inf,inf,1,1,1,1,2,0,2,1,3,1,1,0
38450752,15979159,34.0348452,108.7564995,5.44505,1.40819,-0.531437,-0.0933915,-0.202356,0.0,1.42826,0.137466,0.195958,0.0550141,0.100294,-0.185719,0.08782,-0.142127,4.55608,1.9664,0.0460502,-0.0267188,421.849,0.755003,0.289933,0.388124,0.144739,0.100826,inf,inf,inf,inf,1,1,1,1,2,0,2,1,3,1,1,0
38550067,15979159,34.0348452,108.7564995,5.58006,1.42379,-0.52352,-0.0933915,-0.202356,0.0,1.39452,0.151554,0.141024,0.00668481,0.100294,-0.185719,0.08782,-0.399136,6.05066,-2.09296,0.0471159,-0.0267188,421.849,0.747086,0.298815,0.389787,0.150625,0.102085,inf,inf,inf,inf,1,1,1,1,2,0,2,1,3,1,1,0
38649412,15979159,34.0348452,108.7564995,5.7163,1.43821,-0.516879,-0.0933915,-0.202356,0.0,1.36558,0.129169,0.0990363,-0.0266683,0.100294,-0.185719,0.08782,1.02237,-6.71398,-1.55232,0.0443492,-0.0267188,421.849,0.740445,0.289436,0.387387,0.145155,0.100727,inf,inf,inf,inf,1,1,1,1,2,0,2,1,3,1,1,0
38748825,15979159,34.0348452,108.7564995,5.85708,1.45043,-0.512993,-0.0933915,-0.202356,0.0,1.34133,0.146724,0.0578239,-0.0589644,0.100294,-0.185719,0.08782,0.358449,-2.38239,1.28303,0.0406228,-0.0267188,421.849,0.736559,0.298358,0.391458,0.151104,0.102245,inf,inf,inf,inf,1,1,1,1,2,0,2,1,3,1,1,0
38848099,15979159,34.0348452,108.7564995,5.99515,1.46404,-0.51923,-0.0933915,-0.202356,0.0,1.30651,0.143577,-0.028501,-0.140592,0.100294,-0.185719,0.08782,-0.30727,-6.86507,0.727244,0.0359243,-0.0267188,421.849,0.742796,0.288991,0.389028,0.145449,0.100883,inf,inf,inf,inf,1,1,1,1,2,0,2,1,3,1,1,0
38947443,15979159,34.0348452,108.7564995,6.13275,1.47873,-0.53359,-0.0933915,-0.202356,0.0,1.28515,0.122864,-0.147668,-0.254086,0.100294,-0.185719,0.08782,0.132639,-9.36934,-2.1878,0.0316019,-0.0267188,421.849,0.757155,0.29795,0.390686,0.151437,0.102147,inf,inf,inf,inf,1,1,1,1,2,0,2,1,3,1,1,0
39046791,15979159,34.0348452,108.7564995,6.26852,1.494,-0.557947,-0.0933915,-0.202356,0.0,1.26786,0.164357,-0.270986,-0.371153,0.100294,-0.185719,0.08782,-0.349958,-1.71818,-4.13729,0.0294845,-0.0267188,421.849,0.781512,0.288552,0.388272,0.146158,0.100794,inf,inf,inf,inf,1,1,1,1,2,0,2,1,3,1,1,0
39146132,15979159,34.0348452,108.7564995,6.40381,1.50866,-0.591996,-0.0933915,-0.202356,0.0,1.24227,0.151871,-0.376169,-0.468537,0.100294,-0.185719,0.08782,0.835023,9.49998,0.151803,0.0289205,-0.0267188,421.849,0.815562,0.297569,0.38992,0.152724,0.102051,inf,inf,inf,inf,1,1,1,1,2,0,2,1,3,1,1,0
39245476,15979159,34.0348452,108.7564995,6.53627,1.51898,-0.633289,-0.0933915,-0.202356,0.0,1.23152,0.106633,-0.471548,-0.55369,0.100294,-0.185719,0.08782,-0.203579,5.93234,0.983591,0.0297022,-0.0267188,421.849,0.856855,0.288128,0.387523,0.147327,0.100702,inf,inf,inf,inf,1,1,1,1,2,0,2,1,3,1,1,0
39349787,15979159,34.0348452,108.7564995,6.67268,1.52351,-0.68408,-0.0933915,-0.202356,0.0,1.20926,0.00779716,-0.566868,-0.637639,0.100294,-0.185719,0.08782,0.0410685,-1.81824,-2.14491,0.0319674,-0.0267188,421.849,0.907646,0.297206,0.391597,0.153717,0.102221,inf,inf,inf,inf,1,1,1,1,2,0,2,1,3,1,1,0
39449132,15979159,34.0348452,108.7564995,6.79983,1.51686,-0.739248,-0.0933915,-0.202356,0.0,1.18436,-0.100932,-0.640067,-0.699856,0.100294,-0.185719,0.08782,-0.65836,-1.99251,-2.58686,0.0337552,-0.0267188,421.849,0.962813,0.287642,0.389156,0.147817,0.100849,inf,inf,inf,inf,1,1,1,1,2,0,2,1,3,1,1,0
39548499,15979159,34.0348452,108.7564995,6.92903,1.49889,-0.796256,-0.0933915,-0.202356,0.0,1.16531,-0.0961896,-0.665751,-0.711569,0.100294,-0.185719,0.08782,-0.0964051,7.02195,2.57793,0.0336469,-0.0267188,421.849,1.01982,0.29676,0.390798,0.154485,0.102113,inf,inf,inf,inf,1,1,1,1,2,0,2,1,3,1,1,0
39647819,15979159,34.0348452,108.7564995,7.05308,1.47621,-0.855997,-0.0933915,-0.202356,0.0,1.14197,-0.225254,-0.651751,-0.687744,0.100294,-0.185719,0.08782,-0.724252,-1.56987,-0.772188,0.0347067,-0.0267188,421.849,1.07956,0.287239,0.388373,0.148385,0.100748,inf,inf,inf,inf,1,1,1,1,2,0,2,1,3,1,1,0
39747164,15979159,34.0348452,108.7564995,7.17047,1.44776,-0.916441,-0.0933915,-0.202356,0.0,1.10983,-0.246017,-0.597424,-0.629123,0.100294,-0.185719,0.08782,0.620414,-1.29897,-0.0646209,0.0343249,-0.0267188,421.849,1.14001,0.296386,0.390013,0.153922,0.101995,inf,inf,inf,inf,1,1,1,1,2,0,2,1,3,1,1,0
39846699,15979159,34.0348452,108.7564995,7.28688,1.42291,-0.974419,-0.0933915,-0.202356,0.0,1.08532,-0.224117,-0.558921,-0.58858,0.100294,-0.185719,0.08782,-0.278984,2.21226,-0.492375,0.0364684,-0.0267188,421.849,1.19798,0.286871,0.387605,0.147082,0.100655,inf,inf,inf,inf,1,1,1,1,2,0,2,1,3,1,1,0
39950818,15979159,34.0348452,108.7564995,7.41047,1.40132,-1.03129,-0.0933915,-0.202356,0.0,1.05928,-0.232504,-0.503187,-0.532116,0.100294,-0.185719,0.08782,-1.11681,-0.592482,-1.14756,0.0369938,-0.0267188,421.849,1.25486,0.295991,0.391672,0.151966,0.102173,inf,inf,inf,inf,1,1,1,1,2,0,2,1,3,1,1,0
40050170,15979159,34.0348452,108.7564995,7.52405,1.38132,-1.07708,-0.0933915,-0.202356,0.0,1.07927,-0.230066,-0.446789,-0.472233,0.100294,-0.185719,0.08782,0.12947,-4.46057,-1.95597,0.037684,-0.0267188,421.849,1.30065,0.286473,0.389244,0.145582,0.100815,inf,inf,inf,inf,1,1,1,1,2,0,2,1,3,1,1,0
40149507,15979159,34.0348452,108.7564995,7.63798,1.36273,-1.11335,-0.0933915,-0.202356,0.0,1.1109,-0.17817,-0.39186,-0.410193,0.100294,-0.185719,0.08782,-0.665794,2.86273,0.227411,0.0382474,-0.0267188,421.849,1.33691,0.295565,0.390902,0.150405,0.102077,inf,inf,inf,inf,1,1,1,1,2,0,2,1,3,1,1,0
40248853,15979159,34.0348452,108.7564995,7.7551,1.34817,-1.14386,-0.0933915,-0.202356,0.0,1.15742,-0.160263,-0.325264,-0.337213,0.100294,-0.185719,0.08782,1.29852,-3.27893,2.30698,0.0345915,-0.0267188,421.849,1.36743,0.285983,0.388484,0.143765,0.100694,inf,inf,inf,inf,1,1,1,1,2,0,2,1,3,1,1,0
40348254,15979159,34.0348452,108.7564995,7.88257,1.33596,-1.16394,-0.0933915,-0.202356,0.0,1.24283,-0.117743,-0.268808,-0.270857,0.100294,-0.185719,0.08782,1.35154,-1.2079,-1.25976,0.0349188,-0.0267188,421.849,1.38751,0.295021,0.390115,0.148535,0.101941,inf,inf,inf,inf,1,1,1,1,2,0,2,1,3,1,1,0
40442570,15979159,34.0348452,108.7564995,8.01081,1.32959,-1.17925,-0.0933915,-0.202356,0.0,1.3438,-0.107133,-0.209705,-0.205637,0.100294,-0.185719,0.08782,1.30594,-10.4156,-2.19667,0.0337369,-0.0267188,421.849,1.40281,0.28467,0.389462,0.141684,0.100667,inf,inf,inf,inf,1,1,1,1,2,0,2,1,3,1,1,0
40541914,15979159,34.0348452,108.7564995,8.15727,1.33122,-1.18776,-0.0933915,-0.202356,0.0,1.43067,-0.0286404,-0.151518,-0.139959,0.100294,-0.185719,0.08782,0.843553,8.47315,1.61906,0.0339402,-0.0267188,421.849,1.41132,0.293607,0.3911,0.146468,0.101918,inf,inf,inf,inf,1,1,1,1,2,0,2,1,3,1,1,0
40651346,15979159,34.0348452,108.7564995,8.32822,1.33525,-1.19849,-0.0933915,-0.202356,0.0,1.52978,-0.0126138,-0.0969635,-0.0851225,0.100294,-0.185719,0.08782,0.597712,-4.40411,1.9668,0.0307672,-0.0267188,421.849,1.42206,0.285066,0.389324,0.141067,0.100724,inf,inf,inf,inf,1,1,1,1,2,0,2,1,3,1,1,0
40750537,15979159,34.0348452,108.7564995,8.49112,1.33917,-1.21181,-0.0933915,-0.202356,0.0,1.55419,0.000515027,-0.0831887,-0.0778619,0.100294,-0.185719,0.08782,-1.00628,4.79347,-1.10304,0.0284675,-0.0267188,421.849,1.43538,0.294032,0.390973,0.145975,0.101972,inf,inf,inf,inf,1,1,1,1,2,0,2,1,3,1,1,0
40849883,15979159,34.0348452,108.7564995,8.65384,1.34348,-1.22303,-0.0933915,-0.202356,0.0,1.57176,0.00855209,-0.0274008,-0.0291826,0.100294,-0.185719,0.08782,0.0263241,1.51899,1.81831,0.0241528,-0.0267188,421.849,1.4466,0.284557,0.388566,0.140058,0.100624,inf,inf,inf,inf,1,1,1,1,2,0,2,1,3,1,1,0
40944264,15979159,34.0348452,108.7564995,8.80958,1.34887,-1.22802,-0.0933915,-0.202356,0.0,1.57395,-0.0217538,0.0387559,0.0309361,0.100294,-0.185719,0.08782,-0.126894,-5.79376,-0.495873,0.0224534,-0.0267188,421.849,1.45158,0.292574,0.389553,0.144559,0.101714,inf,inf,inf,inf,1,1,1,1,2,0,2,1,3,1,1,0
41043602,15979159,34.0348452,108.7564995,8.96764,1.35288,-1.22719,-0.0933915,-0.202356,0.0,1.52101,-0.021839,0.14136,0.125245,0.100294,-0.185719,0.08782,0.903525,-3.67723,1.03638,0.0234113,-0.0267188,421.849,1.45075,0.283185,0.387168,0.138683,0.100362,inf,inf,inf,inf,1,1,1,1,2,0,2,1,3,1,1,0
41142999,15979159,34.0348452,108.7564995,9.11307,1.3582,-1.2203,-0.0933915,-0.202356,0.0,1.46802,-0.00582333,0.243912,0.217343,0.100294,-0.185719,0.08782,0.271778,-2.10496,3.62187,0.0222608,-0.0267188,421.849,1.44387,0.29203,0.388784,0.143385,0.101606,inf,inf,inf,inf,1,1,1,1,2,0,2,1,3,1,1,0
41242290,15979159,34.0348452,108.7564995,9.25289,1.36186,-1.20946,-0.0933915,-0.202356,0.0,1.4058,0.000974822,0.318775,0.278322,0.100294,-0.185719,0.08782,-0.254886,2.60299,3.81059,0.0216339,-0.0267188,421.849,1.43302,0.282674,0.388808,0.137444,0.100528,inf,inf,inf,inf,1,1,1,1,2,0,2,1,3,1,1,0
41351569,15979159,34.0348452,108.7564995,9.39894,1.36538,-1.19628,-0.0933915,-0.202356,0.0,1.3409,0.017192,0.364435,0.304862,0.100294,-0.185719,0.08782,0.188547,2.14992,3.14036,0.0200069,-0.0267188,421.849,1.41985,0.292381,0.391106,0.142291,0.101967,inf,inf,inf,inf,1,1,1,1,2,0,2,1,3,1,1,0
41441102,15979159,34.0348452,108.7564995,9.51486,1.36778,-1.18177,-0.0933915,-0.202356,0.0,1.28129,0.00524189,0.374828,0.302462,0.100294,-0.185719,0.08782,-0.862591,-2.21553,-2.31885,0.0191653,-0.0267188,421.849,1.40533,0.282144,0.38807,0.136351,0.100449,inf,inf,inf,inf,1,1,1,1,2,0,2,1,3,1,1,0
41550272,15979159,34.0348452,108.7564995,9.65477,1.37049,-1.16251,-0.0933915,-0.202356,0.0,1.22153,0.0374926,0.389904,0.303587,0.100294,-0.185719,0.08782,0.0484666,5.96598,1.81119,0.019865,-0.0267188,421.849,1.38607,0.291807,0.390359,0.141572,0.101887,inf,inf,inf,inf,1,1,1,1,2,0,2,1,3,1,1,0
41649601,15979159,34.0348452,108.7564995,9.77432,1.3748,-1.146,-0.0933915,-0.202356,0.0,1.15888,0.032238,0.353623,0.256203,0.100294,-0.185719,0.08782,-0.538662,-1.31498,-2.81482,0.0199507,-0.0267188,421.849,1.36957,0.282442,0.387968,0.136351,0.100554,inf,inf,inf,inf,1,1,1,1,2,0,2,1,3,1,1,0
41748944,15979159,34.0348452,108.7564995,9.88687,1.38198,-1.1329,-0.0933915,-0.202356,0.0,1.1017,0.0523414,0.325127,0.21769,0.100294,-0.185719,0.08782,-1.85836,4.96651,2.37188,0.0222228,-0.0267188,421.849,1.35646,0.29124,0.389601,0.141469,0.101815,inf,inf,inf,inf,1,1,1,1,2,0,2,1,3,1,1,0
41848288,15979159,34.0348452,108.7564995,9.99438,1.3893,-1.12217,-0.0933915,-0.202356,0.0,1.05559,0.0437307,0.28033,0.166032,0.100294,-0.185719,0.08782,-1.50346,2.41573,0.235136,0.0243899,-0.0267188,421.849,1.34574,0.281886,0.387225,0.13662,0.100482,inf,inf,inf,inf,1,1,1,1,2,0,2,1,3,1,1,0
41947632,15979159,34.0348452,108.7564995,10.1017,1.39773,-1.11033,-0.0933915,-0.202356,0.0,1.06524,0.0471822,0.250671,0.134271,0.100294,-0.185719,0.08782,1.56895,-2.31914,-0.620814,0.0270701,-0.0267188,421.849,1.33389,0.290695,0.391271,0.141825,0.101999,inf,inf,inf,inf,1,1,1,1,2,0,2,1,3,1,1,0
42046976,15979159,34.0348452,108.7564995,10.2092,1.40939,-1.1017,-0.0933915,-0.202356,0.0,1.05973,0.0828512,0.230254,0.110999,0.100294,-0.185719,0.08782,0.276695,7.79054,1.30833,0.0297078,-0.0267188,421.849,1.32526,0.281346,0.388851,0.137057,0.100646,inf,inf,inf,inf,1,1,1,1,2,0,2,1,3,1,1,0
42146320,15979159,34.0348452,108.7564995,10.3184,1.42814,-1.09752,-0.0933915,-0.202356,0.0,1.08957,0.0916134,0.176494,0.0539006,0.100294,-0.185719,0.08782,0.743686,5.25696,-0.943099,0.0324917,-0.0267188,421.849,1.32109,0.290169,0.390479,0.142122,0.101898,inf,inf,inf,inf,1,1,1,1,2,0,2,1,3,1,1,0
42245726,15979159,34.0348452,108.7564995,10.4336,1.44637,-1.09561,-0.0933915,-0.202356,0.0,1.16158,0.0926542,0.149183,0.0247282,0.100294,-0.185719,0.08782,0.537305,-0.0361214,-1.87838,0.0346157,-0.0267188,421.849,1.31918,0.280736,0.38807,0.137074,0.100549,inf,inf,inf,inf,1,1,1,1,2,0,2,1,3,1,1,0
42345008,15979159,34.0348452,108.7564995,10.5567,1.4686,-1.09493,-0.0933915,-0.202356,0.0,1.20569,0.117394,0.132617,0.00785034,0.100294,-0.185719,0.08782,0.604828,0.996804,1.28372,0.036152,-0.0267188,421.849,1.3185,0.28956,0.389689,0.142342,0.101795,inf,inf,inf,inf,1,1,1,1,2,0,2,1,3,1,1,0
42444354,15979159,34.0348452,108.7564995,10.6836,1.48834,-1.09565,-0.0933915,-0.202356,0.0,1.25576,0.145701,0.0977562,-0.0253988,0.100294,-0.185719,0.08782,0.528434,10.2694,1.53167,0.0389183,-0.0267188,421.849,1.31921,0.280181,0.387296,0.137152,0.100434,inf,inf,inf,inf,1,1,1,1,2,0,2,1,3,1,1,0
42548663,15979159,34.0348452,108.7564995,10.8241,1.50685,-1.09787,-0.0933915,-0.202356,0.0,1.30574,0.146081,0.0668603,-0.0536323,0.100294,-0.185719,0.08782,0.230188,-1.37079,1.94623,0.0419053,-0.0267188,421.849,1.32144,0.289005,0.391337,0.142278,0.101941,inf,inf,inf,inf,1,1,1,1,2,0,2,1,3,1,1,0
42648013,15979159,34.0348452,108.7564995,10.9595,1.52479,-1.10402,-0.0933915,-0.202356,0.0,1.31684,0.15699,0.0211986,-0.0968875,0.100294,-0.185719,0.08782,-0.364328,3.33125,0.526531,0.0445027,-0.0267188,421.849,1.32758,0.279635,0.388916,0.137198,0.100577,inf,inf,inf,inf,1,1,1,1,2,0,2,1,3,1,1,0
42747352,15979159,34.0348452,108.7564995,11.094,1.54411,-1.11279,-0.0933915,-0.202356,0.0,1.34264,0.131644,-0.0114203,-0.126521,0.100294,-0.185719,0.08782,0.47426,-12.3794,-2.06715,0.0450287,-0.0267188,421.849,1.33635,0.288465,0.390546,0.142675,0.101823,inf,inf,inf,inf,1,1,1,1,2,0,2,1,3,1,1,0
42841731,15979159,34.0348452,108.7564995,11.2228,1.56237,-1.12285,-0.0933915,-0.202356,0.0,1.3537,0.179102,-0.0479131,-0.159648,0.100294,-0.185719,0.08782,0.257149,2.34485,-2.30916,0.0457481,-0.0267188,421.849,1.34641,0.27825,0.387489,0.137048,0.100296,inf,inf,inf,inf,1,1,1,1,2,0,2,1,3,1,1,0
42951007,15979159,34.0348452,108.7564995,11.3742,1.5801,-1.13573,-0.0933915,-0.202356,0.0,1.34716,0.170663,-0.0741377,-0.179631,0.100294,-0.185719,0.08782,0.778988,-2.21994,-0.0852097,0.0442521,-0.0267188,421.849,1.3593,0.287942,0.389739,0.142726,0.101716,inf,inf,inf,inf,1,1,1,1,2,0,2,1,3,1,1,0
43040430,15979159,34.0348452,108.7564995,11.4978,1.59456,-1.14848,-0.0933915,-0.202356,0.0,1.36156,0.212838,-0.0822682,-0.182954,0.100294,-0.185719,0.08782,0.454946,8.38983,2.65552,0.0441216,-0.0267188,421.849,1.37205,0.277843,0.389105,0.137437,0.100452,inf,inf,inf,inf,1,1,1,1,2,0,2,1,3,1,1,0
43149695,15979159,34.0348452,108.7564995,11.6535,1.61423,-1.16179,-0.0933915,-0.202356,0.0,1.39905,0.192204,-0.0690146,-0.161828,0.100294,-0.185719,0.08782,-0.10485,0.0487496,-0.478092,0.0441673,-0.0267188,421.849,1.38536,0.287559,0.391395,0.143047,0.101892,inf,inf,inf,inf,1,1,1,1,2,0,2,1,3,1,1,0
43249042,15979159,34.0348452,108.7564995,11.7975,1.63299,-1.16846,-0.0933915,-0.202356,0.0,1.40375,0.205619,-0.00190434,-0.0880692,0.100294,-0.185719,0.08782,-0.879843,2.36595,0.462073,0.0446954,-0.0267188,421.849,1.39202,0.278309,0.388986,0.137789,0.100541,inf,inf,inf,inf,1,1,1,1,2,0,2,1,3,1,1,0
43348568,15979159,34.0348452,108.7564995,11.946,1.65464,-1.16585,-0.0933915,-0.202356,0.0,1.44687,0.225072,0.0792412,0.000770454,0.100294,-0.185719,0.08782,0.337989,9.01018,3.22884,0.0435206,-0.0267188,421.849,1.38942,0.287167,0.390618,0.142398,0.101796,inf,inf,inf,inf,1,1,1,1,2,0,2,1,3,1,1,0
43447727,15979159,34.0348452,108.7564995,12.0957,1.6758,-1.15517,-0.0933915,-0.202356,0.0,1.47272,0.195245,0.142315,0.0717442,0.100294,-0.185719,0.08782,1.07232,-6.14706,1.88831,0.0434164,-0.0267188,421.849,1.37874,0.277925,0.388218,0.136786,0.100465,inf,inf,inf,inf,1,1,1,1,2,0,2,1,3,1,1,0
43547073,15979159,34.0348452,108.7564995,12.2463,1.69725,-1.13767,-0.0933915,-0.202356,0.0,1.48127,0.211063,0.195405,0.132422,0.100294,-0.185719,0.08782,-1.01032,3.52346,-1.31915,0.0432739,-0.0267188,421.849,1.36123,0.286744,0.389842,0.141186,0.101712,inf,inf,inf,inf,1,1,1,1,2,0,2,1,3,1,1,0
43651383,15979159,34.0348452,108.7564995,12.4034,1.72036,-1.11266,-0.0933915,-0.202356,0.0,1.47584,0.213732,0.27896,0.222279,0.100294,-0.185719,0.08782,1.30716,-1.0425,2.02755,0.0411879,-0.0267188,421.849,1.33623,0.277544,0.389845,0.135665,0.100625,inf,inf,inf,inf,1,1,1,1,2,0,2,1,3,1,1,0
43740815,15979159,34.0348452,108.7564995,12.5385,1.74143,-1.08422,-0.0933915,-0.202356,0.0,1.46956,0.204872,0.333434,0.282507,0.100294,-0.185719,0.08782,0.100445,1.006,-0.895546,0.0395846,-0.0267188,421.849,1.30779,0.285425,0.390822,0.139726,0.101706,inf,inf,inf,inf,1,1,1,1,2,0,2,1,3,1,1,0
43850092,15979159,34.0348452,108.7564995,12.6999,1.76706,-1.04478,-0.0933915,-0.202356,0.0,1.43058,0.199051,0.391037,0.34463,0.100294,-0.185719,0.08782,-0.344468,-4.74535,-2.6635,0.0391039,-0.0267188,421.849,1.26834,0.277127,0.389047,0.134982,0.100533,inf,inf,inf,inf,1,1,1,1,2,0,2,1,3,1,1,0
43949415,15979159,34.0348452,108.7564995,12.8421,1.79194,-1.00474,-0.0933915,-0.202356,0.0,1.3941,0.207993,0.448867,0.404597,0.100294,-0.185719,0.08782,-0.774897,1.95504,1.4024,0.0402538,-0.0267188,421.849,1.2283,0.285885,0.390676,0.139464,0.101785,inf,inf,inf,inf,1,1,1,1,2,0,2,1,3,1,1,0
44048760,15979159,34.0348452,108.7564995,12.9805,1.81523,-0.965041,-0.0933915,-0.202356,0.0,1.36991,0.193462,0.447983,0.403232,0.100294,-0.185719,0.08782,1.65362,-6.19151,2.06831,0.0392948,-0.0267188,421.849,1.18861,0.276641,0.388259,0.134181,0.100434,inf,inf,inf,inf,1,1,1,1,2,0,2,1,3,1,1,0
44148255,15979159,34.0348452,108.7564995,13.1163,1.83958,-0.93314,-0.0933915,-0.202356,0.0,1.32617,0.206878,0.363367,0.314316,0.100294,-0.185719,0.08782,0.0490171,4.1334,-1.12493,0.0372812,-0.0267188,421.849,1.15671,0.285362,0.389855,0.138824,0.101684,inf,inf,inf,inf,1,1,1,1,2,0,2,1,3,1,1,0
44247452,15979159,34.0348452,108.7564995,13.2466,1.86189,-0.914586,-0.0933915,-0.202356,0.0,1.28123,0.206084,0.260272,0.203605,0.100294,-0.185719,0.08782,-1.29947,0.0416345,-2.9516,0.0333867,-0.0267188,421.849,1.13815,0.276158,0.389846,0.134004,0.100587,inf,inf,inf,inf,1,1,1,1,2,0,2,1,3,1,1,0
44346791,15979159,34.0348452,108.7564995,13.3717,1.88309,-0.911582,-0.0933915,-0.202356,0.0,1.23474,0.176973,0.122698,0.05528,0.100294,-0.185719,0.08782,-1.42387,-7.78898,-4.24577,0.0257625,-0.0267188,421.849,1.13515,0.284883,0.39147,0.139416,0.101841,inf,inf,inf,inf,1,1,1,1,2,0,2,1,3,1,1,0
44446135,15979159,34.0348452,108.7564995,13.4916,1.90446,-0.922122,-0.0933915,-0.202356,0.0,1.18223,0.208165,-0.0312897,-0.107203,0.100294,-0.185719,0.08782,-0.593807,0.967848,-3.78664,0.0156833,-0.0267188,421.849,1.14569,0.275657,0.389038,0.134985,0.100491,inf,inf,inf,inf,1,1,1,1,2,0,2,1,3,1,1,0
44545489,15979159,34.0348452,108.7564995,13.6077,1.92738,-0.947417,-0.0933915,-0.202356,0.0,1.14792,0.213029,-0.181045,-0.264127,0.100294,-0.185719,0.08782,-1.73285,-1.67444,-3.45421,0.00505968,-0.0267188,421.849,1.17098,0.284425,0.390646,0.14067,0.101746,inf,inf,inf,inf,1,1,1,1,2,0,2,1,3,1,1,0
44644839,15979159,34.0348452,108.7564995,13.7201,1.94949,-0.98376,-0.0933915,-0.202356,0.0,1.11027,0.192574,-0.319246,-0.404794,0.100294,-0.185719,0.08782,0.0229588,0.835815,-0.314998,7.98309e-05,-0.0267188,421.849,1.20733,0.275205,0.388225,0.136312,0.100389,inf,inf,inf,inf,1,1,1,1,2,0,2,1,3,1,1,0
44749136,15979159,34.0348452,108.7564995,13.836,1.97459,-1.03038,-0.0933915,-0.202356,0.0,1.07566,0.152216,-0.441469,-0.52438,0.100294,-0.185719,0.08782,-1.44252,1.80927,-2.79085,-0.00133421,-0.0267188,421.849,1.25394,0.284027,0.389824,0.142059,0.101641,inf,inf,inf,inf,1,1,1,1,2,0,2,1,3,1,1,0
44848478,15979159,34.0348452,108.7564995,13.9421,1.99196,-1.08258,-0.0933915,-0.202356,0.0,1.04343,0.0592514,-0.545316,-0.622747,0.100294,-0.185719,0.08782,-1.03805,-9.51225,-2.40643,-0.00248831,-0.0267188,421.849,1.30614,0.274782,0.38743,0.13737,0.100298,inf,inf,inf,inf,1,1,1,1,2,0,2,1,3,1,1,0
44947947,15979159,34.0348452,108.7564995,14.0466,1.99921,-1.14126,-0.0933915,-0.202356,0.0,1.02084,-0.0457445,-0.615216,-0.685207,0.100294,-0.185719,0.08782,0.52348,-6.56057,-0.971156,0.00019163,-0.0267188,421.849,1.36483,0.283657,0.391462,0.143237,0.101814,inf,inf,inf,inf,1,1,1,1,2,0,2,1,3,1,1,0
45047171,15979159,34.0348452,108.7564995,14.1462,1.99817,-1.19895,-0.0933915,-0.202356,0.0,0.985145,-0.0941906,-0.62214,-0.680506,0.100294,-0.185719,0.08782,-0.373307,6.0445,1.48493,0.0102662,-0.0267188,421.849,1.42251,0.274385,0.389048,0.138197,0.100465,inf,inf,inf,inf,1,1,1,1,2,0,2,1,3,1,1,0
45146510,15979159,34.0348452,108.7564995,14.2418,1.99017,-1.24825,-0.0933915,-0.202356,0.0,0.954141,-0.19923,-0.604463,-0.644931,0.100294,-0.185719,0.08782,-1.41601,1.63705,1.66826,0.0358015,-0.0267188,421.849,1.47182,0.283281,0.390667,0.143399,0.101701,inf,inf,inf,inf,1,1,1,1,2,0,2,1,3,1,1,0
45250822,15979159,34.0348452,108.7564995,14.3399,1.97396,-1.29691,-0.0933915,-0.202356,0.0,0.918242,-0.248995,-0.587467,-0.610625,0.100294,-0.185719,0.08782,-1.76119,7.04784,-1.02974,0.0837661,-0.0267188,421.849,1.52047,0.274043,0.38827,0.137762,0.100347,inf,inf,inf,inf,1,1,1,1,2,0,2,1,3,1,1,0
45340232,15979159,34.0348452,108.7564995,14.4241,1.96239,-1.33574,-0.0933915,-0.202356,0.0,0.902186,-0.28172,-0.564876,-0.574115,0.100294,-0.185719,0.08782,-1.63372,4.15229,-0.579426,0.125871,-0.0267188,421.849,1.55931,0.282004,0.38924,0.142054,0.10143,inf,inf,inf,inf,1,1,1,1,2,0,2,1,3,1,1,0
