timestamp,lat,lon,alt,alt_ellipsoid,delta_alt,eph,epv,terrain_alt,lat_lon_reset_counter,alt_reset_counter,terrain_alt_valid,dead_reckoning
25640330,34.0348453234,108.756505947,421.699,393.176,-0.0,1.32288,1.55606,421.608,2,0,1,0
25650266,34.0348453272,108.756505955,421.699,393.175,-0.0,1.3231,1.5556,421.606,2,0,1,0
25849054,34.0348453735,108.756506064,421.695,393.154,-0.0,1.32285,1.55598,421.6,2,0,1,0
26047638,34.0348454123,108.75650617,421.691,393.131,-0.0,1.32258,1.55573,421.601,2,0,1,0
26246325,34.034845438,108.756506307,421.691,393.115,-0.0,1.32233,1.55548,421.609,2,0,1,0
26440045,34.0348454765,108.756506427,421.697,393.103,-0.0,1.32189,1.5557,421.617,2,0,1,0
26648793,34.0348455309,108.756506557,421.704,393.093,-0.0,1.32188,1.55563,421.623,2,0,1,0
26847355,34.0348455575,108.756506691,421.714,393.085,-0.0,1.32167,1.5554,421.633,2,0,1,0
27046073,34.0348455666,108.756506821,421.723,393.076,-0.0,1.32145,1.55578,421.63,2,0,1,0
27249698,34.0348455797,108.756506946,421.733,393.069,-0.0,1.32123,1.55554,421.63,2,0,1,0
27448426,34.0348456523,108.756507082,421.737,393.056,-0.0,1.32104,1.55531,421.63,2,0,1,0
27642106,34.034845696,108.756507216,421.736,393.038,-0.0,1.32063,1.55554,421.628,2,0,1,0
27840795,34.0348457262,108.756507338,421.732,393.016,-0.0,1.32045,1.55532,421.625,2,0,1,0
28049418,34.0348457672,108.756507445,421.737,393.004,-0.0,1.32048,1.55527,421.625,2,0,1,0
28248110,34.0348458055,108.756507582,421.743,392.993,-0.0,1.3203,1.55505,421.625,2,0,1,0
28451758,34.0348457962,108.756507715,421.751,392.984,-0.0,1.32014,1.55545,421.625,2,0,1,0
28650446,34.0348457864,108.756507834,421.758,392.975,-0.0,1.31999,1.55524,421.625,2,0,1,0
28849133,34.0348458084,108.756507941,421.766,392.966,-0.0,1.31984,1.55503,421.625,2,0,1,0
29047870,34.0348457609,108.756508207,421.774,392.957,-0.0,1.3197,1.55543,421.625,2,0,1,0
29246511,34.0348456979,108.75650859,421.788,392.955,-0.0,1.31956,1.55521,421.625,2,0,1,0
29445198,34.0348456181,108.756509087,421.808,392.958,-0.0,1.31943,1.555,421.625,2,0,1,0
29648899,34.0348455319,108.756509709,421.84,392.974,-0.0,1.31927,1.55478,421.625,2,0,1,0
29847533,34.0348453675,108.756510234,421.885,393.003,-0.0,1.31914,1.55518,421.625,2,0,1,0
30051195,34.0348452015,108.756510508,421.934,393.038,-0.0,1.319,1.55496,421.625,2,0,1,0
30249882,34.0348449622,108.7565107,421.994,393.081,-0.0,1.31887,1.55475,421.625,2,0,1,0
30438824,34.0348447854,108.756511077,422.047,393.12,-0.0,1.31848,1.55498,421.625,2,0,1,0
30642290,34.034844629,108.756511485,422.115,393.174,-0.0,1.31834,1.55477,421.625,2,0,1,0
30850912,34.0348446397,108.756511884,422.187,393.234,-0.0,1.31841,1.55473,421.625,2,0,1,0
31049600,34.0348448715,108.756512251,422.253,393.287,-0.0,1.31826,1.55453,421.625,2,0,1,0
31248291,34.0348451431,108.75651247,422.327,393.348,-0.0,1.31811,1.55494,421.625,2,0,1,0
31446977,34.0348455296,108.756512888,422.387,393.396,-0.0,1.31797,1.55474,421.625,2,0,1,0
31645664,34.0348457318,108.756513166,422.42,393.418,-0.0,1.31782,1.55453,421.625,2,0,1,0
31844351,34.0348459968,108.756513413,422.434,393.421,-0.0,1.31766,1.55494,0.0,2,0,0,0
32043189,34.0348462521,108.756513397,422.419,393.396,-0.0,1.31745,1.55472,0.0,2,0,0,0
32246701,34.0348464318,108.75651263,422.382,393.35,-0.0,1.31725,1.55451,0.0,2,0,0,0
32450349,34.0348466468,108.756511243,422.314,393.274,-0.0,1.31704,1.55492,0.0,2,0,0,0
32649037,34.0348467927,108.756509478,422.245,393.197,-0.0,1.31686,1.55472,0.0,2,0,0,0
32847868,34.0348471073,108.756508215,422.185,393.129,-0.0,1.31668,1.55452,0.0,2,0,0,0
33041445,34.0348477179,108.7565074,422.153,393.09,-0.0,1.31632,1.55476,0.0,2,0,0,0
33250074,34.0348491336,108.756507251,422.134,393.063,-0.0,1.31635,1.55473,0.0,2,0,0,0
33443788,34.0348510845,108.756507722,422.125,393.046,-0.0,1.316,1.55438,0.0,2,0,0,0
33652529,34.0348533537,108.75650848,422.136,393.05,-0.0,1.31604,1.55435,0.0,2,0,0,0
33851100,34.0348555242,108.756509272,422.177,393.082,-0.0,1.31588,1.55416,0.0,2,0,0,0
34044820,34.0348574707,108.756510044,422.255,393.154,-0.0,1.31553,1.55441,0.0,2,0,0,0
34243506,34.0348594251,108.756510653,422.372,393.263,-0.0,1.31537,1.55423,0.0,2,0,0,0
34442244,34.0348614781,108.756510862,422.504,393.389,-0.0,1.31521,1.55405,0.0,2,0,0,0
34640885,34.0348633243,108.756510594,422.633,393.513,-0.0,1.31506,1.55446,0.0,2,0,0,0
34849505,34.0348652874,108.756510328,422.754,393.629,-0.0,1.3151,1.55444,0.0,2,0,0,0
35048194,34.0348669367,108.756510225,422.859,393.728,-0.0,1.31494,1.55426,0.0,2,0,0,0
35246914,34.0348685562,108.756510199,422.905,393.767,-0.0,1.31478,1.55407,0.0,2,0,0,0
35450538,34.0348700593,108.756510376,422.875,393.73,-0.0,1.31459,1.55449,0.0,2,0,0,0
35649223,34.0348714878,108.75651069,422.826,393.675,-0.0,1.31443,1.55431,0.0,2,0,0,0
35842986,34.0348727107,108.756511151,422.825,393.667,-0.0,1.31407,1.55397,0.0,2,0,0,0
36041671,34.034873818,108.756511729,422.842,393.678,-0.0,1.31391,1.55439,0.0,2,0,0,0
36245288,34.0348749158,108.75651239,422.842,393.67,-0.0,1.31376,1.55421,0.0,2,0,0,0
36443981,34.0348760586,108.756513025,422.813,393.634,-0.0,1.31362,1.55404,0.0,2,0,0,0
36642664,34.034877502,108.756513772,422.767,393.583,-0.0,1.31348,1.55387,0.0,2,0,0,0
36851323,34.0348794308,108.756514701,422.718,393.528,-0.0,1.31353,1.55445,0.0,2,0,0,0
37049974,34.0348813239,108.756515267,422.669,393.474,-0.0,1.3134,1.55428,0.0,2,0,0,0
37248661,34.0348829591,108.756515272,422.621,393.422,-0.0,1.31326,1.55411,0.0,2,0,0,0
37447349,34.0348844574,108.756514817,422.556,393.354,-0.0,1.31311,1.55393,0.0,2,0,0,0
37646038,34.0348858541,108.756514288,422.492,393.287,-0.0,1.31295,1.55435,0.0,2,0,0,0
37849692,34.0348873306,108.756513979,422.455,393.247,-0.0,1.31281,1.55418,0.0,2,0,0,0
38043448,34.0348891896,108.756514153,422.426,393.213,-0.0,1.31248,1.55384,0.0,2,0,0,0
38242101,34.0348915924,108.756514466,422.395,393.178,-0.0,1.31235,1.55426,0.0,2,0,0,0
38450752,34.0348941685,108.756514782,422.38,393.158,-0.0,1.31243,1.55424,0.0,2,0,0,0
38649412,34.034896608,108.756515108,422.366,393.137,-0.0,1.31232,1.55406,0.0,2,0,0,0
38848099,34.0348991157,108.756515388,422.368,393.134,-0.0,1.31222,1.55447,0.0,2,0,0,0
39046791,34.0349015742,108.756515713,422.407,393.166,-0.0,1.31212,1.55428,0.0,2,0,0,0
39245476,34.0349039821,108.756515984,422.482,393.235,-0.0,1.31203,1.55409,0.0,2,0,0,0
39449132,34.0349063524,108.756515961,422.588,393.334,-0.0,1.31192,1.5545,0.0,2,0,0,0
39647819,34.0349086299,108.75651552,422.705,393.444,-0.0,1.31183,1.5543,0.0,2,0,0,0
39846699,34.0349107324,108.756514942,422.823,393.557,-0.0,1.31175,1.55411,0.0,2,0,0,0
40050170,34.0349128654,108.75651449,422.926,393.653,-0.0,1.31167,1.55452,0.0,2,0,0,0
40248853,34.0349149433,108.756514131,422.993,393.714,-0.0,1.31156,1.55433,0.0,2,0,0,0
40442570,34.034917243,108.756513929,423.028,393.744,-0.0,1.31127,1.55458,0.0,2,0,0,0
40651346,34.0349200974,108.75651399,423.048,393.758,-0.0,1.31136,1.55454,0.0,2,0,0,0
40849883,34.0349230259,108.75651408,423.072,393.779,-0.0,1.31125,1.55435,0.0,2,0,0,0
41043602,34.0349258479,108.756514182,423.076,393.779,-0.0,1.31095,1.554,0.0,2,0,0,0
41242290,34.0349284132,108.756514279,423.059,393.758,-0.0,1.31084,1.55441,0.0,2,0,0,0
41441102,34.0349307692,108.756514344,423.031,393.726,-0.0,1.31073,1.55423,0.0,2,0,0,0
41649601,34.0349331026,108.75651442,422.995,393.687,-0.0,1.31079,1.5542,0.0,2,0,0,0
41848288,34.0349350816,108.756514577,422.971,393.658,-0.0,1.31067,1.55402,0.0,2,0,0,0
42046976,34.0349370131,108.756514795,422.951,393.632,-0.0,1.31056,1.55442,0.0,2,0,0,0
42245726,34.0349390315,108.756515196,422.945,393.62,-0.0,1.31042,1.55423,0.0,2,0,0,0
42444354,34.0349412801,108.756515652,422.945,393.613,-0.0,1.31031,1.55403,0.0,2,0,0,0
42648013,34.0349437615,108.756516047,422.953,393.615,-0.0,1.31019,1.55444,0.0,2,0,0,0
42841731,34.0349461289,108.756516455,422.972,393.627,-0.0,1.30989,1.55408,0.0,2,0,0,0
43040430,34.0349486026,108.756516805,422.997,393.646,-0.0,1.30981,1.55449,0.0,2,0,0,0
43249042,34.0349512978,108.756517222,423.017,393.659,-0.0,1.30991,1.55446,0.0,2,0,0,0
43447727,34.0349539793,108.756517686,423.004,393.639,-0.0,1.30983,1.55426,0.0,2,0,0,0
43651383,34.0349567466,108.75651817,422.962,393.591,-0.0,1.30974,1.55467,0.0,2,0,0,0
43850092,34.0349594131,108.756518677,422.894,393.518,-0.0,1.30966,1.55447,0.0,2,0,0,0
44048760,34.0349619368,108.756519199,422.814,393.433,-0.0,1.30955,1.55427,0.0,2,0,0,0
44247452,34.0349643296,108.756519706,422.764,393.379,-0.0,1.30945,1.55467,0.0,2,0,0,0
44446135,34.0349665328,108.756520168,422.771,393.382,-0.0,1.30935,1.55447,0.0,2,0,0,0
44644839,34.0349685879,108.756520656,422.833,393.438,-0.0,1.30925,1.55427,0.0,2,0,0,0
44848478,34.0349705843,108.756521117,422.932,393.532,-0.0,1.30916,1.55407,0.0,2,0,0,0
45047171,34.0349724202,108.756521185,423.048,393.642,-0.0,1.30908,1.55447,0.0,2,0,0,0
45250822,34.0349741617,108.756520922,423.146,393.734,-0.0,1.30901,1.55428,0.0,2,0,0,0
45449556,34.0349758018,108.756520579,423.232,393.814,-0.0,1.30895,1.55409,0.0,2,0,0,0
45643231,34.0349772288,108.756520084,423.318,393.897,-0.0,1.30872,1.55434,0.0,2,0,0,0
45841920,34.0349785209,108.756519711,423.41,393.986,-0.0,1.30869,1.55415,0.0,2,0,0,0
46040610,34.0349800341,108.75651939,423.479,394.051,-0.0,1.30861,1.55396,0.0,2,0,0,0
46249229,34.0349817687,108.756519119,423.512,394.081,-0.0,1.30863,1.55452,0.0,2,0,0,0
46447917,34.0349833778,108.756518861,423.497,394.064,-0.0,1.30845,1.55433,0.0,2,0,0,0
46651573,34.0349848872,108.756518637,423.436,394.001,-0.0,1.30825,1.55414,0.0,2,0,0,0
46850261,34.0349862053,108.756518484,423.351,393.915,-0.0,1.30808,1.55396,0.0,2,0,0,0
47048952,34.0349874016,108.756518446,423.295,393.857,-0.0,1.30792,1.55437,0.0,2,0,0,0
47242670,34.0349884478,108.756518561,423.281,393.84,-0.0,1.30763,1.55403,0.0,2,0,0,0
47441358,34.0349893845,108.756518678,423.31,393.866,-0.0,1.30754,1.55386,0.0,2,0,0,0
47650162,34.0349905458,108.75651895,423.348,393.9,-0.0,1.30766,1.55384,0.0,2,0,0,0
47848669,34.0349918825,108.756519325,423.356,393.905,-0.0,1.30764,1.55426,0.0,2,0,0,0
48047359,34.0349931987,108.756519748,423.33,393.876,-0.0,1.30764,1.55409,0.0,2,0,0,0
48251059,34.0349943483,108.756520238,423.276,393.82,-0.0,1.30765,1.55393,0.0,2,0,0,0
48449846,34.0349952496,108.756520712,423.201,393.742,-0.0,1.30767,1.55376,0.0,2,0,0,0
48648390,34.0349960013,108.756521117,423.11,393.649,-0.0,1.30768,1.55419,0.0,2,0,0,0
48842111,34.0349967627,108.756521671,423.028,393.565,-0.0,1.30752,1.55387,0.0,2,0,0,0
49050732,34.0349978357,108.756522506,422.936,393.47,-0.0,1.30772,1.55447,0.0,2,0,0,0
49249531,34.0349991707,108.756523224,422.847,393.378,-0.0,1.30775,1.55431,0.0,2,0,0,0
49448112,34.0350005245,108.756523698,422.768,393.296,-0.0,1.30774,1.55414,0.0,2,0,0,0
49646798,34.0350016864,108.756523739,422.696,393.221,-0.0,1.30773,1.55457,0.0,2,0,0,0
49845485,34.0350028614,108.756522982,422.636,393.158,-0.0,1.3077,1.5544,0.0,2,0,0,0
50044237,34.0350039664,108.756521824,422.593,393.112,-0.0,1.30765,1.55423,0.0,2,0,0,0
50247828,34.035005169,108.756521147,422.569,393.086,-0.0,1.30759,1.55406,0.0,2,0,0,0
50451524,34.0350066265,108.756520862,422.554,393.07,-0.0,1.30758,1.5545,0.0,2,0,0,0
50650172,34.0350083618,108.756521188,422.562,393.076,-0.0,1.30757,1.55434,0.0,2,0,0,0
50848907,34.0350104459,108.756522051,422.575,393.088,-0.0,1.30756,1.55419,0.0,2,0,0,0
51042583,34.0350126357,108.756523041,422.598,393.109,-0.0,1.30735,1.55446,0.0,2,0,0,0
51241270,34.0350148525,108.756523943,422.644,393.155,-0.0,1.30732,1.55431,0.0,2,0,0,0
51449892,34.0350171141,108.756524519,422.7,393.211,-0.0,1.30746,1.55432,0.0,2,0,0,0
51648595,34.0350190967,108.756524419,422.737,393.248,-0.0,1.30741,1.55417,0.0,2,0,0,0
51847269,34.0350209726,108.756524093,422.776,393.287,-0.0,1.30733,1.55462,0.0,2,0,0,0
52045955,34.035022748,108.756523965,422.829,393.34,-0.0,1.30726,1.55447,0.0,2,0,0,0
52244645,34.035024254,108.756523672,422.91,393.42,-0.0,1.30718,1.55431,0.0,2,0,0,0
52443333,34.0350256677,108.756523344,422.979,393.488,-0.0,1.3071,1.55475,0.0,2,0,0,0
52646989,34.0350271745,108.756523021,423.024,393.531,-0.0,1.30702,1.55458,0.0,2,0,0,0
52840710,34.0350288335,108.756522791,423.041,393.549,-0.0,1.30678,1.55486,0.0,2,0,0,0
53049333,34.0350308935,108.756522713,423.042,393.55,-0.0,1.30687,1.55485,0.0,2,0,0,0
53248063,34.0350332054,108.756522832,423.029,393.538,-0.0,1.30681,1.55468,0.0,2,0,0,0
53451676,34.0350358367,108.756523066,423.009,393.518,-0.0,1.30676,1.55511,0.0,2,0,0,0
53650366,34.0350385018,108.756523346,422.99,393.5,-0.0,1.3067,1.55493,0.0,2,0,0,0
53849053,34.0350411641,108.756523657,422.984,393.495,-0.0,1.30664,1.55475,0.0,2,0,0,0
54047741,34.0350435953,108.756523973,422.979,393.491,-0.0,1.30658,1.55457,0.0,2,0,0,0
54241463,34.0350458108,108.756524386,422.979,393.49,-0.0,1.30636,1.55484,0.0,2,0,0,0
54440179,34.0350478771,108.756524834,422.974,393.485,-0.0,1.30631,1.55466,0.0,2,0,0,0
54648773,34.0350497246,108.756525207,422.976,393.486,-0.0,1.30642,1.55465,0.0,2,0,0,0
54847461,34.0350511679,108.756525517,422.984,393.492,-0.0,1.30636,1.55447,0.0,2,0,0,0
55046149,34.035052453,108.756525767,422.99,393.497,-0.0,1.3063,1.5549,0.0,2,0,0,0
55249805,34.0350538143,108.756525864,423.0,393.506,-0.0,1.30625,1.55473,0.0,2,0,0,0
55448674,34.0350554208,108.756525783,422.998,393.503,-0.0,1.30622,1.55455,0.0,2,0,0,0
55647187,34.0350571195,108.75652538,422.978,393.484,-0.0,1.30619,1.55438,0.0,2,0,0,0
55840903,34.0350588589,108.756524858,422.961,393.468,-0.0,1.306,1.55464,0.0,2,0,0,0
56049527,34.0350606407,108.756524363,422.956,393.464,-0.0,1.30614,1.55463,0.0,2,0,0,0
56248353,34.0350622926,108.756524,422.963,393.472,-0.0,1.30611,1.55446,0.0,2,0,0,0
56441935,34.0350639422,108.756524017,422.971,393.481,-0.0,1.30592,1.55473,0.0,2,0,0,0
56650557,34.0350658484,108.756524657,422.978,393.488,-0.0,1.30606,1.55472,0.0,2,0,0,0
56849245,34.0350678086,108.756525557,422.987,393.499,-0.0,1.30605,1.55455,0.0,2,0,0,0
57048037,34.035069777,108.756526518,422.992,393.504,-0.0,1.30603,1.55438,0.0,2,0,0,0
57246624,34.0350716111,108.756527116,422.985,393.498,-0.0,1.30601,1.55481,0.0,2,0,0,0
57445312,34.0350732836,108.756527191,422.971,393.484,-0.0,1.30598,1.55463,0.0,2,0,0,0
57648966,34.03507481,108.756527029,422.966,393.479,-0.0,1.30596,1.55445,0.0,2,0,0,0
57847727,34.0350764186,108.756527029,422.952,393.464,-0.0,1.30595,1.55427,0.0,2,0,0,0
58046344,34.0350782376,108.756527103,422.925,393.437,-0.0,1.30594,1.5547,0.0,2,0,0,0
58250000,34.0350805515,108.756527338,422.896,393.409,-0.0,1.30592,1.55453,0.0,2,0,0,0
58448688,34.0350833274,108.756527782,422.852,393.367,-0.0,1.30591,1.55435,0.0,2,0,0,0
58647418,34.035086334,108.756528288,422.823,393.339,-0.0,1.3059,1.55478,0.0,2,0,0,0
58851028,34.0350893834,108.756528867,422.826,393.345,-0.0,1.30586,1.5546,0.0,2,0,0,0
59049718,34.0350915404,108.756529217,422.851,393.371,-0.0,1.30584,1.55442,0.0,2,0,0,0
59243440,34.0350926998,108.75652945,422.874,393.396,-0.0,1.30564,1.55467,0.0,2,0,0,0
59442160,34.0350932085,108.756529674,422.891,393.413,-0.0,1.30561,1.55448,0.0,2,0,0,0
59650751,34.0350939166,108.756529973,422.891,393.413,-0.0,1.30575,1.55445,0.0,2,0,0,0
59844472,34.0350945407,108.756530174,422.906,393.427,-0.0,1.30556,1.5547,0.0,2,0,0,0
60043160,34.0350951886,108.756530051,422.936,393.458,-0.0,1.30554,1.55451,0.0,2,0,0,0
60251820,34.0350958095,108.756529573,422.967,393.488,-0.0,1.30565,1.55507,0.0,2,0,0,0
60450471,34.0350963976,108.756529437,422.993,393.516,-0.0,1.30564,1.55487,0.0,2,0,0,0
60649160,34.0350968567,108.756529382,423.034,393.559,-0.0,1.30562,1.55466,0.0,2,0,0,0
60842882,34.0350972079,108.75652936,423.064,393.591,-0.0,1.30545,1.5549,0.0,2,0,0,0
61041569,34.035097469,108.756529207,423.076,393.606,-0.0,1.30546,1.5547,0.0,2,0,0,0
61250208,34.0350975881,108.756529212,423.095,393.63,-0.0,1.30566,1.55466,0.0,2,0,0,0
61448914,34.0350975719,108.756529215,423.096,393.636,-0.0,1.3057,1.55506,0.0,2,0,0,0
61652536,34.0350974044,108.756529186,423.085,393.63,-0.0,1.30573,1.55486,0.0,2,0,0,0
61851228,34.0350970917,108.756529193,423.061,393.612,-0.0,1.30578,1.55465,0.0,2,0,0,0
62049912,34.035096722,108.756529123,423.018,393.575,-0.0,1.30582,1.55445,0.0,2,0,0,0
62248601,34.0350964624,108.756528818,422.958,393.522,-0.0,1.30586,1.55486,0.0,2,0,0,0
62447332,34.0350964348,108.756528234,422.875,393.447,-0.0,1.30589,1.55466,0.0,2,0,0,0
62645981,34.0350964224,108.756527641,422.801,393.381,-0.0,1.30592,1.55446,0.0,2,0,0,0
62844666,34.0350962887,108.756527088,422.761,393.35,-0.0,1.30593,1.55487,0.0,2,0,0,0
63048322,34.0350962224,108.756526605,422.768,393.366,-0.0,1.30596,1.55467,0.0,2,0,0,0
63247196,34.0350964183,108.756526368,422.824,393.43,-0.0,1.306,1.55448,0.0,2,0,0,0
63450666,34.0350969148,108.756526263,422.925,393.539,-0.0,1.30603,1.55429,0.0,2,0,0,0
63649354,34.0350971927,108.756526197,423.043,393.666,-0.0,1.30609,1.5541,0.0,2,0,0,0
63848044,34.0350974135,108.756526072,423.16,393.793,-0.0,1.30613,1.55452,0.0,2,0,0,0
64046874,34.0350974366,108.7565258,423.267,393.911,-0.0,1.30617,1.55433,0.0,2,0,0,0
64240452,34.0350974294,108.756525326,423.357,394.012,-0.0,1.30602,1.55458,0.0,2,0,0,0
64449084,34.0350974637,108.756524313,423.435,394.103,-0.0,1.30624,1.55455,0.0,2,0,0,0
64647763,34.0350975613,108.756522935,423.466,394.147,-0.0,1.3063,1.55495,0.0,2,0,0,0
64846612,34.0350976388,108.756521581,423.422,394.118,-0.0,1.30632,1.55474,0.0,2,0,0,0
65045140,34.035097685,108.756520273,423.258,393.969,-0.0,1.30633,1.55453,0.0,2,0,0,0
65248835,34.0350976739,108.756519026,423.039,393.766,-0.0,1.30633,1.55493,0.0,2,0,0,0
65447484,34.035097527,108.756517893,422.88,393.622,-0.0,1.30632,1.55472,0.0,2,0,0,0
65646289,34.0350972508,108.756517009,422.787,393.543,-0.0,1.30632,1.55452,0.0,2,0,0,0
65849828,34.0350969934,108.756516251,422.749,393.52,-0.0,1.30631,1.55432,0.0,2,0,0,0
66048517,34.0350967902,108.756515286,422.751,393.535,-0.0,1.30631,1.55472,0.0,2,0,0,0
66242236,34.0350965079,108.756514437,422.779,393.577,-0.0,1.30613,1.55435,0.0,2,0,0,0
66450917,34.0350961607,108.756513614,422.826,393.638,-0.0,1.3063,1.55491,0.0,2,0,0,0
66649549,34.0350957113,108.756513092,422.877,393.702,-0.0,1.3063,1.5547,0.0,2,0,0,0
66843270,34.0350950258,108.756513031,422.934,393.772,-0.0,1.30611,1.55493,0.0,2,0,0,0
67041959,34.0350940991,108.75651351,422.981,393.832,-0.0,1.3061,1.55472,0.0,2,0,0,0
67250609,34.0350928775,108.756514216,423.031,393.895,-0.0,1.30627,1.55467,0.0,2,0,0,0
67449329,34.0350916632,108.756514551,423.075,393.952,-0.0,1.30627,1.55446,0.0,2,0,0,0
67647959,34.0350903827,108.756514528,423.094,393.985,-0.0,1.30625,1.55485,0.0,2,0,0,0
67841680,34.035088965,108.756514192,423.088,393.993,-0.0,1.30605,1.55448,0.0,2,0,0,0
68050365,34.0350872296,108.756513581,423.049,393.969,-0.0,1.30619,1.55443,0.0,2,0,0,0
68248992,34.035085413,108.756512857,422.967,393.9,-0.0,1.30616,1.55422,0.0,2,0,0,0
68447679,34.03508352,108.756511976,422.828,393.775,-0.0,1.30613,1.55462,0.0,2,0,0,0
68651382,34.035081567,108.756510949,422.62,393.58,-0.0,1.3061,1.55443,0.0,2,0,0,0
68850040,34.035079686,108.75651017,422.435,393.408,-0.0,1.30608,1.55423,0.0,2,0,0,0
69048712,34.0350777782,108.756509406,422.358,393.344,-0.0,1.30604,1.55464,0.0,2,0,0,0
69242433,34.0350759614,108.756508606,422.413,393.411,-0.0,1.30584,1.55429,0.0,2,0,0,0
69441122,34.0350740516,108.756507738,422.557,393.567,-0.0,1.30582,1.55409,0.0,2,0,0,0
69649742,34.0350719386,108.756506855,422.736,393.757,-0.0,1.30596,1.55465,0.0,2,0,0,0
69848437,34.0350699769,108.75650608,422.91,393.942,-0.0,1.30593,1.55446,0.0,2,0,0,0
70047122,34.0350680272,108.756505458,423.067,394.109,-0.0,1.30591,1.55427,0.0,2,0,0,0
70245814,34.0350660946,108.756504896,423.15,394.203,-0.0,1.30588,1.55467,0.0,2,0,0,0
70444499,34.035064203,108.756504429,423.194,394.258,-0.0,1.30586,1.55447,0.0,2,0,0,0
70648161,34.0350621559,108.756503856,423.267,394.343,-0.0,1.30581,1.55427,0.0,2,0,0,0
70846843,34.0350602413,108.756503381,423.399,394.487,-0.0,1.30578,1.55467,0.0,2,0,0,0
71045691,34.0350583413,108.756502963,423.543,394.644,-0.0,1.30574,1.55448,0.0,2,0,0,0
71244221,34.0350564231,108.756502649,423.61,394.724,-0.0,1.30572,1.55429,0.0,2,0,0,0
71447876,34.0350546248,108.756502336,423.565,394.692,-0.0,1.30568,1.5541,0.0,2,0,0,0
71651532,34.035052865,108.756502059,423.474,394.615,-0.0,1.30564,1.55451,0.0,2,0,0,0
71850373,34.0350511433,108.756501716,423.451,394.607,-0.0,1.30563,1.55432,0.0,2,0,0,0
72048909,34.0350496233,108.756501393,423.502,394.671,-0.0,1.30562,1.55413,0.0,2,0,0,0
72247598,34.035048252,108.756500885,423.588,394.769,-0.0,1.30559,1.55453,0.0,2,0,0,0
72446287,34.0350469882,108.756500224,423.636,394.829,-0.0,1.30557,1.55433,0.0,2,0,0,0
72645078,34.0350458456,108.756499575,423.606,394.812,-0.0,1.30557,1.55472,0.0,2,0,0,0
72848654,34.0350448307,108.756498666,423.459,394.677,-0.0,1.30556,1.55452,0.0,2,0,0,0
73047319,34.035044037,108.756497416,423.253,394.484,-0.0,1.30555,1.55432,0.0,2,0,0,0
73246007,34.0350432116,108.756496232,423.096,394.338,-0.0,1.30555,1.55472,0.0,2,0,0,0
73444767,34.035042405,108.756495138,422.999,394.251,-0.0,1.30554,1.55452,0.0,2,0,0,0
73648352,34.0350415452,108.756494071,422.949,394.211,-0.0,1.30554,1.55433,0.0,2,0,0,0
73842073,34.0350407851,108.75649308,422.915,394.186,-0.0,1.30538,1.55398,0.0,2,0,0,0
74040761,34.0350401308,108.756492115,422.868,394.149,-0.0,1.30538,1.55439,0.0,2,0,0,0
74249437,34.035039451,108.756491225,422.814,394.106,-0.0,1.30555,1.55436,0.0,2,0,0,0
74443106,34.0350387909,108.756490347,422.741,394.045,-0.0,1.30539,1.55402,0.0,2,0,0,0
74651729,34.0350380721,108.756489408,422.635,393.949,-0.0,1.30555,1.554,0.0,2,0,0,0
74850440,34.0350372658,108.756488367,422.545,393.871,-0.0,1.30555,1.55441,0.0,2,0,0,0
75049194,34.035036186,108.756487438,422.503,393.84,-0.0,1.30554,1.55422,0.0,2,0,0,0
75247796,34.0350351602,108.756486408,422.519,393.866,-0.0,1.30555,1.55404,0.0,2,0,0,0
75446483,34.0350344172,108.756485099,422.572,393.929,-0.0,1.30555,1.55445,0.0,2,0,0,0
75645173,34.035034176,108.756483454,422.657,394.023,-0.0,1.30556,1.55426,0.0,2,0,0,0
75843861,34.0350341849,108.75648177,422.761,394.135,-0.0,1.30557,1.55408,0.0,2,0,0,0
76047516,34.0350342268,108.756480196,422.836,394.219,-0.0,1.30558,1.55449,0.0,2,0,0,0
76246204,34.0350341382,108.756478559,422.852,394.245,-0.0,1.30558,1.55431,0.0,2,0,0,0
76449876,34.0350338373,108.75647688,422.819,394.223,-0.0,1.30559,1.55413,0.0,2,0,0,0
76648560,34.0350334746,108.756475355,422.762,394.178,-0.0,1.30559,1.55395,0.0,2,0,0,0
76842270,34.0350331083,108.756474087,422.712,394.14,-0.0,1.30542,1.55421,0.0,2,0,0,0
77050896,34.0350326462,108.756472907,422.68,394.12,-0.0,1.30557,1.5542,0.0,2,0,0,0
77249582,34.0350321043,108.756471887,422.689,394.141,-0.0,1.30556,1.55403,0.0,2,0,0,0
77448271,34.0350314473,108.75647067,422.737,394.199,-0.0,1.30556,1.55386,0.0,2,0,0,0
77646961,34.0350305723,108.756469098,422.809,394.282,-0.0,1.30555,1.55428,0.0,2,0,0,0
77850615,34.0350296018,108.75646733,422.875,394.359,-0.0,1.30555,1.55409,0.0,2,0,0,0
78049303,34.0350287408,108.756465556,422.911,394.406,-0.0,1.30555,1.55392,0.0,2,0,0,0
78247994,34.0350281568,108.756463997,422.88,394.386,-0.0,1.30556,1.55433,0.0,2,0,0,0
78446681,34.0350279705,108.756462576,422.802,394.319,-0.0,1.30558,1.55416,0.0,2,0,0,0
78645371,34.0350282871,108.756461297,422.682,394.211,-0.0,1.30559,1.55398,0.0,2,0,0,0
78844215,34.0350285094,108.756460188,422.565,394.104,-0.0,1.30559,1.5544,0.0,2,0,0,0
79047714,34.0350286343,108.756459289,422.487,394.037,-0.0,1.3056,1.55421,0.0,2,0,0,0
79241435,34.0350287614,108.756458773,422.464,394.022,-0.0,1.30545,1.55447,0.0,2,0,0,0
79450058,34.0350295091,108.756458399,422.472,394.037,-0.0,1.30564,1.55445,0.0,2,0,0,0
79648895,34.0350307031,108.756457924,422.525,394.098,-0.0,1.30568,1.55427,0.0,2,0,0,0
79852403,34.0350319902,108.75645744,422.61,394.19,-0.0,1.30572,1.55408,0.0,2,0,0,0
80051092,34.0350331572,108.756456577,422.708,394.297,-0.0,1.30576,1.55449,0.0,2,0,0,0
80249780,34.0350341435,108.75645532,422.773,394.369,-0.0,1.3058,1.5543,0.0,2,0,0,0
80448635,34.0350347691,108.756453738,422.799,394.403,-0.0,1.30583,1.55411,0.0,2,0,0,0
80647157,34.0350353822,108.756451884,422.77,394.382,-0.0,1.30583,1.55451,0.0,2,0,0,0
80845846,34.0350359744,108.756449914,422.741,394.363,-0.0,1.30581,1.55432,0.0,2,0,0,0
81049502,34.0350364422,108.756448047,422.739,394.369,-0.0,1.3058,1.55473,0.0,2,0,0,0
81248264,34.0350366978,108.756446544,422.774,394.413,-0.0,1.30581,1.55453,0.0,2,0,0,0
81446879,34.0350368569,108.756445272,422.846,394.492,-0.0,1.3058,1.55493,0.0,2,0,0,0
81650537,34.0350369,108.756444086,422.931,394.584,-0.0,1.3058,1.55471,0.0,2,0,0,0
81849224,34.0350369001,108.756443105,423.014,394.673,-0.0,1.30579,1.5545,0.0,2,0,0,0
82047954,34.0350367907,108.7564423,423.09,394.754,-0.0,1.30578,1.5543,0.0,2,0,0,0
82241639,34.0350367014,108.75644135,423.15,394.818,-0.0,1.30561,1.55454,0.0,2,0,0,0
82440322,34.0350366681,108.756440148,423.175,394.849,-0.0,1.3056,1.55434,0.0,2,0,0,0
82648946,34.0350367145,108.756438694,423.17,394.849,-0.0,1.30575,1.5543,0.0,2,0,0,0
82847647,34.0350367843,108.756437259,423.129,394.814,-0.0,1.30574,1.55411,0.0,2,0,0,0
83046359,34.0350368386,108.75643587,423.051,394.742,-0.0,1.30573,1.55451,0.0,2,0,0,0
83249979,34.0350368456,108.75643464,423.0,394.696,-0.0,1.30571,1.55431,0.0,2,0,0,0
83448718,34.0350367272,108.756433697,423.015,394.715,-0.0,1.30569,1.55471,0.0,2,0,0,0
83647391,34.0350365438,108.756432859,423.086,394.79,-0.0,1.30568,1.5545,0.0,2,0,0,0
83841078,34.0350362576,108.756432187,423.166,394.873,-0.0,1.30551,1.55473,0.0,2,0,0,0
84049701,34.035036274,108.756431831,423.207,394.916,-0.0,1.30569,1.55468,0.0,2,0,0,0
84248392,34.0350365478,108.756431673,423.182,394.895,-0.0,1.30569,1.55447,0.0,2,0,0,0
84447087,34.0350368431,108.756431726,423.096,394.813,-0.0,1.30568,1.55427,0.0,2,0,0,0
84650734,34.0350370589,108.756431803,422.958,394.68,-0.0,1.30566,1.55467,0.0,2,0,0,0
84849423,34.0350373144,108.756431501,422.804,394.531,-0.0,1.30564,1.55447,0.0,2,0,0,0
85038376,34.0350377318,108.756430787,422.65,394.381,-0.0,1.30546,1.55411,0.0,2,0,0,0
85241833,34.0350383114,108.756429637,422.526,394.259,-0.0,1.30546,1.55452,0.0,2,0,0,0
85450457,34.0350389997,108.756428135,422.442,394.177,-0.0,1.30561,1.55448,0.0,2,0,0,0
85649165,34.0350395517,108.756426481,422.421,394.157,-0.0,1.3056,1.55428,0.0,2,0,0,0
85847834,34.0350401606,108.756425044,422.473,394.212,-0.0,1.3056,1.55408,0.0,2,0,0,0
86046522,34.0350411018,108.756423808,422.58,394.321,-0.0,1.30559,1.55449,0.0,2,0,0,0
86245212,34.035042155,108.75642278,422.706,394.452,-0.0,1.30561,1.55429,0.0,2,0,0,0
86448867,34.0350428921,108.75642189,422.803,394.554,-0.0,1.30563,1.5541,0.0,2,0,0,0
86647739,34.0350434745,108.756421012,422.85,394.607,-0.0,1.30564,1.55451,0.0,2,0,0,0
86851260,34.0350442874,108.756420015,422.827,394.589,-0.0,1.30566,1.55432,0.0,2,0,0,0
87049903,34.0350451028,108.756419009,422.781,394.55,-0.0,1.30567,1.55413,0.0,2,0,0,0
87248602,34.0350457759,108.756418135,422.769,394.544,-0.0,1.30566,1.55454,0.0,2,0,0,0
87447410,34.0350461426,108.756417171,422.8,394.58,-0.0,1.30565,1.55435,0.0,2,0,0,0
87641000,34.035045993,108.756416131,422.869,394.652,-0.0,1.30548,1.55401,0.0,2,0,0,0
87849667,34.0350456434,108.756415049,422.944,394.73,-0.0,1.30565,1.55399,0.0,2,0,0,0
88048311,34.0350453366,108.756414133,422.981,394.769,-0.0,1.30564,1.5544,0.0,2,0,0,0
88247150,34.0350450112,108.756413278,422.957,394.749,-0.0,1.30563,1.55422,0.0,2,0,0,0
88445689,34.0350446988,108.756412419,422.907,394.702,-0.0,1.30561,1.55403,0.0,2,0,0,0
88649376,34.0350444766,108.756411442,422.869,394.668,-0.0,1.30557,1.55444,0.0,2,0,0,0
88848036,34.0350443834,108.756410302,422.863,394.666,-0.0,1.30556,1.55426,0.0,2,0,0,0
89046843,34.0350445344,108.756409008,422.886,394.692,-0.0,1.30555,1.55467,0.0,2,0,0,0
89245411,34.0350449291,108.756407683,422.929,394.738,-0.0,1.30553,1.55447,0.0,2,0,0,0
89449067,34.0350457583,108.756406704,422.974,394.785,-0.0,1.30552,1.55428,0.0,2,0,0,0
89647756,34.0350470798,108.756406433,423.006,394.82,-0.0,1.30552,1.55409,0.0,2,0,0,0
89846483,34.0350485449,108.756406609,423.029,394.846,-0.0,1.30552,1.5545,0.0,2,0,0,0
90050100,34.0350495822,108.756406625,423.083,394.904,-0.0,1.30552,1.55431,0.0,2,0,0,0
90248789,34.0350503437,108.756406385,423.151,394.974,-0.0,1.30552,1.55413,0.0,2,0,0,0
90442510,34.0350508634,108.756405926,423.207,395.032,-0.0,1.30536,1.55438,0.0,2,0,0,0
90641198,34.0350512944,108.756405228,423.239,395.067,-0.0,1.30537,1.5542,0.0,2,0,0,0
90839889,34.0350516756,108.756404406,423.242,395.074,-0.0,1.30537,1.55403,0.0,2,0,0,0
91048511,34.0350519675,108.756403443,423.213,395.047,-0.0,1.30551,1.55401,0.0,2,0,0,0
91252168,34.0350521553,108.756402627,423.157,394.994,-0.0,1.30551,1.55442,0.0,2,0,0,0
91450856,34.0350525373,108.756402082,423.088,394.928,-0.0,1.30552,1.55423,0.0,2,0,0,0
91649544,34.0350530509,108.756401541,423.024,394.868,-0.0,1.30553,1.55464,0.0,2,0,0,0
91848233,34.0350537423,108.756401125,422.981,394.827,-0.0,1.30555,1.55445,0.0,2,0,0,0
92041955,34.0350545752,108.756400884,422.973,394.82,-0.0,1.30541,1.5541,0.0,2,0,0,0
92240644,34.0350551892,108.75640051,423.012,394.861,-0.0,1.30544,1.55451,0.0,2,0,0,0
92449268,34.0350555324,108.756399788,423.065,394.914,-0.0,1.30563,1.55448,0.0,2,0,0,0
92642989,34.035055647,108.756398871,423.111,394.959,-0.0,1.3055,1.55414,0.0,2,0,0,0
92851612,34.0350557465,108.756397955,423.161,395.009,-0.0,1.30568,1.55411,0.0,2,0,0,0
93050300,34.0350557583,108.756397034,423.193,395.04,-0.0,1.30571,1.55452,0.0,2,0,0,0
93248989,34.0350557848,108.756396065,423.191,395.037,-0.0,1.30574,1.55432,0.0,2,0,0,0
93447679,34.035055794,108.756395211,423.166,395.012,-0.0,1.30577,1.55413,0.0,2,0,0,0
93646373,34.0350558369,108.756394446,423.118,394.964,-0.0,1.3058,1.55453,0.0,2,0,0,0
93845055,34.0350561958,108.756393671,423.043,394.889,-0.0,1.30582,1.55434,0.0,2,0,0,0
94048712,34.0350571368,108.756392775,422.95,394.797,-0.0,1.30584,1.55474,0.0,2,0,0,0
94247400,34.0350584429,108.756391859,422.855,394.702,-0.0,1.30587,1.55454,0.0,2,0,0,0
94446249,34.0350599486,108.756390945,422.801,394.646,-0.0,1.30591,1.55434,0.0,2,0,0,0
94644778,34.0350613311,108.756390166,422.806,394.65,-0.0,1.30594,1.55474,0.0,2,0,0,0
94848434,34.0350625348,108.756389408,422.871,394.712,-0.0,1.30598,1.55453,0.0,2,0,0,0
95047123,34.0350633993,108.756388297,422.972,394.81,-0.0,1.30603,1.55433,0.0,2,0,0,0
95245982,34.0350639158,108.756386772,423.101,394.937,-0.0,1.30609,1.55414,0.0,2,0,0,0
95449475,34.0350643302,108.756385087,423.258,395.091,-0.0,1.30614,1.55454,0.0,2,0,0,0
95643194,34.0350649614,108.756383625,423.373,395.202,-0.0,1.30604,1.55419,0.0,2,0,0,0
95841877,34.0350659274,108.756382412,423.444,395.27,-0.0,1.3061,1.554,0.0,2,0,0,0
96050619,34.0350670759,108.756381276,423.493,395.315,-0.0,1.30632,1.55398,0.0,2,0,0,0
96249196,34.0350680815,108.756380646,423.544,395.364,-0.0,1.30637,1.55439,0.0,2,0,0,0
96447886,34.0350690794,108.75638063,423.612,395.429,-0.0,1.30641,1.55421,0.0,2,0,0,0
96646587,34.0350701278,108.756381216,423.675,395.489,-0.0,1.30646,1.55461,0.0,2,0,0,0
96845310,34.0350711368,108.75638174,423.71,395.523,-0.0,1.3065,1.55442,0.0,2,0,0,0
97043946,34.035072485,108.756382137,423.707,395.518,-0.0,1.30654,1.55423,0.0,2,0,0,0
97247600,34.0350739798,108.756382662,423.663,395.472,-0.0,1.30658,1.55404,0.0,2,0,0,0
97441323,34.0350754204,108.756383224,423.61,395.419,-0.0,1.30644,1.55429,0.0,2,0,0,0
97650045,34.035076897,108.756383456,423.572,395.38,-0.0,1.30664,1.55426,0.0,2,0,0,0
97848633,34.0350781137,108.756383197,423.546,395.353,-0.0,1.30668,1.55408,0.0,2,0,0,0
98047322,34.0350791911,108.756382376,423.522,395.327,-0.0,1.3067,1.5539,0.0,2,0,0,0
98250978,34.0350801489,108.75638125,423.492,395.296,-0.0,1.30672,1.55432,0.0,2,0,0,0
98449797,34.03508089,108.756379982,423.459,395.262,-0.0,1.30674,1.55414,0.0,2,0,0,0
98643394,34.035081605,108.756378787,423.427,395.227,-0.0,1.30659,1.5538,0.0,2,0,0,0
98842077,34.0350827379,108.756377844,423.378,395.177,-0.0,1.30663,1.55423,0.0,2,0,0,0
99040766,34.0350841854,108.7563772,423.324,395.12,-0.0,1.30667,1.55406,0.0,2,0,0,0
99249390,34.0350859714,108.75637672,423.271,395.066,-0.0,1.30687,1.55405,0.0,2,0,0,0
99448078,34.035087778,108.756376353,423.23,395.023,-0.0,1.30688,1.55388,0.0,2,0,0,0
99646767,34.0350897423,108.756376143,423.197,394.989,-0.0,1.3069,1.5543,0.0,2,0,0,0
99850422,34.0350917942,108.75637613,423.177,394.969,-0.0,1.30692,1.55413,0.0,2,0,0,0
100049113,34.0350937446,108.756376233,423.169,394.959,-0.0,1.30695,1.55395,0.0,2,0,0,0
100242833,34.0350955094,108.756376365,423.184,394.973,-0.0,1.30681,1.55421,0.0,2,0,0,0
100441522,34.0350972421,108.756376594,423.22,395.007,-0.0,1.30685,1.55402,0.0,2,0,0,0
100640213,34.0350988542,108.756376886,423.252,395.037,-0.0,1.30688,1.55443,0.0,2,0,0,0
100848835,34.0351003728,108.75637729,423.293,395.076,-0.0,1.30706,1.5544,0.0,2,0,0,0
101047522,34.0351017216,108.756377756,423.337,395.116,-0.0,1.30709,1.55421,0.0,2,0,0,0
101251220,34.0351030087,108.756378245,423.391,395.166,-0.0,1.30708,1.55462,0.0,2,0,0,0
101449868,34.0351040987,108.756378732,423.446,395.217,-0.0,1.30708,1.55443,0.0,2,0,0,0
101648559,34.0351050809,108.756379307,423.485,395.253,-0.0,1.30708,1.55425,0.0,2,0,0,0
101847245,34.0351058671,108.756379879,423.51,395.274,-0.0,1.30708,1.55406,0.0,2,0,0,0
102045941,34.0351065461,108.75638055,423.512,395.273,-0.0,1.30708,1.55448,0.0,2,0,0,0
102244773,34.0351070468,108.75638121,423.508,395.267,-0.0,1.30708,1.55429,0.0,2,0,0,0
102448278,34.0351073468,108.756381882,423.488,395.245,-0.0,1.30708,1.55411,0.0,2,0,0,0
102646967,34.0351076821,108.756382501,423.442,395.197,-0.0,1.30708,1.55393,0.0,2,0,0,0
102850622,34.0351080564,108.756382846,423.377,395.131,-0.0,1.30708,1.55435,0.0,2,0,0,0
103049502,34.0351082924,108.75638266,423.315,395.068,-0.0,1.30707,1.55417,0.0,2,0,0,0
103243034,34.0351085517,108.756382064,423.267,395.019,-0.0,1.30691,1.55384,0.0,2,0,0,0
103441721,34.0351088528,108.756381189,423.236,394.988,-0.0,1.30692,1.55426,0.0,2,0,0,0
103650345,34.0351091089,108.75638023,423.234,394.986,-0.0,1.30709,1.55425,0.0,2,0,0,0
103849143,34.0351092987,108.756379383,423.246,394.999,-0.0,1.3071,1.55408,0.0,2,0,0,0
104047722,34.0351093177,108.756378685,423.279,395.032,-0.0,1.30711,1.55391,0.0,2,0,0,0
104246411,34.0351092303,108.756378135,423.314,395.068,-0.0,1.30712,1.55432,0.0,2,0,0,0
104450067,34.0351089896,108.756377702,423.352,395.107,-0.0,1.30712,1.55413,0.0,2,0,0,0
104648826,34.0351086157,108.756377358,423.394,395.151,-0.0,1.30713,1.55454,0.0,2,0,0,0
104847445,34.0351081671,108.756377089,423.432,395.191,-0.0,1.30714,1.55435,0.0,2,0,0,0
105051106,34.0351075031,108.756376432,423.462,395.223,-0.0,1.30716,1.55417,0.0,2,0,0,0
105249789,34.0351066818,108.756375066,423.467,395.231,-0.0,1.30718,1.55399,0.0,2,0,0,0
105448570,34.0351057946,108.75637309,423.442,395.21,-0.0,1.3072,1.5544,0.0,2,0,0,0
105647167,34.0351047111,108.756370622,423.386,395.158,-0.0,1.30721,1.55422,0.0,2,0,0,0
105840911,34.0351034142,108.756368092,423.325,395.102,-0.0,1.30705,1.55388,0.0,2,0,0,0
106049511,34.0351018834,108.756365746,423.269,395.051,-0.0,1.30724,1.55386,0.0,2,0,0,0
106248265,34.0351004017,108.756363737,423.169,394.958,-0.0,1.30724,1.55428,0.0,2,0,0,0
106451856,34.0350988028,108.756361807,422.993,394.789,-0.0,1.30724,1.55409,0.0,2,0,0,0
106650546,34.0350970996,108.756360104,422.749,394.553,-0.0,1.30724,1.55392,0.0,2,0,0,0
106849233,34.0350951552,108.756358457,422.51,394.321,-0.0,1.30723,1.55432,0.0,2,0,0,0
107047926,34.0350930399,108.756357381,422.322,394.136,-0.0,1.30721,1.55411,0.0,2,0,0,0
107246610,34.0350910187,108.756356756,422.239,394.057,-0.0,1.30718,1.55389,0.0,2,0,0,0
107440332,34.0350890999,108.75635621,422.269,394.091,-0.0,1.30699,1.5541,0.0,2,0,0,0
107648955,34.0350870729,108.756355869,422.411,394.234,-0.0,1.30715,1.55399,0.0,2,0,0,0
107847644,34.0350852512,108.756355827,422.608,394.434,-0.0,1.30713,1.55373,0.0,2,0,0,0
108046336,34.0350837117,108.756355863,422.841,394.669,-0.0,1.30712,1.55406,0.0,2,0,0,0
108249989,34.0350821478,108.756355979,423.096,394.926,-0.0,1.30709,1.55379,0.0,2,0,0,0
108438937,34.0350807035,108.756356642,423.32,395.152,-0.0,1.30691,1.55338,0.0,2,0,0,0
108642399,34.0350792657,108.756357844,423.502,395.336,-0.0,1.3069,1.5537,0.0,2,0,0,0
108841105,34.0350778811,108.756359121,423.632,395.47,-0.0,1.3069,1.55343,0.0,2,0,0,0
109049711,34.0350764096,108.756360177,423.727,395.568,-0.0,1.30705,1.5533,0.0,2,0,0,0
109248403,34.0350749063,108.756361062,423.774,395.62,-0.0,1.30702,1.55362,0.0,2,0,0,0
109447089,34.035073437,108.756362114,423.766,395.616,-0.0,1.30699,1.55336,0.0,2,0,0,0
109645778,34.0350719052,108.756363296,423.725,395.58,-0.0,1.30695,1.55312,0.0,2,0,0,0
109849434,34.0350702782,108.756364648,423.677,395.536,-0.0,1.3069,1.55288,0.0,2,0,0,0
110048325,34.0350686291,108.756366054,423.633,395.496,-0.0,1.30684,1.55322,0.0,2,0,0,0
110246811,34.0350669841,108.756367192,423.585,395.45,-0.0,1.30681,1.55301,0.0,2,0,0,0
110445500,34.0350652383,108.756367756,423.528,395.395,-0.0,1.30678,1.5528,0.0,2,0,0,0
110649156,34.0350633237,108.756367801,423.459,395.328,-0.0,1.30675,1.55317,0.0,2,0,0,0
110847972,34.0350615097,108.756367763,423.372,395.244,-0.0,1.30673,1.55298,0.0,2,0,0,0
111046533,34.0350595549,108.756367713,423.248,395.122,-0.0,1.30671,1.5528,0.0,2,0,0,0
111250233,34.0350576281,108.756367788,423.073,394.949,-0.0,1.30669,1.55319,0.0,2,0,0,0
111448878,34.035055758,108.756367635,422.891,394.768,-0.0,1.30668,1.55302,0.0,2,0,0,0
111647668,34.0350537971,108.756367067,422.734,394.613,-0.0,1.30666,1.55343,0.0,2,0,0,0
111841289,34.0350518307,108.756366286,422.616,394.497,-0.0,1.30648,1.55311,0.0,2,0,0,0
112049912,34.0350495893,108.756365136,422.525,394.407,-0.0,1.30665,1.55311,0.0,2,0,0,0
112243634,34.03504754,108.756364109,422.474,394.357,-0.0,1.3065,1.55339,0.0,2,0,0,0
112442423,34.0350454024,108.756363222,422.45,394.331,-0.0,1.30651,1.55325,0.0,2,0,0,0
112650946,34.0350430943,108.756362374,422.445,394.326,-0.0,1.30669,1.55328,0.0,2,0,0,0
112849634,34.0350408681,108.756361722,422.459,394.338,-0.0,1.30669,1.55315,0.0,2,0,0,0
113048328,34.0350387342,108.756361173,422.494,394.371,-0.0,1.30667,1.55303,0.0,2,0,0,0
113247041,34.0350366659,108.756360663,422.547,394.421,-0.0,1.30666,1.55349,0.0,2,0,0,0
113445750,34.0350345976,108.756360343,422.612,394.485,-0.0,1.30667,1.55337,0.0,2,0,0,0
113649356,34.0350323567,108.756360075,422.687,394.558,-0.0,1.30666,1.55382,0.0,2,0,0,0
113843078,34.0350298596,108.756359919,422.774,394.643,-0.0,1.30651,1.55354,0.0,2,0,0,0
114041770,34.0350272182,108.75635986,422.859,394.726,-0.0,1.30652,1.55343,0.0,2,0,0,0
114250392,34.0350240859,108.756359871,422.941,394.805,-0.0,1.3067,1.55347,0.0,2,0,0,0
114444112,34.0350209363,108.756359925,423.015,394.877,-0.0,1.30654,1.55376,0.0,2,0,0,0
114642801,34.0350176295,108.756359957,423.073,394.932,-0.0,1.30656,1.55423,0.0,2,0,0,0
114851424,34.0350144171,108.75635996,423.08,394.937,-0.0,1.30674,1.55425,0.0,2,0,0,0
115050113,34.0350113895,108.756360078,423.054,394.908,-0.0,1.30676,1.55411,0.0,2,0,0,0
115248805,34.0350084528,108.756360248,422.987,394.839,-0.0,1.30678,1.55396,0.0,2,0,0,0
115447491,34.0350055572,108.756360613,422.883,394.733,-0.0,1.30678,1.55441,0.0,2,0,0,0
115646180,34.035002774,108.756360963,422.753,394.602,-0.0,1.30679,1.55427,0.0,2,0,0,0
115849835,34.035000085,108.756361046,422.594,394.441,-0.0,1.3068,1.55412,0.0,2,0,0,0
116048526,34.0349974061,108.7563608,422.415,394.262,-0.0,1.30679,1.55397,0.0,2,0,0,0
116252191,34.0349945651,108.756360799,422.267,394.113,-0.0,1.30681,1.55442,0.0,2,0,0,0
116450869,34.034991826,108.75636083,422.151,393.995,-0.0,1.30684,1.55427,0.0,2,0,0,0
116649558,34.0349891918,108.756360853,422.072,393.913,-0.0,1.30688,1.55413,0.0,2,0,0,0
116843280,34.034986641,108.756360692,422.021,393.859,-0.0,1.30674,1.55441,0.0,2,0,0,0
117042129,34.034984102,108.756360181,421.995,393.831,-0.0,1.30678,1.55426,0.0,2,0,0,0
117240657,34.0349815568,108.75635952,422.013,393.847,-0.0,1.30682,1.55412,0.0,2,0,0,0
117449299,34.0349788526,108.7563588,422.045,393.876,-0.0,1.30704,1.55413,0.0,2,0,0,0
117647969,34.034976279,108.756358136,422.093,393.922,-0.0,1.30708,1.55458,0.0,2,0,0,0
117846814,34.0349736665,108.756357303,422.163,393.989,-0.0,1.30713,1.55443,0.0,2,0,0,0
118045347,34.0349710644,108.756356352,422.245,394.069,-0.0,1.30716,1.55427,0.0,2,0,0,0
118249003,34.0349685361,108.756355381,422.353,394.176,-0.0,1.30718,1.55471,0.0,2,0,0,0
118447693,34.0349659975,108.756354392,422.446,394.268,-0.0,1.30721,1.55455,0.0,2,0,0,0
118646545,34.0349634867,108.756353398,422.5,394.32,-0.0,1.30723,1.55438,0.0,2,0,0,0
118840103,34.0349611007,108.756352386,422.495,394.313,-0.0,1.30708,1.55465,0.0,2,0,0,0
119048726,34.0349586537,108.756351418,422.485,394.301,-0.0,1.30727,1.55465,0.0,2,0,0,0
119242467,34.0349564496,108.756350562,422.49,394.304,-0.0,1.30712,1.5543,0.0,2,0,0,0
119451219,34.0349541441,108.756349652,422.503,394.315,-0.0,1.30732,1.5549,0.0,2,0,0,0
119649760,34.0349520072,108.756348936,422.495,394.305,-0.0,1.30735,1.55472,0.0,2,0,0,0
119848449,34.0349499288,108.75634856,422.462,394.27,-0.0,1.30737,1.55454,0.0,2,0,0,0
120047191,34.0349478513,108.756348529,422.393,394.2,-0.0,1.3074,1.55436,0.0,2,0,0,0
120245877,34.0349458089,108.756348964,422.301,394.106,-0.0,1.3074,1.55478,0.0,2,0,0,0
120449482,34.0349437417,108.756349434,422.215,394.019,-0.0,1.30741,1.55459,0.0,2,0,0,0
120648171,34.0349416945,108.756350102,422.176,393.979,-0.0,1.30742,1.5544,0.0,2,0,0,0
120846860,34.0349396433,108.756350862,422.173,393.975,-0.0,1.30744,1.55482,0.0,2,0,0,0
121045572,34.0349376952,108.756351579,422.165,393.966,-0.0,1.30745,1.55463,0.0,2,0,0,0
121249205,34.0349356738,108.756352057,422.175,393.973,-0.0,1.30746,1.55444,0.0,2,0,0,0
121442930,34.034933775,108.756352258,422.203,393.999,-0.0,1.30731,1.55469,0.0,2,0,0,0
121641616,34.0349318666,108.756352309,422.258,394.051,-0.0,1.30734,1.55451,0.0,2,0,0,0
121850299,34.0349298437,108.756351724,422.32,394.11,-0.0,1.30754,1.55449,0.0,2,0,0,0
122048930,34.0349278362,108.756350602,422.378,394.163,-0.0,1.30755,1.55431,0.0,2,0,0,0
122242650,34.0349259241,108.756349793,422.409,394.191,-0.0,1.3074,1.55457,0.0,2,0,0,0
122441358,34.0349239837,108.756349046,422.442,394.222,-0.0,1.3074,1.55439,0.0,2,0,0,0
122649962,34.0349219199,108.756348543,422.488,394.267,-0.0,1.30757,1.55438,0.0,2,0,0,0
122848651,34.0349198856,108.756348323,422.546,394.323,-0.0,1.30757,1.5542,0.0,2,0,0,0
123047354,34.0349177948,108.756348277,422.611,394.387,-0.0,1.30757,1.55462,0.0,2,0,0,0
123250996,34.0349156464,108.75634821,422.669,394.443,-0.0,1.30757,1.55444,0.0,2,0,0,0
123449685,34.0349134467,108.756348257,422.708,394.481,-0.0,1.30756,1.55426,0.0,2,0,0,0
123648375,34.0349110987,108.756348407,422.721,394.493,-0.0,1.30754,1.55409,0.0,2,0,0,0
123847062,34.0349085394,108.756348598,422.696,394.466,-0.0,1.30753,1.55451,0.0,2,0,0,0
124050719,34.0349060316,108.756348861,422.631,394.398,-0.0,1.30752,1.55433,0.0,2,0,0,0
124249470,34.0349038282,108.756349266,422.521,394.286,-0.0,1.3075,1.55416,0.0,2,0,0,0
124443131,34.0349020311,108.756349757,422.388,394.152,-0.0,1.30733,1.55442,0.0,2,0,0,0
124651800,34.0349001611,108.7563501,422.227,393.988,-0.0,1.30748,1.55441,0.0,2,0,0,0
124850444,34.0348984245,108.756349987,422.052,393.81,-0.0,1.30748,1.55424,0.0,2,0,0,0
125049130,34.0348967639,108.756349462,421.921,393.676,-0.0,1.30749,1.55466,0.0,2,0,0,0
125247819,34.0348955408,108.756350211,422.005,393.753,-0.0,1.30747,1.55448,0.0,2,0,0,0
125441588,34.0348938816,108.756351525,422.155,393.899,-0.0,1.30732,1.55414,0.0,2,0,0,0
125640400,34.0348920901,108.756353038,422.37,394.11,-0.0,1.30735,1.55454,0.0,2,0,0,0
125848853,34.0348898972,108.75635484,422.639,394.373,-0.0,1.30754,1.55449,0.0,2,0,0,0
126047538,34.034887694,108.756356599,422.877,394.607,-0.0,1.30757,1.55426,0.0,2,0,0,0
126251198,34.0348855729,108.756358441,423.068,394.794,-0.0,1.30758,1.55403,0.0,2,0,0,0
126450021,34.0348835552,108.756359853,423.186,394.908,-0.0,1.30759,1.55437,0.0,2,0,0,0
126648576,34.0348815368,108.756360732,423.243,394.962,-0.0,1.30761,1.55411,0.0,2,0,0,0
126847265,34.0348794366,108.756360905,423.278,394.995,-0.0,1.30762,1.55384,0.0,2,0,0,0
127040986,34.034877359,108.756360927,423.304,395.019,-0.0,1.30745,1.55401,0.0,2,0,0,0
127249704,34.0348752411,108.756360832,423.298,395.012,-0.0,1.30762,1.55387,0.0,2,0,0,0
127448299,34.0348739525,108.756360743,423.253,394.966,-0.0,1.30762,1.5536,0.0,2,0,0,0
127651955,34.0348734425,108.756360525,423.163,394.875,-0.0,1.30763,1.55332,0.0,2,0,0,0
127850641,34.0348731326,108.756360437,423.043,394.755,-0.0,1.30766,1.55362,0.0,2,0,0,0
128049400,34.0348725934,108.756360636,422.928,394.638,-0.0,1.30765,1.55335,0.0,2,0,0,0
128248024,34.0348720996,108.756360797,422.835,394.543,-0.0,1.30767,1.55309,0.0,2,0,0,0
128446711,34.034871449,108.756360613,422.785,394.49,-0.0,1.3077,1.55283,0.0,2,0,0,0
128645399,34.0348707296,108.756359784,422.778,394.478,-0.0,1.30774,1.55315,0.0,2,0,0,0
128844108,34.0348699599,108.756358482,422.809,394.504,-0.0,1.30776,1.55291,0.0,2,0,0,0
129047744,34.0348692778,108.756357205,422.871,394.56,-0.0,1.3078,1.55324,0.0,2,0,0,0
129251400,34.0348686986,108.756355849,422.946,394.63,-0.0,1.30785,1.55301,0.0,2,0,0,0
129450090,34.034868202,108.756354563,423.035,394.715,-0.0,1.3079,1.5528,0.0,2,0,0,0
129648832,34.0348678906,108.756353375,423.133,394.809,-0.0,1.30794,1.5526,0.0,2,0,0,0
129842500,34.0348675089,108.756352413,423.203,394.875,-0.0,1.30781,1.55283,0.0,2,0,0,0
130041195,34.0348670038,108.756351631,423.254,394.922,-0.0,1.30785,1.55265,0.0,2,0,0,0
130244845,34.0348664332,108.756350857,423.275,394.94,-0.0,1.30788,1.55249,0.0,2,0,0,0
130443534,34.0348658842,108.7563502,423.246,394.908,-0.0,1.3079,1.55289,0.0,2,0,0,0
130642223,34.0348652388,108.756349729,423.154,394.813,-0.0,1.3079,1.55274,0.0,2,0,0,0
130850846,34.0348645225,108.756349248,422.997,394.655,-0.0,1.30807,1.55275,0.0,2,0,0,0
131049557,34.0348636083,108.756348852,422.852,394.507,-0.0,1.30805,1.55262,0.0,2,0,0,0
131248232,34.0348625929,108.756348614,422.723,394.375,-0.0,1.30803,1.55306,0.0,2,0,0,0
131441948,34.0348615207,108.756348535,422.627,394.274,-0.0,1.30783,1.55279,0.0,2,0,0,0
131650571,34.0348601589,108.756348681,422.536,394.178,-0.0,1.30799,1.55283,0.0,2,0,0,0
131849258,34.0348589496,108.756348848,422.468,394.105,-0.0,1.30798,1.55273,0.0,2,0,0,0
132047947,34.0348580138,108.756349013,422.407,394.039,-0.0,1.30797,1.55319,0.0,2,0,0,0
132241665,34.0348575121,108.756349299,422.363,393.989,-0.0,1.3078,1.55293,0.0,2,0,0,0
132450292,34.0348572921,108.756349668,422.318,393.939,-0.0,1.30796,1.55298,0.0,2,0,0,0
132649185,34.0348568373,108.75635002,422.292,393.908,-0.0,1.30796,1.55345,0.0,2,0,0,0
132842703,34.0348564307,108.756350382,422.281,393.89,-0.0,1.30778,1.55375,0.0,2,0,0,0
133051326,34.0348559149,108.756350894,422.262,393.865,-0.0,1.30795,1.55378,0.0,2,0,0,0
133250015,34.0348553076,108.756351464,422.232,393.829,-0.0,1.30794,1.55365,0.0,2,0,0,0
133448916,34.0348547298,108.756352112,422.183,393.775,-0.0,1.30794,1.5541,0.0,2,0,0,0
133642426,34.03485405,108.756352864,422.126,393.713,-0.0,1.30777,1.5538,0.0,2,0,0,0
133841115,34.0348533252,108.756353608,422.063,393.646,-0.0,1.30776,1.55366,0.0,2,0,0,0
134049739,34.0348528362,108.756354156,422.007,393.586,-0.0,1.30792,1.55428,0.0,2,0,0,0
134248546,34.0348529962,108.756354083,421.989,393.564,-0.0,1.30789,1.55415,0.0,2,0,0,0
134447118,34.0348537683,108.756353762,421.986,393.557,-0.0,1.30787,1.554,0.0,2,0,0,0
134645805,34.0348546118,108.756353353,422.009,393.577,-0.0,1.30785,1.55445,0.0,2,0,0,0
134849461,34.0348553805,108.756352974,422.066,393.63,-0.0,1.30783,1.5543,0.0,2,0,0,0
135048244,34.0348561892,108.756352509,422.162,393.724,-0.0,1.30784,1.55415,0.0,2,0,0,0
135241872,34.0348569692,108.756352492,422.26,393.819,-0.0,1.30767,1.55444,0.0,2,0,0,0
135440561,34.0348577956,108.756352742,422.338,393.896,-0.0,1.30769,1.55429,0.0,2,0,0,0
135649190,34.034858428,108.756353063,422.413,393.971,-0.0,1.30787,1.55431,0.0,2,0,0,0
135847932,34.0348589028,108.756353535,422.469,394.028,-0.0,1.30788,1.55416,0.0,2,0,0,0
136051530,34.0348594499,108.756354187,422.5,394.06,-0.0,1.30789,1.5546,0.0,2,0,0,0
136250219,34.0348599554,108.756354982,422.484,394.044,-0.0,1.30791,1.55444,0.0,2,0,0,0
136448908,34.0348603219,108.756355721,422.435,393.994,-0.0,1.30793,1.55427,0.0,2,0,0,0
136647617,34.0348607057,108.756356459,422.376,393.935,-0.0,1.30796,1.5547,0.0,2,0,0,0
136846285,34.0348613032,108.75635706,422.345,393.901,-0.0,1.30798,1.55453,0.0,2,0,0,0
137044976,34.0348620617,108.756357392,422.337,393.891,-0.0,1.308,1.55435,0.0,2,0,0,0
137248630,34.0348629266,108.756357378,422.384,393.935,-0.0,1.30801,1.55478,0.0,2,0,0,0
137447321,34.0348636872,108.756357212,422.46,394.008,-0.0,1.30804,1.55459,0.0,2,0,0,0
137646008,34.0348643531,108.756357048,422.585,394.13,-0.0,1.30808,1.55501,0.0,2,0,0,0
137849665,34.0348648617,108.756356819,422.754,394.297,-0.0,1.30812,1.55481,0.0,2,0,0,0
138048353,34.0348649377,108.756356625,422.952,394.494,-0.0,1.30818,1.55461,0.0,2,0,0,0
138247044,34.0348650663,108.756356445,423.147,394.687,-0.0,1.30822,1.55502,0.0,2,0,0,0
138440775,34.0348652114,108.756356243,423.326,394.864,-0.0,1.30809,1.55466,0.0,2,0,0,0
138649390,34.0348654482,108.756355967,423.473,395.011,-0.0,1.30831,1.55463,0.0,2,0,0,0
138838342,34.0348655892,108.756355824,423.553,395.093,-0.0,1.30818,1.55488,0.0,2,0,0,0
139051732,34.0348655674,108.756355719,423.58,395.122,-0.0,1.30838,1.55485,0.0,2,0,0,0
139250416,34.0348655461,108.756355712,423.528,395.073,-0.0,1.3084,1.55466,0.0,2,0,0,0
139449110,34.034865458,108.756355741,423.441,394.989,-0.0,1.30841,1.55447,0.0,2,0,0,0
139647824,34.0348653328,108.756355745,423.326,394.877,-0.0,1.30841,1.55489,0.0,2,0,0,0
139846494,34.0348651502,108.756355788,423.195,394.751,-0.0,1.30839,1.5547,0.0,2,0,0,0
140045178,34.0348651937,108.756355958,423.046,394.606,-0.0,1.30835,1.55451,0.0,2,0,0,0
140248833,34.0348653394,108.756356151,422.88,394.446,-0.0,1.30834,1.55493,0.0,2,0,0,0
140447706,34.0348653269,108.756356355,422.757,394.325,-0.0,1.30833,1.55474,0.0,2,0,0,0
140651178,34.0348654902,108.756356728,422.676,394.246,-0.0,1.30835,1.55455,0.0,2,0,0,0
140849870,34.0348656444,108.756357046,422.655,394.226,-0.0,1.30836,1.55437,0.0,2,0,0,0
141043609,34.0348657322,108.756357322,422.693,394.264,-0.0,1.30823,1.55463,0.0,2,0,0,0
141242390,34.0348659415,108.756357512,422.773,394.346,-0.0,1.30826,1.55445,0.0,2,0,0,0
141450905,34.0348664933,108.756357462,422.874,394.448,-0.0,1.30849,1.55443,0.0,2,0,0,0
141649590,34.0348672086,108.756357177,423.009,394.585,-0.0,1.30855,1.55426,0.0,2,0,0,0
141848279,34.0348682054,108.756356825,423.157,394.736,-0.0,1.30862,1.55468,0.0,2,0,0,0
142047072,34.034869531,108.756356716,423.274,394.856,-0.0,1.30868,1.55451,0.0,2,0,0,0
142245656,34.0348710883,108.756356675,423.359,394.945,-0.0,1.30872,1.55433,0.0,2,0,0,0
142444345,34.0348725666,108.756356651,423.418,395.008,-0.0,1.30875,1.55415,0.0,2,0,0,0
142648001,34.0348740588,108.756356667,423.441,395.033,-0.0,1.30879,1.55457,0.0,2,0,0,0
142846759,34.0348754728,108.756356674,423.408,395.002,-0.0,1.30881,1.55439,0.0,2,0,0,0
143045381,34.0348767922,108.756356621,423.328,394.924,-0.0,1.30883,1.55421,0.0,2,0,0,0
143249057,34.0348782984,108.756356764,423.22,394.818,-0.0,1.30884,1.55464,0.0,2,0,0,0
143442757,34.0348799288,108.756357041,423.142,394.741,-0.0,1.30868,1.5543,0.0,2,0,0,0
143641464,34.0348816456,108.75635741,423.1,394.701,-0.0,1.30871,1.55411,0.0,2,0,0,0
143850069,34.0348832161,108.756357808,423.108,394.711,-0.0,1.30892,1.5541,0.0,2,0,0,0
144048758,34.034884661,108.75635832,423.156,394.761,-0.0,1.30893,1.55452,0.0,2,0,0,0
144247447,34.0348860456,108.756358955,423.23,394.836,-0.0,1.30896,1.55434,0.0,2,0,0,0
144446142,34.0348873573,108.756359618,423.325,394.932,-0.0,1.30898,1.55416,0.0,2,0,0,0
144649795,34.0348886331,108.756360203,423.442,395.048,-0.0,1.309,1.55458,0.0,2,0,0,0
144848480,34.0348897432,108.756360643,423.566,395.172,-0.0,1.30902,1.55439,0.0,2,0,0,0
145047204,34.0348905932,108.756361172,423.712,395.319,-0.0,1.30904,1.55481,0.0,2,0,0,0
145245921,34.03489142,108.756361946,423.85,395.457,-0.0,1.30905,1.55461,0.0,2,0,0,0
145444547,34.0348921745,108.756362877,423.935,395.545,-0.0,1.30905,1.55442,0.0,2,0,0,0
145648203,34.0348929615,108.756363788,423.976,395.589,-0.0,1.30903,1.55483,0.0,2,0,0,0
145851859,34.0348937797,108.756364701,423.953,395.57,-0.0,1.30901,1.55464,0.0,2,0,0,0
146050555,34.0348947354,108.756365703,423.878,395.499,-0.0,1.30896,1.55445,0.0,2,0,0,0
146249237,34.0348958601,108.756366912,423.749,395.376,-0.0,1.30891,1.55426,0.0,2,0,0,0
146443013,34.0348970022,108.756368307,423.602,395.236,-0.0,1.30869,1.55452,0.0,2,0,0,0
146641647,34.0348983409,108.756369879,423.426,395.066,-0.0,1.30865,1.55434,0.0,2,0,0,0
146840338,34.0348998146,108.75637137,423.244,394.891,-0.0,1.30859,1.55416,0.0,2,0,0,0
147048959,34.0349013235,108.756372824,423.075,394.728,-0.0,1.3087,1.55414,0.0,2,0,0,0
147242681,34.0349025525,108.756374091,422.964,394.623,-0.0,1.30848,1.5544,0.0,2,0,0,0
147451306,34.0349038561,108.756375354,422.88,394.544,-0.0,1.3086,1.55438,0.0,2,0,0,0
147650017,34.0349050865,108.756376557,422.821,394.493,-0.0,1.30855,1.5542,0.0,2,0,0,0
147848682,34.034906183,108.756377817,422.789,394.467,-0.0,1.3085,1.55462,0.0,2,0,0,0
148047372,34.0349072519,108.756379064,422.789,394.475,-0.0,1.30846,1.55443,0.0,2,0,0,0
148246219,34.0349083119,108.756380228,422.814,394.507,-0.0,1.30841,1.55425,0.0,2,0,0,0
148449716,34.0349094519,108.756381406,422.862,394.562,-0.0,1.30836,1.55406,0.0,2,0,0,0
148648404,34.0349105823,108.756382609,422.936,394.645,-0.0,1.30832,1.55448,0.0,2,0,0,0
148842186,34.0349117153,108.75638385,423.038,394.753,-0.0,1.30809,1.55414,0.0,2,0,0,0
149050904,34.0349131331,108.75638522,423.168,394.891,-0.0,1.30822,1.55472,0.0,2,0,0,0
149249439,34.034914475,108.756386675,423.301,395.031,-0.0,1.30819,1.55453,0.0,2,0,0,0
149448127,34.0349157823,108.756388385,423.412,395.149,-0.0,1.30815,1.55435,0.0,2,0,0,0
149641848,34.0349170626,108.756390238,423.483,395.227,-0.0,1.30793,1.5546,0.0,2,0,0,0
149850585,34.0349185052,108.756392032,423.514,395.267,-0.0,1.30806,1.55458,0.0,2,0,0,0
150049160,34.034919832,108.756393672,423.489,395.252,-0.0,1.30802,1.5544,0.0,2,0,0,0
150247849,34.0349210527,108.756395453,423.405,395.177,-0.0,1.30797,1.55422,0.0,2,0,0,0
150446538,34.0349220227,108.756397322,423.267,395.049,-0.0,1.30792,1.55464,0.0,2,0,0,0
150645340,34.0349227023,108.756399273,423.096,394.89,-0.0,1.30787,1.55445,0.0,2,0,0,0
150848883,34.034923272,108.756401399,422.944,394.749,-0.0,1.30779,1.55427,0.0,2,0,0,0
151047572,34.0349238867,108.756403636,422.816,394.633,-0.0,1.30774,1.55467,0.0,2,0,0,0
151251228,34.0349245766,108.756405871,422.722,394.55,-0.0,1.30769,1.55447,0.0,2,0,0,0
151449962,34.0349249392,108.756408012,422.669,394.51,-0.0,1.30764,1.55427,0.0,2,0,0,0
151648605,34.0349250921,108.756410136,422.652,394.505,-0.0,1.3076,1.55467,0.0,2,0,0,0
151842327,34.0349252406,108.756412089,422.67,394.534,-0.0,1.30741,1.55431,0.0,2,0,0,0
152041016,34.0349254374,108.75641424,422.711,394.585,-0.0,1.30737,1.55412,0.0,2,0,0,0
152249763,34.0349258297,108.756416753,422.773,394.657,-0.0,1.30753,1.55469,0.0,2,0,0,0
152448328,34.034926235,108.75641942,422.852,394.745,-0.0,1.30753,1.5545,0.0,2,0,0,0
152647064,34.0349266163,108.75642204,422.947,394.85,-0.0,1.30752,1.55431,0.0,2,0,0,0
152850673,34.0349268866,108.756424785,423.072,394.987,-0.0,1.30749,1.55471,0.0,2,0,0,0
153049361,34.0349270342,108.756427489,423.217,395.143,-0.0,1.30746,1.55452,0.0,2,0,0,0
153248050,34.0349272148,108.756430035,423.349,395.287,-0.0,1.30743,1.55432,0.0,2,0,0,0
153446739,34.0349274712,108.756432526,423.425,395.374,-0.0,1.3074,1.55474,0.0,2,0,0,0
153640461,34.0349277062,108.756434936,423.448,395.408,-0.0,1.3072,1.55438,0.0,2,0,0,0
153849124,34.0349279338,108.756437626,423.433,395.405,-0.0,1.30734,1.55435,0.0,2,0,0,0
154047773,34.0349281779,108.756440182,423.395,395.379,-0.0,1.3073,1.55476,0.0,2,0,0,0
154251430,34.0349284252,108.756442858,423.367,395.363,-0.0,1.30726,1.55456,0.0,2,0,0,0
154450117,34.0349286551,108.756445526,423.368,395.376,-0.0,1.30722,1.55436,0.0,2,0,0,0
154648806,34.0349287406,108.756448317,423.394,395.412,-0.0,1.30717,1.55477,0.0,2,0,0,0
154842528,34.0349287846,108.756451285,423.422,395.45,-0.0,1.30696,1.55441,0.0,2,0,0,0
155041252,34.034928913,108.756454558,423.408,395.446,-0.0,1.30692,1.55422,0.0,2,0,0,0
155240062,34.0349289856,108.756457812,423.343,395.391,-0.0,1.30689,1.55462,0.0,2,0,0,0
155448529,34.0349289768,108.756461209,423.262,395.32,-0.0,1.30702,1.55458,0.0,2,0,0,0
155647217,34.0349288952,108.756464298,423.239,395.307,-0.0,1.30698,1.55438,0.0,2,0,0,0
155845907,34.0349283667,108.756467287,423.274,395.35,-0.0,1.30698,1.55479,0.0,2,0,0,0
156044766,34.034926978,108.756469758,423.355,395.439,-0.0,1.30695,1.55459,0.0,2,0,0,0
156248251,34.0349249321,108.756472008,423.481,395.572,-0.0,1.30696,1.5544,0.0,2,0,0,0
156446944,34.0349229453,108.75647412,423.564,395.662,-0.0,1.30698,1.55421,0.0,2,0,0,0
156645630,34.0349208948,108.756476329,423.575,395.682,-0.0,1.30699,1.55462,0.0,2,0,0,0
156844481,34.0349189832,108.756478581,423.524,395.641,-0.0,1.307,1.55443,0.0,2,0,0,0
157047969,34.0349169869,108.75648083,423.427,395.554,-0.0,1.307,1.55424,0.0,2,0,0,0
157251634,34.0349149836,108.756482896,423.345,395.481,-0.0,1.30698,1.55406,0.0,2,0,0,0
157450318,34.0349131402,108.756484459,423.306,395.451,-0.0,1.30697,1.55447,0.0,2,0,0,0
157649172,34.0349115215,108.7564856,423.327,395.48,-0.0,1.30696,1.5543,0.0,2,0,0,0
157847696,34.0349100404,108.756486475,423.386,395.545,-0.0,1.30698,1.55412,0.0,2,0,0,0
158046388,34.0349086003,108.756487287,423.462,395.627,-0.0,1.30696,1.55454,0.0,2,0,0,0
158250061,34.0349072592,108.756488195,423.507,395.677,-0.0,1.30697,1.55435,0.0,2,0,0,0
158448802,34.0349058359,108.756488898,423.479,395.655,-0.0,1.30699,1.55416,0.0,2,0,0,0
158647419,34.0349044782,108.756489703,423.379,395.563,-0.0,1.30698,1.55457,0.0,2,0,0,0
158851077,34.0349030249,108.756490572,423.274,395.465,-0.0,1.30696,1.55438,0.0,2,0,0,0
159049763,34.0349017295,108.756491518,423.207,395.406,-0.0,1.30692,1.55419,0.0,2,0,0,0
159248488,34.0349005747,108.756492542,423.182,395.388,-0.0,1.30688,1.55461,0.0,2,0,0,0
159442218,34.0348994106,108.756493598,423.181,395.394,-0.0,1.30669,1.55426,0.0,2,0,0,0
159650797,34.0348982161,108.756494735,423.237,395.455,-0.0,1.30684,1.55424,0.0,2,0,0,0
159849486,34.0348970953,108.756495902,423.337,395.56,-0.0,1.30684,1.55406,0.0,2,0,0,0
160048179,34.03489599,108.756497121,423.438,395.668,-0.0,1.30682,1.55448,0.0,2,0,0,0
160241897,34.0348950252,108.756498464,423.5,395.737,-0.0,1.30665,1.55414,0.0,2,0,0,0
160450524,34.0348941247,108.756499928,423.477,395.721,-0.0,1.30679,1.55411,0.0,2,0,0,0
160649211,34.0348930972,108.756501142,423.379,395.631,-0.0,1.30676,1.55453,0.0,2,0,0,0
160847899,34.0348919,108.756501936,423.176,395.436,-0.0,1.30673,1.55434,0.0,2,0,0,0
161046586,34.0348906905,108.756502291,422.902,395.17,-0.0,1.30671,1.55416,0.0,2,0,0,0
161245276,34.0348891564,108.756502174,422.685,394.961,-0.0,1.30667,1.55458,0.0,2,0,0,0
161448931,34.034887601,108.756501962,422.576,394.858,-0.0,1.30664,1.55438,0.0,2,0,0,0
161647619,34.0348862862,108.756501767,422.562,394.85,-0.0,1.30661,1.55478,0.0,2,0,0,0
161846309,34.0348850534,108.756501751,422.603,394.894,-0.0,1.30662,1.55459,0.0,2,0,0,0
162049966,34.034883828,108.756501773,422.66,394.954,-0.0,1.30662,1.55439,0.0,2,0,0,0
162248653,34.0348826966,108.75650165,422.719,395.016,-0.0,1.30662,1.5548,0.0,2,0,0,0
162447360,34.0348817337,108.756501491,422.782,395.082,-0.0,1.30661,1.5546,0.0,2,0,0,0
162651000,34.0348807373,108.756501462,422.866,395.168,-0.0,1.30662,1.5544,0.0,2,0,0,0
162844719,34.0348799457,108.756501439,422.929,395.231,-0.0,1.30646,1.55464,0.0,2,0,0,0
