timestamp,q[0],q[1],q[2],q[3],delta_q_reset[0],delta_q_reset[1],delta_q_reset[2],delta_q_reset[3],quat_reset_counter
25645297,0.995052,0.010365,-0.0109792,0.0981985,0.999911,1.42633e-10,-2.11556e-10,-0.013359,3
25650266,0.99506,0.0104132,-0.0110831,0.0981084,0.999911,1.42633e-10,-2.11556e-10,-0.013359,3
25699934,0.994997,0.0104412,-0.0111277,0.0987293,0.999911,1.42633e-10,-2.11556e-10,-0.013359,3
25749606,0.995067,0.0104882,-0.0111386,0.0980213,0.999911,1.42633e-10,-2.11556e-10,-0.013359,3
25799282,0.995051,0.0101198,-0.0111368,0.0982237,0.999911,1.42633e-10,-2.11556e-10,-0.013359,3
25849054,0.995045,0.0101831,-0.0111877,0.0982652,0.999911,1.42633e-10,-2.11556e-10,-0.013359,3
25898672,0.99507,0.0103698,-0.010932,0.0980211,0.999911,1.42633e-10,-2.11556e-10,-0.013359,3
25948295,0.99504,0.010679,-0.011183,0.0982639,0.999911,1.42633e-10,-2.11556e-10,-0.013359,3
25997966,0.995045,0.0104879,-0.0113108,0.0982221,0.999911,1.42633e-10,-2.11556e-10,-0.013359,3
26047638,0.995091,0.0105658,-0.0113137,0.0977495,0.999911,1.42633e-10,-2.11556e-10,-0.013359,3
26102308,0.995092,0.0107094,-0.0113556,0.0977176,0.999911,1.42633e-10,-2.11556e-10,-0.013359,3
26151950,0.995114,0.0104771,-0.0112288,0.0975347,0.999911,1.42633e-10,-2.11556e-10,-0.013359,3
26196654,0.995133,0.010271,-0.0110983,0.0973705,0.999911,1.42633e-10,-2.11556e-10,-0.013359,3
26246325,0.995133,0.0108184,-0.0112299,0.0972981,0.999911,1.42633e-10,-2.11556e-10,-0.013359,3
26300964,0.995162,0.0108374,-0.0111416,0.0970071,0.999911,1.42633e-10,-2.11556e-10,-0.013359,3
26350637,0.99515,0.0111814,-0.0114498,0.0970607,0.999911,1.42633e-10,-2.11556e-10,-0.013359,3
26400538,0.995163,0.0108674,-0.0118802,0.0969095,0.999911,1.42633e-10,-2.11556e-10,-0.013359,3
26445013,0.995237,0.0101403,-0.0113246,0.0962871,0.999911,1.42633e-10,-2.11556e-10,-0.013359,3
26499652,0.995242,0.0101926,-0.0116681,0.0961908,0.999911,1.42633e-10,-2.11556e-10,-0.013359,3
26549324,0.99528,0.0104032,-0.0110135,0.0958511,0.999911,1.42633e-10,-2.11556e-10,-0.013359,3
26598995,0.995297,0.0106877,-0.0105218,0.0957025,0.999911,1.42633e-10,-2.11556e-10,-0.013359,3
26648793,0.995312,0.0108495,-0.0105799,0.0955177,0.999911,1.42633e-10,-2.11556e-10,-0.013359,3
26698340,0.995304,0.0107786,-0.0111589,0.0955428,0.999911,1.42633e-10,-2.11556e-10,-0.013359,3
26748013,0.995314,0.0106288,-0.0116725,0.0954035,0.999911,1.42633e-10,-2.11556e-10,-0.013359,3
26802650,0.995344,0.0105546,-0.0114238,0.0951247,0.999911,1.42633e-10,-2.11556e-10,-0.013359,3
26847355,0.995352,0.0104773,-0.012074,0.0949687,0.999911,1.42633e-10,-2.11556e-10,-0.013359,3
26897124,0.995344,0.0102944,-0.011949,0.0950897,0.999911,1.42633e-10,-2.11556e-10,-0.013359,3
26946699,0.995404,0.0115062,-0.011096,0.0944246,0.999911,1.42633e-10,-2.11556e-10,-0.013359,3
27001338,0.995409,0.010639,-0.0111755,0.0944585,0.999911,1.42633e-10,-2.11556e-10,-0.013359,3
27051007,0.995449,0.0104032,-0.0111015,0.094073,0.999911,1.42633e-10,-2.11556e-10,-0.013359,3
27100682,0.995451,0.010429,-0.010913,0.0940679,0.999911,1.42633e-10,-2.11556e-10,-0.013359,3
27150355,0.995426,0.0106882,-0.0114624,0.0942462,0.999911,1.42633e-10,-2.11556e-10,-0.013359,3
27200165,0.995469,0.0117428,-0.0117632,0.0936212,0.999911,1.42633e-10,-2.11556e-10,-0.013359,3
27249698,0.995473,0.0107584,-0.0106709,0.0938324,0.999911,1.42633e-10,-2.11556e-10,-0.013359,3
27299370,0.995492,0.0103215,-0.0113387,0.0935993,0.999911,1.42633e-10,-2.11556e-10,-0.013359,3
27349041,0.995502,0.0111281,-0.0113744,0.0933975,0.999911,1.42633e-10,-2.11556e-10,-0.013359,3
27398714,0.995495,0.0110601,-0.0111767,0.0934984,0.999911,1.42633e-10,-2.11556e-10,-0.013359,3
27448426,0.995543,0.0106141,-0.0111616,0.093039,0.999911,1.42633e-10,-2.11556e-10,-0.013359,3
27498059,0.995524,0.0112117,-0.0113321,0.093161,0.999911,1.42633e-10,-2.11556e-10,-0.013359,3
27547729,0.995562,0.0110429,-0.0112193,0.0927842,0.999911,1.42633e-10,-2.11556e-10,-0.013359,3
27597417,0.995558,0.0114343,-0.0114989,0.0927452,0.999911,1.42633e-10,-2.11556e-10,-0.013359,3
27647073,0.995607,0.0108692,-0.0106999,0.0923826,0.999911,1.42633e-10,-2.11556e-10,-0.013359,3
27701727,0.995623,0.0113153,-0.0106224,0.0921612,0.999911,1.42633e-10,-2.11556e-10,-0.013359,3
27751386,0.995604,0.0115022,-0.0111127,0.0922906,0.999911,1.42633e-10,-2.11556e-10,-0.013359,3
27796089,0.995665,0.0113809,-0.0110281,0.0916525,0.999911,1.42633e-10,-2.11556e-10,-0.013359,3
27845779,0.995645,0.0113549,-0.0110061,0.0918728,0.999911,1.42633e-10,-2.11556e-10,-0.013359,3
27900399,0.995715,0.011526,-0.0106363,0.091132,0.999911,1.42633e-10,-2.11556e-10,-0.013359,3
27950073,0.99569,0.0114766,-0.0106769,0.0914132,0.999911,1.42633e-10,-2.11556e-10,-0.013359,3
27999849,0.995729,0.0115541,-0.0104657,0.0909996,0.999911,1.42633e-10,-2.11556e-10,-0.013359,3
28049418,0.995756,0.0122005,-0.00983598,0.0906895,0.999911,1.42633e-10,-2.11556e-10,-0.013359,3
28099093,0.995787,0.0124201,-0.00975254,0.0903274,0.999911,1.42633e-10,-2.11556e-10,-0.013359,3
28148759,0.995774,0.0121904,-0.00978048,0.0904999,0.999911,1.42633e-10,-2.11556e-10,-0.013359,3
28198436,0.995801,0.0124524,-0.00958918,0.0901895,0.999911,1.42633e-10,-2.11556e-10,-0.013359,3
28248110,0.995791,0.013103,-0.0089809,0.0902685,0.999911,1.42633e-10,-2.11556e-10,-0.013359,3
28297775,0.995812,0.0140255,-0.00809659,0.0899773,0.999911,1.42633e-10,-2.11556e-10,-0.013359,3
28347447,0.995803,0.0143225,-0.00778809,0.0900572,0.999911,1.42633e-10,-2.11556e-10,-0.013359,3
28402086,0.995811,0.0139551,-0.00768572,0.0900343,0.999911,1.42633e-10,-2.11556e-10,-0.013359,3
28446791,0.995806,0.0136929,-0.00799411,0.090105,0.999911,1.42633e-10,-2.11556e-10,-0.013359,3
28496465,0.995752,0.0145539,-0.00768221,0.0905966,0.999911,1.42633e-10,-2.11556e-10,-0.013359,3
28546281,0.995696,0.0145859,-0.00753978,0.0912102,0.999911,1.42633e-10,-2.11556e-10,-0.013359,3
28600782,0.995665,0.0156213,-0.00677524,0.0914446,0.999911,1.42633e-10,-2.11556e-10,-0.013359,3
28650446,0.995606,0.0148264,-0.00617132,0.0922529,0.999911,1.42633e-10,-2.11556e-10,-0.013359,3
28700117,0.995428,0.015345,-0.00706321,0.0940125,0.999911,1.42633e-10,-2.11556e-10,-0.013359,3
28749791,0.995218,0.0156773,-0.00595976,0.0962244,0.999911,1.42633e-10,-2.11556e-10,-0.013359,3
28799527,0.994979,0.0168386,-0.00564771,0.0984945,0.999911,1.42633e-10,-2.11556e-10,-0.013359,3
28849133,0.994651,0.017432,-0.00579127,0.101645,0.999911,1.42633e-10,-2.11556e-10,-0.013359,3
28898805,0.994353,0.0174674,-0.00599805,0.104502,0.999911,1.42633e-10,-2.11556e-10,-0.013359,3
28948477,0.994056,0.018085,-0.00617493,0.107182,0.999911,1.42633e-10,-2.11556e-10,-0.013359,3
28998149,0.99376,0.0227318,-0.00437751,0.109107,0.999911,1.42633e-10,-2.11556e-10,-0.013359,3
29047870,0.993572,0.0245724,-0.00357633,0.110443,0.999911,1.42633e-10,-2.11556e-10,-0.013359,3
29102460,0.993754,0.0194297,-0.00012684,0.109885,0.999911,1.42633e-10,-2.11556e-10,-0.013359,3
29147165,0.994043,0.0170457,0.00422411,0.107565,0.999911,1.42633e-10,-2.11556e-10,-0.013359,3
29196837,0.994432,0.0184985,0.00686092,0.103519,0.999911,1.42633e-10,-2.11556e-10,-0.013359,3
29246511,0.994837,0.022547,0.00520303,0.0988104,0.999911,1.42633e-10,-2.11556e-10,-0.013359,3
29301148,0.995461,0.0238256,0.00374867,0.0920617,0.999911,1.42633e-10,-2.11556e-10,-0.013359,3
29350948,0.996099,0.021083,0.00357189,0.0856094,0.999911,1.42633e-10,-2.11556e-10,-0.013359,3
29395525,0.996665,0.0174222,0.00456819,0.079591,0.999911,1.42633e-10,-2.11556e-10,-0.013359,3
29450163,0.997277,0.0177988,0.00513566,0.0713854,0.999911,1.42633e-10,-2.11556e-10,-0.013359,3
29499854,0.997729,0.0188193,0.00346777,0.0645821,0.999911,1.42633e-10,-2.11556e-10,-0.013359,3
29549507,0.998126,0.0188359,0.0029296,0.0581402,0.999911,1.42633e-10,-2.11556e-10,-0.013359,3
29599219,0.998525,0.0142339,0.000292063,0.0523991,0.999911,1.42633e-10,-2.11556e-10,-0.013359,3
29648899,0.998885,0.0032017,-0.000266868,0.0470994,0.999911,1.42633e-10,-2.11556e-10,-0.013359,3
29698523,0.999047,-0.0106514,0.000903495,0.0423263,0.999911,1.42633e-10,-2.11556e-10,-0.013359,3
29748202,0.998895,-0.0274658,0.00129412,0.038103,0.999911,1.42633e-10,-2.11556e-10,-0.013359,3
29797867,0.998474,-0.0435315,-0.000243969,0.0339905,0.999911,1.42633e-10,-2.11556e-10,-0.013359,3
29847533,0.998562,-0.0447563,0.00133737,0.0294811,0.999911,1.42633e-10,-2.11556e-10,-0.013359,3
29897390,0.998817,-0.0410629,0.000686517,0.0260416,0.999911,1.42633e-10,-2.11556e-10,-0.013359,3
29946883,0.998903,-0.0405897,-0.00193334,0.0232783,0.999911,1.42633e-10,-2.11556e-10,-0.013359,3
30001522,0.999545,-0.0223349,-9.17039e-05,0.0202798,0.999911,1.42633e-10,-2.11556e-10,-0.013359,3
30051195,0.999839,0.000513034,0.00169931,0.017841,0.999911,1.42633e-10,-2.11556e-10,-0.013359,3
30095901,0.999775,0.0140549,0.0014831,0.0158445,0.999911,1.42633e-10,-2.11556e-10,-0.013359,3
30150671,0.999757,0.0161543,0.0026028,0.0147535,0.999911,1.42633e-10,-2.11556e-10,-0.013359,3
30200210,0.999802,0.0137748,0.00462714,0.0136142,0.999911,1.42633e-10,-2.11556e-10,-0.013359,3
30249882,0.999782,0.0155542,0.00518795,0.0129098,0.999911,1.42633e-10,-2.11556e-10,-0.013359,3
30299559,0.999734,0.0194103,0.00378659,0.0119008,0.999911,1.42633e-10,-2.11556e-10,-0.013359,3
30349226,0.999747,0.019511,0.00124265,0.011165,0.999911,1.42633e-10,-2.11556e-10,-0.013359,3
30398957,0.999773,0.018285,-0.00179103,0.0107501,0.999911,1.42633e-10,-2.11556e-10,-0.013359,3
30448569,0.999777,0.0180541,-0.00248112,0.0106743,0.999911,1.42633e-10,-2.11556e-10,-0.013359,3
30498241,0.99975,0.0194146,-0.004139,0.0102537,0.999911,1.42633e-10,-2.11556e-10,-0.013359,3
30547921,0.999726,0.0151419,-0.014527,0.0103556,0.999911,1.42633e-10,-2.11556e-10,-0.013359,3
30597585,0.999447,0.00985285,-0.0299059,0.0106724,0.999911,1.42633e-10,-2.11556e-10,-0.013359,3
30647258,0.999019,0.00829322,-0.0421252,0.0108769,0.999911,1.42633e-10,-2.11556e-10,-0.013359,3
30702133,0.998485,0.00891674,-0.0530303,0.0116302,0.999911,1.42633e-10,-2.11556e-10,-0.013359,3
30746601,0.998127,0.0083088,-0.0593731,0.0122062,0.999911,1.42633e-10,-2.11556e-10,-0.013359,3
30796274,0.998017,-0.000848515,-0.0617366,0.0122747,0.999911,1.42633e-10,-2.11556e-10,-0.013359,3
30850912,0.99836,-0.0138123,-0.0544322,0.011158,0.999911,1.42633e-10,-2.11556e-10,-0.013359,3
30900584,0.998889,-0.0222969,-0.0401112,0.0107356,0.999911,1.42633e-10,-2.11556e-10,-0.013359,3
30950362,0.999598,-0.0131041,-0.0230072,0.0101219,0.999911,1.42633e-10,-2.11556e-10,-0.013359,3
30999930,0.999878,0.00195917,-0.0118862,0.00991582,0.999911,1.42633e-10,-2.11556e-10,-0.013359,3
31049600,0.999802,0.0142659,-0.010176,0.00939295,0.999911,1.42633e-10,-2.11556e-10,-0.013359,3
31099272,0.99977,0.0160024,-0.0110122,0.00907041,0.999911,1.42633e-10,-2.11556e-10,-0.013359,3
31148943,0.999844,0.0125233,-0.00925163,0.0083345,0.999911,1.42633e-10,-2.11556e-10,-0.013359,3
31198631,0.999941,0.00431185,-0.00673158,0.00732026,0.999911,1.42633e-10,-2.11556e-10,-0.013359,3
31248291,0.99995,-0.00496673,-0.00641846,0.00590397,0.999911,1.42633e-10,-2.11556e-10,-0.013359,3
31297960,0.999919,-0.00959139,-0.00680123,0.00481588,0.999911,1.42633e-10,-2.11556e-10,-0.013359,3
31352603,0.999964,-0.00459838,-0.00642406,0.00324806,0.999911,1.42633e-10,-2.11556e-10,-0.013359,3
31397303,0.999977,-0.000561214,-0.00651672,0.00187733,0.999911,1.42633e-10,-2.11556e-10,-0.013359,3
31446977,0.999971,-0.000287859,-0.00761653,0.000772674,0.999911,1.42633e-10,-2.11556e-10,-0.013359,3
31496749,0.999975,0.000967586,-0.00699941,-0.000678565,0.999911,1.42633e-10,-2.11556e-10,-0.013359,3
31551287,0.999961,0.00649886,-0.00545285,-0.00244084,0.999911,1.42633e-10,-2.11556e-10,-0.013359,3
31600958,0.999938,0.0092001,-0.00516868,-0.00363863,0.999911,1.42633e-10,-2.11556e-10,-0.013359,3
31650633,0.999924,0.010372,-0.00535114,-0.00390974,0.999911,1.42633e-10,-2.11556e-10,-0.013359,3
31700303,0.999919,0.0111586,-0.00454101,-0.00399264,0.999911,1.42633e-10,-2.11556e-10,-0.013359,3
31750059,0.999909,0.0120643,-0.00440011,-0.00421121,0.999911,1.42633e-10,-2.11556e-10,-0.013359,3
31799646,0.999976,0.00119123,-0.0055946,-0.00384804,0.999911,1.42633e-10,-2.11556e-10,-0.013359,3
31849319,0.999715,-0.022677,-0.00666146,-0.00331382,0.999911,1.42633e-10,-2.11556e-10,-0.013359,3
31898990,0.998644,-0.0517518,-0.00527795,-0.00215786,0.999911,1.42633e-10,-2.11556e-10,-0.013359,3
31948669,0.997485,-0.0708088,-0.00322446,-5.26831e-05,0.999911,1.42633e-10,-2.11556e-10,-0.013359,3
31998330,0.996651,-0.0816743,-0.00301512,0.00268905,0.999911,1.42633e-10,-2.11556e-10,-0.013359,3
32048190,0.995988,-0.0891284,-0.00592756,0.00540073,0.999911,1.42633e-10,-2.11556e-10,-0.013359,3
32097678,0.995303,-0.0961823,-0.00744072,0.00805066,0.999911,1.42633e-10,-2.11556e-10,-0.013359,3
32147350,0.994621,-0.102982,-0.00561396,0.00963088,0.999911,1.42633e-10,-2.11556e-10,-0.013359,3
32197022,0.994235,-0.106624,-0.00350079,0.0107611,0.999911,1.42633e-10,-2.11556e-10,-0.013359,3
32251664,0.994172,-0.107039,-0.00434567,0.012045,0.999911,1.42633e-10,-2.11556e-10,-0.013359,3
32301424,0.994041,-0.108055,-0.00665947,0.0127632,0.999911,1.42633e-10,-2.11556e-10,-0.013359,3
32346038,0.994074,-0.107587,-0.00736821,0.0136825,0.999911,1.42633e-10,-2.11556e-10,-0.013359,3
32400690,0.996088,-0.0871958,-0.00346366,0.0139452,0.999911,1.42633e-10,-2.11556e-10,-0.013359,3
32450349,0.99906,-0.0410733,-0.00143375,0.013773,0.999911,1.42633e-10,-2.11556e-10,-0.013359,3
32500037,0.999828,-0.00650635,-0.00762292,0.0155754,0.999911,1.42633e-10,-2.11556e-10,-0.013359,3
32549694,0.999745,0.00318108,-0.0141701,0.0172814,0.999911,1.42633e-10,-2.11556e-10,-0.013359,3
32599366,0.999763,0.00154247,-0.0118429,0.0181968,0.999911,1.42633e-10,-2.11556e-10,-0.013359,3
32649037,0.999755,0.00793459,-0.00772869,0.019178,0.999911,1.42633e-10,-2.11556e-10,-0.013359,3
32698709,0.999201,0.0286825,-0.0188635,0.0204877,0.999911,1.42633e-10,-2.11556e-10,-0.013359,3
32748381,0.997314,0.0539417,-0.044611,0.0215594,0.999911,1.42633e-10,-2.11556e-10,-0.013359,3
32798054,0.994518,0.0750208,-0.0693989,0.0221397,0.999911,1.42633e-10,-2.11556e-10,-0.013359,3
32847868,0.992392,0.0873594,-0.0838774,0.0221449,0.999911,1.42633e-10,-2.11556e-10,-0.013359,3
32897397,0.990541,0.100922,-0.090168,0.0226389,0.999911,1.42633e-10,-2.11556e-10,-0.013359,3
32952036,0.9883,0.113416,-0.099327,0.0231217,0.999911,1.42633e-10,-2.11556e-10,-0.013359,3
33001708,0.986571,0.119108,-0.109467,0.0225243,0.999911,1.42633e-10,-2.11556e-10,-0.013359,3
33046415,0.986202,0.117229,-0.114891,0.0215423,0.999911,1.42633e-10,-2.11556e-10,-0.013359,3
33096118,0.986821,0.112818,-0.114014,0.0213792,0.999911,1.42633e-10,-2.11556e-10,-0.013359,3
33150723,0.988177,0.105666,-0.109143,0.020705,0.999911,1.42633e-10,-2.11556e-10,-0.013359,3
33200395,0.990158,0.0937807,-0.101979,0.0198153,0.999911,1.42633e-10,-2.11556e-10,-0.013359,3
33250074,0.992574,0.0781614,-0.0912061,0.0191972,0.999911,1.42633e-10,-2.11556e-10,-0.013359,3
33299739,0.99524,0.0578227,-0.0763341,0.0180989,0.999911,1.42633e-10,-2.11556e-10,-0.013359,3
33349411,0.997269,0.0398258,-0.0597567,0.0172381,0.999911,1.42633e-10,-2.11556e-10,-0.013359,3
33399283,0.998339,0.0292749,-0.0467013,0.0167945,0.999911,1.42633e-10,-2.11556e-10,-0.013359,3
33448760,0.99873,0.0265517,-0.0395088,0.0165377,0.999911,1.42633e-10,-2.11556e-10,-0.013359,3
33498427,0.99906,0.0251669,-0.031462,0.0159989,0.999911,1.42633e-10,-2.11556e-10,-0.013359,3
33548096,0.999473,0.0204316,-0.0197927,0.0156455,0.999911,1.42633e-10,-2.11556e-10,-0.013359,3
33597771,0.999713,0.014839,-0.0106035,0.0155662,0.999911,1.42633e-10,-2.11556e-10,-0.013359,3
33652529,0.999794,0.0124426,-0.00506108,0.0151974,0.999911,1.42633e-10,-2.11556e-10,-0.013359,3
33697157,0.999819,0.0109387,-0.00344018,0.0151676,0.999911,1.42633e-10,-2.11556e-10,-0.013359,3
33746787,0.999827,0.0106427,-0.00254383,0.0150403,0.999911,1.42633e-10,-2.11556e-10,-0.013359,3
33796460,0.999835,0.0105855,-0.00122248,0.0147067,0.999911,1.42633e-10,-2.11556e-10,-0.013359,3
33851100,0.999847,0.00976109,-0.000269817,0.0145246,0.999911,1.42633e-10,-2.11556e-10,-0.013359,3
33900855,0.999864,0.00795135,0.000921994,0.0144237,0.999911,1.42633e-10,-2.11556e-10,-0.013359,3
33945475,0.999863,0.00868126,0.00145944,0.0140131,0.999911,1.42633e-10,-2.11556e-10,-0.013359,3
34000116,0.999835,0.0120707,-0.000727275,0.0135778,0.999911,1.42633e-10,-2.11556e-10,-0.013359,3
34049786,0.999871,0.00787428,-0.00465728,0.0131832,0.999911,1.42633e-10,-2.11556e-10,-0.013359,3
34099458,0.999847,0.00184124,-0.012133,0.0124906,0.999911,1.42633e-10,-2.11556e-10,-0.013359,3
34149130,0.999695,-0.00359893,-0.0214741,0.0116582,0.999911,1.42633e-10,-2.11556e-10,-0.013359,3
34199014,0.999403,-0.0155374,-0.0289058,0.0107748,0.999911,1.42633e-10,-2.11556e-10,-0.013359,3
34248474,0.999034,-0.0329913,-0.0274669,0.00942244,0.999911,1.42633e-10,-2.11556e-10,-0.013359,3
34298147,0.99816,-0.0571522,-0.0187741,0.00759409,0.999911,1.42633e-10,-2.11556e-10,-0.013359,3
34347818,0.996753,-0.0797446,-0.00893012,0.00661958,0.999911,1.42633e-10,-2.11556e-10,-0.013359,3
34397492,0.995776,-0.0916075,-0.00245565,0.00560336,0.999911,1.42633e-10,-2.11556e-10,-0.013359,3
34447226,0.996238,-0.0863836,-0.00204926,0.00664865,0.999911,1.42633e-10,-2.11556e-10,-0.013359,3
34496834,0.997379,-0.0717256,-0.00488497,0.00819114,0.999911,1.42633e-10,-2.11556e-10,-0.013359,3
34551473,0.99866,-0.0503821,-0.00691215,0.00959557,0.999911,1.42633e-10,-2.11556e-10,-0.013359,3
34601145,0.999425,-0.0319426,-0.00516516,0.0101608,0.999911,1.42633e-10,-2.11556e-10,-0.013359,3
34645861,0.999825,-0.0149803,-0.00282523,0.0108646,0.999911,1.42633e-10,-2.11556e-10,-0.013359,3
34700491,0.99993,-0.00166174,-0.00200696,0.01155,0.999911,1.42633e-10,-2.11556e-10,-0.013359,3
34750160,0.999916,0.00292981,-0.0022686,0.0124595,0.999911,1.42633e-10,-2.11556e-10,-0.013359,3
34799833,0.999897,0.00575802,-0.00190814,0.01299,0.999911,1.42633e-10,-2.11556e-10,-0.013359,3
34849505,0.999862,0.00978463,-0.00117708,0.0133766,0.999911,1.42633e-10,-2.11556e-10,-0.013359,3
34899178,0.999822,0.0129912,-0.000944707,0.0136309,0.999911,1.42633e-10,-2.11556e-10,-0.013359,3
34948849,0.99978,0.0153205,-0.00282264,0.0140591,0.999911,1.42633e-10,-2.11556e-10,-0.013359,3
34998653,0.999781,0.013785,-0.00459525,0.0150377,0.999911,1.42633e-10,-2.11556e-10,-0.013359,3
35048194,0.999763,0.0145673,-0.00498767,0.0154211,0.999911,1.42633e-10,-2.11556e-10,-0.013359,3
35097864,0.999676,0.0193892,-0.00334168,0.0161325,0.999911,1.42633e-10,-2.11556e-10,-0.013359,3
35147538,0.999642,0.0206457,-0.00274491,0.016808,0.999911,1.42633e-10,-2.11556e-10,-0.013359,3
35197208,0.999665,0.0190555,-0.004004,0.0170664,0.999911,1.42633e-10,-2.11556e-10,-0.013359,3
35251909,0.999717,0.0152082,-0.00557187,0.017435,0.999911,1.42633e-10,-2.11556e-10,-0.013359,3
35296552,0.999728,0.0140679,-0.00539422,0.0177918,0.999911,1.42633e-10,-2.11556e-10,-0.013359,3
35346289,0.999718,0.0148249,-0.00511764,0.0178203,0.999911,1.42633e-10,-2.11556e-10,-0.013359,3
35400864,0.999694,0.016267,-0.00607174,0.0176452,0.999911,1.42633e-10,-2.11556e-10,-0.013359,3
35450538,0.999681,0.0163384,-0.0063712,0.0181945,0.999911,1.42633e-10,-2.11556e-10,-0.013359,3
35500208,0.999647,0.0188163,-0.00587384,0.0178248,0.999911,1.42633e-10,-2.11556e-10,-0.013359,3
35545083,0.999619,0.0199197,-0.00586544,0.0182061,0.999911,1.42633e-10,-2.11556e-10,-0.013359,3
35599581,0.99967,0.0171428,-0.00622002,0.0180973,0.999911,1.42633e-10,-2.11556e-10,-0.013359,3
35649223,0.999719,0.0140023,-0.00519313,0.0184197,0.999911,1.42633e-10,-2.11556e-10,-0.013359,3
35698897,0.999714,0.0144904,-0.00452759,0.0184919,0.999911,1.42633e-10,-2.11556e-10,-0.013359,3
35748571,0.999694,0.0151582,-0.00482723,0.01896,0.999911,1.42633e-10,-2.11556e-10,-0.013359,3
35798332,0.999689,0.0142654,-0.00460193,0.0199331,0.999911,1.42633e-10,-2.11556e-10,-0.013359,3
35847916,0.999679,0.0133283,-0.00441178,0.021083,0.999911,1.42633e-10,-2.11556e-10,-0.013359,3
35897584,0.99961,0.0161272,-0.0043075,0.0223992,0.999911,1.42633e-10,-2.11556e-10,-0.013359,3
35947255,0.999557,0.0165284,-0.00669962,0.0238234,0.999911,1.42633e-10,-2.11556e-10,-0.013359,3
35996932,0.999569,0.0117101,-0.00885078,0.0254114,0.999911,1.42633e-10,-2.11556e-10,-0.013359,3
36046662,0.999583,0.00460729,-0.00853136,0.0271848,0.999911,1.42633e-10,-2.11556e-10,-0.013359,3
36101238,0.999578,-0.000972241,-0.00661086,0.0282599,0.999911,1.42633e-10,-2.11556e-10,-0.013359,3
36150910,0.999549,-0.00661321,-0.00610089,0.0286358,0.999911,1.42633e-10,-2.11556e-10,-0.013359,3
36200615,0.999534,-0.00724124,-0.00572051,0.0291056,0.999911,1.42633e-10,-2.11556e-10,-0.013359,3
36245288,0.999559,0.000697314,-0.00455967,0.0293242,0.999911,1.42633e-10,-2.11556e-10,-0.013359,3
36299928,0.999505,0.0100252,-0.00644984,0.0291207,0.999911,1.42633e-10,-2.11556e-10,-0.013359,3
36349753,0.999413,0.0123362,-0.0145947,0.028436,0.999911,1.42633e-10,-2.11556e-10,-0.013359,3
36399270,0.999036,0.0111691,-0.0313919,0.0285753,0.999911,1.42633e-10,-2.11556e-10,-0.013359,3
36448942,0.998075,0.0135722,-0.0537951,0.0277142,0.999911,1.42633e-10,-2.11556e-10,-0.013359,3
36498614,0.996699,0.0171523,-0.0745287,0.0272607,0.999911,1.42633e-10,-2.11556e-10,-0.013359,3
36548287,0.995643,0.0167747,-0.0879315,0.0261027,0.999911,1.42633e-10,-2.11556e-10,-0.013359,3
36603018,0.995181,0.012731,-0.0940367,0.0247031,0.999911,1.42633e-10,-2.11556e-10,-0.013359,3
36647630,0.995258,0.00538066,-0.0943245,0.0231412,0.999911,1.42633e-10,-2.11556e-10,-0.013359,3
36697302,0.996108,0.0014992,-0.085521,0.0212876,0.999911,1.42633e-10,-2.11556e-10,-0.013359,3
36746975,0.997543,0.00687535,-0.0667365,0.0201588,0.999911,1.42633e-10,-2.11556e-10,-0.013359,3
36801617,0.998917,0.0141824,-0.040075,0.0189067,0.999911,1.42633e-10,-2.11556e-10,-0.013359,3
36851323,0.999484,0.0133474,-0.0227455,0.0183419,0.999911,1.42633e-10,-2.11556e-10,-0.013359,3
36895995,0.999705,0.00450624,-0.0163973,0.0173514,0.999911,1.42633e-10,-2.11556e-10,-0.013359,3
36945662,0.999373,-0.0268209,-0.0162678,0.0164139,0.999911,1.42633e-10,-2.11556e-10,-0.013359,3
37000301,0.997705,-0.0646114,-0.0128965,0.0155877,0.999911,1.42633e-10,-2.11556e-10,-0.013359,3
37049974,0.996025,-0.0874695,-0.00798518,0.0148396,0.999911,1.42633e-10,-2.11556e-10,-0.013359,3
37099646,0.994572,-0.102864,-0.00629282,0.0143534,0.999911,1.42633e-10,-2.11556e-10,-0.013359,3
37149501,0.993603,-0.111766,-0.00781652,0.0141745,0.999911,1.42633e-10,-2.11556e-10,-0.013359,3
37198989,0.99265,-0.119879,-0.00884861,0.0140545,0.999911,1.42633e-10,-2.11556e-10,-0.013359,3
37248661,0.993842,-0.109858,-0.00657241,0.0128706,0.999911,1.42633e-10,-2.11556e-10,-0.013359,3
37298335,0.997125,-0.0747993,-0.00288683,0.0117972,0.999911,1.42633e-10,-2.11556e-10,-0.013359,3
37348005,0.999256,-0.0367277,-0.00431183,0.0109766,0.999911,1.42633e-10,-2.11556e-10,-0.013359,3
37397752,0.999805,-0.0133096,-0.00910593,0.0113714,0.999911,1.42633e-10,-2.11556e-10,-0.013359,3
37447349,0.999876,-0.00515111,-0.00896202,0.0118777,0.999911,1.42633e-10,-2.11556e-10,-0.013359,3
37501991,0.999914,-0.000262133,-0.00547095,0.0119322,0.999911,1.42633e-10,-2.11556e-10,-0.013359,3
37551712,0.999766,0.0123369,-0.0124531,0.012696,0.999911,1.42633e-10,-2.11556e-10,-0.013359,3
37596365,0.999071,0.0280835,-0.0300195,0.0129718,0.999911,1.42633e-10,-2.11556e-10,-0.013359,3
37646038,0.998042,0.0353825,-0.0499203,0.0130038,0.999911,1.42633e-10,-2.11556e-10,-0.013359,3
37700872,0.997883,0.0291879,-0.0566274,0.0130722,0.999911,1.42633e-10,-2.11556e-10,-0.013359,3
37750349,0.998129,0.0242222,-0.0546125,0.0130436,0.999911,1.42633e-10,-2.11556e-10,-0.013359,3
37800021,0.997958,0.0233324,-0.0579328,0.0133698,0.999911,1.42633e-10,-2.11556e-10,-0.013359,3
37849692,0.997352,0.0261268,-0.0664474,0.0137972,0.999911,1.42633e-10,-2.11556e-10,-0.013359,3
37899364,0.996817,0.0270965,-0.0736978,0.013809,0.999911,1.42633e-10,-2.11556e-10,-0.013359,3
37949125,0.996406,0.0266304,-0.0791831,0.0139987,0.999911,1.42633e-10,-2.11556e-10,-0.013359,3
37998710,0.995965,0.028011,-0.084034,0.01442,0.999911,1.42633e-10,-2.11556e-10,-0.013359,3
38048383,0.995476,0.0313307,-0.0883824,0.0152975,0.999911,1.42633e-10,-2.11556e-10,-0.013359,3
38098052,0.995209,0.0305729,-0.0914566,0.0161028,0.999911,1.42633e-10,-2.11556e-10,-0.013359,3
38147724,0.995498,0.0255127,-0.0896207,0.0173383,0.999911,1.42633e-10,-2.11556e-10,-0.013359,3
38202496,0.996282,0.0207749,-0.0815617,0.0184106,0.999911,1.42633e-10,-2.11556e-10,-0.013359,3
38247068,0.996976,0.0203483,-0.0724815,0.0192793,0.999911,1.42633e-10,-2.11556e-10,-0.013359,3
38296740,0.997865,0.0205182,-0.0585516,0.0204119,0.999911,1.42633e-10,-2.11556e-10,-0.013359,3
38346414,0.998852,0.0196455,-0.0380084,0.021543,0.999911,1.42633e-10,-2.11556e-10,-0.013359,3
38401053,0.999375,0.0175328,-0.0210346,0.022366,0.999911,1.42633e-10,-2.11556e-10,-0.013359,3
38450752,0.999503,0.0150538,-0.015072,0.0232445,0.999911,1.42633e-10,-2.11556e-10,-0.013359,3
38495558,0.999555,0.0134684,-0.0120564,0.0237201,0.999911,1.42633e-10,-2.11556e-10,-0.013359,3
38550067,0.999618,0.0117045,-0.00822317,0.0236511,0.999911,1.42633e-10,-2.11556e-10,-0.013359,3
38599739,0.999636,0.0128726,-0.00591825,0.0229812,0.999911,1.42633e-10,-2.11556e-10,-0.013359,3
38649412,0.999646,0.0136547,-0.00514209,0.0222441,0.999911,1.42633e-10,-2.11556e-10,-0.013359,3
38699104,0.999677,0.0125495,-0.00557589,0.0213936,0.999911,1.42633e-10,-2.11556e-10,-0.013359,3
38748825,0.999705,0.0115727,-0.00634639,0.0203835,0.999911,1.42633e-10,-2.11556e-10,-0.013359,3
38798427,0.999723,0.0112193,-0.00732672,0.0193428,0.999911,1.42633e-10,-2.11556e-10,-0.013359,3
38848099,0.999754,0.0108222,-0.0070924,0.0180376,0.999911,1.42633e-10,-2.11556e-10,-0.013359,3
38902740,0.999791,0.00973145,-0.00550918,0.0171125,0.999911,1.42633e-10,-2.11556e-10,-0.013359,3
38947443,0.999828,0.00810134,-0.00518546,0.0158421,0.999911,1.42633e-10,-2.11556e-10,-0.013359,3
38997116,0.99985,0.00500167,-0.00665982,0.0151825,0.999911,1.42633e-10,-2.11556e-10,-0.013359,3
39046791,0.999827,0.00692735,-0.00883616,0.0148015,0.999911,1.42633e-10,-2.11556e-10,-0.013359,3
39101464,0.999846,0.00586967,-0.00885991,0.0139425,0.999911,1.42633e-10,-2.11556e-10,-0.013359,3
39151099,0.999875,-0.000997071,-0.00739905,0.0139372,0.999911,1.42633e-10,-2.11556e-10,-0.013359,3
39195804,0.999829,-0.00800576,-0.00850287,0.0143539,0.999911,1.42633e-10,-2.11556e-10,-0.013359,3
39250443,0.999716,-0.0161044,-0.009581,0.0147072,0.999911,1.42633e-10,-2.11556e-10,-0.013359,3
39300242,0.999529,-0.0244794,-0.0104813,0.0152308,0.999911,1.42633e-10,-2.11556e-10,-0.013359,3
39349787,0.999247,-0.034423,-0.00858743,0.0156951,0.999911,1.42633e-10,-2.11556e-10,-0.013359,3
39399458,0.998765,-0.0465673,-0.00621677,0.0161788,0.999911,1.42633e-10,-2.11556e-10,-0.013359,3
39449132,0.998192,-0.0576269,-0.00373918,0.0166889,0.999911,1.42633e-10,-2.11556e-10,-0.013359,3
39498803,0.99832,-0.0554566,-0.00254662,0.0166022,0.999911,1.42633e-10,-2.11556e-10,-0.013359,3
39548499,0.999345,-0.0320136,-0.00202083,0.0167665,0.999911,1.42633e-10,-2.11556e-10,-0.013359,3
39598146,0.99982,-0.00704168,-0.00505946,0.0168891,0.999911,1.42633e-10,-2.11556e-10,-0.013359,3
39647819,0.999794,0.00480275,-0.00931866,0.0173951,0.999911,1.42633e-10,-2.11556e-10,-0.013359,3
39697500,0.99978,0.00620947,-0.0102546,0.0172033,0.999911,1.42633e-10,-2.11556e-10,-0.013359,3
39747164,0.999807,0.00479156,-0.00825576,0.0171996,0.999911,1.42633e-10,-2.11556e-10,-0.013359,3
39801802,0.999794,0.00746495,-0.00679336,0.0175927,0.999911,1.42633e-10,-2.11556e-10,-0.013359,3
39846699,0.999762,0.00998373,-0.00647373,0.0182975,0.999911,1.42633e-10,-2.11556e-10,-0.013359,3
39896210,0.999741,0.0116325,-0.00662212,0.0184051,0.999911,1.42633e-10,-2.11556e-10,-0.013359,3
39950818,0.999748,0.0109697,-0.00628098,0.0185647,0.999911,1.42633e-10,-2.11556e-10,-0.013359,3
40000491,0.999726,0.0124162,-0.00644435,0.0187799,0.999911,1.42633e-10,-2.11556e-10,-0.013359,3
40050170,0.999638,0.0115654,-0.0151231,0.0190104,0.999911,1.42633e-10,-2.11556e-10,-0.013359,3
40099956,0.9992,0.0128383,-0.0326998,0.0191158,0.999911,1.42633e-10,-2.11556e-10,-0.013359,3
40149507,0.998257,0.0171242,-0.0528473,0.0199507,0.999911,1.42633e-10,-2.11556e-10,-0.013359,3
40199178,0.997072,0.0272328,-0.06875,0.0194675,0.999911,1.42633e-10,-2.11556e-10,-0.013359,3
40248853,0.996128,0.0368532,-0.0772725,0.0200074,0.999911,1.42633e-10,-2.11556e-10,-0.013359,3
40298522,0.995769,0.0373674,-0.0815413,0.0199762,0.999911,1.42633e-10,-2.11556e-10,-0.013359,3
40348254,0.99583,0.0343359,-0.082092,0.0201195,0.999911,1.42633e-10,-2.11556e-10,-0.013359,3
40397866,0.995892,0.0346608,-0.0813297,0.0195672,0.999911,1.42633e-10,-2.11556e-10,-0.013359,3
40447538,0.995986,0.031266,-0.0815413,0.0196547,0.999911,1.42633e-10,-2.11556e-10,-0.013359,3
40502189,0.996246,0.0272453,-0.0799899,0.0187766,0.999911,1.42633e-10,-2.11556e-10,-0.013359,3
40546882,0.99654,0.0225923,-0.0779182,0.01809,0.999911,1.42633e-10,-2.11556e-10,-0.013359,3
40596554,0.996754,0.0189002,-0.0762563,0.0176031,0.999911,1.42633e-10,-2.11556e-10,-0.013359,3
40651346,0.996938,0.0194291,-0.0738818,0.0166985,0.999911,1.42633e-10,-2.11556e-10,-0.013359,3
40700865,0.997504,0.016491,-0.0668021,0.0158826,0.999911,1.42633e-10,-2.11556e-10,-0.013359,3
40750537,0.998448,0.010382,-0.0526989,0.0147223,0.999911,1.42633e-10,-2.11556e-10,-0.013359,3
40800209,0.99937,0.00777909,-0.0320925,0.0130355,0.999911,1.42633e-10,-2.11556e-10,-0.013359,3
40849883,0.999805,0.00793769,-0.0133448,0.0121792,0.999911,1.42633e-10,-2.11556e-10,-0.013359,3
40899607,0.999876,0.0101573,-0.00315355,0.0116024,0.999911,1.42633e-10,-2.11556e-10,-0.013359,3
40949228,0.999879,0.0100935,-0.00168632,0.011718,0.999911,1.42633e-10,-2.11556e-10,-0.013359,3
40998898,0.99989,0.00892672,-0.00275692,0.0115168,0.999911,1.42633e-10,-2.11556e-10,-0.013359,3
41048569,0.999896,0.00786881,-0.00181552,0.0119547,0.999911,1.42633e-10,-2.11556e-10,-0.013359,3
41098242,0.999887,0.00956973,0.00115097,0.0115416,0.999911,1.42633e-10,-2.11556e-10,-0.013359,3
41147938,0.999863,0.0112653,0.00416815,0.0113964,0.999911,1.42633e-10,-2.11556e-10,-0.013359,3
41197777,0.99986,0.011642,0.00522555,0.0108542,0.999911,1.42633e-10,-2.11556e-10,-0.013359,3
41247257,0.999881,0.0102135,0.00447419,0.0106458,0.999911,1.42633e-10,-2.11556e-10,-0.013359,3
41296931,0.999882,0.0112203,0.00305881,0.0100029,0.999911,1.42633e-10,-2.11556e-10,-0.013359,3
41351569,0.999871,0.0124591,0.00170703,0.00998273,0.999911,1.42633e-10,-2.11556e-10,-0.013359,3
41401245,0.999875,0.012405,0.000118407,0.00977477,0.999911,1.42633e-10,-2.11556e-10,-0.013359,3
41446101,0.999857,0.0140613,-0.000663685,0.00937675,0.999911,1.42633e-10,-2.11556e-10,-0.013359,3
41495617,0.999841,0.0148133,3.07585e-05,0.00993265,0.999911,1.42633e-10,-2.11556e-10,-0.013359,3
41550272,0.99983,0.0155147,0.000587701,0.00992441,0.999911,1.42633e-10,-2.11556e-10,-0.013359,3
41599928,0.999841,0.0145415,0.00139111,0.0102452,0.999911,1.42633e-10,-2.11556e-10,-0.013359,3
41649601,0.999853,0.0138281,0.00196526,0.00994893,0.999911,1.42633e-10,-2.11556e-10,-0.013359,3
41699301,0.999848,0.0138826,0.00091099,0.010563,0.999911,1.42633e-10,-2.11556e-10,-0.013359,3
41748944,0.999834,0.0143493,-0.00120831,0.0111296,0.999911,1.42633e-10,-2.11556e-10,-0.013359,3
41798617,0.999828,0.0144458,-0.00247029,0.0113703,0.999911,1.42633e-10,-2.11556e-10,-0.013359,3
41848288,0.999825,0.0134624,-0.00427421,0.012253,0.999911,1.42633e-10,-2.11556e-10,-0.013359,3
41897963,0.999739,0.0146261,-0.0121931,0.0126519,0.999911,1.42633e-10,-2.11556e-10,-0.013359,3
41947632,0.999423,0.0170193,-0.0258565,0.0139631,0.999911,1.42633e-10,-2.11556e-10,-0.013359,3
41997460,0.998936,0.0161634,-0.0405867,0.0147697,0.999911,1.42633e-10,-2.11556e-10,-0.013359,3
42051946,0.998462,0.0171653,-0.0503394,0.0156356,0.999911,1.42633e-10,-2.11556e-10,-0.013359,3
42101615,0.998356,0.018203,-0.0519416,0.0159754,0.999911,1.42633e-10,-2.11556e-10,-0.013359,3
42146320,0.998445,0.016258,-0.0505456,0.0170073,0.999911,1.42633e-10,-2.11556e-10,-0.013359,3
42200960,0.998353,0.0148439,-0.0525799,0.0175239,0.999911,1.42633e-10,-2.11556e-10,-0.013359,3
42250717,0.998053,0.0126995,-0.0583236,0.018063,0.999911,1.42633e-10,-2.11556e-10,-0.013359,3
42300304,0.997791,0.0148505,-0.0619373,0.0188689,0.999911,1.42633e-10,-2.11556e-10,-0.013359,3
42349976,0.997805,0.0165595,-0.0611342,0.0193264,0.999911,1.42633e-10,-2.11556e-10,-0.013359,3
42399674,0.998104,0.0163528,-0.0559689,0.0197167,0.999911,1.42633e-10,-2.11556e-10,-0.013359,3
42449321,0.998486,0.0159201,-0.0487552,0.0198811,0.999911,1.42633e-10,-2.11556e-10,-0.013359,3
42498994,0.998702,0.0170478,-0.0433358,0.0206249,0.999911,1.42633e-10,-2.11556e-10,-0.013359,3
42548663,0.998767,0.0190122,-0.0404202,0.0216719,0.999911,1.42633e-10,-2.11556e-10,-0.013359,3
42598340,0.998801,0.0205054,-0.0385565,0.0221175,0.999911,1.42633e-10,-2.11556e-10,-0.013359,3
42648013,0.998972,0.0187457,-0.0343714,0.022858,0.999911,1.42633e-10,-2.11556e-10,-0.013359,3
42697680,0.999143,0.0162977,-0.0302097,0.0231235,0.999911,1.42633e-10,-2.11556e-10,-0.013359,3
42752319,0.999188,0.0150981,-0.029102,0.0234268,0.999911,1.42633e-10,-2.11556e-10,-0.013359,3
42797144,0.999163,0.0161295,-0.0295876,0.0232033,0.999911,1.42633e-10,-2.11556e-10,-0.013359,3
42846724,0.999099,0.0160784,-0.0316577,0.0232306,0.999911,1.42633e-10,-2.11556e-10,-0.013359,3
42901335,0.999126,0.0158251,-0.0312932,0.022764,0.999911,1.42633e-10,-2.11556e-10,-0.013359,3
42951007,0.999209,0.0160686,-0.0285393,0.0225583,0.999911,1.42633e-10,-2.11556e-10,-0.013359,3
43000680,0.999296,0.0148084,-0.0264177,0.0221453,0.999911,1.42633e-10,-2.11556e-10,-0.013359,3
43045409,0.999304,0.0147449,-0.0260928,0.0222162,0.999911,1.42633e-10,-2.11556e-10,-0.013359,3
43100054,0.99907,0.017404,-0.0323286,0.0225922,0.999911,1.42633e-10,-2.11556e-10,-0.013359,3
43149695,0.998672,0.0176522,-0.0427073,0.0227786,0.999911,1.42633e-10,-2.11556e-10,-0.013359,3
43199367,0.998319,0.0167096,-0.0505449,0.0229097,0.999911,1.42633e-10,-2.11556e-10,-0.013359,3
43249042,0.998201,0.0147879,-0.0533345,0.0230418,0.999911,1.42633e-10,-2.11556e-10,-0.013359,3
43298745,0.998319,0.0160394,-0.0509436,0.0225334,0.999911,1.42633e-10,-2.11556e-10,-0.013359,3
43348568,0.998492,0.0157924,-0.0475591,0.0224386,0.999911,1.42633e-10,-2.11556e-10,-0.013359,3
43398055,0.998672,0.0131449,-0.0446113,0.0221813,0.999911,1.42633e-10,-2.11556e-10,-0.013359,3
43452694,0.998818,0.0139165,-0.0408561,0.0223464,0.999911,1.42633e-10,-2.11556e-10,-0.013359,3
43497400,0.998935,0.0145647,-0.0376843,0.0222697,0.999911,1.42633e-10,-2.11556e-10,-0.013359,3
43547073,0.999137,0.0137768,-0.0323901,0.0220492,0.999911,1.42633e-10,-2.11556e-10,-0.013359,3
43601826,0.999399,0.0137638,-0.0231041,0.0218727,0.999911,1.42633e-10,-2.11556e-10,-0.013359,3
43651383,0.99957,0.0142099,-0.0150367,0.0208011,0.999911,1.42633e-10,-2.11556e-10,-0.013359,3
43701055,0.999656,0.0129458,-0.0101315,0.0204185,0.999911,1.42633e-10,-2.11556e-10,-0.013359,3
43745759,0.999684,0.0118162,-0.00939654,0.02011,0.999911,1.42633e-10,-2.11556e-10,-0.013359,3
43800398,0.999693,0.0100685,-0.0107205,0.0199315,0.999911,1.42633e-10,-2.11556e-10,-0.013359,3
43850092,0.999683,0.0103944,-0.0117763,0.01967,0.999911,1.42633e-10,-2.11556e-10,-0.013359,3
43899745,0.999608,0.0149484,-0.012613,0.0200133,0.999911,1.42633e-10,-2.11556e-10,-0.013359,3
43949415,0.999598,0.015328,-0.0124851,0.0203144,0.999911,1.42633e-10,-2.11556e-10,-0.013359,3
43999092,0.999657,0.0120883,-0.01191,0.0199355,0.999911,1.42633e-10,-2.11556e-10,-0.013359,3
44048760,0.999686,0.0115131,-0.0102273,0.019762,0.999911,1.42633e-10,-2.11556e-10,-0.013359,3
44098431,0.999695,0.0131916,-0.00730184,0.0195535,0.999911,1.42633e-10,-2.11556e-10,-0.013359,3
44148255,0.99973,0.012818,-0.00516035,0.0187064,0.999911,1.42633e-10,-2.11556e-10,-0.013359,3
44197774,0.999751,0.0121246,-0.00382517,0.0183199,0.999911,1.42633e-10,-2.11556e-10,-0.013359,3
44247452,0.999739,0.015089,-0.00360675,0.0167485,0.999911,1.42633e-10,-2.11556e-10,-0.013359,3
44297140,0.999752,0.0158497,-0.0040232,0.0151349,0.999911,1.42633e-10,-2.11556e-10,-0.013359,3
44351758,0.999795,0.0144841,-0.00613953,0.0127682,0.999911,1.42633e-10,-2.11556e-10,-0.013359,3
44396519,0.999861,0.0113957,-0.00590646,0.0106575,0.999911,1.42633e-10,-2.11556e-10,-0.013359,3
44446135,0.999898,0.0101949,-0.00614629,0.00790419,0.999911,1.42633e-10,-2.11556e-10,-0.013359,3
44500774,0.999885,0.0127965,-0.00652967,0.00481039,0.999911,1.42633e-10,-2.11556e-10,-0.013359,3
44550485,0.999824,0.0167801,-0.00800081,0.00236851,0.999911,1.42633e-10,-2.11556e-10,-0.013359,3
44600118,0.999853,0.0144444,-0.00926185,0.000705584,0.999911,1.42633e-10,-2.11556e-10,-0.013359,3
44649833,0.999928,0.00712115,-0.00966509,-3.32637e-05,0.999911,1.42633e-10,-2.11556e-10,-0.013359,3
44699462,0.999936,-0.00249064,-0.0110441,-0.000448169,0.999911,1.42633e-10,-2.11556e-10,-0.013359,3
44749136,0.999787,-0.0170032,-0.0116827,-0.000865749,0.999911,1.42633e-10,-2.11556e-10,-0.013359,3
44798821,0.999501,-0.0302599,-0.00894667,-0.00119695,0.999911,1.42633e-10,-2.11556e-10,-0.013359,3
44848478,0.999196,-0.039448,-0.00695737,-0.0015197,0.999911,1.42633e-10,-2.11556e-10,-0.013359,3
44898150,0.998748,-0.0494586,-0.00731051,-0.00167003,0.999911,1.42633e-10,-2.11556e-10,-0.013359,3
44947947,0.998216,-0.0589749,-0.00927361,-0.000451918,0.999911,1.42633e-10,-2.11556e-10,-0.013359,3
45002461,0.998351,-0.0565427,-0.00969674,0.00210393,0.999911,1.42633e-10,-2.11556e-10,-0.013359,3
45052133,0.998876,-0.0462788,-0.00887069,0.00514977,0.999911,1.42633e-10,-2.11556e-10,-0.013359,3
45096838,0.999286,-0.0353297,-0.008967,0.00990307,0.999911,1.42633e-10,-2.11556e-10,-0.013359,3
45146510,0.999387,-0.0285068,-0.010098,0.0176166,0.999911,1.42633e-10,-2.11556e-10,-0.013359,3
45201254,0.999232,-0.0235109,-0.011126,0.0292997,0.999911,1.42633e-10,-2.11556e-10,-0.013359,3
45250822,0.998905,-0.0182374,-0.0109848,0.0416707,0.999911,1.42633e-10,-2.11556e-10,-0.013359,3
45300495,0.998334,-0.0174525,-0.0113456,0.053806,0.999911,1.42633e-10,-2.11556e-10,-0.013359,3
45345199,0.997834,-0.0137637,-0.0110884,0.0633697,0.999911,1.42633e-10,-2.11556e-10,-0.013359,3
45399837,0.997379,-0.00475148,-0.0113434,0.0713067,0.999911,1.42633e-10,-2.11556e-10,-0.013359,3
45449556,0.996965,0.00482916,-0.0114313,0.0768577,0.999911,1.42633e-10,-2.11556e-10,-0.013359,3
45499375,0.996516,0.0103589,-0.0119623,0.081889,0.999911,1.42633e-10,-2.11556e-10,-0.013359,3
45548854,0.99615,0.0117121,-0.0122519,0.0860103,0.999911,1.42633e-10,-2.11556e-10,-0.013359,3
45598529,0.995806,0.0139627,-0.012088,0.0896029,0.999911,1.42633e-10,-2.11556e-10,-0.013359,3
45648198,0.995506,0.0162326,-0.0120819,0.0925099,0.999911,1.42633e-10,-2.11556e-10,-0.013359,3
45702844,0.995722,0.0169383,-0.0128564,0.0899202,0.999984,1.0421e-09,1.8783e-09,-0.00573708,4
45747631,0.995578,0.0149348,-0.0133092,0.0917894,0.999984,1.0421e-09,1.8783e-09,-0.00573708,4
45797215,0.995421,0.0110161,-0.0161008,0.0935772,0.999984,1.0421e-09,1.8783e-09,-0.00573708,4
45846925,0.995063,0.00869595,-0.0284789,0.0946732,0.999984,1.0421e-09,1.8783e-09,-0.00573708,4
45901525,0.994254,0.0108754,-0.0473844,0.095375,0.999984,1.0421e-09,1.8783e-09,-0.00573708,4
45951198,0.99335,0.017455,-0.0614616,0.0957741,0.999984,1.0421e-09,1.8783e-09,-0.00573708,4
45995950,0.992886,0.0217646,-0.0669471,0.0960307,0.999984,1.0421e-09,1.8783e-09,-0.00573708,4
46045574,0.993133,0.0212343,-0.0648363,0.0950371,0.999984,1.0421e-09,1.8783e-09,-0.00573708,4
46100213,0.993807,0.017446,-0.0565688,0.0940417,0.999984,1.0421e-09,1.8783e-09,-0.00573708,4
46149886,0.994516,0.0169015,-0.0446112,0.0930687,0.999984,1.0421e-09,1.8783e-09,-0.00573708,4
46199557,0.995206,0.0144943,-0.0306831,0.0917233,0.999984,1.0421e-09,1.8783e-09,-0.00573708,4
46249229,0.995597,0.0134213,-0.0196062,0.0906752,0.999984,1.0421e-09,1.8783e-09,-0.00573708,4
46299051,0.995827,0.0125286,-0.0134895,0.0893829,0.999984,1.0421e-09,1.8783e-09,-0.00573708,4
46348574,0.995933,0.015562,-0.0109885,0.0880599,0.999984,1.0421e-09,1.8783e-09,-0.00573708,4
46398248,0.99613,0.0157273,-0.0104664,0.0858406,0.999984,1.0421e-09,1.8783e-09,-0.00573708,4
46447917,0.996301,0.0155661,-0.00917495,0.0840066,0.999984,1.0421e-09,1.8783e-09,-0.00573708,4
46497591,0.996498,0.0144423,-0.00750377,0.082014,0.999984,1.0421e-09,1.8783e-09,-0.00573708,4
46547361,0.99676,0.0118763,-0.00529246,0.0793764,0.999984,1.0421e-09,1.8783e-09,-0.00573708,4
46601903,0.996937,0.0120453,-0.00351844,0.07719,0.999984,1.0421e-09,1.8783e-09,-0.00573708,4
46651573,0.99707,0.0154244,-0.00329518,0.0748473,0.999984,1.0421e-09,1.8783e-09,-0.00573708,4
46696278,0.997195,0.0152612,-0.00370689,0.0731781,0.999984,1.0421e-09,1.8783e-09,-0.00573708,4
46745952,0.997372,0.0121686,-0.00414421,0.0713003,0.999984,1.0421e-09,1.8783e-09,-0.00573708,4
46800677,0.99758,0.0104571,-0.00295978,0.0686779,0.999984,1.0421e-09,1.8783e-09,-0.00573708,4
46850261,0.997721,0.0117398,-0.00284343,0.0663831,0.999984,1.0421e-09,1.8783e-09,-0.00573708,4
46899936,0.997868,0.0114703,-0.00331094,0.0641673,0.999984,1.0421e-09,1.8783e-09,-0.00573708,4
46949624,0.99798,0.0137696,-0.00241798,0.0619777,0.999984,1.0421e-09,1.8783e-09,-0.00573708,4
46999278,0.99809,0.0140944,-0.00149621,0.060136,0.999984,1.0421e-09,1.8783e-09,-0.00573708,4
47048952,0.998201,0.0122444,-0.00126988,0.0586792,0.999984,1.0421e-09,1.8783e-09,-0.00573708,4
47098739,0.998266,0.0151788,-0.00101343,0.0568579,0.999984,1.0421e-09,1.8783e-09,-0.00573708,4
47148293,0.998237,0.0198785,-0.000448017,0.0559306,0.999984,1.0421e-09,1.8783e-09,-0.00573708,4
47197965,0.998224,0.0216503,-0.00136635,0.0554894,0.999984,1.0421e-09,1.8783e-09,-0.00573708,4
47247638,0.998263,0.0192448,-0.00381816,0.0555562,0.999984,1.0421e-09,1.8783e-09,-0.00573708,4
47302277,0.998204,0.017074,-0.0122089,0.0561153,0.999984,1.0421e-09,1.8783e-09,-0.00573708,4
47347004,0.997858,0.0180265,-0.0267634,0.0569099,0.999984,1.0421e-09,1.8783e-09,-0.00573708,4
47396653,0.997013,0.0228682,-0.0455262,0.0580445,0.999984,1.0421e-09,1.8783e-09,-0.00573708,4
47446326,0.996123,0.0283499,-0.0586363,0.0591335,0.999984,1.0421e-09,1.8783e-09,-0.00573708,4
47500967,0.995636,0.0273253,-0.0658988,0.060156,0.999984,1.0421e-09,1.8783e-09,-0.00573708,4
47550636,0.995685,0.025021,-0.0655329,0.060744,0.999984,1.0421e-09,1.8783e-09,-0.00573708,4
47595342,0.995919,0.0236519,-0.0619777,0.0611978,0.999984,1.0421e-09,1.8783e-09,-0.00573708,4
47650162,0.99624,0.0207657,-0.0569171,0.0619308,0.999984,1.0421e-09,1.8783e-09,-0.00573708,4
47699652,0.996527,0.0173729,-0.0518381,0.0628092,0.999984,1.0421e-09,1.8783e-09,-0.00573708,4
47749321,0.996932,0.0159652,-0.0426808,0.0636459,0.999984,1.0421e-09,1.8783e-09,-0.00573708,4
47798997,0.997365,0.0171054,-0.0296322,0.0639755,0.999984,1.0421e-09,1.8783e-09,-0.00573708,4
47848669,0.997628,0.0151563,-0.0186455,0.0645103,0.999984,1.0421e-09,1.8783e-09,-0.00573708,4
47898485,0.99775,0.011548,-0.013369,0.0646692,0.999984,1.0421e-09,1.8783e-09,-0.00573708,4
47948013,0.997843,0.0075681,-0.0099606,0.0644373,0.999984,1.0421e-09,1.8783e-09,-0.00573708,4
48002653,0.997857,0.00576945,-0.00690329,0.0648078,0.999984,1.0421e-09,1.8783e-09,-0.00573708,4
48047359,0.997854,0.00882738,-0.00382678,0.0647639,0.999984,1.0421e-09,1.8783e-09,-0.00573708,4
48097029,0.997875,0.0106998,-0.00210855,0.0642439,0.999984,1.0421e-09,1.8783e-09,-0.00573708,4
48146702,0.997858,0.0124685,-0.00197267,0.0641869,0.999984,1.0421e-09,1.8783e-09,-0.00573708,4
48201341,0.997846,0.0135861,-0.0028737,0.064106,0.999984,1.0421e-09,1.8783e-09,-0.00573708,4
48251059,0.997895,0.0130536,-0.00374131,0.063419,0.999984,1.0421e-09,1.8783e-09,-0.00573708,4
48295717,0.997907,0.012463,-0.00427547,0.0633039,0.999984,1.0421e-09,1.8783e-09,-0.00573708,4
48350357,0.997934,0.0145775,-0.00374509,0.0624644,0.999984,1.0421e-09,1.8783e-09,-0.00573708,4
48400029,0.997924,0.0178819,-0.00290424,0.0618063,0.999984,1.0421e-09,1.8783e-09,-0.00573708,4
48449846,0.997982,0.0170212,-0.00347953,0.0610743,0.999984,1.0421e-09,1.8783e-09,-0.00573708,4
48499373,0.998036,0.0147882,-0.00409623,0.0607389,0.999984,1.0421e-09,1.8783e-09,-0.00573708,4
48549045,0.998075,0.013432,-0.00465505,0.0603659,0.999984,1.0421e-09,1.8783e-09,-0.00573708,4
48598717,0.998081,0.0139227,-0.00515251,0.0601187,0.999984,1.0421e-09,1.8783e-09,-0.00573708,4
48648390,0.998068,0.0160777,-0.00598154,0.059719,0.999984,1.0421e-09,1.8783e-09,-0.00573708,4
48698234,0.998029,0.019165,-0.00980288,0.0589426,0.999984,1.0421e-09,1.8783e-09,-0.00573708,4
48747734,0.997898,0.0166501,-0.0211189,0.0589595,0.999984,1.0421e-09,1.8783e-09,-0.00573708,4
48797407,0.997546,0.0148875,-0.0345715,0.0590435,0.999984,1.0421e-09,1.8783e-09,-0.00573708,4
48847077,0.997186,0.0156726,-0.0433505,0.0591236,0.999984,1.0421e-09,1.8783e-09,-0.00573708,4
48901716,0.996711,0.0172483,-0.0521331,0.059594,0.999984,1.0421e-09,1.8783e-09,-0.00573708,4
48946441,0.9961,0.0170902,-0.062695,0.0596918,0.999984,1.0421e-09,1.8783e-09,-0.00573708,4
48996289,0.995189,0.0117395,-0.0764392,0.0601539,0.999984,1.0421e-09,1.8783e-09,-0.00573708,4
49050732,0.994535,0.00547586,-0.0847765,0.0606896,0.999984,1.0421e-09,1.8783e-09,-0.00573708,4
49100404,0.994753,-0.000607072,-0.0816123,0.061695,0.999984,1.0421e-09,1.8783e-09,-0.00573708,4
49150076,0.995494,-0.00514382,-0.0709253,0.062733,0.999984,1.0421e-09,1.8783e-09,-0.00573708,4
49199761,0.99667,0.00078689,-0.0506438,0.0638983,0.999984,1.0421e-09,1.8783e-09,-0.00573708,4
49249531,0.997336,0.00913656,-0.0306345,0.0655637,0.999984,1.0421e-09,1.8783e-09,-0.00573708,4
49299093,0.997431,0.0104672,-0.0203615,0.0678817,0.999984,1.0421e-09,1.8783e-09,-0.00573708,4
49348766,0.997391,0.00605249,-0.0169681,0.0699124,0.999984,1.0421e-09,1.8783e-09,-0.00573708,4
49398436,0.997324,-0.00455495,-0.014386,0.0715419,0.999984,1.0421e-09,1.8783e-09,-0.00573708,4
49448112,0.996856,-0.0300633,-0.0122575,0.0722797,0.999984,1.0421e-09,1.8783e-09,-0.00573708,4
49497800,0.995499,-0.0595639,-0.0102373,0.0730073,0.999984,1.0421e-09,1.8783e-09,-0.00573708,4
49547454,0.994125,-0.0791597,-0.0103745,0.0730897,0.999984,1.0421e-09,1.8783e-09,-0.00573708,4
49602092,0.992687,-0.0942999,-0.0139678,0.0740566,0.999984,1.0421e-09,1.8783e-09,-0.00573708,4
49646798,0.991807,-0.102695,-0.0166181,0.0741374,0.999984,1.0421e-09,1.8783e-09,-0.00573708,4
49696470,0.991452,-0.105342,-0.0182709,0.0747871,0.999984,1.0421e-09,1.8783e-09,-0.00573708,4
49751113,0.992378,-0.0959432,-0.0183761,0.0751183,0.999984,1.0421e-09,1.8783e-09,-0.00573708,4
49800956,0.994481,-0.0699846,-0.017379,0.0762064,0.999984,1.0421e-09,1.8783e-09,-0.00573708,4
49850452,0.996274,-0.033515,-0.0160242,0.0778334,0.999984,1.0421e-09,1.8783e-09,-0.00573708,4
49900140,0.996673,-0.00652791,-0.0167683,0.0794895,0.999984,1.0421e-09,1.8783e-09,-0.00573708,4
49949796,0.996496,-0.000657323,-0.0174646,0.0817965,0.999984,1.0421e-09,1.8783e-09,-0.00573708,4
49999468,0.996238,-0.00048194,-0.0200148,0.0843121,0.999984,1.0421e-09,1.8783e-09,-0.00573708,4
50049226,0.995795,0.0112319,-0.0271264,0.0867757,0.999984,1.0421e-09,1.8783e-09,-0.00573708,4
50098812,0.994444,0.0427119,-0.0378892,0.0884403,0.999984,1.0421e-09,1.8783e-09,-0.00573708,4
50148495,0.991624,0.0752352,-0.0524793,0.0909247,0.999984,1.0421e-09,1.8783e-09,-0.00573708,4
50198159,0.989303,0.0906077,-0.0670511,0.0925911,0.999984,1.0421e-09,1.8783e-09,-0.00573708,4
50247828,0.988623,0.089802,-0.0766537,0.0931875,0.999984,1.0421e-09,1.8783e-09,-0.00573708,4
50297539,0.988394,0.0880141,-0.0808749,0.0937562,0.999984,1.0421e-09,1.8783e-09,-0.00573708,4
50347173,0.988252,0.0885873,-0.0811048,0.0945132,0.999984,1.0421e-09,1.8783e-09,-0.00573708,4
50396853,0.988037,0.0897215,-0.0814946,0.0953484,0.999984,1.0421e-09,1.8783e-09,-0.00573708,4
50451524,0.988335,0.084535,-0.0833914,0.0953633,0.999984,1.0421e-09,1.8783e-09,-0.00573708,4
50501156,0.989129,0.07622,-0.0824624,0.0949417,0.999984,1.0421e-09,1.8783e-09,-0.00573708,4
50545861,0.99016,0.0685502,-0.0774073,0.094301,0.999984,1.0421e-09,1.8783e-09,-0.00573708,4
50595649,0.990765,0.0645152,-0.0736029,0.0938309,0.999984,1.0421e-09,1.8783e-09,-0.00573708,4
50650172,0.991165,0.0599668,-0.0731421,0.0929881,0.999984,1.0421e-09,1.8783e-09,-0.00573708,4
50699849,0.991726,0.0543829,-0.071798,0.0914672,0.999984,1.0421e-09,1.8783e-09,-0.00573708,4
50749530,0.992718,0.0436849,-0.0671178,0.0899897,0.999984,1.0421e-09,1.8783e-09,-0.00573708,4
50799194,0.993951,0.0296117,-0.0582233,0.0882854,0.999984,1.0421e-09,1.8783e-09,-0.00573708,4
50848907,0.994978,0.0219604,-0.0452481,0.0865401,0.999984,1.0421e-09,1.8783e-09,-0.00573708,4
50898532,0.99572,0.0207596,-0.0301029,0.0848783,0.999984,1.0421e-09,1.8783e-09,-0.00573708,4
50948209,0.996131,0.0197694,-0.0195733,0.0833627,0.999984,1.0421e-09,1.8783e-09,-0.00573708,4
50997876,0.996379,0.0154159,-0.0142099,0.0823947,0.999984,1.0421e-09,1.8783e-09,-0.00573708,4
51047551,0.996551,0.0137539,-0.0107675,0.0811296,0.999984,1.0421e-09,1.8783e-09,-0.00573708,4
51097244,0.99677,0.0144565,-0.00723516,0.0786716,0.999984,1.0421e-09,1.8783e-09,-0.00573708,4
51151860,0.99698,0.0125559,-0.00587863,0.0764139,0.999984,1.0421e-09,1.8783e-09,-0.00573708,4
51201532,0.997202,0.00579728,-0.00540511,0.074331,0.999984,1.0421e-09,1.8783e-09,-0.00573708,4
51246237,0.997345,-0.00761354,-0.00549916,0.0722136,0.999984,1.0421e-09,1.8783e-09,-0.00573708,4
51295909,0.996895,-0.0343482,-0.00687347,0.0705183,0.999984,1.0421e-09,1.8783e-09,-0.00573708,4
51350587,0.995427,-0.0654121,-0.00746653,0.0692158,0.999984,1.0421e-09,1.8783e-09,-0.00573708,4
51400328,0.993981,-0.0852725,-0.00853674,0.0682494,0.999984,1.0421e-09,1.8783e-09,-0.00573708,4
51449892,0.993089,-0.0959986,-0.0100992,0.0667573,0.999984,1.0421e-09,1.8783e-09,-0.00573708,4
51499566,0.992875,-0.0983705,-0.011332,0.0662913,0.999984,1.0421e-09,1.8783e-09,-0.00573708,4
51549236,0.99367,-0.0904657,-0.0113635,0.0656276,0.999984,1.0421e-09,1.8783e-09,-0.00573708,4
51598910,0.996245,-0.0568662,-0.00809866,0.0647747,0.999984,1.0421e-09,1.8783e-09,-0.00573708,4
51648595,0.997681,-0.0204253,-0.00661398,0.0645943,0.999984,1.0421e-09,1.8783e-09,-0.00573708,4
51698252,0.997869,0.000974094,-0.00699803,0.064864,0.999984,1.0421e-09,1.8783e-09,-0.00573708,4
51747930,0.997814,0.00363877,-0.00803429,0.0654991,0.999984,1.0421e-09,1.8783e-09,-0.00573708,4
51797596,0.997807,0.00207726,-0.00656397,0.0658259,0.999984,1.0421e-09,1.8783e-09,-0.00573708,4
51852236,0.997748,0.00485217,-0.00361262,0.0668049,0.999984,1.0421e-09,1.8783e-09,-0.00573708,4
51896987,0.997703,0.0103046,-0.00247235,0.06691,0.999984,1.0421e-09,1.8783e-09,-0.00573708,4
51946758,0.997652,0.0129872,-0.00440797,0.0671007,0.999984,1.0421e-09,1.8783e-09,-0.00573708,4
52001252,0.997602,0.0121129,-0.00606804,0.0678757,0.999984,1.0421e-09,1.8783e-09,-0.00573708,4
52050943,0.997593,0.0124634,-0.00604232,0.0679417,0.999984,1.0421e-09,1.8783e-09,-0.00573708,4
52100596,0.9975,0.0145931,-0.00580964,0.0689051,0.999984,1.0421e-09,1.8783e-09,-0.00573708,4
52145307,0.997405,0.0166231,-0.00646026,0.0697548,0.999984,1.0421e-09,1.8783e-09,-0.00573708,4
52200023,0.997386,0.0124586,-0.00858001,0.0706505,0.999984,1.0421e-09,1.8783e-09,-0.00573708,4
52249613,0.99736,0.00643752,-0.00895821,0.0717793,0.999984,1.0421e-09,1.8783e-09,-0.00573708,4
52299350,0.99729,0.00138944,-0.00891312,0.0730198,0.999984,1.0421e-09,1.8783e-09,-0.00573708,4
52348956,0.997146,0.00171592,-0.0143102,0.074113,0.999984,1.0421e-09,1.8783e-09,-0.00573708,4
52398630,0.996794,0.00799511,-0.0255188,0.0754074,0.999984,1.0421e-09,1.8783e-09,-0.00573708,4
52448301,0.996164,0.0145829,-0.0396104,0.0766509,0.999984,1.0421e-09,1.8783e-09,-0.00573708,4
52497974,0.995578,0.0170449,-0.0506971,0.0772218,0.999984,1.0421e-09,1.8783e-09,-0.00573708,4
52552612,0.995136,0.0156226,-0.0580158,0.0780612,0.999984,1.0421e-09,1.8783e-09,-0.00573708,4
52597317,0.994754,0.0157549,-0.0635537,0.0786004,0.999984,1.0421e-09,1.8783e-09,-0.00573708,4
52646989,0.994322,0.0173757,-0.0693659,0.0788102,0.999984,1.0421e-09,1.8783e-09,-0.00573708,4
52701628,0.994013,0.0191522,-0.0725311,0.0794443,0.999984,1.0421e-09,1.8783e-09,-0.00573708,4
52751437,0.993886,0.0201332,-0.0737225,0.0796905,0.999984,1.0421e-09,1.8783e-09,-0.00573708,4
52800972,0.993784,0.0198231,-0.0749392,0.079906,0.999984,1.0421e-09,1.8783e-09,-0.00573708,4
52845677,0.993887,0.0183945,-0.0742114,0.0796413,0.999984,1.0421e-09,1.8783e-09,-0.00573708,4
52900317,0.994197,0.0173735,-0.0705615,0.079315,0.999984,1.0421e-09,1.8783e-09,-0.00573708,4
52949989,0.994366,0.0176571,-0.0679858,0.0793863,0.999984,1.0421e-09,1.8783e-09,-0.00573708,4
52999755,0.994381,0.0179859,-0.0674967,0.0795402,0.999984,1.0421e-09,1.8783e-09,-0.00573708,4
53049333,0.994252,0.0178441,-0.0697738,0.0792197,0.999984,1.0421e-09,1.8783e-09,-0.00573708,4
53099011,0.994111,0.0178009,-0.0719243,0.0790729,0.999984,1.0421e-09,1.8783e-09,-0.00573708,4
53148676,0.994047,0.0192278,-0.0732793,0.0783025,0.999984,1.0421e-09,1.8783e-09,-0.00573708,4
53198349,0.994034,0.0203145,-0.0736623,0.0778319,0.999984,1.0421e-09,1.8783e-09,-0.00573708,4
53248063,0.994201,0.0208296,-0.0719742,0.0771441,0.999984,1.0421e-09,1.8783e-09,-0.00573708,4
53297879,0.994403,0.0208283,-0.0698192,0.0765127,0.999984,1.0421e-09,1.8783e-09,-0.00573708,4
53347366,0.994633,0.0198013,-0.0678991,0.0755104,0.999984,1.0421e-09,1.8783e-09,-0.00573708,4
53402004,0.995066,0.0181577,-0.0632029,0.0742907,0.999984,1.0421e-09,1.8783e-09,-0.00573708,4
53451676,0.995404,0.0200686,-0.0579792,0.073525,0.999984,1.0421e-09,1.8783e-09,-0.00573708,4
53496407,0.9958,0.0190142,-0.0527795,0.0723617,0.999984,1.0421e-09,1.8783e-09,-0.00573708,4
53546133,0.996314,0.0200078,-0.0436602,0.071073,0.999984,1.0421e-09,1.8783e-09,-0.00573708,4
53600692,0.996953,0.0185826,-0.0298616,0.0696247,0.999984,1.0421e-09,1.8783e-09,-0.00573708,4
53650366,0.997287,0.0191872,-0.0195563,0.068321,0.999984,1.0421e-09,1.8783e-09,-0.00573708,4
53700036,0.99751,0.0178699,-0.0144814,0.0666619,0.999984,1.0421e-09,1.8783e-09,-0.00573708,4
53749709,0.997655,0.0152179,-0.0113071,0.0657662,0.999984,1.0421e-09,1.8783e-09,-0.00573708,4
53799394,0.997826,0.0138656,-0.00807105,0.0639244,0.999984,1.0421e-09,1.8783e-09,-0.00573708,4
53849053,0.997972,0.0132947,-0.00416762,0.0621055,0.999984,1.0421e-09,1.8783e-09,-0.00573708,4
53898724,0.998062,0.0132177,-0.00111732,0.0607897,0.999984,1.0421e-09,1.8783e-09,-0.00573708,4
53948397,0.998136,0.011583,-0.000238725,0.0599196,0.999984,1.0421e-09,1.8783e-09,-0.00573708,4
53998069,0.998176,0.00948714,-0.00045062,0.0596258,0.999984,1.0421e-09,1.8783e-09,-0.00573708,4
54047741,0.99821,0.009676,-0.000295529,0.0590262,0.999984,1.0421e-09,1.8783e-09,-0.00573708,4
54097555,0.998229,0.0113278,-0.000652334,0.0583967,0.999984,1.0421e-09,1.8783e-09,-0.00573708,4
54152053,0.998226,0.013834,-0.000920338,0.0578998,0.999984,1.0421e-09,1.8783e-09,-0.00573708,4
54196757,0.99825,0.0136935,-0.00180648,0.0575035,0.999984,1.0421e-09,1.8783e-09,-0.00573708,4
54246429,0.998254,0.0114435,-0.00255338,0.0578965,0.999984,1.0421e-09,1.8783e-09,-0.00573708,4
54301068,0.998297,0.00291978,-0.000840664,0.0582624,0.999984,1.0421e-09,1.8783e-09,-0.00573708,4
54350814,0.998276,-0.0033649,0.00503325,0.0583785,0.999984,1.0421e-09,1.8783e-09,-0.00573708,4
54400413,0.998202,-0.00351813,0.0128136,0.0584503,0.999984,1.0421e-09,1.8783e-09,-0.00573708,4
54445172,0.998148,-0.0011415,0.0168588,0.05844,0.999984,1.0421e-09,1.8783e-09,-0.00573708,4
54499757,0.998074,0.000962521,0.0197599,0.0587886,0.999984,1.0421e-09,1.8783e-09,-0.00573708,4
54549437,0.997981,-0.000947051,0.0231208,0.0591528,0.999984,1.0421e-09,1.8783e-09,-0.00573708,4
54599101,0.997944,-0.00183675,0.0237298,0.0595165,0.999984,1.0421e-09,1.8783e-09,-0.00573708,4
54648773,0.998012,0.000837937,0.0199643,0.0597802,0.999984,1.0421e-09,1.8783e-09,-0.00573708,4
54698454,0.998042,0.00607461,0.0169272,0.0599104,0.999984,1.0421e-09,1.8783e-09,-0.00573708,4
54748117,0.998027,0.00850616,0.0153576,0.060283,0.999984,1.0421e-09,1.8783e-09,-0.00573708,4
54802756,0.998068,0.00466887,0.0102835,0.0611031,0.999984,1.0421e-09,1.8783e-09,-0.00573708,4
54847461,0.998097,0.00519863,0.00444129,0.0612823,0.999984,1.0421e-09,1.8783e-09,-0.00573708,4
54897242,0.998045,0.00913609,-0.00103033,0.0618237,0.999984,1.0421e-09,1.8783e-09,-0.00573708,4
54946842,0.997962,0.00994401,-0.00766085,0.062558,0.999984,1.0421e-09,1.8783e-09,-0.00573708,4
55001445,0.997751,0.00869148,-0.0205985,0.0631856,0.999984,1.0421e-09,1.8783e-09,-0.00573708,4
55051116,0.997246,0.00658006,-0.0367444,0.0640898,0.999984,1.0421e-09,1.8783e-09,-0.00573708,4
55095821,0.99664,0.00226032,-0.0497541,0.0650295,0.999984,1.0421e-09,1.8783e-09,-0.00573708,4
55145556,0.996233,-0.00836108,-0.0558059,0.0658491,0.999984,1.0421e-09,1.8783e-09,-0.00573708,4
55200133,0.995938,-0.0245529,-0.0557939,0.0662782,0.999984,1.0421e-09,1.8783e-09,-0.00573708,4
55249805,0.995703,-0.0339394,-0.0540086,0.0671264,0.999984,1.0421e-09,1.8783e-09,-0.00573708,4
55299477,0.995599,-0.0354448,-0.0538923,0.0679803,0.999984,1.0421e-09,1.8783e-09,-0.00573708,4
55349153,0.995485,-0.0338849,-0.0546305,0.069829,0.999984,1.0421e-09,1.8783e-09,-0.00573708,4
55398833,0.99534,-0.0340169,-0.0552469,0.0713332,0.999984,1.0421e-09,1.8783e-09,-0.00573708,4
55448674,0.995118,-0.0355211,-0.0565145,0.0726908,0.999984,1.0421e-09,1.8783e-09,-0.00573708,4
55503133,0.995109,-0.0324561,-0.0561211,0.0745283,0.999984,1.0421e-09,1.8783e-09,-0.00573708,4
55547837,0.995246,-0.0301127,-0.0530788,0.0759008,0.999984,1.0421e-09,1.8783e-09,-0.00573708,4
55597553,0.995544,-0.0244969,-0.0478008,0.0775121,0.999984,1.0421e-09,1.8783e-09,-0.00573708,4
55647187,0.996093,-0.0159242,-0.0359929,0.0790584,0.999984,1.0421e-09,1.8783e-09,-0.00573708,4
55701922,0.996472,-0.00670037,-0.0237249,0.0802203,0.999984,1.0421e-09,1.8783e-09,-0.00573708,4
55751493,0.99647,-0.00252166,-0.0181931,0.0819141,0.999984,1.0421e-09,1.8783e-09,-0.00573708,4
55796198,0.99646,0.00286632,-0.0161836,0.0824525,0.999984,1.0421e-09,1.8783e-09,-0.00573708,4
55845870,0.996379,0.00818975,-0.0150612,0.0832755,0.999984,1.0421e-09,1.8783e-09,-0.00573708,4
55900509,0.99637,0.00991837,-0.0140015,0.0833836,0.999984,1.0421e-09,1.8783e-09,-0.00573708,4
55950196,0.996361,0.00989171,-0.0127831,0.0836916,0.999984,1.0421e-09,1.8783e-09,-0.00573708,4
55999878,0.996383,0.0124939,-0.010759,0.0833608,0.999984,1.0421e-09,1.8783e-09,-0.00573708,4
56049527,0.996411,0.0148174,-0.0101736,0.0827174,0.999984,1.0421e-09,1.8783e-09,-0.00573708,4
56099199,0.996454,0.0158716,-0.010832,0.0819105,0.999984,1.0421e-09,1.8783e-09,-0.00573708,4
56148869,0.996429,0.0189874,-0.0141713,0.081049,0.999984,1.0421e-09,1.8783e-09,-0.00573708,4
56198557,0.996176,0.0274865,-0.0191884,0.0806816,0.999984,1.0421e-09,1.8783e-09,-0.00573708,4
56248353,0.995609,0.0425361,-0.025066,0.0795335,0.999984,1.0421e-09,1.8783e-09,-0.00573708,4
56297887,0.994293,0.0638698,-0.032864,0.0788743,0.999984,1.0421e-09,1.8783e-09,-0.00573708,4
56347558,0.992794,0.0800485,-0.0428714,0.0781917,0.999984,1.0421e-09,1.8783e-09,-0.00573708,4
56402197,0.992029,0.0853513,-0.0515951,0.0770114,0.999984,1.0421e-09,1.8783e-09,-0.00573708,4
56446903,0.991873,0.0853902,-0.0551553,0.0765129,0.999984,1.0421e-09,1.8783e-09,-0.00573708,4
56496627,0.991816,0.0866818,-0.0555275,0.0755182,0.999984,1.0421e-09,1.8783e-09,-0.00573708,4
56551214,0.991876,0.0867047,-0.0554105,0.07479,0.999984,1.0421e-09,1.8783e-09,-0.00573708,4
56600885,0.992471,0.0802906,-0.0558897,0.0736959,0.999984,1.0421e-09,1.8783e-09,-0.00573708,4
56650557,0.99358,0.0681619,-0.0536162,0.0726506,0.999984,1.0421e-09,1.8783e-09,-0.00573708,4
56695262,0.994958,0.0532148,-0.0458966,0.0715628,0.999984,1.0421e-09,1.8783e-09,-0.00573708,4
