timestamp,yaw_composite,yaw_variance,yaw[0],yaw[1],yaw[2],yaw[3],yaw[4],innov_vn[0],innov_vn[1],innov_vn[2],innov_vn[3],innov_vn[4],innov_ve[0],innov_ve[1],innov_ve[2],innov_ve[3],innov_ve[4],weight[0],weight[1],weight[2],weight[3],weight[4]
27075846,0.0705303,3.5572,-2.51469,-1.258,-0.00144782,1.25508,2.51174,-0.0759184,-0.0466083,0.0388217,0.0623097,-0.00860473,0.0269796,-0.0533223,-0.0502618,0.0319337,0.0796708,0.199954,0.200015,0.200055,0.200019,0.199957
27085780,0.0744678,3.55743,-2.51236,-1.25567,0.000877982,1.25741,2.51406,-0.0759184,-0.0466083,0.0388217,0.0623097,-0.00860473,0.0269796,-0.0533223,-0.0502618,0.0319337,0.0796708,0.199954,0.200015,0.200055,0.200019,0.199957
27279501,0.933568,3.64593,-2.5135,-1.25521,0.00141898,1.25639,2.51201,-0.161956,-0.123017,0.00026897,0.0375417,-0.0627146,0.0281734,-0.0888162,-0.0879382,0.0295816,0.101354,0.199284,0.199564,0.200447,0.200712,0.199992
27478374,1.22809,3.54246,-2.51273,-1.25465,0.00238846,1.25783,2.51332,-0.126748,-0.0554653,0.106407,0.135228,-0.00862836,0.0153266,-0.131928,-0.10953,0.0511354,0.128419,0.199484,0.199505,0.20021,0.200626,0.200176
27681850,0.531917,3.8237,-2.51208,-1.25481,0.00149428,1.25729,2.51374,-0.148213,-0.0797763,0.11486,0.166609,0.00428816,0.0593411,-0.123229,-0.114384,0.0732324,0.180618,0.199639,0.199922,0.200313,0.200271,0.199854
27880531,0.249675,3.59722,-2.51203,-1.25461,0.00110681,1.25639,2.51312,-0.180414,-0.0998527,0.109073,0.157759,-0.0210358,0.0513279,-0.142322,-0.125523,0.0782685,0.187687,0.199413,0.200042,0.200613,0.200336,0.199595
28079224,1.27707,3.52637,-2.51332,-1.25441,0.00295303,1.25778,2.51256,-0.215904,-0.11717,0.125825,0.177654,-0.0333926,0.0180931,-0.205624,-0.180898,0.057714,0.180997,0.199205,0.19918,0.200287,0.200999,0.200328
28278089,-2.91182,3.67634,-2.51416,-1.25878,-0.000509366,1.25839,2.5148,-0.181418,-0.0790443,0.203745,0.275875,0.0384429,0.053143,-0.211275,-0.195212,0.0781802,0.231695,0.201053,0.199907,0.198892,0.199407,0.200742
28481561,-2.87244,3.63638,-2.5137,-1.25871,-0.000146834,1.25933,2.51581,-0.238573,-0.131329,0.167331,0.24387,-0.00731333,0.0618474,-0.216716,-0.20071,0.0885493,0.250197,0.201347,0.199938,0.198618,0.199205,0.200892
28680249,-1.37063,3.52864,-2.50936,-1.25329,0.00283066,1.25971,2.51703,-0.287367,-0.155067,0.157404,0.217152,-0.058127,0.0761021,-0.208659,-0.170689,0.138557,0.290259,0.200148,0.200339,0.200061,0.199699,0.199753
28878939,-2.85796,3.59603,-2.50374,-1.25052,0.010027,1.2725,2.52884,-0.246889,-0.10843,0.247609,0.329453,0.0236365,0.0282219,-0.301122,-0.2714,0.0765663,0.261847,0.20286,0.199872,0.197078,0.198308,0.201883
29077741,2.9429,3.59012,-2.48641,-1.23057,0.0355434,1.29882,2.5501,-0.292332,-0.135242,0.2101,0.263952,-0.0474114,-0.0137697,-0.324028,-0.270135,0.0756741,0.232227,0.203312,0.19736,0.195079,0.199556,0.204693
29276332,2.66789,3.4041,-2.48356,-1.22369,0.0489059,1.31214,2.55692,-0.269126,-0.101224,0.203233,0.218597,-0.0727807,-0.0666136,-0.330302,-0.250217,0.0636088,0.174085,0.203316,0.194041,0.192991,0.201564,0.208087
29475000,2.32705,3.35714,-2.53024,-1.26106,0.0210059,1.2808,2.51402,-0.250616,-0.0633978,0.180984,0.138534,-0.12567,-0.191998,-0.387112,-0.265973,0.00170667,0.0441863,0.20148,0.188116,0.190967,0.206322,0.213114
29678655,2.328,3.24496,-2.59672,-1.32284,-0.0268457,1.23681,2.45858,-0.114624,0.0625432,0.285299,0.238109,-0.00395285,-0.224735,-0.401675,-0.282659,-0.0383928,-0.00593247,0.203318,0.18214,0.18521,0.208684,0.220648
29877420,2.30067,3.18788,-2.64773,-1.37149,-0.0681584,1.19759,2.41336,-0.190555,-0.0583391,0.194612,0.204304,-0.0275787,-0.089803,-0.310727,-0.245304,0.0101992,0.0989785,0.204318,0.178907,0.182056,0.209912,0.224807
30080997,2.47784,3.14437,-2.68102,-1.41302,-0.104909,1.17202,2.38972,-0.126664,-0.0463207,0.276633,0.373282,0.129545,0.0320691,-0.274906,-0.283113,0.0167746,0.198821,0.210338,0.17964,0.1769,0.205408,0.227714
30279686,2.47139,3.07234,-2.70771,-1.43842,-0.120672,1.16054,2.37144,-0.275343,-0.259971,0.121204,0.312851,0.0676801,0.0776425,-0.304467,-0.398863,-0.0652514,0.210794,0.212735,0.175846,0.172133,0.205899,0.233386
30483340,2.63354,3.15091,-2.70812,-1.44886,-0.137892,1.14959,2.37065,-0.122772,-0.120095,0.224683,0.404837,0.18931,0.21101,-0.135505,-0.23088,0.0684363,0.321819,0.216686,0.181096,0.172065,0.200282,0.229872
30682122,2.86334,3.28273,-2.70442,-1.45826,-0.150265,1.14859,2.37923,-0.0440211,-0.0102419,0.294203,0.42513,0.214517,0.12308,-0.17364,-0.226644,0.0481362,0.24857,0.223784,0.185987,0.168873,0.192836,0.228521
30880715,2.74645,3.11743,-2.71159,-1.45949,-0.140238,1.15891,2.37909,-0.301252,-0.135606,0.227071,0.254404,-0.0710223,-0.0905275,-0.403917,-0.332967,0.0333134,0.163388,0.22416,0.179836,0.164625,0.195875,0.235504
31079403,2.86222,3.26095,-2.70873,-1.46226,-0.154703,1.14373,2.37446,-0.439663,-0.171996,0.351553,0.353224,-0.128111,0.124382,-0.318868,-0.180326,0.354084,0.510369,0.224268,0.185902,0.168403,0.192549,0.228877
31278091,1.82248,3.17827,-2.73165,-1.4289,-0.113245,1.13192,2.32558,-0.899708,-0.548607,0.0846539,0.0682007,-0.53458,-0.150788,-0.679569,-0.488626,0.168496,0.342588,0.189945,0.16239,0.183923,0.229774,0.233968
31476791,1.77679,3.28306,-2.73231,-1.43796,-0.132767,1.11534,2.32031,-0.519288,-0.183044,0.430991,0.42747,-0.127133,0.127734,-0.412463,-0.225647,0.386248,0.586552,0.190361,0.16855,0.188237,0.225749,0.227103
31685401,1.34156,2.98238,-2.74521,-1.43293,-0.136003,1.08911,2.28909,-0.693166,-0.378867,0.188214,0.18882,-0.331159,0.0508834,-0.44628,-0.275153,0.294633,0.482039,0.173617,0.163449,0.201729,0.240831,0.220374
31884089,1.21058,2.79995,-2.7568,-1.42944,-0.130968,1.07983,2.27022,-0.62383,-0.345371,0.20614,0.242756,-0.24038,0.0281259,-0.473427,-0.337434,0.201767,0.421615,0.16181,0.155432,0.208166,0.254771,0.219821
32077811,0.916315,2.81106,-2.73599,-1.4128,-0.134624,1.06966,2.27477,-0.50079,-0.30057,0.277283,0.400407,-0.0440018,0.335837,-0.220427,-0.16906,0.362542,0.666075,0.155426,0.164604,0.223705,0.252593,0.203674
32276497,0.661408,2.6737,-2.70734,-1.36677,-0.108599,1.06864,2.27528,-0.668999,-0.639656,0.107999,0.497364,0.0599852,0.57438,-0.217316,-0.393994,0.222896,0.808535,0.133302,0.162711,0.251031,0.268356,0.184601
32480152,0.0650055,1.80521,-2.63239,-1.27902,-0.122105,0.988237,2.24407,-0.614022,-0.766826,0.210951,0.904342,0.474862,1.33274,0.217421,-0.203301,0.523947,1.45845,0.0794457,0.190909,0.370162,0.25933,0.100153
32678840,-0.00317037,1.27593,-2.59855,-1.22775,-0.118782,0.947801,2.21895,-0.755757,-0.91009,0.096518,0.920376,0.552496,1.17894,-0.0861454,-0.548661,0.136161,1.2722,0.0469062,0.18666,0.454933,0.251189,0.060313
32882498,-0.155452,0.702321,-2.51759,-1.14636,-0.140455,0.862481,2.18882,-0.592663,-0.675586,0.271426,1.03709,0.698771,1.60305,0.371928,-0.0119311,0.615303,1.71893,0.0172583,0.194856,0.589729,0.180843,0.0173135
33081204,-0.199708,0.525904,-2.50282,-1.12477,-0.163574,0.802508,2.15492,-0.920263,-0.596868,0.117559,0.523911,0.0100205,0.920333,0.0411521,0.0443591,0.624411,1.38093,0.00898416,0.185469,0.648335,0.149086,0.00812678
33279870,-0.106848,0.403621,-2.44307,-1.04057,-0.106901,0.803094,2.14574,-1.45138,-0.561435,-0.0137879,-0.0823485,-1.04453,-0.280945,-0.715465,-0.214274,0.496032,0.773615,0.00373881,0.144057,0.701994,0.146009,0.00420129
33483525,-0.0734083,0.28757,-2.4324,-0.996551,-0.108506,0.728492,2.04434,-1.52851,-0.200944,0.214661,-0.18083,-1.50094,-1.04508,-1.11642,-0.245457,0.552479,0.513621,0.000910789,0.0948591,0.761198,0.141484,0.00154765
33682212,-0.0407435,0.200115,-2.39241,-0.917638,-0.0942907,0.656585,1.94018,-1.69551,-0.22147,0.0744194,-0.398195,-1.82308,-1.40441,-1.24811,-0.272881,0.490248,0.391009,0.000113093,0.053348,0.814797,0.131378,0.000364114
33880898,-0.0126974,0.161766,-2.36483,-0.8587,-0.0731339,0.621565,1.87823,-1.40144,-0.0519588,0.144372,-0.224969,-1.51235,-1.34795,-1.10357,-0.244732,0.380582,0.384407,2.15163e-05,0.0334848,0.838752,0.127613,0.000128741
34084557,-0.0114792,0.143404,-2.34508,-0.825918,-0.0704788,0.598666,1.84861,-1.13354,-0.0258758,0.082605,-0.200641,-1.25543,-1.08181,-0.806249,-0.106649,0.363215,0.392358,7.16229e-06,0.0258022,0.853623,0.120508,5.94819e-05
34283244,-0.00905487,0.130129,-2.33197,-0.798167,-0.0664601,0.572393,1.81625,-1.18808,-0.270344,-0.174129,-0.367237,-1.23581,-0.963302,-0.760359,-0.195118,0.185361,0.271792,2.53793e-06,0.020127,0.863662,0.116179,2.96013e-05
34481934,-0.0100231,0.125408,-2.3388,-0.797293,-0.0674829,0.561431,1.80287,-0.789732,-0.0334134,0.129237,0.0789759,-0.578096,-0.509273,-0.536475,-0.116587,0.205974,0.458999,1.71596e-06,0.0179438,0.866556,0.115475,2.33954e-05
34680620,0.0139676,0.121377,-2.34286,-0.773592,-0.0494279,0.560962,1.79137,-1.18445,-0.532827,-0.263869,-0.179629,-0.655002,-0.347347,-0.658275,-0.356177,-0.0517748,0.3901,9.1613e-07,0.0139856,0.861982,0.124012,1.95131e-05
34879319,0.027947,0.120086,-2.34101,-0.759582,-0.0388185,0.571143,1.79685,-0.811155,-0.342284,-0.0277609,0.155048,-0.0978485,0.0460573,-0.469664,-0.296664,-0.0599415,0.47357,6.97568e-07,0.0123615,0.859735,0.127884,1.82873e-05
35077996,0.0442378,0.117854,-2.33927,-0.743612,-0.0242262,0.572771,1.79512,-0.781003,-0.49863,-0.251036,-0.0793715,-0.204823,0.257345,-0.19802,-0.100708,0.0515784,0.475868,5.22321e-07,0.0111036,0.857035,0.131844,1.6693e-05
35276867,0.0540632,0.117619,-2.3372,-0.737649,-0.0157067,0.579425,1.80077,-0.380937,-0.253693,-0.0948893,0.0384622,-0.00450087,0.0741147,-0.258943,-0.209998,-0.134579,0.14597,4.97395e-07,0.0106498,0.855359,0.133974,1.69538e-05
35480339,0.0605038,0.11757,-2.3383,-0.734629,-0.0105297,0.581815,1.80353,-0.31704,-0.311405,-0.216992,-0.111089,-0.0907479,0.0749628,-0.164071,-0.156007,-0.137423,0.0349303,4.87742e-07,0.0103385,0.853256,0.136387,1.74386e-05
35679028,0.0602901,0.117341,-2.33825,-0.736893,-0.010426,0.580852,1.80264,-0.0177796,-0.11225,-0.0916833,-0.0265217,0.031622,-0.0560363,-0.171063,-0.188364,-0.220774,-0.171103,4.97229e-07,0.0103366,0.853554,0.136091,1.75542e-05
35882682,0.0598852,0.116784,-2.33427,-0.736746,-0.00981891,0.580166,1.80118,0.169116,-0.0177029,-0.0577704,-0.0223951,0.076464,-0.0685892,-0.0862357,-0.131341,-0.209012,-0.259519,4.94693e-07,0.0104036,0.854879,0.1347,1.71214e-05
36081587,0.0637994,0.115562,-2.32065,-0.729887,-0.00362788,0.583695,1.80547,0.227159,-0.0561037,-0.162288,-0.159768,-0.0207849,-0.17121,-0.0829255,-0.155377,-0.280862,-0.439982,4.88817e-07,0.0106331,0.857786,0.131564,1.59948e-05
36275091,0.0668446,0.115045,-2.30675,-0.721067,0.000681917,0.590329,1.81314,0.263091,-0.0544463,-0.167638,-0.162898,0.00346792,-0.0911289,-0.00170954,-0.0932941,-0.231443,-0.403762,4.8018e-07,0.010826,0.860085,0.129073,1.50546e-05
36483713,0.0655999,0.113192,-2.29966,-0.721585,0.0024912,0.585052,1.80884,0.246043,-0.0932998,-0.194372,-0.174297,0.0222798,-0.118446,-0.0647492,-0.176549,-0.319034,-0.473706,4.80305e-07,0.0111538,0.863266,0.125565,1.39812e-05
36682401,0.0563987,0.112834,-2.29791,-0.726281,-0.00509858,0.58006,1.80778,-0.00505751,-0.183603,-0.272706,-0.287011,-0.221291,-0.300427,-0.200917,-0.233226,-0.316168,-0.451478,4.90833e-07,0.0114881,0.8659,0.122598,1.31756e-05
36881218,0.0421152,0.112505,-2.31104,-0.739936,-0.0190548,0.564771,1.79296,-0.150806,-0.0706833,-0.101142,-0.135525,-0.254098,-0.227602,-0.139413,-0.0586862,-0.0381041,-0.0766575,4.76563e-07,0.0114352,0.866337,0.122214,1.28082e-05
37079777,0.0367916,0.112417,-2.32024,-0.746987,-0.025283,0.557629,1.78291,-0.099474,0.119217,0.11831,0.0709857,-0.147014,-0.376453,-0.289201,-0.14768,-0.0722413,-0.0618843,4.49468e-07,0.0110796,0.865335,0.123572,1.28538e-05
37278513,0.0376323,0.111744,-2.32636,-0.750339,-0.0247636,0.552146,1.77538,-0.344085,-0.18435,-0.0611954,0.0144023,-0.0544391,-0.0110609,-0.222686,-0.171398,-0.0918831,0.118229,4.30116e-07,0.0107847,0.86419,0.125012,1.29521e-05
37477152,0.0324218,0.110278,-2.33035,-0.75204,-0.0299225,0.543705,1.76318,-0.365991,-0.316488,-0.0550258,0.169048,0.30439,0.453108,-0.111754,-0.184479,-0.115731,0.315099,3.69596e-07,0.0103711,0.864577,0.12504,1.20207e-05
37675916,0.0275017,0.106847,-2.31534,-0.739391,-0.0324393,0.53951,1.75264,-0.28999,-0.354508,-0.00359422,0.32816,0.638131,0.842215,0.025061,-0.151724,-0.105878,0.466203,2.52317e-07,0.00988424,0.869775,0.120332,8.97916e-06
37879541,0.0439445,0.106502,-2.31472,-0.727586,-0.0196221,0.549125,1.7549,-0.547213,-0.558611,-0.265533,0.00404674,0.238681,0.411215,-0.265833,-0.391351,-0.342221,0.138946,2.21253e-07,0.00904459,0.864467,0.126478,9.63269e-06
38083151,0.0538109,0.106055,-2.31318,-0.717325,-0.0118245,0.552465,1.75179,-0.635458,-0.46347,-0.265736,-0.130469,-0.133804,0.258347,-0.120274,-0.103299,-0.00824428,0.322485,1.80906e-07,0.00835734,0.861345,0.130288,9.41215e-06
38281839,0.0571939,0.104533,-2.30163,-0.707791,-0.00672866,0.555192,1.7536,-0.544775,-0.100675,0.0651156,0.102607,-0.157147,0.0411732,-0.145594,0.0292998,0.209863,0.501766,1.56338e-07,0.00827358,0.864173,0.127545,8.23072e-06
38480594,0.0630396,0.102228,-2.28981,-0.692998,-4.5845e-05,0.554973,1.74571,-0.80675,-0.187003,-0.0371985,-0.0570279,-0.478136,-0.28619,-0.356974,-0.0844373,0.152223,0.429996,1.08107e-07,0.00766626,0.865663,0.126664,6.70993e-06
38679216,0.0669402,0.0981213,-2.27015,-0.675258,0.00792568,0.546578,1.72984,-1.01241,-0.429692,-0.333567,-0.387553,-0.813841,-0.293147,-0.259029,0.0134875,0.22576,0.422636,6.52316e-08,0.00718795,0.870968,0.121839,4.65506e-06
38877903,0.0631259,0.0967741,-2.27028,-0.672459,0.00460277,0.537315,1.71472,-0.752531,-0.343037,-0.265639,-0.289669,-0.577079,-0.283987,-0.285703,-0.0999203,0.0488244,0.212179,4.87667e-08,0.00677063,0.871633,0.121592,3.99946e-06
39076590,0.0554622,0.0962355,-2.27768,-0.677521,-0.00304519,0.526362,1.70086,-0.564041,-0.326054,-0.28379,-0.296803,-0.466922,-0.236766,-0.235422,-0.123903,-0.0389244,0.0562947,4.22336e-08,0.00654459,0.871486,0.121966,3.74876e-06
39275342,0.0480075,0.096719,-2.28175,-0.681003,-0.0110495,0.523404,1.69745,-0.34117,-0.23289,-0.221897,-0.232072,-0.320578,-0.127913,-0.111855,-0.0531918,-0.0161926,0.0175212,4.05154e-08,0.00649668,0.871647,0.121853,3.65156e-06
39478934,0.0558229,0.096125,-2.2806,-0.676478,-0.00326359,0.523627,1.6967,-0.387748,-0.379733,-0.330883,-0.285131,-0.251346,0.18669,0.0653314,0.0545907,0.0639078,0.147413,3.89493e-08,0.00636513,0.870238,0.123393,3.69871e-06
39677643,0.0622349,0.095779,-2.27712,-0.669046,0.00236869,0.527055,1.69651,-0.234615,-0.315635,-0.171157,-0.0220743,0.18012,0.434823,0.0416215,-0.0590588,-0.0651413,0.160273,3.48159e-08,0.00612766,0.868789,0.12508,3.64677e-06
39881278,0.0734081,0.095781,-2.27936,-0.660437,0.0105421,0.532277,1.69486,-0.380504,-0.555961,-0.372797,-0.169274,0.150734,0.531064,-0.000588655,-0.166895,-0.198327,0.0770378,3.01698e-08,0.00564681,0.863363,0.130986,3.89745e-06
40079998,0.0794281,0.0948545,-2.27278,-0.650963,0.0163136,0.534751,1.69225,-0.0466977,-0.308957,-0.162034,0.027372,0.381702,0.612592,0.129224,-0.0626005,-0.126319,0.0797069,2.51178e-08,0.005401,0.862678,0.131917,3.65717e-06
40278653,0.084488,0.0953521,-2.27196,-0.643323,0.0187928,0.541155,1.69273,-0.163299,-0.423508,-0.28793,-0.10981,0.232924,0.579166,0.122288,-0.0630399,-0.127755,0.0582431,2.16339e-08,0.00508076,0.859326,0.135589,3.70137e-06
40482308,0.0927872,0.0954719,-2.26756,-0.636666,0.0262146,0.548459,1.69925,-0.164628,-0.320943,-0.24113,-0.135329,0.0665762,0.219923,-0.0527619,-0.160694,-0.199484,-0.0903458,2.16854e-08,0.00501127,0.857742,0.137243,3.83727e-06
40680996,0.0901766,0.0955146,-2.27298,-0.639349,0.0229373,0.544001,1.69273,-0.427095,-0.33411,-0.265096,-0.223606,-0.235059,0.066134,-0.0659412,-0.0462674,-0.00695655,0.114174,2.03768e-08,0.00488915,0.856429,0.138678,3.8401e-06
40879684,0.0835088,0.0950557,-2.27905,-0.643237,0.0162184,0.534569,1.67931,-0.567265,-0.294262,-0.236139,-0.2434,-0.410509,-0.197535,-0.221356,-0.108624,-0.0138223,0.111516,1.74234e-08,0.00471396,0.85606,0.139222,3.61415e-06
41083351,0.0781437,0.0940007,-2.28775,-0.650469,0.0116246,0.521836,1.66486,-0.354088,-0.101614,-0.0565835,-0.0702721,-0.231849,-0.197473,-0.198523,-0.090991,-0.00502763,0.0983362,1.60484e-08,0.004617,0.855724,0.139655,3.51377e-06
41282027,0.0741078,0.0948313,-2.28976,-0.651304,0.00641898,0.522745,1.66429,-0.316547,-0.234194,-0.194578,-0.176421,-0.205744,-0.0305164,-0.095086,-0.0689093,-0.0375624,0.0363165,1.55409e-08,0.0045613,0.855119,0.140316,3.50942e-06
41480716,0.0773521,0.0942105,-2.29238,-0.652783,0.0100665,0.519965,1.66251,-0.213079,-0.336655,-0.338313,-0.311705,-0.216878,0.0802036,0.0252286,-0.0309149,-0.0701807,-0.0859939,1.60655e-08,0.00455972,0.854245,0.141191,3.62314e-06
41679408,0.0742111,0.093866,-2.29265,-0.655093,0.00753443,0.517432,1.66091,0.131879,-0.163728,-0.180532,-0.130276,0.0874959,0.101673,0.00717814,-0.126543,-0.222005,-0.282786,1.62654e-08,0.00461812,0.855326,0.140053,3.5524e-06
41878093,0.0740844,0.0931735,-2.28866,-0.653438,0.00822692,0.517663,1.66163,0.240785,-0.2138,-0.25641,-0.194291,0.126063,0.207171,0.104644,-0.09564,-0.244909,-0.365544,1.60586e-08,0.00466937,0.856728,0.138599,3.4175e-06
42076780,0.0675211,0.0912403,-2.27636,-0.652651,0.00557713,0.514263,1.662,0.410385,-0.168002,-0.242657,-0.181704,0.206781,0.0586457,-0.0211302,-0.267782,-0.460648,-0.646872,1.58229e-08,0.00497123,0.863688,0.131338,2.87714e-06
42275508,0.0670435,0.0907608,-2.2634,-0.645769,0.00638236,0.521264,1.67047,0.337788,-0.194049,-0.278842,-0.236684,0.107327,0.113324,0.0758672,-0.143938,-0.324394,-0.5223,1.56388e-08,0.00514139,0.867356,0.1275,2.61073e-06
42474156,0.0717112,0.0905543,-2.2585,-0.641214,0.011139,0.526094,1.67577,0.129818,-0.213546,-0.262784,-0.230472,-0.0020653,0.161138,0.121149,-0.0228105,-0.138921,-0.258375,1.58688e-08,0.00516711,0.86749,0.12734,2.61525e-06
42677812,0.0738854,0.0903358,-2.25389,-0.638323,0.0138476,0.52886,1.6794,0.10038,-0.10542,-0.152447,-0.147879,-0.0295759,-0.0288262,-0.00983441,-0.0874001,-0.159263,-0.257582,1.60594e-08,0.00522818,0.868424,0.126345,2.56642e-06
42881501,0.0771782,0.0903611,-2.25072,-0.635538,0.0171819,0.532545,1.68388,-0.0701504,-0.21119,-0.239114,-0.231974,-0.146544,0.0241386,0.0258227,-0.0289826,-0.0777425,-0.138151,1.653e-08,0.0052651,0.8685,0.126232,2.59138e-06
43080346,0.0748937,0.0903255,-2.25203,-0.637936,0.0151565,0.53087,1.68321,-0.0922533,-0.206714,-0.23695,-0.237599,-0.17615,-0.0596989,-0.0396742,-0.0805249,-0.121092,-0.181729,1.70047e-08,0.00532112,0.868964,0.125712,2.59073e-06
43278842,0.0727335,0.0901766,-2.25161,-0.63969,0.0136038,0.529719,1.6836,-0.111668,-0.231571,-0.276073,-0.287987,-0.236633,-0.13563,-0.0826398,-0.11972,-0.163881,-0.247514,1.75933e-08,0.00541649,0.87004,0.124541,2.55601e-06
43477530,0.0719496,0.0901578,-2.25174,-0.640507,0.0129895,0.529268,1.68374,-0.0900764,-0.162943,-0.181329,-0.180758,-0.140676,-0.0798724,-0.0697571,-0.0959912,-0.121782,-0.158799,1.7869e-08,0.00545025,0.870334,0.124213,2.55277e-06
43681191,0.0714338,0.0901592,-2.2521,-0.640998,0.0125072,0.528702,1.68316,-0.23236,-0.229686,-0.232082,-0.234042,-0.239575,-0.146707,-0.140666,-0.137142,-0.13662,-0.139178,1.7842e-08,0.00545092,0.87038,0.124167,2.54713e-06
43880049,0.0698908,0.0894251,-2.25601,-0.645849,0.0119225,0.521669,1.67698,-0.125743,-0.173161,-0.190489,-0.194638,-0.174257,-0.130035,-0.110386,-0.124763,-0.142239,-0.174533,1.80386e-08,0.00548231,0.870728,0.123787,2.53553e-06
44078565,0.0677203,0.0894443,-2.25796,-0.648532,0.00986629,0.520114,1.67647,-0.091965,-0.225809,-0.236505,-0.216176,-0.117272,-0.0333354,-0.0708207,-0.131223,-0.175686,-0.208625,1.86891e-08,0.00553579,0.870945,0.123517,2.5586e-06
44277250,0.0652603,0.0892565,-2.25879,-0.65071,0.00777657,0.518277,1.67559,0.0844269,-0.172156,-0.198358,-0.16481,0.0198801,0.0735067,0.0166721,-0.097506,-0.183527,-0.256061,1.90818e-08,0.0055978,0.8716,0.122799,2.53637e-06
44475950,0.0537232,0.0887221,-2.26629,-0.660752,-0.00292822,0.507447,1.6658,0.187446,-0.184216,-0.208955,-0.149021,0.133126,0.156624,0.0416777,-0.130523,-0.253587,-0.338211,1.91202e-08,0.00568422,0.873043,0.12127,2.44168e-06
44684712,0.0262259,0.0875284,-2.28238,-0.683921,-0.0281046,0.481905,1.64302,0.310266,-0.167397,-0.220537,-0.162228,0.179204,0.0920743,-0.00333124,-0.215018,-0.376111,-0.518742,1.90964e-08,0.00592485,0.877072,0.117001,2.18571e-06
44878281,0.00869408,0.0868975,-2.28693,-0.692875,-0.0446355,0.47062,1.63095,0.378772,-0.155264,-0.194505,-0.111584,0.294217,0.27289,0.113488,-0.133317,-0.311741,-0.440437,1.74919e-08,0.00600427,0.880046,0.113948,1.9339e-06
45076969,0.00541533,0.0840393,-2.27809,-0.691074,-0.0444692,0.460524,1.62032,0.354672,-0.204385,-0.140072,0.0390945,0.578639,0.530096,0.098009,-0.210877,-0.385766,-0.35635,1.45041e-08,0.00607498,0.8847,0.109223,1.55566e-06
45280625,0.025887,0.0817197,-2.24333,-0.66283,-0.0215732,0.480567,1.63939,0.215458,-0.361535,-0.237434,-0.00171387,0.623809,0.639614,0.042259,-0.304739,-0.480319,-0.362429,1.22644e-08,0.00615601,0.888911,0.104932,1.26929e-06
45479459,0.113395,0.077885,-2.13303,-0.556316,0.0687489,0.559517,1.70415,0.307622,-0.262365,-0.0675804,0.229786,0.936081,1.11991,0.340044,-0.0390652,-0.207042,0.0205982,5.80332e-09,0.00560622,0.893868,0.100525,7.86161e-07
45682975,0.152573,0.0743079,-2.05851,-0.49457,0.112374,0.600504,1.73908,0.39111,-0.175834,0.0143675,0.303858,1.0133,0.962369,0.17518,-0.197484,-0.367455,-0.161972,3.26856e-09,0.00558749,0.902857,0.0915553,4.4978e-07
45881656,0.185109,0.0725087,-2.02408,-0.454837,0.144532,0.625501,1.75244,0.16383,-0.41171,-0.273495,-0.030021,0.638122,0.983513,0.308017,-0.0423421,-0.223148,-0.11135,1.94034e-09,0.005021,0.902102,0.0928766,3.70647e-07
46080348,0.199063,0.0711258,-2.00629,-0.435365,0.158729,0.635139,1.75544,0.121153,-0.350557,-0.217945,-0.00377387,0.567409,0.80554,0.194359,-0.099643,-0.24598,-0.132714,1.37519e-09,0.00473622,0.902465,0.0927982,3.16156e-07
46279095,0.196273,0.0700391,-2.00287,-0.432079,0.156603,0.628971,1.74403,0.289641,-0.12133,-0.0454235,0.10339,0.54712,0.676669,0.248882,0.0153836,-0.113646,-0.0806465,1.01272e-09,0.00454534,0.903618,0.0918367,2.66547e-07
46477721,0.184632,0.0693896,-2.01013,-0.440482,0.145549,0.616229,1.72965,0.197125,-0.129754,-0.0691488,0.0483859,0.401885,0.457787,0.11426,-0.0704378,-0.173072,-0.149703,8.84711e-10,0.00449773,0.904706,0.0907962,2.41689e-07
46681376,0.171982,0.0682168,-2.01882,-0.452112,0.134168,0.596744,1.70843,0.28183,-0.0775191,-0.0356109,0.070653,0.42528,0.442974,0.132388,-0.0572236,-0.170929,-0.184196,7.5895e-10,0.00445495,0.906106,0.0894384,2.14776e-07
46880064,0.152396,0.0675002,-2.03259,-0.468399,0.115403,0.576396,1.68725,0.31451,-0.110776,-0.103537,-0.0170903,0.343112,0.356355,0.105149,-0.0961362,-0.231939,-0.313835,6.75558e-10,0.0044522,0.907656,0.0878913,1.92377e-07
47078786,0.12923,0.0665176,-2.04577,-0.487362,0.0937413,0.553492,1.66522,0.363301,-0.136109,-0.150214,-0.0697995,0.321293,0.272609,0.0392988,-0.184651,-0.344727,-0.476678,6.21746e-10,0.00455829,0.910554,0.084887,1.6502e-07
47282442,0.116082,0.0652851,-2.04904,-0.492203,0.081435,0.535654,1.64003,0.73373,0.140288,0.082726,0.14047,0.548046,0.459959,0.294474,0.0504521,-0.141108,-0.361776,4.06818e-10,0.0043183,0.912067,0.0836143,1.29912e-07
47481096,0.110358,0.0645073,-2.04155,-0.488025,0.0764776,0.533787,1.63414,0.600581,-0.0103327,-0.0693207,-0.0121813,0.402179,0.363196,0.191103,-0.0572078,-0.252853,-0.485295,3.08465e-10,0.00425715,0.914513,0.08123,1.04192e-07
47679785,0.117397,0.0637881,-2.02709,-0.477417,0.084474,0.540433,1.64038,0.433072,-0.0598596,-0.146057,-0.13739,0.13603,0.134156,0.105079,-0.0720826,-0.229526,-0.478967,2.78582e-10,0.00429301,0.916372,0.0793348,9.19046e-08
47878472,0.118951,0.063415,-2.02078,-0.473465,0.0865942,0.541586,1.64102,0.372012,0.0583142,-0.0201029,-0.0371979,0.0999692,-0.0288676,0.0203222,-0.0785069,-0.178623,-0.374281,2.58166e-10,0.00430377,0.917473,0.0782235,8.46848e-08
48077160,0.117197,0.06308,-2.0176,-0.472665,0.085385,0.539309,1.63808,0.379488,0.123688,0.046688,0.0201586,0.111082,-0.133563,-0.0555849,-0.128381,-0.209822,-0.389749,2.37752e-10,0.00430842,0.91853,0.0771613,7.79175e-08
48280815,0.118191,0.0623246,-2.01452,-0.472425,0.0872713,0.533132,1.63072,0.451077,0.147473,0.0643375,0.0404161,0.160429,-0.0390391,0.0294156,-0.0615086,-0.157978,-0.359445,2.12029e-10,0.00427434,0.919322,0.076404,7.15876e-08
48479556,0.114211,0.0619777,-2.01547,-0.473929,0.0835162,0.527703,1.62302,0.445991,0.0871581,0.0270991,0.0345441,0.235701,0.179966,0.149076,0.020043,-0.0941317,-0.275293,1.85355e-10,0.00420438,0.919742,0.076054,6.63842e-08
48678211,0.107534,0.061262,-2.01248,-0.476434,0.0780199,0.520665,1.61573,0.457215,0.0200241,-0.0624017,-0.0625231,0.166013,0.0149665,0.00483549,-0.146489,-0.2849,-0.5203,1.66797e-10,0.00427549,0.922079,0.0736457,5.6724e-08
48881847,0.0937883,0.0605649,-2.0077,-0.480238,0.065821,0.513177,1.60834,0.532924,0.0408593,-0.0587868,-0.0659241,0.179653,-0.102162,-0.0947369,-0.260646,-0.416154,-0.693068,1.46937e-10,0.00444707,0.92603,0.069523,4.39645e-08
49080535,0.0947927,0.0600921,-2.00048,-0.476639,0.067559,0.513952,1.60911,0.360407,-0.0217029,-0.113174,-0.132868,0.034295,-0.0106465,0.0348581,-0.0850545,-0.205417,-0.443992,1.37919e-10,0.00450095,0.927465,0.0680343,3.96596e-08
49279224,0.0971017,0.0600522,-1.99752,-0.473741,0.0699089,0.515889,1.61068,0.245828,0.128052,0.0970858,0.0880287,0.134908,-0.0133377,0.00850861,-0.0264132,-0.0635138,-0.141974,1.33878e-10,0.00448429,0.92754,0.0679754,3.90104e-08
49477912,0.111306,0.0601166,-1.98455,-0.45974,0.083913,0.529667,1.6243,0.159861,0.212901,0.205553,0.188748,0.132156,-0.242418,-0.189061,-0.160042,-0.142771,-0.140362,1.32519e-10,0.00444744,0.92713,0.0684227,3.97058e-08
49676600,0.125795,0.0596675,-1.97107,-0.447872,0.0988711,0.53766,1.63125,-0.206097,-0.108914,-0.0231627,0.0415074,0.104691,0.208354,0.00910789,0.00262715,0.03051,0.18438,1.26023e-10,0.00441828,0.927238,0.0683437,3.86772e-08
49885224,0.129106,0.0586673,-1.95668,-0.438821,0.103231,0.538789,1.62888,-0.31007,-0.154681,0.0692265,0.256151,0.50399,0.557357,-0.0218847,-0.0844247,-0.043441,0.332778,1.00002e-10,0.00439525,0.929308,0.0662964,3.1459e-08
50078944,0.129813,0.0573235,-1.93972,-0.427833,0.104935,0.542761,1.62767,-0.454201,-0.267772,0.0505989,0.324017,0.715292,0.660347,-0.190573,-0.297683,-0.253203,0.271305,7.23642e-11,0.00436331,0.932104,0.0635324,2.35497e-08
50277632,0.147728,0.0554951,-1.90394,-0.40141,0.124639,0.548549,1.62507,-0.426042,-0.229314,0.0349618,0.256165,0.557741,0.868179,0.179659,0.107052,0.154405,0.599936,4.2018e-11,0.0041943,0.934877,0.0609283,1.60109e-08
50481287,0.170877,0.0551878,-1.87142,-0.371964,0.148237,0.576972,1.6501,-0.354396,-0.0803048,0.092483,0.21346,0.300921,0.416203,0.0489616,0.0644244,0.139222,0.471472,3.55261e-11,0.00421161,0.936605,0.059183,1.342e-08
50679975,0.170689,0.0548791,-1.86915,-0.369694,0.147921,0.574285,1.64212,-0.38193,-0.0119739,-0.00198591,-0.0555665,-0.345162,-0.485175,-0.28248,-0.12271,-0.00445142,0.121932,2.85762e-11,0.004052,0.936361,0.0595872,1.25009e-08
50878850,0.155108,0.0535368,-1.86702,-0.375642,0.133377,0.553372,1.61065,-0.41853,0.0504149,-0.0384355,-0.204686,-0.75895,-0.858301,-0.279896,-0.0141021,0.144223,0.160803,1.67329e-11,0.00387659,0.93848,0.0576436,8.80183e-09
51082320,0.13013,0.0519032,-1.86958,-0.389485,0.109869,0.523187,1.57045,-0.337871,0.119058,-0.0102497,-0.213091,-0.83828,-0.918195,-0.207215,0.0789529,0.23868,0.203416,9.57979e-12,0.00377437,0.941529,0.0546969,5.72095e-09
51281008,0.120605,0.0502529,-1.85998,-0.390478,0.101723,0.499326,1.53621,-0.348133,0.0315892,-0.0941056,-0.280212,-0.842744,-1.01088,-0.348096,-0.0976113,0.0393869,-0.00594127,4.93735e-12,0.00355925,0.943551,0.05289,3.81671e-09
51479695,0.103487,0.0497009,-1.86898,-0.404017,0.0851937,0.480684,1.51568,-0.184846,0.092809,0.0181794,-0.100026,-0.479799,-0.489994,-0.0532356,0.118451,0.217499,0.215422,4.23553e-12,0.00356964,0.944796,0.051634,3.26953e-09
51678536,0.0994158,0.0496528,-1.87372,-0.407215,0.0808903,0.47525,1.50781,-0.376211,-0.110058,-0.0648321,-0.0617512,-0.18466,-0.283684,-0.254765,-0.168762,-0.0903524,0.0647531,3.77998e-12,0.00347431,0.944276,0.0522493,3.25706e-09
51877072,0.0958461,0.0500694,-1.88388,-0.410246,0.0761312,0.478954,1.5055,-0.532095,-0.294476,-0.163334,-0.0700192,0.0103896,-0.088814,-0.369464,-0.354175,-0.297825,-0.0392879,3.47095e-12,0.00332312,0.942654,0.0540229,3.55788e-09
52075760,0.105171,0.0493662,-1.86707,-0.398944,0.0862821,0.478142,1.50571,-0.213627,-0.0926015,0.0394196,0.151661,0.328507,0.483609,0.119486,0.0835519,0.102735,0.319982,2.95293e-12,0.00329689,0.94343,0.0532732,3.15658e-09
52274448,0.109979,0.0492002,-1.85976,-0.39245,0.0910966,0.481632,1.50658,-0.120674,-0.14081,-0.0478648,0.0477997,0.260039,0.459233,0.129193,0.0576246,0.037148,0.151605,2.58715e-12,0.00323593,0.943423,0.0533409,3.00009e-09
52483216,0.11383,0.0493338,-1.85357,-0.385823,0.0946057,0.492728,1.51149,-0.00445217,-0.0985921,-0.015346,0.0821311,0.334659,0.474877,0.125901,0.0286664,-0.0140289,0.0601546,2.26097e-12,0.00318902,0.943639,0.0531717,2.80184e-09
52676792,0.12424,0.0492544,-1.84199,-0.374509,0.104993,0.50232,1.51956,0.00468075,-0.0869385,-0.0371532,0.0266094,0.207156,0.362739,0.128531,0.0549449,0.018017,0.0489708,2.09419e-12,0.00315111,0.94357,0.0532788,2.73382e-09
52880448,0.129281,0.049238,-1.83638,-0.369226,0.110069,0.507213,1.52429,-0.0646623,-0.0296019,0.0131171,0.0503916,0.113824,0.134612,0.0116373,-0.00237188,0.00187038,0.0700054,2.06659e-12,0.00314968,0.943642,0.0532083,2.70524e-09
53079137,0.129458,0.0491965,-1.83547,-0.368375,0.110227,0.506774,1.52263,-0.303933,-0.112118,-0.0799624,-0.0772196,-0.16265,-0.130895,-0.109439,-0.0485179,0.00699635,0.119249,1.94477e-12,0.00311962,0.943587,0.0532939,2.65365e-09
53277973,0.128012,0.0489312,-1.83245,-0.367475,0.108995,0.503953,1.51712,-0.403842,-0.0716853,-0.0514007,-0.0818555,-0.305264,-0.292447,-0.133302,-0.003814,0.097884,0.246805,1.67784e-12,0.00308314,0.944029,0.0528884,2.42386e-09
53481480,0.121991,0.0484485,-1.8311,-0.369919,0.103369,0.496066,1.50555,-0.413495,0.0175474,0.0248588,-0.0332761,-0.3633,-0.422263,-0.148967,0.0317074,0.166636,0.336806,1.3623e-12,0.00304707,0.944868,0.0520854,2.0955e-09
53680168,0.109619,0.0476534,-1.8293,-0.375661,0.0917831,0.480387,1.4834,-0.58379,-0.0879253,-0.0917776,-0.17038,-0.576023,-0.539116,-0.1796,0.0362497,0.193502,0.376186,9.39041e-13,0.00299726,0.946553,0.0504503,1.58952e-09
53878856,0.101162,0.0467679,-1.8279,-0.381092,0.084222,0.461046,1.46364,-0.408607,0.0374535,0.0317354,-0.0404073,-0.40979,-0.48334,-0.147348,0.0478248,0.189803,0.355752,7.39883e-13,0.00296447,0.947554,0.0494818,1.33551e-09
54077595,0.0900519,0.0464745,-1.83367,-0.389165,0.0733015,0.447754,1.44625,-0.363577,-0.0883473,-0.113161,-0.17876,-0.45391,-0.507771,-0.223303,-0.0881325,0.00353539,0.0817328,5.92349e-13,0.00290014,0.947932,0.0491677,1.19015e-09
54281201,0.0849148,0.0463601,-1.83626,-0.392931,0.0682831,0.441691,1.4385,-0.150884,-0.0539378,-0.0960137,-0.152548,-0.324207,-0.386858,-0.167355,-0.0962807,-0.0575232,-0.0694756,5.39949e-13,0.00287924,0.948179,0.0489418,1.12651e-09
54479888,0.0799369,0.0466569,-1.8412,-0.396221,0.0629404,0.445528,1.43817,0.0686026,0.00608909,-0.0425168,-0.0823191,-0.14208,-0.170993,-0.042487,-0.0347024,-0.0448596,-0.12794,5.30078e-13,0.00288181,0.948339,0.048779,1.10405e-09
54678581,0.0803518,0.0465636,-1.83865,-0.395021,0.0634973,0.445647,1.43769,0.237545,0.0133164,-0.0391256,-0.0592232,0.000944972,-0.0155267,0.0100732,-0.0482905,-0.108656,-0.261058,5.13602e-13,0.00288899,0.948653,0.0484584,1.06222e-09
54877282,0.081924,0.0462972,-1.83257,-0.391487,0.0652774,0.446144,1.4359,0.367236,-0.014544,-0.0540926,-0.0382717,0.176518,0.249373,0.11469,-0.0199457,-0.132568,-0.332892,4.57072e-13,0.00287266,0.9491,0.0480273,9.77357e-10
55075954,0.092721,0.0455629,-1.81403,-0.378423,0.0766813,0.445521,1.43389,0.543426,0.0526237,-0.00132436,0.0155361,0.283377,0.369692,0.206906,0.0363982,-0.107576,-0.369937,3.52328e-13,0.00279776,0.949454,0.0477482,8.5828e-10
55279608,0.092569,0.0455498,-1.80994,-0.375431,0.0764366,0.453542,1.43693,0.281899,-0.109904,-0.128681,-0.0911951,0.176616,0.281169,0.0622943,-0.0906606,-0.210259,-0.392402,3.25138e-13,0.00281456,0.950191,0.0469947,7.7941e-10
55478297,0.0945096,0.0453253,-1.80256,-0.371251,0.0786432,0.454295,1.43514,0.317394,0.104103,0.130178,0.187349,0.417871,0.375193,0.123141,0.0135239,-0.0594652,-0.116733,2.83917e-13,0.00280104,0.95078,0.0464186,7.03041e-10
55676985,0.106977,0.0451866,-1.78752,-0.357703,0.0912312,0.466048,1.44566,-0.107002,-0.0792961,0.00820494,0.0931749,0.27676,0.325996,0.0263504,-0.0257817,-0.0363046,0.0766722,2.64452e-13,0.00279095,0.951036,0.0461727,6.69125e-10
55880640,0.121508,0.0449565,-1.76906,-0.341888,0.106029,0.479971,1.45894,-0.190031,-0.0480192,0.0746686,0.179129,0.355513,0.265432,-0.0790486,-0.108568,-0.0910019,0.109797,2.50574e-13,0.00280739,0.951631,0.0455614,6.21884e-10
56079332,0.128074,0.0446966,-1.75824,-0.333274,0.112739,0.485098,1.46128,-0.334241,-0.150573,-0.0101722,0.106536,0.292923,0.371122,-0.00800964,-0.0331685,-0.00675125,0.231549,2.15428e-13,0.00277136,0.951931,0.0452979,5.71896e-10
56282984,0.129667,0.0442779,-1.75304,-0.331289,0.114761,0.477517,1.45535,-0.231999,-0.133639,-0.026352,0.0690032,0.246541,0.297434,-0.0250723,-0.0625396,-0.0561124,0.107543,1.98039e-13,0.00274803,0.952038,0.0452142,5.48785e-10
56481708,0.119351,0.0442722,-1.76291,-0.341486,0.104483,0.466981,1.44501,0.0179012,-0.00171435,0.0210077,0.0470067,0.117092,0.0898179,-0.00914767,-0.0343135,-0.0458074,-0.028275,1.9723e-13,0.00275077,0.952106,0.0451434,5.4451e-10
56680360,0.107818,0.0442227,-1.7732,-0.352775,0.0930614,0.455376,1.43362,0.0262609,-0.0224334,-0.0794692,-0.130612,-0.227844,-0.106931,0.0673749,0.0888044,0.0866197,0.0017571,1.97531e-13,0.00276698,0.952363,0.0448697,5.32178e-10
56879050,0.105592,0.044131,-1.76865,-0.350874,0.0908576,0.460572,1.43171,0.118511,0.0547899,-0.0801426,-0.208588,-0.48025,-0.536028,-0.0846529,-0.0119362,-0.000690609,-0.179816,1.65032e-13,0.00276329,0.95332,0.0439162,4.55287e-10
57077772,0.102992,0.043373,-1.76092,-0.35054,0.0890086,0.446345,1.41713,0.252532,0.143816,-0.0201101,-0.172217,-0.481657,-0.592379,-0.0642352,0.0118805,0.0167869,-0.21238,1.28058e-13,0.00272431,0.954101,0.0431745,3.8459e-10
57276431,0.101472,0.0432531,-1.76081,-0.351152,0.0875244,0.444142,1.41375,0.250903,0.12662,0.0219425,-0.0677902,-0.224908,-0.237725,0.060237,0.0863755,0.0730114,-0.0956614,1.19561e-13,0.00270476,0.954169,0.0431264,3.72545e-10
57475114,0.103705,0.0432456,-1.75781,-0.34854,0.0897863,0.446169,1.41539,0.206835,0.0997595,0.0772235,0.0691629,0.0989115,-0.0229125,-0.020305,-0.0485775,-0.0767995,-0.148202,1.17023e-13,0.00270154,0.954232,0.0430666,3.67231e-10
57678769,0.095419,0.043487,-1.76718,-0.356173,0.0811735,0.447764,1.41253,-0.033794,-0.142689,-0.109287,-0.0598,0.108432,0.0997358,-0.109722,-0.180884,-0.223659,-0.235126,1.19494e-13,0.00272257,0.954437,0.0428401,3.62264e-10
57877468,0.0963442,0.0433747,-1.76337,-0.353945,0.0821981,0.447895,1.41101,0.097874,0.0016939,0.0491914,0.111375,0.304238,0.371873,0.119089,0.0426391,0.000312105,0.00973274,1.09387e-13,0.00270645,0.954657,0.0426368,3.4313e-10
58086082,0.0983272,0.0433302,-1.76002,-0.351456,0.084263,0.449676,1.4127,-0.0416709,-0.00700468,0.0472572,0.0981439,0.204338,0.163719,-0.0145331,-0.0408765,-0.0436023,0.0303663,1.07754e-13,0.002713,0.954842,0.0424455,3.35082e-10
58279818,0.106972,0.0432621,-1.75038,-0.341882,0.0928299,0.457263,1.41801,-0.377806,-0.111583,-0.0710995,-0.0665717,-0.177738,-0.235715,-0.183468,-0.101539,-0.0274331,0.134003,9.62031e-14,0.00266128,0.954634,0.0427051,3.28019e-10
58478491,0.116699,0.0428056,-1.73244,-0.328489,0.10282,0.464581,1.42038,-0.476955,0.00713742,0.0336024,-0.00629878,-0.323405,-0.454678,-0.181311,0.00291923,0.149322,0.392425,7.36383e-14,0.00261081,0.955205,0.042184,2.80024e-10
58677372,0.125095,0.0419591,-1.70724,-0.311318,0.111486,0.466359,1.40783,-0.834087,-0.182185,-0.149399,-0.205249,-0.637024,-0.749695,-0.367544,-0.118073,0.0794804,0.406944,3.46965e-14,0.00240978,0.955685,0.0419056,2.01975e-10
58880834,0.123165,0.0409614,-1.69418,-0.308242,0.110391,0.451523,1.39044,-0.505293,0.0727075,0.0797184,0.00962222,-0.421843,-0.628679,-0.198355,0.0375664,0.217487,0.492041,2.33348e-14,0.00235766,0.95669,0.0409519,1.56789e-10
59079522,0.103839,0.0411798,-1.71551,-0.326211,0.0906077,0.441341,1.37547,-0.0418183,0.167909,0.162236,0.128638,-0.0485423,-0.305908,-0.115076,-0.0233233,0.044325,0.138202,2.23557e-14,0.00233584,0.956505,0.0411588,1.57282e-10
59283177,0.0873569,0.0408384,-1.72242,-0.339176,0.0745375,0.423206,1.35411,0.48419,0.110941,0.0938544,0.125203,0.369506,0.279679,0.0485967,-0.0936179,-0.206105,-0.397668,1.86342e-14,0.00234216,0.957476,0.0401821,1.32583e-10
59482036,0.0907949,0.0396863,-1.70837,-0.334842,0.0786802,0.41538,1.34326,0.372432,-0.391812,-0.430883,-0.371525,0.117004,0.6872,0.225911,-0.0618814,-0.291288,-0.691533,1.43461e-14,0.00232139,0.958272,0.0394066,1.09981e-10
59680554,0.07498,0.0385368,-1.6913,-0.335632,0.0639688,0.402983,1.31973,0.821272,0.00756943,-0.0374626,0.0212273,0.529866,0.571527,0.0891156,-0.21394,-0.457072,-0.890826,7.99613e-15,0.00238511,0.961786,0.0358287,5.8576e-11
59884209,0.0800217,0.0375083,-1.66171,-0.321474,0.0698232,0.402715,1.30829,0.73621,0.0393026,0.0204916,0.0900353,0.579786,0.693317,0.183437,-0.0926004,-0.308714,-0.675106,4.27463e-15,0.00235108,0.963758,0.033891,3.61763e-11
60082899,0.0998821,0.0365489,-1.62233,-0.297344,0.0904746,0.408706,1.30456,0.534123,0.0476496,0.0903715,0.196824,0.696303,0.848338,0.247554,0.0073667,-0.164341,-0.383076,2.30569e-15,0.00227488,0.964962,0.0327628,2.46391e-11
60281734,0.0978585,0.0358799,-1.60451,-0.290562,0.0890809,0.413456,1.30372,0.157724,-0.105658,0.0164895,0.17862,0.737632,0.659694,-0.0979083,-0.314559,-0.446389,-0.497083,1.84815e-15,0.00239315,0.967331,0.0302758,1.60576e-11
60480274,0.0515463,0.035254,-1.63196,-0.330702,0.0434618,0.364314,1.24916,0.305136,0.0690891,0.164836,0.296193,0.76543,0.6824,0.0525153,-0.131937,-0.247439,-0.310018,1.34456e-15,0.00245281,0.969111,0.0284361,1.08127e-11
60678965,-0.133956,0.0348287,-1.80359,-0.511087,-0.141604,0.176524,1.0567,0.339861,0.0895018,0.152462,0.250729,0.638674,0.590088,0.0813329,-0.081332,-0.190003,-0.289682,1.02696e-15,0.00247874,0.970245,0.0272761,8.11409e-12
60882664,-0.362702,0.0345651,-2.02443,-0.735955,-0.370257,-0.0557056,0.818564,0.344785,0.0987282,0.138085,0.210453,0.525798,0.68655,0.280472,0.140352,0.0421261,-0.0746344,7.28604e-16,0.00240399,0.970435,0.0271612,6.97826e-12
61081407,-0.486993,0.0341762,-2.13854,-0.861942,-0.49395,-0.188925,0.686232,0.401148,0.151596,0.181913,0.244596,0.534436,0.338953,-0.0332137,-0.16636,-0.26189,-0.388883,6.38607e-16,0.00246126,0.971458,0.0260812,5.53549e-12
61279995,-0.649762,0.0339897,-2.29383,-1.02168,-0.656596,-0.35215,0.519047,0.403839,0.128738,0.143071,0.191604,0.453406,0.454726,0.127237,-0.00231015,-0.0997263,-0.253437,5.15127e-16,0.00244358,0.971878,0.0256789,4.7504e-12
61478683,-0.813226,0.0338061,-2.44963,-1.18162,-0.819988,-0.516185,0.350052,0.48352,0.173012,0.174854,0.213875,0.463903,0.47985,0.173316,0.0406292,-0.0628273,-0.24617,3.95337e-16,0.00240299,0.97218,0.025417,4.09385e-12
61682339,-0.875521,0.0336019,-2.503,-1.24042,-0.882142,-0.580024,0.281542,0.556803,0.231787,0.225414,0.256916,0.491334,0.413624,0.128732,-0.00206493,-0.106425,-0.304579,3.03936e-16,0.00237537,0.972601,0.0250233,3.44494e-12
61881098,-0.966998,0.0333874,-2.58419,-1.32799,-0.973436,-0.672806,0.183994,0.609883,0.26734,0.254539,0.280787,0.507475,0.352965,0.0785206,-0.0533229,-0.160403,-0.374297,2.34072e-16,0.002362,0.973153,0.0244846,2.8192e-12
62079716,-0.975771,0.0331053,-2.58202,-1.33119,-0.981954,-0.685976,0.166364,0.550765,0.211835,0.208698,0.244743,0.499591,0.41252,0.093448,-0.0461351,-0.156919,-0.366542,1.80519e-16,0.00235174,0.973717,0.0239317,2.29678e-12
62278405,-0.959945,0.0329689,-2.56101,-1.31355,-0.966024,-0.671083,0.178602,0.213884,0.061008,0.0997301,0.159699,0.407548,0.437275,0.100263,-0.00217724,-0.0728495,-0.152661,1.57243e-16,0.00234692,0.974015,0.0236382,2.05944e-12
62477093,-0.950783,0.032797,-2.54516,-1.30273,-0.956605,-0.66237,0.186787,0.062459,0.111618,0.201283,0.293662,0.553816,0.303825,-0.0768662,-0.144769,-0.174891,-0.109921,1.54093e-16,0.00241109,0.974718,0.0228708,1.76105e-12
62675912,-0.945999,0.0325953,-2.53235,-1.29609,-0.951509,-0.658122,0.190452,0.00759426,0.160092,0.271215,0.375427,0.628434,0.325039,-0.0561568,-0.102321,-0.109766,0.027368,1.52243e-16,0.00249549,0.975554,0.0219506,1.45753e-12
62884403,-0.939277,0.0324523,-2.5193,-1.28962,-0.944622,-0.65115,0.196306,-0.0799562,0.0593321,0.163078,0.261019,0.502043,0.40047,0.0404322,-0.00458562,-0.0132064,0.111994,1.3994e-16,0.00252946,0.976056,0.0214141,1.26198e-12
63078125,-0.984425,0.0323271,-2.55802,-1.33305,-0.989557,-0.696476,0.150141,0.069935,0.179594,0.266502,0.349533,0.558878,0.330791,0.0205464,-0.0206589,-0.0307982,0.0684095,1.36457e-16,0.00259106,0.976642,0.0207669,1.08786e-12
63281780,-1.08545,0.0323052,-2.65723,-1.4331,-1.09054,-0.796613,0.0492169,-0.15912,0.0419083,0.0962079,0.132912,0.160367,0.0825169,0.022064,0.0521297,0.0899115,0.236244,1.34844e-16,0.00260684,0.976796,0.0205972,1.04306e-12
63480478,-1.19468,0.0322724,-2.76832,-1.54208,-1.19983,-0.904393,-0.0574753,0.177067,0.431075,0.451509,0.444734,0.314386,-0.285062,-0.127146,-0.0402412,0.0337719,0.20309,1.4264e-16,0.0026121,0.97671,0.0206774,1.08503e-12
63679157,-1.33735,0.0320919,-2.90913,-1.68583,-1.34234,-1.05475,-0.208183,-0.119219,0.16762,0.185307,0.171679,0.0055784,-0.312233,-0.107607,-0.00388257,0.082755,0.272192,1.36138e-16,0.00260373,0.976742,0.0206539,1.05926e-12
63877881,-1.53708,0.0320494,-3.10921,-1.88667,-1.54202,-1.25478,-0.407043,0.144449,0.347294,0.356776,0.34381,0.216302,-0.144224,0.0149679,0.0912896,0.154094,0.28698,1.44082e-16,0.00262717,0.976796,0.0205765,1.06341e-12
64081501,-1.62577,0.0320545,3.08501,-1.97573,-1.63072,-1.34344,-0.495439,0.0744468,0.190708,0.199188,0.19508,0.132582,-0.124529,-0.0486823,-0.00813196,0.0260872,0.102964,1.45709e-16,0.00262872,0.976783,0.0205886,1.07078e-12
64280239,-1.65412,0.0320636,3.05681,-2.00414,-1.65906,-1.37174,-0.523573,0.00470265,0.112449,0.132346,0.141839,0.125134,-0.0430985,-0.0310878,-0.00570959,0.0194909,0.0948454,1.4709e-16,0.00263501,0.976812,0.0205528,1.06624e-12
64478879,-1.64586,0.0319893,3.0687,-1.99462,-1.65072,-1.36441,-0.517389,-0.222071,-0.0205461,0.0616516,0.129169,0.251325,0.292228,0.0984256,0.100615,0.123753,0.280795,1.36944e-16,0.00264152,0.977021,0.0203378,9.88259e-13
64677568,-1.63864,0.0318184,3.08044,-1.98595,-1.64339,-1.35814,-0.512355,-0.319975,-0.0388113,0.0888453,0.197559,0.41349,0.218825,-0.114414,-0.124712,-0.0996803,0.12341,1.27047e-16,0.00265604,0.977306,0.0200383,8.97318e-13
64886196,-1.62398,0.0316473,3.10445,-1.96446,-1.62876,-1.33511,-0.49627,-0.354428,-0.0625591,0.0921708,0.229824,0.532243,0.487839,0.0331374,-0.000592172,0.0127631,0.250538,1.03044e-16,0.00266255,0.977807,0.0195308,7.35355e-13
65084878,-1.60773,0.0314573,3.12764,-1.94628,-1.61237,-1.32014,-0.483897,-0.26528,-0.0266349,0.10055,0.214256,0.467994,0.400959,0.0229408,-0.00646895,0.00288534,0.194971,9.04454e-17,0.00267746,0.978192,0.0191307,6.35573e-13
65278599,-1.63875,0.0313285,3.10317,-1.97538,-1.64324,-1.35225,-0.518077,-0.114919,0.0623753,0.161822,0.252026,0.460221,0.44492,0.137911,0.110275,0.113741,0.256368,8.17003e-17,0.00270291,0.978584,0.0187133,5.51978e-13
65477287,-1.79284,0.0312628,2.95288,-2.12822,-1.7972,-1.5069,-0.672791,0.0677061,0.160738,0.228568,0.293438,0.45945,0.229797,-0.0103366,-0.0416357,-0.049287,0.0283431,8.15624e-17,0.00274881,0.978909,0.0183419,5.02967e-13
65680943,-1.99597,0.0312439,2.75076,-2.33092,-2.00028,-1.71118,-0.876708,0.0546911,0.039233,0.0667062,0.0991158,0.209919,0.0960732,-0.0584651,-0.0942855,-0.115865,-0.120669,8.16213e-17,0.00276265,0.979,0.018237,4.89759e-13
65879631,-2.22838,0.0312333,2.51911,-2.56326,-2.23266,-1.94589,-1.11158,0.00989388,0.025902,0.0481143,0.0710635,0.137959,0.374454,0.279466,0.262687,0.254931,0.270139,7.83734e-17,0.00275056,0.978999,0.0182508,4.83834e-13
66078319,-2.43718,0.0312221,2.31113,-2.77253,-2.4414,-2.15691,-1.32214,0.167713,0.137552,0.146294,0.159508,0.215652,0.0806077,0.00373107,-0.0187494,-0.0344784,-0.0534359,7.77858e-17,0.00275522,0.979045,0.0181995,4.76082e-13
66281976,-2.63132,0.0312134,2.11766,-2.96736,-2.6355,-2.35313,-1.5181,0.150065,0.0887057,0.0899852,0.0984476,0.153101,0.114548,0.0418146,0.0137763,-0.00827974,-0.0499325,7.65482e-17,0.0027531,0.979063,0.0181843,4.712e-13
66480661,-2.74451,0.031208,2.00541,-3.08088,-2.74865,-2.46745,-1.63242,0.155625,0.0584523,0.0533904,0.0588722,0.11968,0.0708917,-0.0081853,-0.0449319,-0.0755394,-0.142762,7.54658e-17,0.0027554,0.979105,0.0181396,4.63085e-13
66679353,-2.76684,0.0312637,1.98459,-3.1031,-2.77109,-2.48352,-1.65121,0.233111,0.066499,0.0458712,0.0419241,0.103094,0.124985,0.0497698,-0.000453115,-0.0457608,-0.163314,7.25352e-17,0.0027477,0.97913,0.018122,4.53704e-13
66883009,-2.74444,0.0310818,2.01041,-3.07904,-2.74855,-2.46862,-1.6366,0.462317,0.0834871,-0.00402001,-0.0583677,-0.0650306,0.0656609,0.0984787,0.027434,-0.0514563,-0.326785,6.39073e-17,0.00272234,0.979209,0.0180687,4.25562e-13
67081696,-2.71418,0.0307108,2.05039,-3.04446,-2.71839,-2.44186,-1.61964,0.981031,0.326872,0.156194,0.0401668,-0.0440895,0.0421363,0.197833,0.0966109,-0.0273361,-0.505787,3.72257e-17,0.00255073,0.979052,0.018397,3.73915e-13
67280550,-2.68367,0.03017,2.09254,-3.00852,-2.68803,-2.41576,-1.60618,1.13145,0.336553,0.12536,-0.0213974,-0.150245,0.0931421,0.308037,0.19254,0.0475815,-0.528736,1.81392e-17,0.00233087,0.978738,0.0189309,3.23769e-13
67479080,-2.6604,0.0296827,2.1302,-2.97998,-2.6647,-2.39645,-1.597,0.9856,0.238417,0.0499259,-0.0786633,-0.179077,-0.000715032,0.158443,0.043313,-0.0949474,-0.628313,1.03332e-17,0.00222852,0.978952,0.0188193,2.53554e-13
67677762,-2.64816,0.0293884,2.15326,-2.96385,-2.6524,-2.38714,-1.59504,0.838567,0.24292,0.120491,0.0477588,0.0591378,0.0961042,0.0807997,-0.0387496,-0.164009,-0.585516,6.8874e-18,0.0021656,0.979153,0.0186813,2.09327e-13
67881417,-2.63364,0.0292005,2.17941,-2.9478,-2.63784,-2.3709,-1.58718,0.685545,0.231303,0.185035,0.181551,0.358902,0.355868,0.0949107,-0.0470155,-0.171804,-0.494754,4.97067e-18,0.00213368,0.979459,0.0184074,1.72082e-13
68080239,-2.63562,0.0289415,2.18916,-2.94609,-2.63971,-2.37561,-1.59893,0.588855,0.204739,0.198821,0.23266,0.503812,0.55548,0.154417,-0.00225237,-0.129361,-0.407106,3.47796e-18,0.00210232,0.979813,0.0180842,1.38097e-13
68278795,-2.63306,0.0286889,2.2019,-2.94015,-2.63709,-2.37576,-1.6061,0.42827,0.112973,0.132207,0.18669,0.498405,0.692393,0.228503,0.0726758,-0.0480178,-0.282409,2.39599e-18,0.00205188,0.98001,0.017938,1.15643e-13
68477483,-2.62709,0.0284594,2.21617,-2.93098,-2.63114,-2.3727,-1.61082,0.398421,0.090676,0.110087,0.163674,0.46942,0.805006,0.343924,0.190897,0.0723474,-0.159935,1.5396e-18,0.001961,0.979929,0.0181099,1.03093e-13
68681139,-2.62728,0.0282178,2.22351,-2.92678,-2.63109,-2.37846,-1.61779,0.318508,0.0875161,0.117288,0.174219,0.459649,0.425069,-0.00845474,-0.14069,-0.240216,-0.420483,1.3327e-18,0.00199172,0.980454,0.0175542,8.38578e-14
68879980,-2.63312,0.0280708,2.22652,-2.93005,-2.63682,-2.38621,-1.62998,0.47867,0.262525,0.281899,0.325613,0.561261,0.473313,0.111485,-0.00300202,-0.0907908,-0.259932,1.0722e-18,0.00199025,0.980801,0.0172091,7.02983e-14
69078515,-2.65419,0.0280133,2.20923,-2.9499,-2.65785,-2.40853,-1.65489,0.333318,0.187909,0.202264,0.23301,0.396252,0.423041,0.170115,0.0913448,0.0311026,-0.0848634,9.31545e-19,0.00197308,0.980877,0.0171502,6.57335e-14
69282172,-2.68107,0.0279918,2.18505,-2.97597,-2.68471,-2.43639,-1.68445,0.388927,0.287455,0.296232,0.316162,0.424666,0.311302,0.141278,0.0877668,0.0466229,-0.0344373,8.51873e-19,0.00196503,0.98095,0.0170845,6.25027e-14
69480860,-2.70244,0.0279929,2.16556,-2.99685,-2.70604,-2.45836,-1.70722,0.440093,0.404576,0.415537,0.431236,0.498703,0.196719,0.0924643,0.0645078,0.0444641,0.0129418,8.24696e-19,0.00197056,0.981054,0.0169754,5.99223e-14
69679610,-2.66328,0.0280103,2.20517,-2.95736,-2.66687,-2.41895,-1.66825,0.253923,0.252724,0.261957,0.272245,0.30739,0.165618,0.112011,0.100714,0.0937233,0.0891266,8.18421e-19,0.00197337,0.981092,0.0169349,5.90981e-14
69878237,-2.55547,0.0280379,2.31292,-2.84911,-2.55908,-2.31006,-1.55978,0.303439,0.307714,0.310163,0.312248,0.31702,-0.00776646,-0.0161629,-0.0171203,-0.0172833,-0.0151058,8.20521e-19,0.00197518,0.981103,0.0169221,5.89517e-14
70076943,-2.45754,0.0280662,2.4101,-2.75099,-2.46118,-2.21103,-1.46103,0.318898,0.331881,0.324696,0.315025,0.275856,0.0173443,0.0743672,0.0885066,0.0983798,0.110938,8.25897e-19,0.00197228,0.981063,0.0169646,5.98152e-14
70275614,-2.39486,0.0280867,2.47214,-2.68819,-2.39854,-2.14772,-1.39818,0.254802,0.257289,0.238474,0.21674,0.140329,-0.157619,-0.0467903,-0.0234135,-0.00868408,0.000170439,8.10294e-19,0.00195945,0.980974,0.0170665,6.11461e-14
70474315,-2.37156,0.0281029,2.49291,-2.66536,-2.37529,-2.12388,-1.37384,0.511385,0.521276,0.496842,0.468033,0.364352,0.0706308,0.222399,0.255547,0.276904,0.29357,8.32018e-19,0.00194877,0.980822,0.0172289,6.45606e-14
70677959,-2.36399,0.0280995,2.4996,-2.65787,-2.36776,-2.11625,-1.36636,0.26276,0.287554,0.258191,0.22235,0.0886922,-0.168955,0.0284406,0.0736478,0.103616,0.133293,8.19562e-19,0.00193555,0.980717,0.0173478,6.63307e-14
70876646,-2.36112,0.0280878,2.50109,-2.65515,-2.36495,-2.11341,-1.36381,0.351318,0.352942,0.311297,0.263955,0.100192,-0.190798,0.0489741,0.0987305,0.129613,0.145967,7.94276e-19,0.00191229,0.980537,0.0175508,6.93012e-14
71075335,-2.35645,0.0280742,2.50332,-2.65065,-2.36039,-2.1089,-1.36016,0.450998,0.474798,0.432746,0.382753,0.201161,-0.353096,-0.0846573,-0.0250736,0.0136298,0.0469802,7.31457e-19,0.00186224,0.980166,0.0179719,7.54e-14
71283983,-2.3588,0.0280385,2.5016,-2.65275,-2.36275,-2.11153,-1.36348,0.13828,0.186521,0.149067,0.101881,-0.0795435,-0.282587,-0.0113647,0.0530371,0.0966205,0.146731,7.00537e-19,0.00185137,0.980121,0.0180277,7.52779e-14
71477713,-2.36918,0.0279994,2.49079,-2.66303,-2.37318,-2.12229,-1.37503,0.210336,0.290392,0.257182,0.211606,0.0230234,-0.359348,-0.0743461,-0.00143147,0.0499687,0.122955,6.58043e-19,0.00182564,0.97995,0.018224,7.75074e-14
71681335,-2.38025,0.0279629,2.47788,-2.67457,-2.38429,-2.13323,-1.38532,0.352273,0.438379,0.405662,0.36008,0.169214,-0.1726,0.116872,0.191709,0.244759,0.322176,6.7625e-19,0.00182054,0.979832,0.0183474,8.06618e-14
71880024,-2.3849,0.0279056,2.47414,-2.67876,-2.38897,-2.13843,-1.39192,0.107635,0.207356,0.172588,0.12336,-0.0851962,-0.421907,-0.105055,-0.0221725,0.0368759,0.124993,6.16603e-19,0.0017954,0.979713,0.018492,8.10019e-14
72078714,-2.39165,0.02783,2.46746,-2.68547,-2.39574,-2.14535,-1.39907,0.195207,0.328662,0.296663,0.247225,0.0246168,-0.307374,0.0341395,0.128027,0.196568,0.309605,6.06528e-19,0.00179023,0.979668,0.0185421,8.13754e-14
72277401,-2.40146,0.0276975,2.46019,-2.69492,-2.40547,-2.15533,-1.40922,0.033642,0.29675,0.290212,0.256513,0.0365569,-0.286451,0.0632982,0.18207,0.276333,0.478572,6.18677e-19,0.00181685,0.979899,0.0182843,7.62513e-14
72476089,-2.4045,0.0275395,2.45901,-2.69721,-2.40855,-2.15915,-1.41539,-0.0971326,0.261945,0.275281,0.254341,0.0397584,-0.569183,-0.218332,-0.0821103,0.0306984,0.299385,5.35352e-19,0.00178151,0.979757,0.0184614,7.58636e-14
72679745,-2.40897,0.027372,2.45879,-2.70074,-2.41293,-2.16417,-1.42154,-0.110622,0.232487,0.243368,0.221398,0.0100652,-0.355257,-0.00878808,0.123398,0.232402,0.490027,5.16166e-19,0.00180266,0.980029,0.0181686,6.90136e-14
72878474,-2.41985,0.0270974,2.46002,-2.70937,-2.42352,-2.17611,-1.43578,-0.377448,0.110104,0.15694,0.161141,-0.0175546,-0.152992,0.160723,0.311783,0.444055,0.799213,5.03804e-19,0.00189195,0.980938,0.0171702,5.14556e-14
73077122,-2.42022,0.0268303,2.4657,-2.70844,-2.42378,-2.17717,-1.43873,-0.239913,0.293568,0.351647,0.364004,0.194221,-0.42741,-0.118123,0.0398828,0.180468,0.570297,4.72014e-19,0.00191947,0.981287,0.016794,4.49686e-14
73285746,-2.41784,0.0265466,2.47918,-2.70346,-2.42121,-2.17632,-1.44153,-0.447361,0.0797826,0.13524,0.145368,-0.0297512,-0.315512,0.00368202,0.162341,0.30297,0.690745,4.08797e-19,0.00196222,0.981868,0.0161698,3.52062e-14
73479467,-2.41386,0.0263168,2.49155,-2.6977,-2.41706,-2.17322,-1.44027,-0.281495,0.16352,0.199051,0.194938,0.00259063,-0.282286,0.0573117,0.205349,0.333168,0.668985,3.9152e-19,0.00202123,0.982402,0.0155772,2.86385e-14
73678156,-2.40139,0.0261443,2.50935,-2.68395,-2.40451,-2.16139,-1.4303,-0.178134,0.176168,0.188847,0.167788,-0.0484898,-0.383961,-0.0186183,0.118883,0.233337,0.511453,3.63998e-19,0.00204269,0.982661,0.0152967,2.53816e-14
73881811,-2.38138,0.0259897,2.5346,-2.66252,-2.38445,-2.14216,-1.41379,-0.229625,0.099303,0.107599,0.0841156,-0.130874,-0.444106,-0.0824102,0.0497973,0.159094,0.42077,3.18731e-19,0.00203986,0.982817,0.0151433,2.29374e-14
74080499,-2.35524,0.0258642,2.56325,-2.63542,-2.35834,-2.11659,-1.3909,-0.120198,0.182979,0.18682,0.160911,-0.0524116,-0.551855,-0.194018,-0.0672937,0.0366566,0.281409,2.72206e-19,0.00200351,0.982749,0.0152476,2.23934e-14
74279389,-2.32732,0.0257102,2.59692,-2.60622,-2.33033,-2.0891,-1.36513,-0.209224,0.13503,0.150731,0.134436,-0.0609175,-0.30893,0.0305243,0.160144,0.269014,0.540454,2.58718e-19,0.0020371,0.983066,0.0148973,1.94907e-14
74482850,-2.29324,0.0255788,2.63775,-2.5734,-2.29615,-2.05952,-1.33607,-0.264859,0.0214947,0.0300098,0.0112491,-0.170153,-0.407984,-0.0964203,0.0174101,0.111973,0.342114,2.26653e-19,0.00202743,0.983168,0.0148041,1.79697e-14
74681532,-2.26724,0.0255005,2.66777,-2.54659,-2.27008,-2.03422,-1.31149,-0.189781,0.0378457,0.0414444,0.0229501,-0.134029,-0.180583,0.0875144,0.182094,0.259957,0.445815,2.22438e-19,0.00205743,0.983408,0.0145342,1.62258e-14
74880261,-2.25233,0.0254742,2.68132,-2.53191,-2.2552,-2.01939,-1.29656,0.118592,0.328504,0.341763,0.33607,0.23151,-0.378323,-0.189855,-0.11494,-0.0510092,0.114564,2.19029e-19,0.00204107,0.983307,0.0146518,1.68122e-14
75079093,-2.24932,0.0254702,2.68543,-2.52873,-2.25216,-2.01644,-1.29358,-0.074024,0.0612521,0.0726542,0.0722238,0.0163994,0.00205964,0.106469,0.151185,0.190065,0.294736,2.21852e-19,0.00205627,0.983399,0.0145449,1.6265e-14
75277598,-2.25206,0.0255101,2.68055,-2.5289,-2.25496,-2.01433,-1.29361,0.094808,0.154128,0.151112,0.14168,0.0841034,0.0819645,0.176695,0.206548,0.230243,0.281735,2.28153e-19,0.00206855,0.983448,0.0144838,1.60754e-14
75476287,-2.24975,0.025487,2.68528,-2.5263,-2.2526,-2.01212,-1.29215,-0.193146,-0.00242218,0.0161759,0.01851,-0.0497285,-0.0284226,0.103122,0.162909,0.21565,0.361667,2.26734e-19,0.00208762,0.983588,0.0143242,1.51454e-14
75674975,-2.23525,0.0253499,2.70549,-2.51034,-2.23805,-1.99854,-1.28131,-0.424178,0.00707228,0.0691919,0.0976274,0.0261782,-0.249192,-0.0734181,0.0361953,0.138928,0.455826,1.98697e-19,0.00208856,0.983765,0.0141465,1.35269e-14
75873768,-2.23092,0.0251015,2.71834,-2.50348,-2.23372,-1.99635,-1.28561,-0.686791,-0.096096,-0.0050915,0.0409284,-0.030918,-0.450988,-0.244852,-0.102466,0.0331948,0.463806,1.37044e-19,0.00202118,0.98377,0.0142088,1.20639e-14
76077319,-2.23556,0.0248544,2.72672,-2.50512,-2.23818,-2.00297,-1.29678,-0.60381,-0.0522308,0.028942,0.0680983,-0.010608,-0.125717,0.090907,0.227907,0.357004,0.761513,1.14226e-19,0.00206952,0.984326,0.0136042,8.99475e-15
76285952,-2.22865,0.0246961,2.74155,-2.49886,-2.2311,-2.00224,-1.29357,-0.308747,0.0987973,0.155915,0.181792,0.112906,-0.138867,0.0426142,0.147747,0.245771,0.549033,1.09957e-19,0.00211035,0.984636,0.0132538,7.74395e-15
76479664,-2.21334,0.0246233,2.76122,-2.48251,-2.21574,-1.98776,-1.28065,-0.358628,-0.0401383,0.0039807,0.023642,-0.032345,-0.114936,0.0318522,0.114899,0.192149,0.430637,1.02342e-19,0.00212311,0.984799,0.013078,7.0303e-15
76678445,-2.17115,0.0246436,2.80294,-2.43796,-2.17362,-1.93974,-1.23771,-0.235251,-0.0451114,-0.0232871,-0.0167516,-0.0691191,-0.145151,-0.0283009,0.0273276,0.0774699,0.224248,9.81311e-20,0.00212132,0.984837,0.0130422,6.82219e-15
76882035,-2.09432,0.02464,2.88108,-2.36086,-2.09678,-1.86245,-1.16111,-0.121212,0.0121566,0.0179587,0.0115677,-0.0651567,-0.0996592,0.0420112,0.0935699,0.137072,0.248547,9.72897e-20,0.00212994,0.984899,0.0129715,6.60888e-15
77080696,-2.00475,0.0246459,2.97115,-2.27121,-2.00721,-1.77237,-1.07162,0.0507598,0.0685164,0.0471654,0.020699,-0.0830552,-0.147017,0.011003,0.0471848,0.0724662,0.107201,9.62283e-20,0.00212954,0.984908,0.0129627,6.55746e-15
77279385,-1.95258,0.0246445,3.02393,-2.21899,-1.95504,-1.71996,-1.01945,0.0795337,0.0473395,0.0125518,-0.0245545,-0.147156,-0.0770958,0.0985357,0.130303,0.149195,0.152259,9.64991e-20,0.0021358,0.984942,0.0129218,6.45671e-15
77478132,-1.92636,0.0246004,3.05092,-2.19468,-1.9287,-1.70333,-0.996374,0.242611,0.170502,0.138514,0.108525,0.027822,0.0677858,0.173007,0.183452,0.185407,0.151134,9.5928e-20,0.00212838,0.984902,0.0129696,6.56259e-15
77676762,-1.91147,0.0246179,3.0658,-2.17976,-1.91382,-1.68854,-0.981647,0.084485,0.0365017,0.030971,0.0291828,0.0417275,0.128841,0.100864,0.08716,0.0747228,0.0379927,9.51159e-20,0.00212485,0.98489,0.0129848,6.58223e-15
77880418,-1.88242,0.0246262,3.09566,-2.15044,-1.88477,-1.65983,-0.953517,0.0197848,0.0317095,0.053721,0.0778967,0.161208,0.329782,0.209234,0.185769,0.17099,0.162095,9.13812e-20,0.00211607,0.984884,0.013,6.52799e-15
78079154,-1.84181,0.0246945,3.13637,-2.10785,-1.84428,-1.6091,-0.909635,0.0870713,0.120447,0.145618,0.171363,0.251886,0.190334,0.0782895,0.0600997,0.0503054,0.0572048,9.04216e-20,0.00212107,0.984929,0.0129497,6.378e-15
78277925,-1.80348,0.024711,-3.10809,-2.06949,-1.80593,-1.5707,-0.871191,0.0663184,0.123427,0.13764,0.148435,0.16494,0.115058,0.102888,0.109583,0.117984,0.155387,9.10944e-20,0.00212718,0.984959,0.0129142,6.30636e-15
78476485,-1.77382,0.0246669,-3.07418,-2.03856,-1.77622,-1.54199,-0.843973,-0.425582,-0.244686,-0.239297,-0.250731,-0.364945,-0.156535,0.0508858,0.123991,0.185157,0.338871,8.465e-20,0.00213946,0.985118,0.0127428,5.72434e-15
78675173,-1.7507,0.0245106,-3.04758,-2.01445,-1.75307,-1.51965,-0.823065,-0.0186828,0.267494,0.261631,0.226998,-0.0145281,-0.459374,-0.0396195,0.095364,0.205127,0.462684,7.86113e-20,0.00214475,0.985223,0.0126324,5.30777e-15
78878829,-1.74078,0.0243132,-3.02904,-2.00248,-1.74305,-1.51115,-0.817933,-0.213794,0.0397654,0.0163217,-0.0354625,-0.327195,-0.47916,0.00942498,0.153614,0.267388,0.513847,6.84873e-20,0.00217147,0.985525,0.0123031,4.38695e-15
79077514,-1.72754,0.0241315,-3.01301,-1.99078,-1.72977,-1.50863,-0.812985,0.244762,0.358704,0.307251,0.236472,-0.0704506,-0.682352,-0.200161,-0.0798497,0.00870615,0.161449,5.41967e-20,0.00209134,0.985301,0.0126072,4.55687e-15
79281173,-1.72804,0.0240318,-3.00787,-1.98687,-1.73037,-1.50115,-0.815457,0.0195531,0.0342324,-0.0407273,-0.129049,-0.461041,-0.671784,-0.172353,-0.0645982,0.00882529,0.0972195,4.2467e-20,0.00206304,0.985402,0.0125346,4.04945e-15
79479861,-1.72357,0.0237584,-2.99174,-1.9797,-1.72574,-1.49862,-0.817133,-0.0925208,0.0380752,-0.0328048,-0.127497,-0.530127,-0.559886,0.0752268,0.230078,0.343292,0.535218,3.67276e-20,0.0021169,0.985874,0.0120089,3.06397e-15
79683517,-1.71905,0.0233732,-2.97145,-1.97067,-1.72118,-1.49786,-0.826054,-0.238414,0.034094,-0.0206504,-0.110341,-0.553021,-0.975375,-0.242734,-0.0445868,0.10796,0.41802,2.13241e-20,0.00205234,0.986071,0.0118763,2.36852e-15
79882206,-1.72231,0.0229343,-2.95285,-1.97215,-1.72415,-1.51311,-0.843633,-0.339359,-0.0487308,-0.0977909,-0.182396,-0.614937,-0.756675,-0.0231367,0.17719,0.333081,0.663121,1.50634e-20,0.00209539,0.986659,0.0112455,1.55969e-15
80080896,-1.71615,0.0226971,-2.93495,-1.96304,-1.71792,-1.50919,-0.845369,-0.309381,-0.053109,-0.0829024,-0.141929,-0.467228,-0.658014,-0.0885737,0.0713013,0.19804,0.482366,1.13988e-20,0.00209714,0.986936,0.0109668,1.23117e-15
