timestamp,timestamp_sample,hover_thrust,hover_thrust_var,accel_innov,accel_innov_var,accel_innov_test_ratio,accel_noise_var,valid
62000728,61999681,0.48905405,0.0059094885,0.95262223,8.460974,0.011917319,4.973645,0
62025491,62024379,0.4932629,0.0040161074,-0.2616696,7.318462,0.0010395473,4.9328294,0
62105196,62103842,0.5145879,0.0019543925,1.1543497,5.475501,0.027040107,4.8016973,0
62204451,62203178,0.52918786,0.0012228229,0.09779781,5.016308,0.00021185151,4.6143007,0
62298927,62297547,0.5509345,0.00091091543,-0.9183588,4.724645,0.019834127,4.4800344,0
62418167,62416751,0.55844605,0.000697448,0.6258544,4.5020967,0.009666945,4.280898,0
62517456,62516133,0.5635488,0.00056832825,0.8626387,4.311295,0.019178191,4.1153674,0
62616709,62615424,0.5711383,0.0004704495,-0.7996132,4.125989,0.017218262,3.949194,0
62696057,62694894,0.56995726,0.0004115325,0.444893,3.972568,0.0055360156,3.8111763,0
62805319,62804296,0.56623864,0.0003516731,0.4527309,3.7779264,0.0060281525,3.633989,0
62904826,62903506,0.5653714,0.00030522342,-0.00080213696,3.5979521,1.987006e-08,3.4684248,0
63004186,63002835,0.5605641,0.00026827137,0.91444206,3.441664,0.026996125,3.3329945,0
63103502,63102172,0.5525309,0.00023759836,1.4093722,3.3356736,0.066164546,3.2431383,0
63203138,63201508,0.54456836,0.000211638,1.0256772,3.247068,0.035998758,3.1504848,0
63301949,63300847,0.5384075,0.00018939232,0.68488544,3.1301436,0.01665057,3.0344872,0
63416479,63415082,0.5374408,0.00016676613,0.12536532,2.9649053,0.0005889813,2.8767073,0
63516104,63514417,0.53250766,0.00015090215,1.1041446,2.8419855,0.047663677,2.765526,0
63605326,63603919,0.5298365,0.00013958808,0.39478332,2.7368546,0.006327372,2.6584318,0
63704521,63703159,0.53075963,0.00012704507,-0.72845805,2.6152425,0.02254523,2.5524774,0
63804049,63802493,0.5379847,0.00011657677,-2.2264948,2.6082332,0.21118082,2.5932944,0
63908138,63906796,0.5429307,0.00010833265,0.40539044,2.6371994,0.006924071,2.5713742,0
64017197,64016066,0.5452989,9.979246e-05,-1.1255454,2.5081062,0.056122575,2.4612253,0
64116743,64115402,0.54862094,9.360224e-05,-0.4678105,2.4301374,0.010006141,2.3775835,0
64215823,64214739,0.5466453,8.8034365e-05,1.1546962,2.3393624,0.06332795,2.3032515,0
64305317,64304142,0.5467814,8.3880754e-05,-0.9789246,2.2716875,0.04687134,2.2303092,0
64405104,64403597,0.54902107,7.9155565e-05,0.5184158,2.2055397,0.01353939,2.163196,0
64519400,64517715,0.54984057,7.401504e-05,0.9207763,2.126475,0.044300176,2.0933056,0
64598460,64597187,0.5488243,7.0827155e-05,-0.6602607,2.0817506,0.023268033,2.0418034,0
64717758,64716388,0.5496158,6.642852e-05,1.3464699,2.0135329,0.100044236,1.9931836,0
64816863,64815724,0.5500595,6.305573e-05,-0.87635314,1.9825795,0.043041278,1.9487165,0
64916466,64915061,0.54772437,5.9960945e-05,0.51516956,1.9449458,0.015161785,1.9095798,0
65005875,65004463,0.5493198,5.7646885e-05,-0.2338649,1.8911492,0.0032133781,1.8546828,0
65105211,65103801,0.54938275,5.491257e-05,-1.4311669,1.8148971,0.12539668,1.7970093,0
65204524,65203171,0.5492847,5.2374842e-05,0.8291123,1.7801967,0.04290582,1.7540176,0
65303830,65302472,0.550763,4.998824e-05,-0.20281784,1.7283056,0.0026445347,1.695746,0
65403025,65401809,0.5489273,4.7756825e-05,-0.16246375,1.6854882,0.0017399819,1.6538804,0
65517455,65516046,0.55150443,4.525452e-05,-1.0142077,1.6240735,0.07037293,1.6035104,0
65616772,65615383,0.5528154,4.332901e-05,0.42265025,1.5780369,0.012577739,1.5523548,0
65696264,65694853,0.5506889,4.187452e-05,0.45770782,1.5793566,0.014738524,1.5532415,0
65800543,65799154,0.55081886,4.014353e-05,1.042001,1.533851,0.07865215,1.5194962,0
65919669,65918360,0.55052865,3.81864e-05,-0.6918187,1.4770355,0.036004033,1.453945,0
65999024,65997827,0.5523597,3.6952235e-05,-0.78907776,1.4505875,0.04769284,1.4289881,0
66118307,66117031,0.5545382,3.5232573e-05,0.028972156,1.4022472,6.6511166e-05,1.3780404,0
66217970,66216367,0.55410683,3.388388e-05,0.9958922,1.347161,0.08180176,1.3364264,0
66316827,66315709,0.5523024,3.2611242e-05,0.500358,1.3361932,0.020818522,1.3161501,0
66416432,66415040,0.55114615,3.1404445e-05,1.1634382,1.2861282,0.116939135,1.2771902,0
66505831,66504488,0.5497535,3.0486492e-05,-0.12362982,1.2872272,0.0013193159,1.2653052,0
66605002,66603779,0.5512997,2.9367082e-05,-1.4772195,1.2467562,0.19447598,1.2458498,0
66704737,66703116,0.5531116,2.8325085e-05,-0.41427332,1.2417727,0.015356396,1.2216516,0
66804125,66802470,0.5549155,2.7338734e-05,-0.61464137,1.2102016,0.03468513,1.1916718,0
66902913,66901789,0.5555393,2.639161e-05,-0.4310557,1.1553506,0.017869422,1.1363788,0
67002421,67001126,0.5566588,2.5453186e-05,-1.0756385,1.103573,0.11649013,1.0917937,0
67101771,67100561,0.5593588,2.4609111e-05,-1.778397,1.094958,0.32093525,1.0973766,0
67216007,67214699,0.5584959,2.372201e-05,-0.7638046,1.141821,0.05677067,1.1262214,0
67305413,67304101,0.5576934,2.316714e-05,1.2372432,1.1117277,0.15299216,1.1138138,0
67404825,67403438,0.5553953,2.252285e-05,0.46308756,1.1909634,0.020007154,1.1751461,0
67503964,67502774,0.5538395,2.190344e-05,1.2006298,1.1709722,0.13678207,1.1657192,0
67603455,67602111,0.5517042,2.1312833e-05,0.9736818,1.193653,0.08824976,1.1816547,0
67702629,67701447,0.5490698,2.0754382e-05,1.8424838,1.2203311,0.30909157,1.224709,0
67802410,67800783,0.54716015,2.0230182e-05,1.1612384,1.2204103,0.122770615,1.2076702,0
67901382,67900184,0.5458873,1.9715217e-05,1.123047,1.1748435,0.11928155,1.1615013,0
68000824,67999496,0.5444737,1.9200283e-05,0.5908717,1.134588,0.034190517,1.1172847,0
68100074,68098799,0.546009,1.869616e-05,-1.8068615,1.1455178,0.3166689,1.1732244,0
68204218,68203098,0.54612017,1.8266112e-05,-0.97874594,1.1788853,0.090287134,1.1785673,0
68303723,68302433,0.5460726,1.7876191e-05,-1.4824193,1.1544374,0.21150917,1.1681672,0
68403088,68401788,0.5466661,1.7487673e-05,-1.9604437,1.1467211,0.37239897,1.1754922,0
68517238,68516006,0.54881805,1.7032316e-05,-1.5305206,1.2543398,0.2075012,1.2602102,0
68617036,68615343,0.5501711,1.6693282e-05,-0.71663934,1.2749523,0.0447574,1.2611618,0
68716129,68714833,0.5508793,1.6372509e-05,0.008230433,1.2345947,6.09647e-06,1.2175689,0
68805802,68804083,0.5503322,1.6121221e-05,-0.01431188,1.2062107,1.8868077e-05,1.1893811,0
68905033,68903418,0.55034643,1.5805454e-05,1.6613231,1.169838,0.26214403,1.1822435,0
69019031,69017655,0.5502774,1.544055e-05,1.403612,1.1899669,0.18395719,1.1918364,0
69118546,69116994,0.55080944,1.5150634e-05,-0.78878844,1.1715945,0.059006687,1.1600877,0
69218039,69216328,0.5504265,1.4867139e-05,0.7460397,1.1424596,0.05413031,1.132843,0
69316776,69315664,0.5511662,1.4586627e-05,0.123855986,1.1300263,0.0015083528,1.1148975,0
69416364,69415001,0.5499182,1.4319285e-05,0.4249413,1.1484985,0.017469678,1.1344517,0
69505709,69504426,0.5507403,1.4115009e-05,-0.4772945,1.140961,0.022185005,1.1222876,0
69604884,69603740,0.5495307,1.3864527e-05,0.8290211,1.1465597,0.06660272,1.1370256,0
69704712,69703078,0.5504952,1.3624264e-05,-0.8342515,1.1428821,0.06766281,1.1334531,0
69803753,69802574,0.5505268,1.3392351e-05,0.40152094,1.0970948,0.016327878,1.0840905,0
69903328,69901795,0.5493538,1.3163285e-05,0.65593445,1.1012812,0.04340904,1.0897981,0
70002418,70001087,0.550086,1.2939949e-05,-0.13229036,1.0974464,0.0017718647,1.0827551,0
70101730,70100422,0.54984164,1.2721623e-05,-1.0443547,1.0891365,0.111268245,1.0851941,0
70201189,70199759,0.549957,1.2509258e-05,0.6686647,1.0842872,0.045817345,1.0739483,0
70300207,70299110,0.5501278,1.22970905e-05,-1.4698179,1.0502691,0.22855143,1.0567034,0
70419839,70418341,0.5513184,1.2058902e-05,-0.16311486,1.076335,0.0027466107,1.0619456,0
70498892,70497769,0.55047524,1.191209e-05,1.461259,1.0682998,0.22208476,1.0760331,0
70598546,70597242,0.54950786,1.1751863e-05,0.8815443,1.0843354,0.07963099,1.0766019,0
70702585,70701409,0.55109155,1.15838475e-05,-1.4029175,1.160822,0.18838926,1.162445,0
70802077,70800745,0.5514794,1.1428363e-05,0.60332525,1.147601,0.035242733,1.138012,0
70916834,70914982,0.5509726,1.1236559e-05,0.922822,1.1129906,0.085016236,1.1079403,0
71006048,71004385,0.5503241,1.1112771e-05,0.5001584,1.1094806,0.025052609,1.0972879,0
71104960,71103731,0.5501936,1.0956539e-05,-1.206093,1.0662389,0.1515879,1.0671157,0
71204404,71203058,0.551579,1.0808607e-05,-1.5128795,1.1230726,0.2264427,1.127624,0
71303518,71302395,0.55203795,1.0685508e-05,-0.540393,1.0989552,0.029525477,1.0865266,0
71403165,71401865,0.5518507,1.0546077e-05,0.005351089,1.0635347,2.991508e-06,1.049887,0
71517301,71515968,0.55126613,1.0372395e-05,0.10635969,1.0487726,0.0011984786,1.0353963,0
71616483,71615305,0.55208546,1.02284175e-05,-1.0337964,1.0274748,0.115573,1.0219536,0
71716018,71714643,0.55166227,1.0086712e-05,0.7360891,1.0113853,0.05952531,1.0046927,0
71805423,71804044,0.5515343,9.976946e-06,0.13405913,1.0032871,0.00199033,1.0,0
71904498,71903381,0.5516893,9.841108e-06,0.3962655,1.0032105,0.017391536,1.0,0
72004069,72002725,0.551615,9.710249e-06,-0.23777877,1.0031719,0.006262219,1.0,0
72103694,72102055,0.5522212,9.583417e-06,-1.2553359,1.0050315,0.17421989,1.0047965,0
72202631,72201451,0.5532945,9.463152e-06,-1.3613805,1.0149751,0.20289023,1.014662,0
72301998,72300727,0.55438703,9.348047e-06,-1.4630351,1.0179017,0.23364751,1.0175881,0
72401180,72400065,0.5552376,9.236725e-06,-0.44740954,1.0099015,0.022023633,1.0,0
72501096,72499600,0.5554702,9.1247475e-06,-0.29762992,1.0031049,0.009812153,1.0,0
72604905,72603712,0.555391,9.00597e-06,0.62379456,1.0030841,0.043102585,1.0,0
72704388,72703040,0.5545308,8.901448e-06,1.12074,1.0344658,0.13491216,1.038605,0
72803546,72802376,0.5537655,8.806713e-06,1.1861441,1.0521923,0.1485721,1.0549982,0
72903090,72901715,0.5533491,8.714021e-06,0.5737242,1.0318313,0.035445012,1.0224926,0
73002186,73001078,0.5535432,8.618933e-06,-0.4628235,1.0027766,0.023734719,1.0,0
73101800,73100391,0.55437505,8.526965e-06,-1.0902187,1.011552,0.1305559,1.007643,0
73201101,73199723,0.5553823,8.439822e-06,-1.2228909,1.0257643,0.16198891,1.0221292,0
73300907,73299222,0.5557095,8.354893e-06,-0.13158587,1.0045038,0.0019152451,1.0,0
73404930,73403363,0.5564066,8.272059e-06,-1.2330815,1.0082306,0.16756418,1.0035772,0
73504028,73502699,0.5567327,8.192236e-06,0.0734068,1.002522,0.00059722253,1.0,0
73618293,73616936,0.5564637,8.098515e-06,0.77263474,1.0065768,0.065896,1.0051199,0
73717626,73716301,0.55556947,8.025247e-06,1.2636882,1.0575993,0.16777073,1.0638735,0
73817027,73815720,0.55565315,7.9547835e-06,-1.1655742,1.0538787,0.1432342,1.0514096,0
73916112,73914946,0.556075,7.8845405e-06,0.27837673,1.0389525,0.008287578,1.028344,0
74005708,74004349,0.55586004,7.830225e-06,0.3494229,1.0113593,0.01341389,1.0,0
74104997,74103836,0.5553801,7.7590585e-06,0.70878357,1.0024593,0.055682413,1.0,0
74204585,74203026,0.554604,7.689613e-06,1.3027915,1.0162594,0.18556784,1.0190558,0
74303654,74302360,0.55379295,7.6233546e-06,1.0511335,1.0332896,0.11880951,1.0284144,0
74397848,74396728,0.5535719,7.555491e-06,-1.253376,1.0035478,0.17393309,1.0088878,0
74517638,74515932,0.5532312,7.4756927e-06,1.3214554,1.0039297,0.19326764,1.0036079,0
74616514,74615292,0.5528738,7.4096374e-06,-0.45910043,1.0024492,0.023362027,1.0,0
74715988,74714605,0.55375826,7.3471606e-06,-1.0453184,1.0628254,0.1142333,1.0627201,0
74805558,74804008,0.55427545,7.3035276e-06,-1.0507838,1.0678226,0.114890754,1.0658046,0
74904616,74903510,0.5542643,7.2468233e-06,0.2430827,1.0322114,0.006360583,1.0202851,0
75018707,75017582,0.5545736,7.175271e-06,-0.35224262,1.002326,0.013754103,1.0,0
75098600,75097051,0.55439186,7.128907e-06,0.9637877,1.0037903,0.10281993,1.0008674,0
75217386,75216256,0.5539985,7.0605074e-06,-0.10878192,1.0023028,0.0013118131,1.0,0
75316939,75315592,0.5533693,7.0049155e-06,1.579082,1.0045797,0.2757925,1.0127443,0
75415951,75414925,0.5526198,6.951717e-06,0.7775111,1.0251461,0.065521665,1.0156813,0
75505599,75504343,0.5521057,6.9114976e-06,1.2774122,1.0028381,0.18079597,1.0,0
75604982,75603669,0.55138206,6.8583468e-06,0.6790999,1.0022645,0.05112608,1.0,0
75704371,75703089,0.5508693,6.8061668e-06,1.2018311,1.0022495,0.16012846,1.0,0
75803698,75802354,0.55038524,6.754709e-06,0.21135053,1.0022521,0.0049520745,1.0,0
75903322,75901678,0.5506544,6.703989e-06,-1.3563563,1.0056288,0.20326722,1.0229393,0
76017279,76015915,0.55099946,6.648185e-06,1.0797114,1.0737771,0.12063095,1.0694278,0
76116594,76115252,0.55081517,6.603695e-06,-0.20471616,1.036434,0.004492831,1.0264312,0
76215975,76214589,0.55157673,6.559501e-06,-1.5991036,1.0807599,0.26289448,1.0973221,0
76305606,76303991,0.5520567,6.530632e-06,-0.953633,1.1147987,0.090640776,1.1111605,0
76404504,76403327,0.55182517,6.4913847e-06,0.85854113,1.0777829,0.0759886,1.0712419,0
76503989,76502710,0.55134064,6.4511078e-06,0.58438313,1.0612628,0.03575443,1.0506126,0
76603111,76602001,0.5511199,6.4093338e-06,0.26971507,1.0182817,0.007937796,1.0062747,0
76702676,76701371,0.55150145,6.366253e-06,-1.1219571,1.0025764,0.13950586,1.004958,0
76816943,76815575,0.5522655,6.317532e-06,1.0222901,1.07674,0.10784374,1.0751793,0
76916126,76914922,0.5527528,6.2778186e-06,-1.4279256,1.0626562,0.21319443,1.0665941,0
77005509,77004315,0.55337566,6.2523486e-06,-1.4003488,1.0885752,0.20015731,1.0901525,0
77104950,77103651,0.55404156,6.217137e-06,-0.68187326,1.1004318,0.046946336,1.0887693,0
77204271,77202988,0.5539191,6.183583e-06,0.7054343,1.0594901,0.05218837,1.0566621,0
77303645,77302341,0.55331033,6.1515343e-06,1.1624736,1.0939293,0.13725698,1.0979601,0
77403009,77401683,0.5531522,6.120372e-06,-0.3166021,1.074137,0.010368727,1.0620633,0
77502558,77500997,0.55371845,6.0882435e-06,-0.7546084,1.0665568,0.05932213,1.0572011,0
77601899,77600480,0.5542064,6.0551533e-06,-0.5416793,1.0449208,0.031200292,1.0333047,0
77700950,77699674,0.55386215,6.0176258e-06,1.3240606,1.0204304,0.1908929,1.0305241,0
77800361,77799014,0.5533569,5.9865365e-06,0.57314247,1.0508944,0.034731504,1.0427346,0
77899548,77898399,0.55386513,5.955452e-06,-1.5912457,1.0298514,0.2731853,1.0378981,0
78018909,78017548,0.5542625,5.9198055e-06,0.5103875,1.0302904,0.028092986,1.0233676,0
78118371,78117037,0.55371076,5.8905653e-06,0.613386,1.0560641,0.039585385,1.0485992,0
78202436,78201322,0.55347353,5.8682417e-06,1.330387,1.0252866,0.19180866,1.0316899,0
78301860,78300658,0.5530383,5.8396654e-06,-0.11107324,1.0450958,0.001311657,1.0331839,0
78401704,78400115,0.5533449,5.8102955e-06,-0.63808393,1.0132133,0.044649053,1.005159,0
78505464,78504298,0.55287266,5.7823295e-06,1.1817187,1.0018511,0.15487544,1.0032476,0
78605030,78603638,0.55210316,5.7562943e-06,1.2051524,1.0556545,0.15286908,1.0531453,0
78704117,78703007,0.5518825,5.730271e-06,-0.020645365,1.0212106,4.6375364e-05,1.0100622,0
78803628,78802308,0.55231786,5.702258e-06,-1.2833769,1.0141594,0.18045118,1.0219839,0
78902760,78901646,0.55295295,5.6764466e-06,-0.7798344,1.0695426,0.06317775,1.0631409,0
79017007,79015882,0.5535886,5.6449408e-06,-1.1620966,1.0707449,0.14013802,1.0691452,0
79116553,79115218,0.5535631,5.620184e-06,-1.0013797,1.0455927,0.1065596,1.0414461,0
79215849,79214701,0.554153,5.5948517e-06,-1.262965,1.0462385,0.16939843,1.0451331,0
79305243,79303988,0.5545359,5.5775295e-06,-0.53591394,1.0384351,0.030730402,1.0270942,0
79404518,79403300,0.55424637,5.5521987e-06,1.2704972,1.0103426,0.17751549,1.0195041,0
79518757,79517532,0.5539494,5.521827e-06,-0.27528906,1.0189685,0.008263702,1.0122569,0
79618277,79616869,0.55344653,5.4972606e-06,1.3102963,1.0178262,0.187423,1.0230558,0
79717780,79716210,0.553368,5.47341e-06,-1.0250726,1.0066993,0.11597568,1.0054667,0
79817184,79815544,0.5540873,5.4507145e-06,-1.1978804,1.056821,0.15086308,1.0557834,0
79916094,79914879,0.55389464,5.42942e-06,1.3565977,1.0364186,0.19729878,1.044761,0
79995998,79994442,0.5534367,5.4136713e-06,0.7948232,1.0820918,0.06486859,1.0779295,0
80104951,80103618,0.55403215,5.396559e-06,-1.8923004,1.0929416,0.36403295,1.111736,0
80204102,80202955,0.5544558,5.379531e-06,0.32441437,1.1248868,0.010395584,1.1146783,0
80303693,80302292,0.55401623,5.3629224e-06,0.55796534,1.1362529,0.030443663,1.1273686,0
80402935,80401631,0.5544085,5.346017e-06,-1.4441824,1.1115665,0.20848083,1.115305,0
80502527,80500987,0.5544538,5.329268e-06,1.0330832,1.0876462,0.10902859,1.0889106,0
80601569,80600303,0.5544179,5.3118724e-06,-1.2507503,1.0648869,0.16322821,1.0651298,0
80700954,80699639,0.55473834,5.294296e-06,0.52160996,1.0609071,0.028495211,1.0536318,0
80800603,80799060,0.55433744,5.276946e-06,0.14077446,1.0714378,0.0020551248,1.0596691,0
80904431,80903279,0.55392843,5.261293e-06,0.871195,1.0897437,0.07738626,1.0844337,0
81004199,81002616,0.55430603,5.244781e-06,-1.4749304,1.0877151,0.22222115,1.0949097,0
81118153,81116853,0.55455136,5.2249097e-06,-1.1916709,1.0775416,0.14643204,1.076668,0
81217357,81216190,0.55492014,5.209667e-06,0.16727987,1.0840347,0.0028681487,1.072859,0
81316749,81315528,0.554689,5.1938405e-06,-0.07098915,1.061635,0.00052743166,1.0495615,0
81416201,81414863,0.5551809,5.1772404e-06,-0.97676903,1.0572315,0.100270025,1.051111,0
81505675,81504268,0.55496,5.166485e-06,1.010179,1.0437241,0.10863468,1.0445092,0
81605057,81603611,0.5553939,5.1497323e-06,-1.2457637,1.0365252,0.16635999,1.0352764,0
81704290,81702998,0.55521506,5.1328257e-06,1.204715,1.0107378,0.15954664,1.0171825,0
81803648,81802277,0.55553544,5.1158595e-06,-0.3643964,1.0188024,0.01448157,1.0074235,0
81902949,81901746,0.55530185,5.0990693e-06,0.8873302,1.0136911,0.0863023,1.012338,0
82016997,82015851,0.55522096,5.0780523e-06,0.95206463,1.0016292,0.1005503,1.0009712,0
82116786,82115187,0.5551166,5.0616977e-06,-0.69226253,1.0016288,0.053160906,1.0,0
82200733,82199624,0.555381,5.0502267e-06,0.9123404,1.0128438,0.0913122,1.0116893,0
82320255,82318828,0.55543494,5.0315325e-06,-0.85267025,1.0016115,0.080652975,1.0,0
82399625,82398308,0.55588466,5.01919e-06,-1.6224529,1.0071493,0.29040748,1.0155021,0
82518899,82517501,0.5559111,5.0013527e-06,1.3067344,1.0015932,0.18942651,1.0118705,0
82617961,82616838,0.55535823,4.987717e-06,1.0214638,1.0586417,0.10951017,1.0577917,0
82717674,82716354,0.5552839,4.974511e-06,-0.9670631,1.033664,0.10052817,1.0306315,0
82816834,82815512,0.5559062,4.961444e-06,-1.1824156,1.0823362,0.14352766,1.080394,0
82916514,82914848,0.55615246,4.9502223e-06,0.58350205,1.0727221,0.035265904,1.0666487,0
83005613,83004251,0.5557339,4.9442565e-06,1.376496,1.1039808,0.19069788,1.1120671,0
83104806,83103589,0.5559184,4.934179e-06,-0.6113266,1.0892482,0.03812213,1.0795038,0
83204210,83202966,0.5561828,4.9237074e-06,-1.5683935,1.0441906,0.26175064,1.0519127,0
83303635,83302262,0.55628127,4.912995e-06,1.4680724,1.0373933,0.23083891,1.0518665,0
83402884,83401598,0.5564252,4.901702e-06,-0.035694942,1.0325556,0.0001371063,1.0211061,0
83502383,83501106,0.5562993,4.890279e-06,-0.35446793,1.0256168,0.013612136,1.0144286,0
83601401,83600272,0.5567554,4.8790134e-06,-1.0158705,1.0099009,0.1135417,1.0046211,0
83700939,83699608,0.55665314,4.867895e-06,0.34595698,1.0014845,0.013278757,1.0,0
83800271,83798992,0.5568144,4.8561938e-06,0.28720164,1.0015143,0.009151118,1.0,0
83919363,83918150,0.5571239,4.842094e-06,0.43060577,1.0014988,0.020571537,1.0,0
83999394,83997619,0.55677664,4.8331835e-06,1.006531,1.0166394,0.11072479,1.0182261,0
84103211,84101922,0.55686367,4.8231122e-06,-0.3539532,1.0015119,0.013899306,1.0,0
84202636,84201260,0.5569816,4.8116985e-06,0.81366247,1.0027344,0.07336014,1.0006905,0
84301773,84300635,0.5567764,4.800363e-06,-0.3850821,1.0015117,0.0164516,1.0,0
84415967,84414834,0.5565522,4.785574e-06,-0.05123126,1.0031435,0.00029071304,1.0,0
84505359,84504236,0.5568064,4.7787044e-06,0.051278815,1.001536,0.00029172044,1.0,0
84604759,84603576,0.55638164,4.767429e-06,1.1232818,1.0120361,0.13852845,1.0129092,0
84704532,84702911,0.5558947,4.757226e-06,1.3158461,1.0218577,0.1882683,1.0245464,0
84803666,84802248,0.55537903,4.748095e-06,0.28484142,1.0567714,0.008530661,1.0449557,0
84898014,84896617,0.55546504,4.737587e-06,0.8537808,1.0495558,0.07716934,1.0451266,0
85017210,85015821,0.5560153,4.726698e-06,-1.7631918,1.0910454,0.3166021,1.1103097,0
85117058,85115233,0.55620456,4.719919e-06,0.009410268,1.0975616,8.964634e-06,1.0853002,0
85195981,85194628,0.5563527,4.7143294e-06,-0.13928427,1.064428,0.0020250946,1.052615,0
85305228,85303935,0.5561853,4.7087783e-06,1.4732412,1.016169,0.23732272,1.0262668,0
85404811,85403454,0.55562174,4.70154e-06,0.6164967,1.0851729,0.03891527,1.0753788,0
85518889,85517472,0.55563,4.6911705e-06,-1.4842988,1.056811,0.2316343,1.0699344,0
85598557,85596941,0.5557374,4.684888e-06,0.5709778,1.0612197,0.03413427,1.0517031,0
85717465,85716145,0.5552872,4.675124e-06,0.06858374,1.0511208,0.0004972184,1.0394393,0
85816691,85815482,0.55564463,4.666759e-06,-0.3045907,1.059464,0.009729816,1.0489899,0
85916327,85914919,0.55534166,4.658094e-06,0.99777424,1.0298357,0.10741232,1.0254793,0
86005569,86004222,0.55552405,4.652958e-06,-1.3208952,1.0184187,0.19035657,1.0262102,0
86104748,86103559,0.5558024,4.644184e-06,-0.17424923,1.027987,0.0032817964,1.0167627,0
86204415,86203023,0.5560117,4.6344203e-06,-1.3786793,1.0093626,0.20923619,1.0155714,0
86303510,86302233,0.55598634,4.6244486e-06,-0.049228758,1.0015159,0.00026886692,1.0,0
86403120,86401569,0.5559996,4.614304e-06,-0.5488441,1.0029434,0.033371758,1.0,0
86517138,86515806,0.55614394,4.6014634e-06,1.0852824,1.0136405,0.12910976,1.0151491,0
86616782,86615145,0.5558171,4.59276e-06,0.7729628,1.0046393,0.066079155,1.0,0
86695945,86694615,0.5556292,4.58597e-06,0.20325089,1.0014526,0.0045834444,1.0,0
86805115,86803883,0.5560348,4.5797833e-06,-1.33491,1.0228747,0.19357044,1.0277541,0
86904559,86903221,0.5560238,4.5712873e-06,0.17959785,1.0014681,0.0035786785,1.0,0
87003783,87002654,0.5558858,4.5625884e-06,-0.21429,1.0014735,0.0050947373,1.0,0
87103596,87101894,0.55624866,4.5540496e-06,-1.1785895,1.0019993,0.15403351,1.0024599,0
87202397,87201278,0.5564355,4.5460856e-06,0.30888408,1.001438,0.010585819,1.0,0
87316644,87315468,0.55623835,4.535344e-06,0.748349,1.0108988,0.061554268,1.0077051,0
87416102,87414800,0.55646074,4.527506e-06,-1.1590067,1.0014402,0.14904054,1.0009891,0
87505560,87504208,0.5564882,4.523769e-06,0.06396116,1.001445,0.00045390305,1.0,0
87604664,87603545,0.55664176,4.5158345e-06,1.4336904,1.0014459,0.22805563,1.0144664,0
87704471,87702882,0.55650914,4.5087077e-06,-0.55506206,1.0380677,0.032977283,1.0284996,0
87803423,87802274,0.5569207,4.5020593e-06,-1.6876382,1.0341178,0.30601743,1.0446727,0
87902941,87901555,0.5573772,4.4969115e-06,-0.36536273,1.0649238,0.013927957,1.0531303,0
88002196,88000892,0.55716145,4.491212e-06,0.18633053,1.0469519,0.0036846714,1.0367364,0
88101520,88100232,0.5573666,4.4846647e-06,-1.1579111,1.0028797,0.14854534,1.0000172,0
88201146,88199566,0.5577992,4.4779636e-06,-0.42125788,1.0030683,0.019657264,1.0,0
88300110,88298904,0.55753976,4.4715434e-06,1.5581782,1.0109712,0.26684123,1.0306689,0
88404874,88403207,0.5575893,4.4668363e-06,0.76525384,1.0243819,0.06351944,1.0221627,0
88503829,88502545,0.5578677,4.4603307e-06,-0.42186776,1.0026484,0.01972248,1.0,0
88603304,88601952,0.5577188,4.4537105e-06,-1.2976294,1.011024,0.18505351,1.0115888,0
88717500,88716120,0.55756146,4.445671e-06,-0.6323259,1.0462455,0.042462528,1.0369109,0
88816762,88815455,0.55787855,4.4400913e-06,-1.2078383,1.0116637,0.1602282,1.0101708,0
88916117,88914791,0.558435,4.4347944e-06,-1.0710367,1.0358809,0.123042844,1.0298506,0
89005809,89004199,0.55834955,4.4330673e-06,0.7876412,1.022971,0.0673831,1.0228801,0
89104714,89103532,0.55874616,4.427468e-06,-0.15655848,1.0288942,0.002646915,1.0177213,0
89204521,89202869,0.55845606,4.422026e-06,0.3880797,1.0362893,0.016147984,1.0285336,0
89303398,89302205,0.5587994,4.416437e-06,-1.2725879,1.0043905,0.17915563,1.0024871,0
89402958,89401598,0.5592795,4.411185e-06,-0.48003283,1.0102732,0.025343146,1.0,0
89516921,89515779,0.5592114,4.403377e-06,0.64431244,1.001383,0.0460628,1.0,0
89616501,89615116,0.5591895,4.398453e-06,-1.4656792,1.0194836,0.23412895,1.0216465,0
89696036,89694745,0.5593656,4.394541e-06,-0.00055320933,1.0036514,3.3880795e-08,1.0,0
89805418,89803856,0.5589363,4.3925734e-06,1.0385101,1.053292,0.11377063,1.0559006,0
89904356,89903198,0.5591743,4.3889722e-06,-1.2695093,1.047435,0.17096302,1.0467035,0
90003739,90002531,0.5590309,4.385095e-06,0.96895915,1.0337546,0.1009139,1.0347104,0
90103209,90101867,0.5591621,4.3807545e-06,0.5818972,1.0097255,0.03726033,1.0040745,0
90202353,90201205,0.55931395,4.3756027e-06,-1.6715465,1.001379,0.31002444,1.0115025,0
90316804,90315441,0.5593526,4.3688165e-06,1.1779238,1.0232987,0.15065706,1.0301273,0
90416534,90414780,0.5589255,4.36618e-06,0.046349272,1.1015835,0.00021668353,1.0895354,0
90506199,90504321,0.55916893,4.36682e-06,-0.7675996,1.0818491,0.060514614,1.0738317,0
90604699,90603518,0.55886275,4.364231e-06,1.4029664,1.0782098,0.20283774,1.0866443,0
90704203,90702855,0.55895925,4.3620335e-06,-1.491896,1.0905879,0.22676392,1.0985987,0
90803409,90802196,0.55870575,4.359937e-06,1.5188946,1.0879747,0.23561013,1.0981088,0
90902828,90901529,0.55879366,4.357712e-06,-0.25269955,1.0793486,0.0065736216,1.067972,0
91001995,91000913,0.558926,4.3544983e-06,-1.2648735,1.0473882,0.1697243,1.0503263,0
91101560,91100203,0.55877197,4.351149e-06,-1.6190224,1.051485,0.27698746,1.0653677,0
91200704,91199546,0.5590059,4.3485034e-06,0.44486624,1.070896,0.020533789,1.0615796,0
91300400,91298981,0.55864197,4.3462037e-06,0.40504226,1.0860548,0.016784424,1.075352,0
91404711,91403182,0.5582473,4.3452346e-06,1.2003758,1.0926481,0.14652495,1.0915499,0
91504150,91502517,0.5584741,4.343402e-06,0.94885105,1.1278157,0.088698335,1.122972,0
91603030,91601854,0.5580947,4.3422333e-06,0.40631336,1.1354625,0.016154997,1.1236331,0
91702607,91701196,0.5583217,4.3408995e-06,-0.13814016,1.1145585,0.001902368,1.1027884,0
91802356,91800528,0.5581941,4.338891e-06,-0.6055275,1.071383,0.03802599,1.064621,0
91916363,91914765,0.55858636,4.334715e-06,0.0022135042,1.0808305,5.0368686e-07,1.0688783,0
92005627,92004170,0.55847657,4.3351465e-06,-0.09912509,1.0634245,0.0010266396,1.0518464,0
92104753,92103553,0.55849314,4.3322984e-06,0.8308209,1.0466753,0.07327576,1.0412185,0
92204208,92202854,0.55860806,4.32892e-06,0.44100922,1.020641,0.021172874,1.0111322,0
92303313,92302179,0.55863005,4.324646e-06,0.9958652,1.0013492,0.110045694,1.0,0
92417784,92416417,0.55888325,4.3180485e-06,-0.32920194,1.0066823,0.011961616,1.0,0
92517148,92515754,0.558916,4.313568e-06,1.5335467,1.001352,0.26095447,1.0150896,0
92616168,92615096,0.55889624,4.309538e-06,-0.9656829,1.0013562,0.10347561,1.0,0
92716090,92714427,0.55937546,4.3057876e-06,-0.9356555,1.024468,0.09494914,1.0189012,0
92805198,92803831,0.55932605,4.3053733e-06,1.2176887,1.0013256,0.16453363,1.0083703,0
92904551,92903276,0.5589339,4.3018345e-06,1.1782012,1.019494,0.15129052,1.0225387,0
93003849,93002504,0.55882233,4.297917e-06,-0.890917,1.0013657,0.08807229,1.0,0
93103112,93101841,0.55927485,4.293631e-06,-0.7672829,1.0224395,0.06397804,1.0152423,0
93202658,93201334,0.559201,4.289635e-06,0.77699834,1.0106114,0.066376366,1.006588,0
93301687,93300516,0.5593121,4.285589e-06,-0.43239126,1.0013405,0.020745767,1.0,0
93401173,93399889,0.5592812,4.2816937e-06,-0.12403613,1.001344,0.0017071461,1.0,0
93520399,93519059,0.5592902,4.2763036e-06,1.5307944,1.0118622,0.2573178,1.0257958,0
93599691,93598526,0.5591328,4.272547e-06,0.70389384,1.0153748,0.05421824,1.0093682,0
93719402,93717829,0.55950946,4.2679076e-06,-0.8460828,1.001339,0.07943321,1.0,0
93803437,93802175,0.55975276,4.266126e-06,-1.0670991,1.0013442,0.12635243,1.0,0
93903090,93901504,0.55972743,4.262182e-06,-0.63463795,1.0013561,0.044691097,1.0,0
94002165,94000966,0.5598158,4.2584898e-06,1.1069876,1.0180167,0.13374825,1.0224346,0
94101772,94100197,0.559979,4.2550355e-06,-0.81381404,1.0366169,0.07098875,1.0289268,0
94200666,94199515,0.55975515,4.250894e-06,1.6946571,1.0371145,0.3076766,1.0575367,0
94305234,94303821,0.55935544,4.250178e-06,-1.0146735,1.127712,0.101440616,1.1250743,0
94404285,94403155,0.55930954,4.2495894e-06,0.99439716,1.0891452,0.10087684,1.0866507,0
94503909,94502495,0.559688,4.248328e-06,-0.93348217,1.1153941,0.086804286,1.1100109,0
94618127,94616730,0.56001633,4.245723e-06,-1.3165203,1.0825982,0.17788747,1.0835915,0
94717258,94716067,0.5600017,4.243845e-06,0.6294197,1.0682399,0.04120684,1.0622737,0
94816911,94815569,0.56041014,4.2384604e-06,-1.249584,1.0625113,0.16328819,1.0607101,0
94915922,94914741,0.56026924,4.233898e-06,1.4422626,1.0369294,0.22289331,1.0510597,0
95005312,95004145,0.5598582,4.2359266e-06,0.6093109,1.1382833,0.036239743,1.1298332,0
95105123,95103481,0.5599923,4.236003e-06,0.087062396,1.1110995,0.000757994,1.0992101,0
95204094,95202818,0.5601623,4.235158e-06,-1.2020677,1.0802331,0.14862706,1.0800582,0
95303501,95302159,0.5598756,4.2339607e-06,0.76665264,1.0876689,0.0600424,1.0817397,0
95417491,95416394,0.5599602,4.227661e-06,-0.05309528,1.0468988,0.00029920207,1.035129,0
95517033,95515729,0.5601682,4.2238503e-06,-0.6244338,1.0087184,0.042949725,1.0003136,0
95616560,95615186,0.5604001,4.218354e-06,0.25395894,1.0015191,0.0071552577,1.0,0
95705826,95704470,0.55999196,4.2173647e-06,1.2401466,1.0416584,0.16405076,1.0454195,0
95805211,95803807,0.55996686,4.2159363e-06,-0.55200726,1.0332216,0.03276828,1.02477,0
95909255,95908111,0.55986726,4.215281e-06,-0.010404825,1.0305419,1.1672433e-05,1.0166304,0
96018687,96017388,0.5604138,4.2044067e-06,-2.0421095,1.0604672,0.4369365,1.0849208,0
96097996,96096851,0.5605093,4.198252e-06,0.9450891,1.0831873,0.09162193,1.0821574,0
96217186,96216055,0.5599813,4.1948856e-06,0.99519,1.1326247,0.097159095,1.1293453,0
96316777,96315392,0.56004465,4.1951225e-06,-1.0661347,1.1038724,0.11440968,1.1030414,0
96415900,96414812,0.5601339,4.1951153e-06,0.7876378,1.101794,0.062561944,1.095985,0
96505355,96504133,0.56028056,4.1967687e-06,-1.6290079,1.080237,0.2729511,1.0925163,0
96605096,96603470,0.5603486,4.1960666e-06,0.5998465,1.0820172,0.036949076,1.074436,0
96704256,96702987,0.5605857,4.1939275e-06,-1.193866,1.0755478,0.14724445,1.0747983,0
96803522,96802148,0.5604472,4.1921944e-06,0.76005405,1.0714873,0.059904493,1.066486,0
96902617,96901480,0.5608007,4.1899048e-06,-0.80671823,1.0759577,0.0672057,1.0680975,0
97002097,97000817,0.5605961,4.187452e-06,0.37952393,1.0534986,0.015191542,1.0440044,0
97101540,97100163,0.5610366,4.184979e-06,-0.82249194,1.0618382,0.07078846,1.0538753,0
97200655,97199533,0.5607908,4.1829558e-06,0.4684763,1.0618837,0.022964435,1.0534738,0
97300131,97298830,0.5610105,4.183903e-06,-0.27894688,1.0357445,0.008347335,1.0246089,0
97419219,97418033,0.5610339,4.188854e-06,-1.04543,1.04036,0.11672496,1.0368663,0
97498878,97497619,0.5612387,4.191779e-06,-1.4441862,1.018221,0.22759454,1.0222666,0
97602907,97601806,0.56141824,4.196684e-06,-0.605373,1.0213063,0.039870128,1.0115325,0
97702705,97701143,0.56176275,4.19752e-06,-1.3058444,1.0077152,0.18801935,1.0062262,0
97816957,97815381,0.5622042,4.1909684e-06,-1.3925161,1.0119809,0.2129049,1.0106689,0
97916069,97914718,0.5618838,4.1873095e-06,1.2024462,1.0309612,0.15582837,1.0405343,0
98005250,98004179,0.5616862,4.188236e-06,0.26902145,1.0467782,0.0076820417,1.0371488,0
98104751,98103458,0.5619331,4.1856147e-06,-1.2623049,1.0044695,0.17625818,1.0038197,0
98203980,98202797,0.562132,4.1828553e-06,0.8226534,1.0013252,0.075095885,1.0015247,0
98303638,98302239,0.56204563,4.1802055e-06,-0.72273946,1.0021873,0.057912476,1.0,0
98417785,98416370,0.56146103,4.176738e-06,1.3700155,1.0490507,0.198798,1.0571876,0
98516848,98515707,0.56094956,4.176525e-06,1.4928471,1.1033545,0.22442596,1.1103452,0
98616355,98615044,0.5606318,4.1772964e-06,0.12815775,1.1156784,0.001635717,1.1034479,0
98705828,98704447,0.5606043,4.179537e-06,0.11601571,1.0728883,0.001393916,1.0559425,0
98804897,98803785,0.56084025,4.17817e-06,-1.0098715,1.0405356,0.10890122,1.0409474,0
98904761,98903121,0.5611175,4.1767335e-06,-0.46115822,1.0397841,0.02272554,1.0304567,0
99003794,99002458,0.56086385,4.1744797e-06,0.5127993,1.0117865,0.028877761,1.0024121,0
99103355,99101920,0.5608258,4.1719004e-06,-0.30798793,1.0013158,0.010525769,1.0,0
99217157,99216033,0.5605172,4.167566e-06,0.9517509,1.0027624,0.100370474,1.0,0
99316577,99315370,0.5608684,4.165035e-06,-1.4822954,1.0473248,0.23310179,1.0584235,0
99415998,99414707,0.5607616,4.1636827e-06,1.5815266,1.0503904,0.26458168,1.0611913,0
99505426,99504114,0.56040394,4.1655517e-06,0.9834595,1.08271,0.09925634,1.0772837,0
99604865,99603491,0.56004834,4.165001e-06,1.0058336,1.0636562,0.10568382,1.0575222,0
99719057,99717685,0.5599988,4.1622948e-06,-0.1775344,1.0231069,0.0034229576,1.0134656,0
99798361,99797155,0.5599557,4.16049e-06,0.41542697,1.0013123,0.019150378,1.0,0
99917841,99916469,0.55970097,4.157378e-06,0.9113548,1.0013247,0.0921632,1.0,0
100016871,100015698,0.55990815,4.1545277e-06,-1.5018799,1.0334607,0.2425124,1.0500613,0
100116595,100115033,0.56003505,4.15332e-06,0.93502617,1.0639683,0.091301166,1.0583814,0
100205794,100204439,0.5596959,4.154901e-06,0.7033848,1.0706519,0.051344648,1.0569923,0
100305049,100303773,0.5601036,4.153738e-06,-1.2848699,1.0979861,0.16706249,1.104462,0
100404463,100403110,0.5601449,4.1536873e-06,0.8219987,1.0806186,0.0694748,1.0742114,0
100503582,100502448,0.55998236,4.1526396e-06,-0.32901168,1.0560046,0.011389753,1.0462126,0
100603179,100601785,0.5602922,4.151154e-06,-1.1483862,1.0590478,0.13836233,1.0606003,0
100702489,100701127,0.5602111,4.1498747e-06,0.7696355,1.0407312,0.0632396,1.0344701,0
100816953,100815360,0.5602314,4.146692e-06,-0.88215697,1.0390441,0.083217606,1.0355848,0
100916029,100914731,0.560531,4.1450767e-06,-0.9613239,1.0275602,0.09992857,1.0241991,0
101005632,101004277,0.5607629,4.1464446e-06,-0.42099947,1.0176488,0.019351857,1.0072033,0
101105042,101103437,0.56063473,4.1444027e-06,-0.3581403,1.0013041,0.014233045,1.0,0
101204120,101202774,0.5607762,4.1420785e-06,1.0241418,1.0013102,0.11638822,1.002677,0
101303442,101302111,0.5604138,4.140362e-06,0.61548054,1.017962,0.04134801,1.0104109,0
101402658,101401448,0.5607611,4.138568e-06,-1.2159971,1.0093573,0.16277121,1.0105582,0
101502160,101500847,0.56072104,4.1365583e-06,-0.1283027,1.0013064,0.0018266782,1.0,0
101601391,101600122,0.5607399,4.1341154e-06,0.20759258,1.001325,0.004781962,1.0,0
101700813,101699459,0.56105477,4.131766e-06,0.22188279,1.0143206,0.005392988,1.0043474,0
101799935,101798901,0.5606492,4.13022e-06,0.11085373,1.0492649,0.0013012866,1.0378063,0
101919232,101918004,0.5610469,4.128624e-06,-1.7657328,1.0307723,0.33608156,1.0456915,0
102018675,102017338,0.5610313,4.127621e-06,1.2765353,1.0206287,0.17740071,1.028188,0
102102966,102101774,0.56097007,4.127635e-06,0.7095348,1.0163419,0.055038307,1.0103036,0
102202528,102201113,0.5612823,4.125449e-06,-1.6514888,1.0175779,0.2978112,1.0282018,0
102301672,102300449,0.56106097,4.123623e-06,-0.18828905,1.027566,0.0038335214,1.016267,0
102415839,102414686,0.5607229,4.1204084e-06,1.3251519,1.0357234,0.18838443,1.041178,0
102505217,102504090,0.5604536,4.1225194e-06,0.8297921,1.0472469,0.0730545,1.0410961,0
102604686,102603521,0.56073195,4.1212224e-06,-1.472269,1.0358243,0.2325122,1.045761,0
102704146,102702804,0.56075394,4.120121e-06,0.7616548,1.0333718,0.062375955,1.0276223,0
102803451,102802102,0.5608629,4.118673e-06,-1.325142,1.0264716,0.19007954,1.031502,0
102917901,102916337,0.5607975,4.1154094e-06,-0.06785653,1.0013019,0.00051094685,1.0,0
103016875,103015679,0.56052816,4.113321e-06,1.2545159,1.0090073,0.17330675,1.0118029,0
103116285,103115014,0.55993146,4.112982e-06,1.6936952,1.0761331,0.2961843,1.0857761,0
103206154,103204416,0.5598866,4.1156595e-06,-0.89149237,1.0609744,0.08323152,1.061582,0
103304932,103303753,0.5602783,4.11593e-06,-1.5739933,1.0769947,0.25559342,1.0917398,0
103404773,103403206,0.5604715,4.116995e-06,0.7233148,1.0923582,0.053216603,1.085325,0
103518963,103517328,0.5604575,4.115949e-06,-0.8516066,1.0557882,0.07632358,1.0515723,0
103617872,103616665,0.560732,4.115846e-06,0.6545045,1.0755095,0.04425562,1.0686202,0
103717361,103716002,0.5603614,4.1162075e-06,0.9296259,1.0818789,0.0887555,1.0775694,0
103816470,103815339,0.56038314,4.1164076e-06,-0.65447074,1.0418091,0.045682494,1.0350628,0
103916080,103914688,0.56078297,4.1166254e-06,0.02485783,1.0770512,6.374522e-05,1.0653169,0
104005434,104004085,0.5605703,4.1193543e-06,0.76163745,1.0623809,0.060669973,1.0563023,0
104104752,104103418,0.56081283,4.1187564e-06,-2.2555997,1.0374405,0.54490197,1.0731751,0
104204439,104202793,0.5611462,4.119148e-06,-0.838636,1.0697798,0.0730483,1.0626801,0
104303370,104302091,0.5610852,4.119235e-06,0.6401846,1.0398396,0.04379268,1.0340053,0
104402827,104401428,0.56118125,4.1183425e-06,-1.5522643,1.0012741,0.26738426,1.0099528,0
104502578,104500927,0.5617089,4.1178628e-06,-1.7003132,1.0339305,0.31068766,1.0428996,0
104601260,104600108,0.5615104,4.117462e-06,1.337722,1.0406604,0.19106457,1.0518253,0
104720641,104719307,0.5609172,4.1184444e-06,1.2474403,1.1377894,0.15196206,1.1405038,0
104805025,104803747,0.56073844,4.121067e-06,0.77848125,1.1350361,0.059325866,1.1277406,0
104904472,104903081,0.5608984,4.1217677e-06,-1.5703433,1.1207865,0.24446897,1.13275,0
105003589,105002451,0.56129205,4.122898e-06,-1.4639182,1.1416558,0.20857197,1.1471033,0
105103049,105101755,0.5614384,4.124149e-06,0.46794975,1.1200756,0.02172244,1.1114513,0
105202273,105201147,0.5612235,4.124821e-06,0.65853924,1.0968041,0.04393309,1.0899187,0
105301897,105300561,0.560829,4.124988e-06,1.0581155,1.1155163,0.1115187,1.1132708,0
105416065,105414667,0.5612783,4.124887e-06,-0.82661617,1.1262176,0.06741289,1.1194221,0
105505718,105504081,0.5614519,4.1280223e-06,-0.047391854,1.1040524,0.00022603472,1.091979,0
105619725,105618308,0.5614315,4.126819e-06,-0.10296493,1.0711383,0.0010997414,1.0593287,0
105699152,105697778,0.5612281,4.126377e-06,0.45339882,1.0563844,0.02162202,1.0471152,0
105818306,105817009,0.5612166,4.1251187e-06,-0.017436959,1.0032256,3.367444e-05,1.0,0
105917465,105916320,0.560869,4.123492e-06,1.3291425,1.0134794,0.19368039,1.0180607,0
106016968,106015657,0.56090945,4.1217504e-06,-1.4734192,1.0043185,0.24018101,1.0157104,0
106116315,106115187,0.56104976,4.1202575e-06,0.61782384,1.0117757,0.041918192,1.0042083,0
106205706,106204397,0.56110466,4.1210856e-06,-2.079846,1.0013142,0.48000908,1.0467658,0
106304959,106303735,0.5612418,4.1201165e-06,0.604975,1.0462058,0.03887006,1.0389984,0
106404650,106403141,0.56094974,4.1183293e-06,0.6002821,1.0310028,0.038833667,1.0228648,0
106503693,106502410,0.5605654,4.1165417e-06,1.3150736,1.020294,0.18833555,1.0230553,0
106603328,106601795,0.56024694,4.1153116e-06,0.07958895,1.0207545,0.0006895118,1.0095375,0
106702241,106701083,0.5599296,4.113437e-06,1.1629362,1.001342,0.15006757,1.0,0
106801705,106800420,0.55992615,4.1113603e-06,-0.9527958,1.0046079,0.10040621,1.0071288,0
106901036,106899817,0.5604152,4.1097146e-06,-2.0493755,1.0474657,0.44551343,1.0802733,0
107000429,106999095,0.5608593,4.1102785e-06,-0.8694232,1.1276302,0.07448233,1.1217983,0
107099650,107098431,0.56103104,4.111127e-06,0.2527363,1.1100315,0.0063937767,1.099024,0
107203837,107202735,0.5608733,4.1127896e-06,-2.2306287,1.1155868,0.49557424,1.1582606,0
107303275,107302072,0.561228,4.114273e-06,-1.4852463,1.1521975,0.2127294,1.1569574,0
107402777,107401411,0.56156456,4.11624e-06,-1.3114562,1.1506783,0.16607764,1.1493646,0
107502023,107500747,0.56197625,4.1182307e-06,-1.8057419,1.1447399,0.31649148,1.1533191,0
107601878,107600092,0.56210405,4.120392e-06,-0.0070866356,1.1216629,4.9747964e-06,1.1105171,0
107701294,107699447,0.56228375,4.121216e-06,-1.9976696,1.0946902,0.4050546,1.1087991,0
107804992,107803725,0.56234866,4.123074e-06,-0.20285745,1.0725929,0.004262894,1.0610006,0
107904662,107903062,0.5626049,4.1228764e-06,-1.2726964,1.0288562,0.17492522,1.0252314,0
108003745,108002595,0.5628554,4.12231e-06,0.67788,1.0145175,0.05032729,1.0149941,0
108117754,108116637,0.5628758,4.1195603e-06,0.9510406,1.0295829,0.09761,1.0351795,0
108217095,108215977,0.56281614,4.118799e-06,-0.54467094,1.0231553,0.032216944,1.0123475,0
108316967,108315363,0.563049,4.117672e-06,-0.47095126,1.0012515,0.024613095,1.0,0
108416294,108414649,0.5635688,4.1167427e-06,-2.1613865,1.0279216,0.5049663,1.0452464,0
108505626,108504092,0.5638757,4.1192443e-06,-0.7749238,1.039979,0.064158015,1.0291395,0
108604705,108603430,0.5637255,4.1188737e-06,-0.50598174,1.0508522,0.027069833,1.0393142,0
108704104,108702727,0.5637986,4.118061e-06,0.57006884,1.0202092,0.035393447,1.0182266,0
108803514,108802219,0.563751,4.1166077e-06,0.15618852,1.0012888,0.0027070506,1.0,0
108903038,108901401,0.56423247,4.1149365e-06,-1.2313277,1.007439,0.16721915,1.0023383,0
109002032,109000738,0.564538,4.113552e-06,-0.5790929,1.0012705,0.037213676,1.0,0
109116183,109114976,0.564617,4.110793e-06,-0.0341471,1.001268,0.00012939418,1.0,0
109205565,109204381,0.56479466,4.1122685e-06,-1.0557462,1.0012717,0.12368715,1.0,0
109305050,109303717,0.56520456,4.1110206e-06,-1.0706664,1.0012676,0.12720838,1.0,0
109404196,109403055,0.56555915,4.1098942e-06,0.061443597,1.0012586,0.0004189522,1.0,0
109503793,109502413,0.565458,4.1089147e-06,1.4835385,1.0083351,0.2425215,1.0353385,0
109603133,109601909,0.5650674,4.1099006e-06,0.99622226,1.1077611,0.099546,1.113024,0
109702410,109701065,0.5653091,4.1109665e-06,-1.2467885,1.0874698,0.15882756,1.0830429,0
109802065,109800402,0.5657317,4.1117396e-06,-1.0638773,1.0758252,0.1168958,1.067634,0
109900848,109899746,0.56594807,4.1118105e-06,-0.3824099,1.037481,0.01566158,1.0261856,0
110000374,109999077,0.5656132,4.1115914e-06,1.2263278,1.0810987,0.1545629,1.0931388,0
110099544,110098439,0.5654998,4.113147e-06,-1.2878358,1.1181958,0.16480131,1.1160516,0
110204379,110202714,0.56565654,4.1162334e-06,-0.38246995,1.094133,0.01485532,1.0822629,0
110303229,110302055,0.56550735,4.117704e-06,0.96735424,1.0564226,0.09842171,1.0586555,0
110402691,110401474,0.5651441,4.119194e-06,1.0950061,1.1001198,0.1211018,1.1020216,0
110516979,110515632,0.5655572,4.120115e-06,-1.6885918,1.1510913,0.27523082,1.1602423,0
110616070,110614968,0.5658312,4.1227922e-06,-0.62118334,1.1486222,0.037326723,1.13735,0
110705584,110704371,0.56609195,4.1269855e-06,-1.9917637,1.1145955,0.39547208,1.1369667,0
110805094,110803737,0.5662208,4.129106e-06,1.0549555,1.137967,0.1086666,1.1447096,0
110904143,110903045,0.565929,4.13128e-06,0.7325573,1.1727183,0.050844852,1.1689078,0
111003788,111002382,0.5660608,4.1338294e-06,0.121405214,1.1597086,0.0014121579,1.1483626,0
111102875,111101720,0.56592345,4.135931e-06,-0.21535839,1.1311307,0.0045558386,1.1187837,0
111202519,111201145,0.5662898,4.137557e-06,-0.3920302,1.1298373,0.015114044,1.1176212,0
111316582,111315295,0.5665543,4.1380576e-06,-1.0028914,1.0825698,0.10323082,1.0754784,0
111416014,111414632,0.56665653,4.138776e-06,0.52490526,1.047728,0.02921937,1.0429772,0
111505205,111504035,0.5667517,4.141347e-06,-1.3981277,1.0236782,0.21217184,1.0239675,0
111604990,111603373,0.5668946,4.141022e-06,0.6631927,1.0137242,0.048207782,1.0119916,0
111704038,111702711,0.5667992,4.1411363e-06,-1.3777305,1.0445302,0.20191336,1.0451548,0
111803447,111802047,0.5669871,4.140743e-06,-2.2548523,1.0227647,0.5523546,1.0492595,0
111902779,111901384,0.56686294,4.140489e-06,0.55067205,1.0622962,0.031717427,1.0565786,0
112001890,112000787,0.56709045,4.140662e-06,0.27140188,1.0678068,0.007664617,1.0589391,0
112101360,112100060,0.5667776,4.141165e-06,1.4003645,1.0673927,0.20413406,1.0794827,0
112200531,112199396,0.5670116,4.1418107e-06,-1.5071887,1.0690342,0.23610277,1.0737965,0
112300242,112298885,0.56678194,4.142478e-06,1.134784,1.0671753,0.1340751,1.0710407,0
112419252,112417940,0.5669243,4.142934e-06,-0.48321468,1.0495833,0.024718426,1.0391192,0
112518396,112517275,0.56683207,4.1429544e-06,-1.1000031,1.0291644,0.1306353,1.027373,0
112603012,112601712,0.5668186,4.1437593e-06,1.6519578,1.0139505,0.29904643,1.032768,0
112702254,112701050,0.56695086,4.1433404e-06,0.04835599,1.0179332,0.00025523413,1.006988,0
112801688,112800391,0.5667384,4.1423436e-06,1.6112182,1.008202,0.28610054,1.0242811,0
112916178,112914626,0.566338,4.140976e-06,1.2892718,1.0292138,0.17944893,1.032719,0
113005564,113004027,0.56625175,4.1431e-06,-0.71991426,1.015051,0.0567324,1.0101011,0
113105160,113103548,0.5665476,4.142616e-06,0.50551766,1.032368,0.027503988,1.0234892,0
113199071,113197738,0.5667536,4.140442e-06,0.8608426,1.0166233,0.08099252,1.0134852,0
113318150,113316942,0.5670819,4.139378e-06,-0.41209137,1.0489899,0.0179876,1.0382069,0
113417574,113416277,0.56730145,4.1397325e-06,0.5509634,1.063286,0.031721443,1.0567924,0
113516736,113515614,0.5673175,4.1403323e-06,-0.9507482,1.0666158,0.094163045,1.0609336,0
113616366,113614971,0.5675351,4.14062e-06,-0.46004757,1.0322595,0.02278107,1.0214996,0
113716047,113714333,0.56726205,4.140523e-06,1.0702969,1.0338795,0.123110786,1.0344706,0
113805429,113803696,0.56755567,4.142865e-06,-1.3575144,1.0245622,0.1998518,1.0267098,0
113904354,113903199,0.56737,4.142786e-06,1.2587909,1.0147443,0.17350343,1.022218,0
114018643,114017271,0.56708366,4.1409853e-06,1.3511103,1.0260768,0.19767842,1.0334762,0
114118481,114116604,0.567009,4.14076e-06,-1.0926278,1.0136263,0.13086517,1.0139741,0
114217068,114215942,0.5673082,4.140369e-06,0.7609924,1.0322664,0.06233419,1.0279187,0
114316552,114315279,0.56702805,4.1406815e-06,-0.5772139,1.0505188,0.035239294,1.0422024,0
114395939,114394749,0.5673794,4.1405697e-06,-1.9350096,1.0487134,0.3967043,1.070225,0
114505115,114504022,0.56742746,4.143124e-06,0.9472921,1.0506935,0.094896294,1.0500532,0
114604653,114603357,0.56702757,4.1429016e-06,0.99599266,1.0733964,0.10268561,1.0711248,0
114703888,114702769,0.5665527,4.144236e-06,0.5647964,1.1354623,0.03121538,1.1247766,0
114798200,114797065,0.5666002,4.144652e-06,-0.2853873,1.0901483,0.008301207,1.0797937,0
114917643,114916271,0.5664943,4.145071e-06,0.635212,1.0311817,0.043477014,1.0223012,0
115016894,115015607,0.56689507,4.1444523e-06,-1.3694543,1.0422145,0.19993804,1.0493757,0
115116553,115115011,0.5668301,4.1438334e-06,1.0377266,1.0171524,0.11763523,1.0158738,0
115205952,115204357,0.56676966,4.145162e-06,-0.8202737,1.0012861,0.07466496,1.0,0
115305044,115303692,0.5671493,4.143573e-06,-0.6450201,1.0214933,0.045255203,1.0135323,0
115404651,115403024,0.5668552,4.141718e-06,1.193328,1.0029826,0.15775521,1.0053174,0
115503748,115502397,0.56678647,4.139796e-06,-0.6333735,1.0012892,0.04451616,1.0,0
115602828,115601697,0.5672171,4.138349e-06,-1.2151629,1.0158995,0.16150118,1.0173131,0
115702627,115701058,0.5673134,4.1371045e-06,0.31196824,1.0012676,0.010800108,1.0,0
115816657,115815272,0.5671073,4.1341227e-06,-1.0487133,1.0018902,0.12196942,1.0008861,0
115896012,115894741,0.5670474,4.1325934e-06,0.25426865,1.0018363,0.007170449,1.0,0
116005065,116004013,0.5675599,4.1339613e-06,-0.610389,1.0675466,0.038777877,1.0577711,0
116104716,116103350,0.56713873,4.134273e-06,1.1998999,1.0991249,0.14554608,1.1018614,0
116203888,116202687,0.56699514,4.135127e-06,-0.5375206,1.0806358,0.029707653,1.0717669,0
116303403,116302083,0.5673858,4.135698e-06,-0.7706428,1.0915316,0.060454335,1.0840081,0
116417594,116416263,0.5673358,4.135623e-06,0.5295467,1.0853544,0.028707433,1.0770046,0
116516898,116515600,0.56765115,4.1361627e-06,-1.5161902,1.0664749,0.23950478,1.0729749,0
116616306,116614937,0.5680049,4.1370095e-06,-0.6824219,1.0748649,0.04814038,1.0650553,0
116705702,116704340,0.56776947,4.1397825e-06,0.92678845,1.0761802,0.08868164,1.075529,0
116804864,116803678,0.56741583,4.1407716e-06,0.97024584,1.0890955,0.09604066,1.0869207,0
116904344,116903017,0.56773067,4.1413264e-06,-1.6671,1.0897973,0.28335774,1.1014692,0
117003692,117002352,0.568222,4.1425405e-06,-1.616712,1.126877,0.25771892,1.1330225,0
117103064,117101690,0.5686493,4.1442822e-06,-1.7124928,1.1266612,0.28921556,1.1326274,0
117202448,117201023,0.5689653,4.145966e-06,-0.12400805,1.1180049,0.0015283175,1.1065601,0
117301526,117300364,0.56883883,4.1472545e-06,-0.5455587,1.1162133,0.02962738,1.1044261,0
117401421,117399806,0.5693233,4.1482094e-06,-0.91740936,1.1253119,0.0831019,1.1151857,0
117520130,117518907,0.5691774,4.1487992e-06,0.7863282,1.0967476,0.06264097,1.0973455,0
117600020,117598376,0.5689331,4.149539e-06,1.4149139,1.1005191,0.20212495,1.115739,0
117703779,117702680,0.5688775,4.1516714e-06,0.07788372,1.0868602,0.00062012207,1.0733588,0
117803295,117802017,0.5691508,4.151627e-06,-1.0518327,1.0457166,0.11755384,1.0402406,0
117902466,117901366,0.569295,4.1508806e-06,0.617587,1.0134478,0.041816954,1.0101244,0
118002126,118000692,0.56888956,4.1497897e-06,1.1286846,1.0500472,0.13480125,1.0543985,0
118101157,118100038,0.5685293,4.14962e-06,1.5126222,1.0557547,0.24079943,1.0675844,0
118201004,118199549,0.5682102,4.1507055e-06,-0.2785412,1.0998948,0.007837639,1.0888909,0
118305322,118303671,0.568092,4.152838e-06,0.4184904,1.0673738,0.018231064,1.0567459,0
118404612,118403008,0.56819123,4.1524418e-06,-0.39040264,1.0243773,0.016531909,1.0149935,0
118503618,118502358,0.56843686,4.150678e-06,-1.3397834,1.0012871,0.19919024,1.0073428,0
118603072,118601684,0.56853926,4.149306e-06,0.78534234,1.0048783,0.0681965,1.0004187,0
118702423,118701023,0.5681825,4.1472877e-06,0.96012604,1.0029117,0.10212953,1.0,0
118816579,118815258,0.5680624,4.1438907e-06,0.012298882,1.0012856,1.6785367e-05,1.0,0
118896473,118894728,0.5681969,4.1423796e-06,-0.4967683,1.0012774,0.027384875,1.0,0
119005491,119004062,0.5684098,4.1436197e-06,-1.1203877,1.0012467,0.13930063,1.0020088,0
119105051,119103336,0.56858057,4.1429503e-06,-0.27313307,1.0012331,0.008278866,1.0,0
119204038,119202682,0.5691676,4.1425938e-06,-2.287463,1.0643551,0.5462344,1.0947281,0
119303374,119302013,0.5696151,4.1442854e-06,-0.5527625,1.1257763,0.030156614,1.1140468,0
119402536,119401359,0.56959635,4.145043e-06,-0.8543755,1.0887727,0.07449341,1.0798935,0
119502029,119500690,0.5700049,4.145686e-06,-1.2467947,1.0700632,0.16141278,1.0657438,0
119601165,119600022,0.57047945,4.146432e-06,-1.3236883,1.0653354,0.18274377,1.0606765,0
119700770,119699360,0.57108057,4.14744e-06,-1.722879,1.0907321,0.30237713,1.0912116,0
119800108,119798761,0.5711024,4.1489943e-06,0.82214326,1.0726703,0.070014216,1.0793577,0
119899695,119898034,0.57111496,4.149239e-06,-0.51609576,1.0562625,0.028018584,1.0446389,0
120018781,120017240,0.5716535,4.148697e-06,-1.1307054,1.0260563,0.13844752,1.0175812,0
120097965,120096847,0.57174546,4.1476837e-06,0.18468139,1.001257,0.0037849331,1.0,0
120202320,120201015,0.5719542,4.147881e-06,-0.6879198,1.0012481,0.05251597,1.0,0
120301761,120300350,0.5723172,4.1468406e-06,-1.1331469,1.0012832,0.14248626,1.0,0
120396081,120394721,0.5723942,4.1442663e-06,1.2147825,1.0214593,0.16052158,1.0310452,0
120505167,120503992,0.5722331,4.146708e-06,0.058246136,1.0389274,0.0003628328,1.0302708,0
120604492,120603393,0.57252437,4.1459853e-06,-1.3000076,1.0012499,0.18754555,1.0,0
120718868,120717568,0.57253194,4.1433964e-06,0.047674447,1.0135139,0.00024917192,1.0048146,0
120798206,120797085,0.5727719,4.142767e-06,-1.1375813,1.0012454,0.14360908,1.0,0
120917465,120916242,0.57293606,4.141382e-06,0.5184451,1.0012435,0.029827943,1.0,0
121016962,121015589,0.57259315,4.1410312e-06,0.9258692,1.0410687,0.09149079,1.0452458,0
121117438,121114917,0.57271534,4.140746e-06,-1.0694249,1.0179769,0.12483034,1.0119823,0
121206775,121204320,0.5731914,4.142889e-06,-1.8489238,1.0304585,0.36860824,1.0425094,0
121304781,121303657,0.5734809,4.1427506e-06,-0.1826574,1.0150748,0.0036520273,1.0048,0
121404992,121402996,0.57315844,4.14236e-06,1.0152661,1.0373013,0.110410996,1.0443671,0
121503499,121502332,0.5726575,4.1437015e-06,1.5938725,1.1275829,0.2503319,1.1462214,0
121603830,121601672,0.57231843,4.146208e-06,0.7452091,1.1696236,0.05275549,1.1632911,0
121702149,121701101,0.5722922,4.148512e-06,0.11530623,1.1208346,0.0013180185,1.1088386,0
121816338,121815245,0.57204056,4.1485887e-06,1.2962948,1.089196,0.17141902,1.0930419,0
121916653,121914582,0.5716707,4.1498724e-06,0.9328146,1.1013056,0.08778904,1.0955756,0
122006151,122003986,0.57161254,4.152991e-06,-0.3450162,1.0645183,0.012424626,1.0551924,0
122104488,122103323,0.5716963,4.152583e-06,-0.6149216,1.0221355,0.041104425,1.0158961,0
122204851,122202663,0.5721064,4.1517806e-06,-1.5344044,1.0284101,0.2543729,1.0396558,0
122303340,122301997,0.5726157,4.1519493e-06,-1.0909615,1.0886332,0.12147719,1.0852981,0
122402694,122401336,0.57246745,4.1527037e-06,1.1417589,1.0610248,0.13651513,1.0644513,0
122503026,122500787,0.57253903,4.1529156e-06,-1.4824542,1.0539918,0.23167697,1.0608841,0
122601200,122600026,0.5724607,4.153358e-06,1.4841384,1.0462445,0.23392309,1.0586883,0
122701472,122699347,0.57261455,4.1536614e-06,-0.9485944,1.0421206,0.095940195,1.0375113,0
122815993,122813585,0.572409,4.1511857e-06,0.5096083,1.0052376,0.028705282,1.0004891,0
122905459,122902990,0.5722555,4.151492e-06,0.6176468,1.0012681,0.042333823,1.0,0
123003600,123002326,0.572381,4.1510734e-06,-0.21069208,1.0012194,0.004926343,1.0,0
123117856,123116569,0.5721462,4.1493972e-06,0.69823295,1.0012408,0.054102782,1.0,0
123218347,123215910,0.5722954,4.1487474e-06,-1.3642731,1.0031165,0.20616205,1.0100001,0
123316445,123315342,0.5721795,4.1486937e-06,0.27610752,1.0012201,0.008460274,1.0,0
123416731,123414576,0.5724454,4.1482203e-06,0.12426214,1.0054269,0.0017064151,1.0,0
123506060,123503980,0.5724012,4.150169e-06,-0.529439,1.0011971,0.031107832,1.0,0
123604654,123603510,0.57274395,4.1495864e-06,0.36073488,1.0217638,0.014150873,1.0126426,0
123704983,123702713,0.57232,4.150338e-06,0.36001804,1.0647229,0.013526002,1.0542076,0
123803133,123801992,0.57261676,4.150607e-06,-1.1552387,1.0422986,0.14226854,1.0423766,0
123918398,123916229,0.57275784,4.1523663e-06,-1.0000349,1.0167071,0.1092929,1.013678,0
124016778,124015581,0.57279116,4.154044e-06,0.55457896,1.0012023,0.034132052,1.0,0
124116057,124114968,0.5729631,4.1531425e-06,-1.0410918,1.001248,0.12028012,1.0,0
124216490,124214242,0.5732032,4.152034e-06,-0.31710893,1.0012462,0.011159212,1.0,0
124315982,124313581,0.57290244,4.1511453e-06,1.1860696,1.0117968,0.15448436,1.0136988,0
124404515,124403168,0.572679,4.15322e-06,0.43185997,1.014915,0.020418024,1.00568,0
124503530,124502320,0.5729923,4.15223e-06,-1.6271716,1.0039996,0.29301554,1.0157083,0
124603896,124601657,0.57347804,4.15224e-06,-0.59362286,1.058102,0.037004218,1.0478305,0
124702368,124700994,0.573387,4.152142e-06,1.1816003,1.0263647,0.15114613,1.0331305,0
124802601,124800332,0.5732052,4.1518833e-06,-0.07027202,1.0232477,0.0005362182,1.0119727,0
124900964,124899739,0.5736815,4.151018e-06,-1.5894165,1.0284448,0.27293044,1.0353227,0
125021182,125018874,0.57373804,4.1503567e-06,1.0355761,1.0113959,0.11781492,1.0155563,0
125099495,125098344,0.57347524,4.1499434e-06,0.5283345,1.0315325,0.030067168,1.0243872,0
125218879,125217745,0.57380545,4.1489793e-06,-0.3999096,1.0048178,0.017684542,1.0,0
125303113,125301988,0.57411945,4.149459e-06,-1.1794621,1.0060898,0.15363447,1.0031042,0
125403502,125401326,0.5740004,4.1488047e-06,0.91852444,1.0033352,0.093431406,1.0047902,0
125501790,125500664,0.57422566,4.1482476e-06,-1.3703719,1.0053349,0.20755044,1.0064845,0
125602377,125599999,0.57419056,4.147971e-06,1.3596416,1.0096282,0.203444,1.0229046,0
125721370,125719234,0.5742855,4.1482485e-06,-0.9929322,1.0117769,0.10827094,1.0064781,0
125795920,125793706,0.57460785,4.1468334e-06,-1.7362872,1.0015653,0.3344424,1.0058603,0
125905301,125902979,0.5743998,4.149408e-06,1.3001646,1.0180273,0.1844993,1.0287482,0
126003598,126002400,0.57456607,4.1499866e-06,-1.4559144,1.0131027,0.2324747,1.0169083,0
126103370,126101652,0.57463783,4.150302e-06,0.71863836,1.0011883,0.05731424,1.0,0
126202184,126200998,0.57435256,4.150531e-06,0.32014033,1.0108954,0.011265022,1.0017036,0
126316796,126315227,0.5745545,4.1491176e-06,0.4807456,1.0116421,0.025384068,1.0074809,0
126415913,126414565,0.574951,4.148801e-06,-1.7185285,1.019595,0.3218424,1.0294353,0
126505397,126503968,0.57508254,4.1513513e-06,0.5378378,1.0132334,0.031721275,1.0085208,0
126604415,126603306,0.57478195,4.151115e-06,0.69887453,1.0204496,0.05318196,1.0165732,0
126703988,126702643,0.57513595,4.1506596e-06,-1.5120248,1.0135968,0.25061676,1.0181375,0
126803204,126802093,0.5753533,4.1503977e-06,0.22848046,1.0012232,0.0057932823,1.0,0
126902944,126901316,0.57505304,4.1498693e-06,0.8012907,1.0084803,0.07074085,1.0067022,0
127001927,127000657,0.57525504,4.149201e-06,-1.3972101,1.0012329,0.21664359,1.003944,0
127116237,127114918,0.57544214,4.1473254e-06,-1.2127699,1.0056992,0.16249733,1.0041599,0
127205408,127204297,0.5756153,4.1493818e-06,0.08334492,1.0012217,0.0007708778,1.0,0
127304973,127303634,0.57518005,4.1493063e-06,1.2960746,1.0375297,0.17989412,1.0457516,0
127404242,127403015,0.57499754,4.1499115e-06,-0.3750014,1.0363989,0.015076355,1.0259724,0
127503651,127502309,0.5752145,4.15005e-06,0.53990436,1.0260472,0.03156631,1.018891,0
127603095,127601769,0.5752817,4.1496255e-06,-0.64895433,1.0047523,0.0465722,1.0,0
127702634,127700984,0.57543826,4.149134e-06,0.89353997,1.0050566,0.088266306,1.0045569,0
127801680,127800323,0.5748813,4.149955e-06,1.301509,1.0925078,0.17227699,1.0966536,0
127916168,127914560,0.5747569,4.150805e-06,1.469035,1.083641,0.22127703,1.0892774,0
128005579,128003963,0.57459736,4.1546737e-06,0.037588187,1.0754564,0.00014597128,1.0637281,0
128104900,128103329,0.5748919,4.155837e-06,-1.2990083,1.0560561,0.17753921,1.0611111,0
128204313,128202638,0.5749799,4.156992e-06,0.08360223,1.0458158,0.000742571,1.0344529,0
128303174,128301975,0.57521397,4.1574503e-06,0.19349292,1.0395142,0.0040018167,1.028868,0
128402700,128401316,0.5747644,4.1581343e-06,1.1400417,1.0715668,0.13476582,1.0715208,0
128516930,128515551,0.57462746,4.1582575e-06,0.5431238,1.0361954,0.031631038,1.0269078,0
128616065,128614888,0.5744108,4.1583007e-06,0.07967228,1.0086006,0.0006992826,1.0,0
128705457,128704433,0.5747094,4.1602198e-06,-1.3439939,1.0313668,0.19459826,1.0384815,0
128804966,128803629,0.57455516,4.1597277e-06,1.013484,1.0280842,0.111010134,1.0255227,0
128904131,128902968,0.5740769,4.159753e-06,1.1818788,1.0567551,0.14686863,1.0547866,0
128998629,128997337,0.5738033,4.1589215e-06,-1.3020123,1.0633223,0.1771425,1.0719728,0
129118126,129116542,0.5742441,4.1598723e-06,-1.4534755,1.098159,0.21375078,1.1098844,0
129217185,129215906,0.5743746,4.161058e-06,0.41819024,1.0880691,0.017858658,1.0774087,0
129316612,129315217,0.5743042,4.1608305e-06,0.07712576,1.0424798,0.00063399924,1.0309824,0
129395972,129394690,0.57425535,4.159848e-06,0.41094625,1.0029372,0.01870914,1.0,0
129505283,129504072,0.57386315,4.16114e-06,0.66609806,1.0084544,0.04888522,1.0,0
129604490,129603297,0.57393396,4.1596186e-06,-1.4540201,1.0038948,0.23399691,1.0178452,0
129704257,129702635,0.5741816,4.158703e-06,0.6266764,1.0282757,0.042436015,1.020012,0
129818443,129816871,0.57402635,4.156446e-06,-0.5184419,1.017659,0.02934644,1.0102353,0
129917513,129916209,0.5739092,4.1558374e-06,1.2740371,1.0046812,0.17951195,1.0064973,0
130017211,130015593,0.5739345,4.1552717e-06,-1.317257,1.0016855,0.19247183,1.0105306,0
130116148,130114885,0.57384884,4.1549474e-06,1.4282221,1.009399,0.22453605,1.0150254,0
130196169,130194355,0.57375157,4.1547464e-06,-0.3943585,1.0012199,0.017258793,1.0,0
130305127,130303699,0.5739793,4.1568583e-06,-0.028454138,1.0012158,8.985053e-05,1.0,0
130404276,130402962,0.57411665,4.1562153e-06,-1.1620646,1.0151752,0.14780088,1.0177737,0
130503600,130502299,0.5738376,4.15585e-06,0.8419207,1.0283453,0.07658802,1.0224668,0
130602797,130601638,0.57419133,4.1555595e-06,-1.1407574,1.0286827,0.1405603,1.0299494,0
130702389,130701028,0.574012,4.1553863e-06,1.3239335,1.0095141,0.19292009,1.0145128,0
130801586,130800312,0.5742498,4.154724e-06,-1.2095473,1.0179816,0.15968467,1.0204968,0
130905864,130904616,0.5744991,4.1553926e-06,-1.2696261,1.0012382,0.17888412,1.0054117,0
131005156,131003954,0.57443476,4.1544804e-06,0.5337039,1.0012461,0.031609483,1.0,0
131104875,131103400,0.57457703,4.1534327e-06,-0.7387335,1.005529,0.060302928,1.0,0
131203788,131202628,0.5748538,4.152685e-06,-0.19830842,1.0012252,0.004364234,1.0,0
131303535,131301966,0.57468426,4.15207e-06,-0.15097979,1.0056225,0.0025186054,1.0,0
131417327,131416204,0.5750184,4.1502108e-06,0.85326606,1.0115883,0.07996918,1.0108557,0
131516883,131515541,0.57526803,4.149913e-06,-1.0678241,1.0044287,0.12613565,1.0001662,0
