timestamp,timestamp_sample,accel_device_id,gyro_device_id,delta_angle[0],delta_angle[1],delta_angle[2],delta_velocity[0],delta_velocity[1],delta_velocity[2],delta_angle_dt,delta_velocity_dt,delta_velocity_clipping
50249272,50249148,4259850,4325386,6.521097e-05,-4.8331873e-05,-5.5729844e-05,6.928839e-05,-0.0015260905,-0.047688536,4983,4932,0
50254321,50254136,4259850,4325386,3.877029e-05,5.5683384e-05,4.7232134e-05,0.00096480426,-0.00073295913,-0.048353776,4988,4937,0
50753004,50752891,4259850,4325386,0.00084143743,0.00085505185,0.0004893415,-0.00023075416,-0.0054919655,-0.046014246,4987,4932,0
51252100,51251921,4259850,4325386,0.0003245023,0.00058204215,0.00026094876,-0.004943916,-0.0006330664,-0.05194405,5015,5025,0
51750980,51750860,4259850,4325386,0.0005023022,0.0007180723,-0.00037170592,-0.0054198615,0.002484864,-0.042423766,4990,4761,0
52249281,52249168,4259850,4325386,-0.0007573797,-0.0009804586,-0.00032398335,0.030049013,-0.0012663655,-0.045406483,4979,4971,0
52748671,52748504,4259850,4325386,-4.6156685e-05,0.001056128,0.0013457163,0.007486099,0.003930663,-0.052820444,4988,4995,0
53252323,53252132,4259850,4325386,-4.6180918e-05,-2.9179424e-05,-0.00029132832,-0.014127873,-0.0035173136,-0.04969005,4994,4934,0
53751015,53750883,4259850,4325386,0.00068202836,0.0014183171,0.00067237945,-0.0067269322,0.003892357,-0.044860505,4981,4986,0
54249755,54249644,4259850,4325386,-0.0016596055,-0.00059324596,0.0003699034,0.0035047107,0.0051626028,-0.048163943,4990,4933,0
54753069,54752937,4259850,4325386,0.00079553213,0.00030422147,-0.0006677551,-0.0032131562,-0.00032214183,-0.045221332,4987,4934,0
55246817,55246709,4259850,4325386,7.96275e-05,0.0005490599,-0.00018169395,0.0056665875,-0.004383765,-0.050087616,4988,4927,0
55749519,55749410,4259850,4325386,0.00055382407,0.00019325144,-0.0002062167,0.0113073625,0.0054064826,-0.04890427,4987,4933,0
56248448,56248258,4259850,4325386,-0.0031937573,9.637578e-05,0.0007393457,-0.006863052,-0.007565982,-0.05252387,4980,4938,0
56752039,56751929,4259850,4325386,0.00021971008,-0.00058361026,0.00010966928,-0.0030489455,0.0039933757,-0.04311958,5001,4888,0
57250794,57250675,4259850,4325386,0.00075565797,-2.936698e-05,-0.0005911098,0.0035611684,-0.012027877,-0.047497127,4985,4970,0
57749841,57749674,4259850,4325386,-0.0004722786,0.00021078435,0.0002598147,0.0015896687,0.003556019,-0.056726724,4980,4983,0
58253305,58253183,4259850,4325386,0.0005463512,-0.00017649689,0.00019645701,-0.0026380534,-0.0011143733,-0.04681647,4985,4936,0
58752607,58751943,4259850,4325386,0.0009629634,0.00020293077,-0.00038080438,0.0114231855,0.0047857864,-0.041280087,4986,4935,0
59250818,59250706,4259850,4325386,-0.0013778011,-0.00032046557,5.314296e-05,0.00080773694,0.0048369775,-0.04143924,4988,4755,0
59749596,59749459,4259850,4325386,-0.00057323585,0.00031529964,0.00068284315,-0.0064054886,-0.00051015895,-0.048522696,4987,4942,0
60248849,60248718,4259850,4325386,-0.0006498736,0.00053433905,0.0007749121,-0.0051395954,0.0123693785,-0.05351693,4988,4934,0
60752585,60752467,4259850,4325386,0.0011280945,-4.7113215e-05,0.00035443666,-0.012907229,-0.008067206,-0.057408597,4990,4996,0
61251377,61251260,4259850,4325386,-0.0015890925,3.743666e-05,0.00041465738,-0.0075972374,-0.0035234466,-0.051191684,4945,4929,0
61750399,61750246,4259850,4325386,-0.00030752676,0.0002471027,0.0002244951,0.011783646,0.014701839,-0.054558214,4955,4938,0
62254095,62253728,4259850,4325386,-2.6488395e-05,-0.00056556595,-0.00073552126,-0.0047085886,-0.00439636,-0.034304388,4919,4936,0
62752602,62752490,4259850,4325386,0.0008916438,0.001629282,-0.00034863685,-0.002140257,-0.00951875,-0.057327613,4987,4970,0
63249416,63249304,4259850,4325386,0.0013399188,-0.00048300182,-0.0010125989,-0.0020900033,-0.020842038,-0.04604347,4989,4937,0
63748285,63748134,4259850,4325386,-0.0002825726,0.0006281982,0.00070688315,-0.010120756,-0.0045129373,-0.052794,4972,4953,0
64251922,64251810,4259850,4325386,0.0004937771,-0.00018896772,-0.00041938617,0.008810319,-0.0037893995,-0.043027945,4958,4935,0
64750681,64750570,4259850,4325386,-2.8200875e-06,0.00026567624,0.0008200148,-0.00056838564,0.013795459,-0.04784713,4984,4968,0
65254640,65254524,4259850,4325386,-0.00018209897,-2.365436e-05,-4.982686e-05,-0.0014435198,0.0010877294,-0.039470017,4964,4358,0
65753762,65753638,4259850,4325386,0.00072715397,0.00011205136,-0.00060211803,-0.0043982677,-0.007374389,-0.04316494,5005,5005,0
66247476,66247302,4259850,4325386,0.00045784007,0.0035152447,-0.0004702994,0.004472455,-0.0031043692,-0.047686324,4992,4954,0
66750712,66750597,4259850,4325386,-0.00034460338,-0.0041877925,0.00070444297,-0.009345963,7.71983e-06,-0.051101148,4988,4934,0
67249498,67249359,4259850,4325386,-0.00049579947,0.0017158742,0.00018385677,0.0021563678,0.008037038,-0.05665843,4988,4928,0
67748235,67748117,4259850,4325386,0.0001978362,-0.00043798613,-0.00030463416,-0.0019447465,-0.019205151,-0.048513725,4988,4942,0
68252151,68252041,4259850,4325386,0.0020385815,-0.00018920151,0.0003730462,-0.0061480887,0.0015213158,-0.050227124,4959,4962,0
68750762,68750624,4259850,4325386,0.00016652896,0.0020164235,-0.00034374004,-0.0085205985,-0.013845164,-0.042826246,4953,4914,0
69254488,69254374,4259850,4325386,-0.00017642084,-0.00058671,0.00025546053,0.0048492365,0.0031931219,-0.043972712,4965,4936,0
69754108,69753134,4259850,4325386,0.000568915,0.0033971947,0.0004945358,-0.002797972,0.0056767105,-0.04721716,4988,4951,0
70252023,70251895,4259850,4325386,0.00063843344,-0.0042971144,6.660166e-05,-0.002402795,-0.0062674424,-0.05503302,4987,4986,0
70750805,70750657,4259850,4325386,-0.0012655688,0.0044285,0.00084589457,-0.002525372,0.022982644,-0.052994423,4995,4972,0
71249979,71249863,4259850,4325386,-0.0038700737,0.00040022313,0.00044253562,0.010205755,0.013315368,-0.050779898,4985,4932,0
71748800,71748640,4259850,4325386,0.0027522978,-0.00082298875,4.6605834e-05,0.007453852,0.0071817203,-0.05292009,4962,4935,0
72252707,72252577,4259850,4325386,0.0005934866,-0.00049035996,-0.0007438405,0.0032508634,-0.008176826,-0.044817522,4970,4938,0
72751304,72751133,4259850,4325386,0.00085954764,-0.00022450651,-0.0006253729,-0.010252654,-0.025146578,-0.045439966,4988,4962,0
73255086,73254882,4259850,4325386,0.0028701143,0.000964868,0.00047567356,-0.006316475,-0.0023202072,-0.05041143,4989,4981,0
73748987,73748833,4259850,4325386,-0.0032882923,0.00055091974,0.00015912962,-0.0015608533,0.00010710545,-0.049221106,4977,4974,0
74252155,74251949,4259850,4325386,-4.8675414e-05,-0.00047185007,-0.00070550834,-0.0026173503,-0.021518176,-0.058046866,4985,5920,0
74751050,74750891,4259850,4325386,0.0016318175,-8.253896e-05,0.0005510665,0.001046768,0.003338949,-0.048521314,4959,4962,0
75249589,75249470,4259850,4325386,0.0016019824,-2.7324622e-05,0.00015275693,0.0019747375,0.0023968925,-0.053142805,4988,4942,0
75753682,75753225,4259850,4325386,2.430412e-05,-8.4197265e-05,9.649319e-05,-0.011531815,-0.0152373295,-0.052474853,4978,4963,0
76252395,76252242,4259850,4325386,-0.0010487792,0.00012524932,0.0010039988,-0.008676403,0.00965829,-0.05179063,4978,4966,0
76751443,76751294,4259850,4325386,0.0010605255,-0.00013309257,-0.00051205297,0.00845447,0.003968841,-0.046279874,4983,4933,0
77250061,77249950,4259850,4325386,0.0013092858,7.456054e-05,-0.0004519045,0.0004804532,-0.0123804165,-0.045681316,4987,4934,0
77748907,77748720,4259850,4325386,-0.0006299299,1.1742296e-05,0.0004581557,-0.0040414995,0.0030664254,-0.04958346,4995,4945,0
78253147,78252518,4259850,4325386,8.852125e-05,0.00096447,0.00036278128,-0.010881493,0.0070443754,-0.062285177,4978,5922,0
78751429,78751221,4259850,4325386,-0.0023708404,-0.002468623,-0.00030289288,0.00634893,0.001128426,-0.050111514,4988,5792,0
79250102,79249982,4259850,4325386,0.002552025,-3.0315996e-06,-0.00016487142,-0.0015093063,-0.0070449775,-0.05424609,4987,4970,0
79754044,79753933,4259850,4325386,-0.00044205593,0.000113094495,0.00023372385,-0.0020070688,0.0035264331,-0.041683123,4981,4725,0
80247738,80247612,4259850,4325386,0.0006452667,-0.00018183421,-0.00038853785,0.007104839,0.0051890565,-0.044102225,4996,4940,0
80751361,80751251,4259850,4325386,-0.0003950549,1.8489542e-05,0.0005875123,-0.010483406,0.00080247014,-0.05428855,4988,4970,0
81250178,81250050,4259850,4325386,-4.8237103e-05,-4.3634464e-05,-0.0004822192,0.005944347,0.00029851988,-0.044217147,4959,4961,0
81748915,81748780,4259850,4325386,0.0008928371,-0.00022025857,-0.0002391974,0.0054338863,0.001994603,-0.049769036,4992,4973,0
82247214,82247081,4259850,4325386,0.00010770384,-2.8756232e-05,-0.00019018492,0.0019748795,-0.002455528,-0.04408638,4963,4944,0
82751035,82750832,4259850,4325386,4.4046938e-06,0.00013338002,0.0006576204,-0.012080379,-0.0066069704,-0.058988012,4988,5674,0
83249752,83249592,4259850,4325386,-0.0034504344,-0.000278342,0.0005060802,-0.005187102,-0.002532929,-0.053569853,4983,4962,0
83753484,83753343,4259850,4325386,-5.0802078e-06,0.0014914059,-0.00012585605,-0.001304327,-0.020684512,-0.043933846,4989,4933,0
84252244,84252105,4259850,4325386,4.826701e-05,-0.002385484,-0.00017454637,-0.0049964515,-0.012403232,-0.05402027,4991,4934,0
84751084,84750973,4259850,4325386,0.0015513276,0.00300477,-0.0011805473,0.0050660255,-0.015818642,-0.045994304,4943,4743,0
85249835,85249656,4259850,4325386,-0.0004240103,0.0009042803,-0.00036475644,-0.0072805984,-0.009109157,-0.04765769,5019,4913,0
85748513,85748384,4259850,4325386,-9.126828e-05,0.0010050398,0.00015216794,-0.007505067,-0.008383233,-0.04757634,4986,4932,0
86252247,86252133,4259850,4325386,-9.770024e-06,-0.0031351591,0.00030603303,0.004314033,0.011244992,-0.056763496,4987,4938,0
86751121,86751010,4259850,4325386,-9.258431e-05,0.002894475,-0.00016937398,0.0027092013,0.001845137,-0.04606755,4994,4989,0
87249225,87249109,4259850,4325386,0.0008240724,0.0010713257,-0.00091986073,0.0048969584,-0.017772663,-0.043370664,4987,4960,0
87748017,87747873,4259850,4325386,0.00085404364,-0.0008866337,-2.5192403e-05,-0.004331515,-0.005521632,-0.055037268,4977,4993,0
88251786,88251650,4259850,4325386,-0.00044044276,0.0037460907,0.00019956475,0.0023690688,0.0115042,-0.044024773,5019,4913,0
88750076,88749937,4259850,4325386,-0.0013198052,-0.00093289383,0.0005642627,-0.015533933,0.0012322469,-0.055245657,4982,4939,0
89253862,89253637,4259850,4325386,0.0010158713,-0.0019672536,-0.0005653527,-0.008065239,-0.022841519,-0.04593827,4994,4937,0
89752360,89752218,4259850,4325386,0.000249013,0.0022243003,-0.0003969653,-0.011107152,-0.02483218,-0.048728306,4964,4682,0
90250771,90250656,4259850,4325386,0.00036858313,-0.004093937,4.493114e-05,-0.0029222036,-0.0074636447,-0.055523153,4989,4983,0
90754576,90754407,4259850,4325386,0.00012022546,0.0022062599,0.0005990339,0.0040139672,0.0077964226,-0.045245107,4991,4976,0
91248423,91248253,4259850,4325386,0.0005963646,0.00045001658,-0.00019477165,-0.0065628956,-0.004115027,-0.054229926,4966,4935,0
91752202,91751928,4259850,4325386,-0.000110015324,0.0039010926,0.00016831978,0.0014130928,-0.0031790393,-0.052352216,4982,4983,0
92250913,92250803,4259850,4325386,-0.00021547667,-0.0026109773,-0.00021650777,0.0063326447,-0.008563855,-0.046477817,4977,4979,0
92749661,92749477,4259850,4325386,0.0012358361,-0.00030934837,-0.00051732187,-0.006463484,-0.0011672624,-0.050582588,4974,4935,0
93253320,93253203,4259850,4325386,-0.00090681604,0.002322584,0.00072944834,-0.009448505,-0.0040060533,-0.054456312,4986,4970,0
93752076,93751962,4259850,4325386,0.00063291914,0.0017340024,-0.00054750213,9.818548e-05,-0.01002306,-0.03954318,4989,4482,0
94250923,94250794,4259850,4325386,-0.00039464308,5.1770458e-06,0.00052699464,-0.012229711,0.00046201676,-0.055481367,5008,5005,0
94749656,94749536,4259850,4325386,-0.00030875378,0.0010245591,0.0006629585,0.0025755642,0.011197862,-0.05258272,5041,4922,0
95248593,95248433,4259850,4325386,0.0006208402,-0.0034168302,-0.00047808766,0.0024348001,-0.0022808746,-0.047197185,4984,4984,0
95752167,95751994,4259850,4325386,0.0010227613,0.0037728194,-0.0006503511,0.010560403,-0.0032624311,-0.05564656,4987,5854,0
96250042,96249873,4259850,4325386,-5.189402e-05,-0.0025307038,0.00064592116,-0.009297355,0.0008314527,-0.05291736,4978,4934,0
96753689,96753559,4259850,4325386,-0.00053380086,0.0003822711,0.00037035646,0.0015576222,-0.008092836,-0.04877597,4988,4968,0
97247468,97247332,4259850,4325386,0.00078051403,5.917346e-05,-0.00031224784,0.007369396,0.00027202797,-0.04549223,4990,4931,0
97751350,97751201,4259850,4325386,-0.00026892283,0.00030732638,-0.00027144692,0.005772689,0.0060300217,-0.049752552,4999,4998,0
98250075,98249853,4259850,4325386,-0.000953578,-0.0036286577,-0.00031536917,0.0011344706,-0.0018940222,-0.04146924,4985,4977,0
98748732,98748604,4259850,4325386,-0.0004263472,0.0034585653,3.160789e-05,-0.00465546,-0.0059838216,-0.050751433,4989,4930,0
99252459,99252352,4259850,4325386,0.00037320895,5.463535e-05,0.00029066563,0.0055467216,0.006097202,-0.03531124,4983,4028,0
99751258,99751114,4259850,4325386,0.00026575776,0.002733443,-0.00014792402,0.0036552113,0.0071329502,-0.04327647,4986,4939,0
100249989,100249877,4259850,4325386,-0.0013613942,-0.00091304356,0.0010251454,-0.006672084,0.0063250475,-0.054011256,4986,4929,0
100753200,100753080,4259850,4325386,0.0012341102,-0.0031868506,-0.0007018511,-0.0040211957,-0.022528457,-0.042984344,4344,4940,0
101246973,101246853,4259850,4325386,-0.00037405206,0.0015238385,-3.5292924e-05,-0.0070838965,-0.0030416055,-0.044595644,4987,4985,0
101750409,101750267,4259850,4325386,-0.00079426524,-0.0022394394,0.0010729152,-0.014723219,-0.009826788,-0.055181466,5008,4937,0
102248978,102248866,4259850,4325386,-0.0004761755,-0.003661363,-0.00012888614,-0.009266852,-0.011941936,-0.051434286,4988,4936,0
102752897,102752759,4259850,4325386,0.00077241537,-0.00018491449,-1.5503641e-05,-0.010497118,-0.0029551843,-0.051221214,4959,4958,0
103251493,103251379,4259850,4325386,-0.0010851542,0.0020097787,0.00049520837,0.0010966024,0.023188736,-0.052143726,4987,4983,0
103750259,103750141,4259850,4325386,0.00042968133,0.0016092006,0.00025132747,-0.0008601079,0.007933828,-0.05086487,4984,4969,0
104254311,104254152,4259850,4325386,0.0011094095,0.002123665,-0.00019411225,-0.004629215,0.00093109783,-0.041146673,5014,5014,0
104752790,104752651,4259850,4325386,-0.0022538383,0.0031698935,0.0001558383,-0.00542427,-0.001764319,-0.04274306,4985,4923,0
105251231,105251035,4259850,4325386,-0.0007710513,0.00075332605,0.0008076189,-0.013514735,-0.012555065,-0.05359744,4964,4933,0
105749810,105749678,4259850,4325386,-0.0013644487,0.00038101195,-7.205763e-05,-0.006004346,-0.0031077703,-0.041884206,4988,4939,0
106248593,106248443,4259850,4325386,0.0007215259,-0.0014214998,-2.0407717e-05,-0.0019997223,-0.00654975,-0.045075558,4988,4934,0
106752399,106752283,4259850,4325386,-0.00040756742,0.0006538059,-1.1245426e-05,-0.0034247625,-0.010003032,-0.050927024,4985,4937,0
107251060,107250952,4259850,4325386,0.0016324088,-0.0003816634,5.3052994e-05,-0.0068563074,0.0009472634,-0.049090125,4954,4935,0
107755108,107754704,4259850,4325386,0.0030251695,-0.0030136984,-0.00025110884,-0.009089956,-0.022377571,-0.0512453,4989,4985,0
108248821,108248632,4259850,4325386,0.0017761014,-8.5733125e-05,0.00016455632,-0.00975463,-0.00858557,-0.054682475,5019,5020,0
108747473,108747327,4259850,4325386,-0.000514299,-0.0033685565,0.00027809356,0.005345987,0.018498072,-0.051310543,4990,4961,0
109251105,109250990,4259850,4325386,0.0003307165,0.00040707793,-0.00048008762,-0.007288254,-0.009619735,-0.054085422,4988,4938,0
109749365,109749252,4259850,4325386,0.00014397314,-0.00037343788,-0.000609582,0.0045532044,-0.002121044,-0.04578149,4987,4934,0
110254358,110253094,4259850,4325386,0.0016101544,0.002130961,-0.00079704646,-0.008317557,-0.02002516,-0.050121613,5045,4926,0
110751967,110751833,4259850,4325386,-0.0002259834,0.0018239232,0.0008928427,-0.008113646,-0.009993437,-0.049985513,4970,4934,0
111250663,111250527,4259850,4325386,-0.00090356055,0.0006822005,0.0012900371,-0.007937083,0.01836575,-0.053075228,4988,4934,0
111754398,111754278,4259850,4325386,0.00057428906,-0.001109745,0.00064208073,0.00047068446,0.005945231,-0.051780753,4988,4999,0
112248304,112248175,4259850,4325386,-0.0009144979,0.0013590464,0.0004490461,-0.010412911,0.002717918,-0.05153031,5040,4929,0
112751140,112750994,4259850,4325386,-0.0024313184,-0.00013122786,0.00037427794,-0.003769381,0.0014430662,-0.049902108,4971,4965,0
113249687,113249568,4259850,4325386,0.0030165212,-0.0040973183,-0.00027937017,0.0014366067,-0.024854792,-0.049992565,4988,4989,0
113748635,113748465,4259850,4325386,0.0011391564,0.0027510056,0.0004845084,-0.008206493,-0.0060167373,-0.054847132,4996,4970,0
114252362,114252233,4259850,4325386,-0.0013523743,-0.0009119372,-0.00025402274,-0.0015411723,-0.0035611854,-0.04471615,4957,4944,0
114750987,114750843,4259850,4325386,-0.0001938939,0.0025573685,0.00049229065,-0.016325813,-0.009961238,-0.05361965,4988,4994,0
115254710,115254593,4259850,4325386,0.0034485245,-0.00087963627,-0.00056999066,0.009164865,-0.0025624908,-0.043356065,4946,4935,0
115748012,115747869,4259850,4325386,-0.0030157818,0.00095893384,-0.0005597474,0.0102871135,0.0041660112,-0.043817893,4987,4939,0
116252276,116252154,4259850,4325386,-0.00018882069,-0.00073290564,-0.00030260053,0.0005247103,-0.012158348,-0.04143005,4942,4758,0
116751049,116750919,4259850,4325386,-0.0008491363,0.00051703246,-2.6336891e-05,-0.009198948,-0.0028311487,-0.04373468,5024,4899,0
117250343,117250195,4259850,4325386,-0.00028360746,-0.00082210987,-0.00032886778,-0.0037408045,-0.020243684,-0.050551753,4991,4936,0
117749513,117749405,4259850,4325386,-0.0007754719,7.8644225e-05,2.512825e-06,-0.009244456,-0.0057099913,-0.05537216,4987,4932,0
118253346,118253228,4259850,4325386,-0.0019120756,0.00012420528,-0.0006315072,-0.0045391945,-0.016043175,-0.04588933,4967,4934,0
118747234,118747098,4259850,4325386,0.0033045537,-7.155572e-05,0.00012695725,0.0014973042,0.011989139,-0.045418978,4987,5006,0
119250789,119250680,4259850,4325386,-0.0052849473,0.0008838863,0.000934577,-0.0008178201,0.010114721,-0.047953404,4988,4934,0
119749585,119749444,4259850,4325386,-0.002262988,0.00030894295,0.00047068048,0.0023011146,0.008956985,-0.04605257,4985,4933,0
120252908,120252790,4259850,4325386,0.00035858955,-0.0002479518,-0.000362472,-0.008709785,-0.0079751,-0.047416896,4996,4976,0
120752064,120751957,4259850,4325386,-0.00047424587,-4.9448932e-05,-0.00096340047,-0.0012245621,0.0018337315,-0.054576676,4987,4991,0
121250908,121250765,4259850,4325386,-0.0009271814,-0.00028243248,-0.0020151655,-0.00980811,0.0017677969,-0.04396764,4981,3958,0
121749862,121749711,4259850,4325386,0.00084468175,-0.00060573895,-0.002541511,-0.0015510664,-0.0033272305,-0.04234511,4961,4962,0
122248355,122248245,4259850,4325386,-0.00026479785,-0.0006161683,-0.0012475015,-0.0082108015,-0.00422375,-0.05513698,4986,4932,0
122747172,122747008,4259850,4325386,-3.6912484e-06,6.456128e-06,-0.0020008169,0.001255652,0.00029077454,-0.050909545,4988,4951,0
123251086,123250942,4259850,4325386,0.0011084313,-0.00046575954,-0.0030409112,-0.0016494569,-0.0263729,-0.043849025,4962,4934,0
123754623,123754511,4259850,4325386,-0.00055164355,-1.5414007e-05,-0.0011113316,-0.0093845045,-0.0012741463,-0.050538026,4989,4937,0
124248644,124248463,4259850,4325386,0.000610292,-0.0005499531,-0.0008792255,-0.003762291,-0.006560189,-0.05416139,5001,5939,0
124752321,124752187,4259850,4325386,-0.0008110562,0.00045998936,0.0007182934,-0.0090703145,-0.0063854144,-0.051066637,4962,4937,0
125250975,125250799,4259850,4325386,-0.00026361112,-2.868996e-05,-0.00043472013,-0.00021371007,-0.004513906,-0.050881103,4988,5738,0
125754708,125754550,4259850,4325386,0.00033114452,0.0003002623,-0.0009920797,-0.003887501,-0.0094392495,-0.047318064,4987,4991,0
126248019,126247873,4259850,4325386,0.00048584305,5.878601e-05,-0.00044988721,0.004804329,-0.0018178392,-0.047871422,4982,4936,0
126751810,126751671,4259850,4325386,-0.000639306,0.00017780396,0.00048505262,-0.0018933084,0.010162159,-0.046879597,5034,4927,0
127250626,127250514,4259850,4325386,0.0010744742,-0.00026362232,-0.0009134973,0.0031250413,-0.019315075,-0.04456005,4956,4930,0
127749265,127749150,4259850,4325386,0.0010767328,-0.0033611897,-0.00066622026,-0.0019563942,-0.029450973,-0.04799304,4985,4935,0
128254155,128252906,4259850,4325386,0.00055022957,-0.002850346,-7.5144424e-05,-0.004357288,-0.008825238,-0.0443573,4983,4959,0
128752146,128751942,4259850,4325386,-0.0004744405,-0.0026385735,0.00048681768,-0.0043904292,0.0018411345,-0.05275265,4971,4980,0
129250589,129250428,4259850,4325386,0.0005219572,-0.0015054438,-0.00018965059,0.012192194,0.0030308047,-0.04873815,4988,4982,0
129749321,129749197,4259850,4325386,7.287511e-06,-0.0025525969,-0.00012606724,-0.0048752706,-0.012798081,-0.04724818,4992,4939,0
130247720,130247611,4259850,4325386,-0.00028143037,0.0025071767,9.524234e-05,-0.0147840865,-0.012301142,-0.049649626,5030,4929,0
130751843,130751161,4259850,4325386,0.0011076009,-0.0009839887,-0.0011186636,-0.0015280339,-0.017297508,-0.051737037,4989,5925,0
131250202,131250084,4259850,4325386,-0.00031310596,-0.0004496707,-4.3626107e-05,-0.008683687,-0.020190105,-0.045020856,4963,4975,0
131753839,131753727,4259850,4325386,-0.00026031013,-0.0014434949,0.0006452517,0.008278313,0.008923374,-0.052855004,5042,4927,0
132252559,132252448,4259850,4325386,-0.00011889051,0.0027253942,5.7408346e-05,0.011415538,-0.00015231913,-0.046328157,4991,4954,0
132751692,132751575,4259850,4325386,0.0008417808,-0.0018718967,-0.00043707687,-0.003858763,-0.019392023,-0.045065615,5020,4715,0
133250141,133249966,4259850,4325386,-0.0025901652,-0.0007947115,0.0009936842,-0.004047857,0.013996155,-0.049587194,4986,4977,0
133748844,133748726,4259850,4325386,0.002893522,-0.003516937,-0.000658985,0.012333542,-0.009147366,-0.03782643,4987,4977,0
134252174,134252031,4259850,4325386,8.980063e-05,0.0031048008,-0.00017968447,0.0008934601,0.0021387457,-0.050307,4997,4997,0
134750874,134750743,4259850,4325386,-0.0006589405,0.001713913,0.0001796664,0.011934502,0.018529097,-0.04900593,4988,4950,0
135249833,135249667,4259850,4325386,-0.0009429689,-0.003025394,0.00075655396,0.0023750623,0.0057156025,-0.05688543,4971,4936,0
135753571,135753259,4259850,4325386,0.0009911482,0.0023663375,-0.00024058379,-0.003076808,-0.009801564,-0.052540943,4989,4984,0
136247215,136247038,4259850,4325386,0.0015358021,-0.00042332208,0.0007738849,-0.011576265,-0.009130565,-0.052413616,4992,4935,0
136751146,136750938,4259850,4325386,0.0005816119,-0.0013028415,-0.00044314153,0.00046873686,-0.0052377945,-0.04963706,4981,4934,0
137249848,137249709,4259850,4325386,0.0012366646,-0.0024316893,-0.00026884687,-0.016710205,-0.024115771,-0.049460582,5043,4939,0
137748428,137748312,4259850,4325386,6.5234715e-05,-0.0019587104,-0.00042174937,0.010177239,-0.0140101835,-0.042428106,4988,4933,0
138252280,138252162,4259850,4325386,0.0025935671,0.0025861557,-4.061398e-05,2.4120782e-05,-0.009818642,-0.050186124,4988,4936,0
138750984,138750830,4259850,4325386,0.0020219784,-0.0003647179,4.4362414e-06,-0.011674563,-0.004613809,-0.050340883,4991,4990,0
139255576,139254580,4259850,4325386,0.0013023005,7.858639e-05,-0.0004978632,-0.0049884054,-0.0279966,-0.044906877,4989,4966,0
139748708,139748601,4259850,4325386,-0.00026895135,0.0006714188,0.0011277441,-0.0057066884,0.013753346,-0.040815953,4928,3947,0
140247249,140247117,4259850,4325386,0.0017165932,0.0023064679,-0.0003760597,-0.0033847536,0.0051969457,-0.045893423,4988,4930,0
140751024,140750885,4259850,4325386,-0.0030629523,-0.003314634,0.0003019846,-0.007812706,-0.005719513,-0.05140677,5004,4936,0
141249835,141249710,4259850,4325386,0.0017618621,-0.00015458869,-0.00071459706,-0.004394423,-0.026845926,-0.044297446,5019,4917,0
141753570,141753386,4259850,4325386,0.00038063384,0.003184598,8.6139116e-05,-0.0062704924,-0.0068002422,-0.04995765,4990,4779,0
142252281,142252170,4259850,4325386,0.00023961657,-0.0011078996,-0.0003154876,-0.008838019,-0.0066461787,-0.042703524,4945,4936,0
142751080,142750914,4259850,4325386,-0.0003557193,-0.0035006984,0.00049188227,-0.0033480744,0.0058389255,-0.046916604,4987,4935,0
143249810,143249675,4259850,4325386,-0.0014362067,0.0014266104,0.00040404324,0.0018974795,0.0006684994,-0.05108496,4987,4960,0
143748557,143748439,4259850,4325386,2.3508923e-05,-0.00020823885,-0.00037250624,0.0034842936,0.0060942313,-0.045199454,4986,4987,0
144252486,144252222,4259850,4325386,-0.00047531616,0.004365552,0.00028401412,0.0014279997,-0.008269873,-0.050353747,4993,4792,0
144751090,144750956,4259850,4325386,-0.00038817152,-0.0023231367,0.0007704699,-0.008488382,0.0004518223,-0.05278316,4989,4935,0
145249391,145249244,4259850,4325386,-1.3520142e-05,-0.0024475215,0.00037550507,0.008424315,0.014912697,-0.04518358,4969,4931,0
145753114,145752971,4259850,4325386,0.00037000922,0.0006417598,-0.00051669194,0.008556245,-0.01584935,-0.045000166,4985,4988,0
146251844,146251735,4259850,4325386,0.0005804947,0.0010152981,-0.00018158279,-0.007534914,-0.028106287,-0.04984249,4988,4941,0
146750783,146750669,4259850,4325386,-0.0004420255,-0.003942853,-0.0003234295,0.00025028913,0.0048324205,-0.03639764,4900,3721,0
147249438,147249263,4259850,4325386,-0.00014941211,-0.0011556661,-3.553035e-06,-0.0064724702,-0.019083438,-0.045920074,4988,4940,0
147748177,147748029,4259850,4325386,0.0001219366,-0.0009503698,-0.00084081123,0.009132,-0.017930025,-0.041504685,4987,4935,0
148251925,148251779,4259850,4325386,0.00011157559,0.00018987329,-0.0011003821,0.00048395476,-0.0076712975,-0.050738536,4982,4967,0
148750197,148750068,4259850,4325386,-0.0007547146,-0.00019974618,-0.0015439198,-0.00900999,-0.008205419,-0.049477283,5012,4903,0
149253972,149253797,4259850,4325386,-0.00053845614,0.00027079685,-0.0010158625,-0.004952247,-0.005500912,-0.055555113,4968,4934,0
149752668,149752559,4259850,4325386,0.0006552595,-0.0004483615,-0.0012268976,-0.005983239,-0.028408324,-0.050300572,4988,4935,0
150251370,150251099,4259850,4325386,0.0005992961,-0.00021651563,-0.0008426489,0.0059199333,-0.012424597,-0.045637272,4990,4936,0
150750358,150750240,4259850,4325386,0.00022994936,-0.00036741522,-0.000114165785,0.002916764,-0.0023167022,-0.043377616,4945,4931,0
151249117,151248997,4259850,4325386,0.0027113408,-0.001158894,-0.00065902865,-0.0011028912,-0.024357848,-0.04691731,4992,4980,0
151752724,151752605,4259850,4325386,-0.0009219243,0.0022239482,0.00062028196,-0.009052412,0.0058828252,-0.053354688,4989,4977,0
152251489,152251368,4259850,4325386,-0.00029036225,-0.0007883274,0.0002853847,-0.0038241572,-0.003913981,-0.049299844,4976,4959,0
152750270,152750141,4259850,4325386,-1.5905793e-05,-0.001434139,0.00038342117,-0.0060408404,-0.0026753678,-0.049863324,4992,4988,0
153253573,153253433,4259850,4325386,0.0002954248,0.00030799024,-0.00085839274,0.008848547,-0.0034007852,-0.044218235,4988,4933,0
153752334,153752202,4259850,4325386,0.00030800168,-9.553645e-05,-0.00084528554,0.009088167,-0.0078109265,-0.043008752,4993,4947,0
154251069,154250961,4259850,4325386,7.079615e-05,-0.0020172682,-6.3859743e-06,-0.009006361,-0.013482634,-0.05577902,4987,4954,0
154749902,154749777,4259850,4325386,0.0002254237,0.000700657,-0.00017423759,-0.0083465865,-0.010508461,-0.047445603,5037,4931,0
155254181,155253479,4259850,4325386,-0.00019472007,0.0029406007,0.0007331965,-0.009131074,0.00541517,-0.059410032,4989,6125,0
155752507,155752394,4259850,4325386,-0.00091850676,-0.0039479346,0.00084026344,-0.007776049,0.0041410616,-0.055294607,4990,4938,0
156251302,156251008,4259850,4325386,-0.00011962121,0.0026073053,-0.0009879243,0.0041769994,-0.017485036,-0.044122536,4989,4939,0
156749899,156749773,4259850,4325386,-0.00028577418,0.0012180279,0.0012002713,0.00013958571,0.008538354,-0.0507566,4991,4991,0
157248645,157248534,4259850,4325386,-0.00018801732,0.00056891434,7.5612676e-05,-0.0028207353,-0.011443834,-0.04734697,4988,4815,0
157747510,157747349,4259850,4325386,-0.00031903476,-0.001303443,-0.00019799107,-0.0047598095,-0.016198764,-0.049796414,4943,4942,0
158251502,158251370,4259850,4325386,-0.00039159122,-0.0010959193,0.0001400452,-0.011545675,-0.020250537,-0.04901643,4981,4937,0
158749986,158749815,4259850,4325386,-1.0347842e-05,0.0018501794,-2.3422268e-05,-0.012168275,-0.018927747,-0.051249895,4985,4947,0
159248752,159248580,4259850,4325386,-0.00062666915,0.00029602135,-9.102325e-05,-0.012034327,-0.009927935,-0.05534472,4988,5832,0
159752746,159752535,4259850,4325386,0.0001210529,0.002926417,0.00018667159,-0.0022968848,0.0018332773,-0.053613983,4969,4934,0
160251213,160251096,4259850,4325386,-0.00016572869,-0.002009764,0.00041669203,-0.002403648,0.008652636,-0.049822997,4988,4763,0
160750018,160749891,4259850,4325386,-0.00078940205,0.0001460852,0.0002861191,0.00027696084,-0.0010550445,-0.050856203,4960,4774,0
161249174,161249018,4259850,4325386,0.0011057627,-0.0021452268,-0.00073127385,0.0049166167,-0.02216673,-0.045058914,4979,4963,0
161747574,161747390,4259850,4325386,0.0012486817,0.0012592766,-0.0012068971,-9.333754e-05,-0.027803916,-0.036815874,4987,4344,0
162252457,162251144,4259850,4325386,0.00051329733,-0.0045369174,-0.0002899903,-0.00075292576,-0.014615755,-0.058326527,4984,5830,0
162750239,162750118,4259850,4325386,4.178628e-05,0.0008218577,-0.0005952898,-0.011782907,-0.016971787,-0.04781936,4982,4980,0
163253824,163253664,4259850,4325386,0.00070108706,-0.0033819745,-0.00011397051,-0.010536511,-0.009040829,-0.044735413,4993,4995,0
163752640,163752496,4259850,4325386,-0.00055993174,0.002945648,0.0003633028,-0.0016074495,0.006153708,-0.048250534,4976,4952,0
164251494,164251352,4259850,4325386,0.00011492453,-0.0018079301,-0.00027515553,-0.015471035,-0.013927484,-0.04837023,4967,4966,0
164749035,164748910,4259850,4325386,0.0010242324,-0.0013832806,-0.0005146575,0.01004887,0.002148483,-0.04999667,4990,4935,0
165247783,165247671,4259850,4325386,-0.00065708795,0.0037073116,0.00016761057,0.0028311985,0.006580537,-0.048099596,4988,4985,0
165751543,165751423,4259850,4325386,0.000992544,0.0035391382,-6.429244e-05,-0.0005459288,0.0054859,-0.050637305,4987,4937,0
166250316,166250196,4259850,4325386,0.00016545466,0.0011423697,-0.00041335484,0.004322718,-0.0021699045,-0.04603243,4988,4934,0
166753605,166753441,4259850,4325386,-0.0006041215,-0.0003214946,0.00013114206,0.0008817841,0.014756841,-0.044644535,4987,4942,0
167252327,167252206,4259850,4325386,0.00040912328,-0.0017339895,-2.1790174e-05,-0.004780072,-0.004691882,-0.04724331,4988,4934,0
167751116,167750972,4259850,4325386,-0.0002490509,0.0028875822,-0.0005535065,0.000518445,-0.0008117081,-0.044571325,4988,4974,0
168250003,168249840,4259850,4325386,0.00050831574,-0.0022391365,-0.00010360407,-0.00038463078,-0.003722664,-0.04631476,4964,4963,0
168748784,168748655,4259850,4325386,0.00029096392,-0.0030014287,-1.4952276e-05,-0.011799972,-0.021304585,-0.049525067,4979,4932,0
169252382,169252273,4259850,4325386,-0.00096814,-0.0014300551,0.0013166756,-0.0061596604,0.009396188,-0.05215343,5008,4900,0
169751800,169751644,4259850,4325386,5.4914548e-05,0.0032344454,-0.00013022695,-0.00048397764,-0.002265782,-0.053152017,4995,4997,0
170250389,170250281,4259850,4325386,-0.00014903706,-0.0028377217,0.000628144,0.005664882,0.010915556,-0.043837745,4988,4943,0
170754346,170754201,4259850,4325386,0.00044336708,0.0017277783,-0.0007758204,0.011279754,0.008553718,-0.04602883,4963,4935,0
171247945,171247810,4259850,4325386,-0.0006092953,0.0039796154,-0.0004068485,0.008208767,-0.006548627,-0.04722571,4988,4950,0
171751720,171751563,4259850,4325386,-0.0004213473,-0.00054722,-0.0003258708,-0.0042009586,-0.025273226,-0.051729478,4987,4935,0
172250936,172250826,4259850,4325386,-2.0032128e-05,0.00011035884,0.00021145395,-0.010307993,-0.011136397,-0.05295403,4986,4990,0
172749811,172749677,4259850,4325386,0.0012711427,-0.00057260203,-0.0010051822,-0.00041744992,-0.028237348,-0.046282824,4989,4998,0
173254147,173253344,4259850,4325386,0.0009169409,-0.00035555824,-0.00024841388,0.0011392182,0.008298123,-0.051828858,4988,5835,0
173752246,173752112,4259850,4325386,0.00036120717,0.0018656525,-0.0006036172,0.0010090629,-0.018162172,-0.0468765,4988,4935,0
174251092,174250955,4259850,4325386,7.293695e-05,0.001750471,0.00033146818,0.0015012854,0.0063592684,-0.05635506,4975,4970,0
174754740,174754627,4259850,4325386,-0.00071882573,-0.00088379794,0.00019369372,0.0016294699,-0.0026817166,-0.0559956,4988,4934,0
175248521,175248405,4259850,4325386,-0.00037688526,0.0006619737,-0.000101191596,0.00083264627,-0.0049074506,-0.04361279,4986,4678,0
175752471,175752357,4259850,4325386,-0.00029425713,-0.0039093397,0.00039002922,0.0010858437,0.015849194,-0.047376443,4998,4996,0
176251184,176251011,4259850,4325386,9.763506e-05,0.004276157,0.00016124028,-0.0007175245,0.001271245,-0.060491387,4989,5918,0
176750127,176749698,4259850,4325386,0.00034823915,0.001612596,-0.00053276576,-0.0066615776,-0.029452961,-0.049726322,5000,4936,0
177253548,177253437,4259850,4325386,-0.0002202991,-0.0037365414,0.00014102508,-0.0036500883,0.0054346067,-0.04724779,4980,4976,0
177751890,177751733,4259850,4325386,0.0004782615,-0.0025481295,0.00029189663,-0.0057246885,0.0066687786,-0.051041566,4988,4966,0
178255605,178255466,4259850,4325386,-0.0023176936,-0.0025659879,0.0011904928,-0.0028734813,0.010169453,-0.05316086,4978,4936,0
178749348,178749238,4259850,4325386,0.00034341784,0.00065476005,-0.0003141713,0.011728627,0.002790549,-0.046400286,4992,4934,0
179248120,179248000,4259850,4325386,0.00023287174,0.0014542631,-0.0005422311,0.006043727,-0.0029163682,-0.047239676,4987,4978,0
179751863,179751753,4259850,4325386,-0.0007631816,-0.0005868097,0.0010408416,-0.0067771953,0.015002552,-0.05091819,4947,4755,0
180250700,180250516,4259850,4325386,-0.00051659776,0.0002584297,0.0002798001,-0.0061570215,-0.011539884,-0.063344,4988,5838,0
180749901,180749779,4259850,4325386,0.0009166656,-8.903676e-05,-0.000895819,0.009283642,-0.010780288,-0.042491585,4987,4935,0
181253646,181253532,4259850,4325386,-0.00042527053,0.00031014206,-0.0012789947,0.006035546,-0.000345504,-0.048082087,4987,4965,0
181747588,181747444,4259850,4325386,0.00088572904,-0.0005143845,-0.0025231778,0.0064867684,-0.0076423096,-0.04468703,5011,4938,0
182251477,182251318,4259850,4325386,0.00025853497,-0.000100958285,-0.000713893,0.0019774341,-0.0009592833,-0.054131262,4969,4932,0
182749940,182749829,4259850,4325386,-0.00047201233,-0.00014677379,-0.00063068577,0.00070087967,-0.0006035237,-0.053352118,4984,4990,0
183253768,183253583,4259850,4325386,-0.0010874496,0.00021690167,-0.0015652998,-0.0068711448,0.008665878,-0.061168417,4990,5922,0
183751992,183751847,4259850,4325386,0.00074404245,-7.489293e-05,-0.0025210225,-0.0055649146,-0.02358033,-0.052182034,4988,4963,0
184251852,184251738,4259850,4325386,0.0012170104,-0.0003113487,-0.0009394439,-0.0069562513,-0.02393344,-0.05165117,4961,4933,0
184750530,184750422,4259850,4325386,0.0018395657,-0.00016847116,-0.0010622023,0.006065646,-0.011743608,-0.04187793,4986,4924,0
185254290,185254178,4259850,4325386,-0.0013821982,0.00036898188,-0.0005429019,-0.006133739,0.0081053795,-0.052281532,4990,4966,0
185747100,185746930,4259850,4325386,0.00038538792,-0.0003596567,-0.0006935421,0.0011983307,-0.0062364982,-0.043552317,4933,4937,0
186251284,186251113,4259850,4325386,0.0008677602,-5.657684e-05,-0.0003040613,0.007823923,-0.006390184,-0.043429233,4992,4933,0
186749536,186749425,4259850,4325386,-0.00027510623,-0.0034095603,0.00046643184,0.0081422785,0.0012242349,-0.04814502,4988,4942,0
187253307,187253181,4259850,4325386,0.00039064698,-0.0028715746,-0.00012757033,0.007823185,0.0033406154,-0.04687626,4983,4986,0
187752277,187752156,4259850,4325386,4.623128e-05,0.00085031905,-1.5069474e-05,-0.009842552,-0.008738986,-0.053633153,4947,4984,0
188250885,188250708,4259850,4325386,-0.00025812243,-0.0025228069,0.0005688782,0.0013443675,0.014888177,-0.052120782,4988,5658,0
188755126,188754538,4259850,4325386,0.00047286498,0.0022256495,-0.00016657822,0.0056205047,0.012320528,-0.053416636,4990,5918,0
189248556,189248430,4259850,4325386,0.00068742305,0.002791519,-0.0006763265,-0.002046788,-0.013804782,-0.047602274,4961,4933,0
189752110,189751991,4259850,4325386,0.0012338548,-0.00020112433,-0.0007094307,0.002919642,-0.018008297,-0.044731878,4988,4929,0
190250863,190250756,4259850,4325386,-0.00048066032,0.002297857,0.0004995663,0.002759577,0.021194775,-0.04966613,4948,4932,0
190749858,190749680,4259850,4325386,0.0019062903,-0.0013297872,-0.0010025963,-0.0006683013,-0.019507077,-0.04538317,4966,4969,0
191253648,191253276,4259850,4325386,-0.0009643123,0.00065742974,0.00023496225,-0.014495486,-0.011234258,-0.060438797,4989,5716,0
191752664,191752541,4259850,4325386,-0.0008070286,-0.0006571427,0.0005368505,0.002835102,0.0064561064,-0.0459642,4989,4972,0
192252265,192251305,4259850,4325386,4.8132864e-07,-0.0033567355,-0.00040488108,0.00557609,-0.012926025,-0.045936517,4989,4992,0
192750508,192750369,4259850,4325386,-0.00030370045,-0.0033926019,0.00012088645,-0.00021548559,0.0023259558,-0.0441372,5001,4778,0
193248953,193248834,4259850,4325386,0.00022760782,0.0001065833,0.00018158868,0.0006954467,0.0050689303,-0.04161957,4987,4934,0
193752711,193752596,4259850,4325386,0.0012643588,0.0012203357,-0.00067921,0.0026960564,-0.017611623,-0.046084426,4997,5000,0
194251492,194251361,4259850,4325386,-0.0012511626,-8.88577e-05,0.00102277,-0.0019636475,0.021847364,-0.052217305,4925,4929,0
194750273,194750121,4259850,4325386,0.00021434801,0.0009371289,0.00046677637,0.0057209563,0.0004204877,-0.041953363,4986,3847,0
195254121,195253942,4259850,4325386,-0.0014986846,0.0029160974,0.00056566764,0.00084084674,0.014812506,-0.0450391,4933,4727,0
195752817,195752643,4259850,4325386,0.0010898545,-0.001842633,-0.00020552333,0.00017883573,-0.011789612,-0.04603163,4953,4954,0
196251541,196251401,4259850,4325386,0.0008653551,-0.0015317828,-0.0001410965,0.0044123903,0.003594816,-0.050770048,4987,4932,0
196750277,196750167,4259850,4325386,-0.0010897473,-0.0011861582,0.00044094375,-0.006460738,0.0033259825,-0.03560634,5209,3948,0
197249226,197248932,4259850,4325386,-0.0005154748,0.003873158,7.4451316e-05,-0.007352965,0.00039044497,-0.053853594,4988,4938,0
197752816,197752687,4259850,4325386,-0.00025672792,0.001693869,0.0002153593,-0.0026286442,-0.005165599,-0.053662945,4988,4928,0
198251743,198251632,4259850,4325386,0.0021472527,0.00016686908,-0.0008025687,0.0038304003,-0.010573943,-0.047242492,4982,4930,0
198750328,198750216,4259850,4325386,0.00038889088,0.0020351901,0.00022686813,-0.003400149,-0.012541501,-0.042554807,4987,4931,0
199254104,199253969,4259850,4325386,0.0004546991,0.00040811428,0.00012233127,0.0036519545,0.012325683,-0.049674038,4988,4985,0
199747949,199747799,4259850,4325386,0.0009853877,0.0027098972,-0.0011878879,-0.0027798258,-0.012692229,-0.048092168,5040,4919,0
200251749,200251562,4259850,4325386,-0.0004658977,0.00040488155,-0.0003346747,-0.0086106695,-0.007870211,-0.044466887,4968,4967,0
200750768,200750610,4259850,4325386,-0.0008521696,-0.0025644624,0.000603965,-0.000405268,0.012686712,-0.05936605,5255,6105,0
201249178,201249033,4259850,4325386,0.0004392001,0.002471054,-6.584376e-05,-0.0043965313,-0.015006329,-0.050943404,4990,4936,0
201753369,201752798,4259850,4325386,0.0006846666,0.0025602824,-1.0116396e-05,0.0046137534,0.0033061241,-0.05360017,4993,4887,0
202251268,202251069,4259850,4325386,0.0005985314,-0.00052857405,-0.0009945609,0.0023089354,-0.0103567345,-0.05449364,4994,5931,0
202749950,202749817,4259850,4325386,-0.00017997297,-0.0018313556,-0.0003424961,0.0033273676,-0.0145044485,-0.048611816,4986,4932,0
203248972,203248587,4259850,4325386,-0.0007236434,0.0019652932,0.00027933376,-0.0047331084,0.008242651,-0.051779155,4993,4944,0
203747508,203747349,4259850,4325386,1.7109238e-05,-0.0006106921,0.00018596293,0.006343361,0.0037027646,-0.048345245,4988,4953,0
204251268,204251102,4259850,4325386,-0.0003883401,0.00086283806,0.00094930467,0.0011424005,0.012114806,-0.050313722,4988,4952,0
204749542,204749368,4259850,4325386,-6.2711944e-05,0.0011022629,-0.000682139,0.009380964,-0.0027588313,-0.051437233,4988,5858,0
205252732,205252622,4259850,4325386,-0.00031904678,0.0023123915,0.0007039131,0.0064331307,0.019232502,-0.05390235,4986,4931,0
205751986,205751510,4259850,4325386,-0.00064017077,-0.0007670811,0.00045409644,-0.009340342,0.0002912266,-0.05211366,4991,4937,0
206250760,206250652,4259850,4325386,0.0006428281,-2.8408364e-05,-0.0004945544,-0.0038017759,-0.0049184193,-0.04392952,4987,4990,0
206750209,206749507,4259850,4325386,-0.0027731995,0.00044485627,0.0006134675,-0.011170901,-0.011505347,-0.06200068,4963,5925,0
207248799,207248677,4259850,4325386,0.0010306579,7.2074334e-05,0.00038805648,0.0016676158,0.006651098,-0.045405623,4976,4936,0
207752999,207752758,4259850,4325386,0.00011373651,-0.00015315355,-2.0093494e-05,-0.003495774,0.0042446917,-0.051162343,5005,5921,0
208251384,208251204,4259850,4325386,-0.0008077853,-0.00034273305,0.00011198889,-0.004772432,-0.011113221,-0.064504296,4990,5967,0
208750148,208749967,4259850,4325386,-0.0040560355,0.00076978054,0.0010614493,-0.0023405296,0.004906768,-0.06170325,4988,5838,0
209254300,209253876,4259850,4325386,0.0020056122,-0.000111485315,0.00044897344,-0.0072548306,0.009944185,-0.05347772,4964,4937,0
209752595,209752486,4259850,4325386,0.0017117613,-0.00028088194,-3.338159e-05,-0.013697213,-0.024090637,-0.05268186,4980,4983,0
210252339,210251751,4259850,4325386,-0.0006928251,0.00017008877,0.00069619325,0.006609998,0.030316781,-0.050261077,4989,4937,0
210750578,210750407,4259850,4325386,0.0016740423,-0.00024109834,-0.00050933065,0.016077703,0.0033317523,-0.041967534,4974,4688,0
211248897,211248787,4259850,4325386,0.001644407,-0.0003033435,-0.000635188,0.0015700825,-0.013137885,-0.049008355,4978,4935,0
211752646,211752536,4259850,4325386,-0.0036670642,0.0002794838,-0.00010933229,-0.0066307066,-0.016209515,-0.05350578,4982,4925,0
212251588,212251461,4259850,4325386,0.0016788042,0.00013223205,0.00021813247,-0.009412046,-0.0073655676,-0.049551,5030,4919,0
212755214,212754560,4259850,4325386,0.001198134,0.00013105599,0.00071705016,-0.004307467,0.010483878,-0.055925574,4989,4975,0
213248661,213248506,4259850,4325386,-0.002039451,0.00018980536,-7.2601884e-05,-0.008148915,-0.014158204,-0.05369781,4963,4956,0
213747212,213747100,4259850,4325386,0.00017820492,-6.9732174e-05,-0.00034595726,-0.0016227375,-0.0077683935,-0.041789494,4987,4933,0
214250974,214250862,4259850,4325386,0.0005969882,0.0005783626,0.00091620476,-0.008976663,-0.017788932,-0.05453717,4995,4936,0
214750027,214749894,4259850,4325386,-0.00023135562,6.7726e-05,0.0021469437,0.0035805774,-0.0018816746,-0.040361,4982,4944,0
215254736,215252879,4259850,4325386,0.00017028383,-0.00014161857,0.0021145756,-0.0014670249,-0.0114970105,-0.054923203,4991,4983,0
215751450,215751341,4259850,4325386,0.001040475,-0.00020520022,0.00013658327,0.009825417,-0.007847552,-0.045583177,4979,4931,0
216250156,216249956,4259850,4325386,-0.00068429287,-6.112109e-05,0.0005288078,-0.008644872,0.0047107427,-0.052311826,4989,4944,0
216754612,216753912,4259850,4325386,-9.684776e-05,-0.00038033942,-0.0027508114,-0.0058755735,-0.0106644165,-0.040191267,4972,4968,0
217247594,217247486,4259850,4325386,-0.00015242698,-3.129123e-05,-0.002735318,-0.0052268845,0.00336677,-0.04800057,4970,4934,0
217752776,217751242,4259850,4325386,0.00034560834,-0.00015944794,-0.002817546,-0.0097887,-0.005505887,-0.058029115,4958,5922,0
218250442,218250327,4259850,4325386,-0.0007456244,0.0002240924,-0.0022736515,-0.0074381772,-0.01809752,-0.048527047,4990,4934,0
218748924,218748778,4259850,4325386,0.00023400539,2.5025913e-06,-0.0012183195,-0.009167643,-0.018157013,-0.04998256,4990,4933,0
219253172,219252527,4259850,4325386,0.00023683588,-0.00043480922,-0.00075304136,-0.001867871,-0.011674279,-0.054454926,4977,5922,0
219751560,219751427,4259850,4325386,-0.0007899072,0.00010102298,-0.00026500906,0.0019552107,0.0029702175,-0.04256895,4944,4936,0
220250162,220250057,4259850,4325386,0.0011435744,-0.0003276699,-0.0019266049,0.006220267,-0.01439705,-0.032679968,4985,3795,0
220748942,220748832,4259850,4325386,0.0010054279,-0.00040992297,-0.00027536863,0.0009070826,-0.0029551657,-0.042718943,4996,4888,0
221248288,221248044,4259850,4325386,0.00021769997,-0.0035765464,0.00037124826,-0.0028187856,0.0014088403,-0.055042107,4990,4925,0
221752166,221752016,4259850,4325386,0.0018663128,-0.002003307,-0.0010792185,0.00062425237,-0.023204185,-0.042268142,4993,4934,0
222250866,222250746,4259850,4325386,-0.00062345475,-0.00034752153,0.00011683711,0.008613181,0.016740043,-0.046262886,4994,4933,0
222749434,222749324,4259850,4325386,0.0005581687,0.001427158,-0.00048285216,0.00414878,-0.00014498415,-0.04202546,4986,4934,0
223253236,223253099,4259850,4325386,-0.00020318989,0.0008255743,0.000157435,0.005155976,0.009782586,-0.051284727,4961,4991,0
223747119,223746859,4259850,4325386,-0.00049056,-0.00039670581,0.0006128554,-0.0055019194,0.0025983069,-0.047373347,4990,4934,0
224248752,224248615,4259850,4325386,0.0005855137,0.00091909914,-0.00054695463,0.013087265,0.0062836185,-0.04363397,4986,4933,0
224752236,224752119,4259850,4325386,8.748285e-05,0.0038809448,0.000229726,-0.009617743,-0.0054456177,-0.052016802,5024,4901,0
225250413,225250187,4259850,4325386,-0.0017654864,0.0008805957,0.00129921,-0.0036921217,0.014048651,-0.05460346,4985,4972,0
225749142,225749029,4259850,4325386,0.00049655174,0.0009800444,0.00020955819,0.006464906,0.0036091788,-0.05696198,4979,4983,0
226252275,226252158,4259850,4325386,-0.0010846615,0.002741505,-0.00033247177,-0.0043231677,-0.007298129,-0.045846872,4988,4943,0
226750633,226750490,4259850,4325386,-0.00068007276,0.002212207,0.00017212331,0.0029264074,0.019265493,-0.05450558,4993,4998,0
227248825,227248696,4259850,4325386,-0.00011494845,-0.0017440724,0.0005386977,-0.007456812,0.0065243337,-0.05340529,4988,4992,0
227747569,227747458,4259850,4325386,-0.0009136862,-0.0024903782,0.0013617405,-0.0075212875,0.0044367663,-0.05307254,4987,4941,0
228251422,228251219,4259850,4325386,-0.0010973096,0.0026943672,0.0004382028,-0.010948637,-0.00085688557,-0.053269923,4944,4932,0
228750668,228750541,4259850,4325386,-0.0005055577,0.0033532286,1.9798166e-05,-0.0020766126,-0.0020384223,-0.044286717,5111,4996,0
229249574,229249418,4259850,4325386,0.0009129459,0.0029445612,-0.0007634702,-0.009358517,-0.02016844,-0.043036755,4995,4940,0
229752661,229752498,4259850,4325386,0.00035262288,-0.004779286,-0.0003542733,-0.0018757761,-0.013608237,-0.043341342,4988,4935,0
230251611,230251476,4259850,4325386,0.00076355133,-0.0012528149,-9.248193e-05,0.009147,-0.00010336193,-0.042727727,4967,4936,0
230750160,230750036,4259850,4325386,0.0005346704,0.003064307,-0.0009535055,-0.003873975,-0.020264525,-0.04550204,4993,4983,0
231248995,231248867,4259850,4325386,-0.00015541048,0.0004105354,0.00039856232,-0.009179534,-0.009632471,-0.052220646,4992,4941,0
231747964,231747805,4259850,4325386,0.00019299156,0.0009425426,-0.00019449154,-0.010143194,-0.012867378,-0.051214688,5021,4914,0
232251429,232251316,4259850,4325386,-0.0007774956,0.0010088353,3.2380896e-05,-0.011902806,-0.004257032,-0.049101792,4988,4953,0
232750198,232750083,4259850,4325386,0.0019106895,-0.00069268345,-0.0006473047,0.0056417785,0.0040696533,-0.04106885,4989,4741,0
233254210,233253340,4259850,4325386,0.003956553,-0.00066511065,0.00038241706,0.0021563605,-0.008229538,-0.060355183,4990,5918,0
233752234,233752124,4259850,4325386,-0.00041707867,0.0002928739,-0.000119043434,0.009789361,0.00086946215,-0.042977173,5008,4887,0
234251284,234251087,4259850,4325386,-0.00014236553,0.00017173604,-0.0011026548,0.01614593,0.0072078775,-0.04483182,4980,4979,0
234749744,234749635,4259850,4325386,0.00023745841,-0.00024712124,-0.0024545635,-0.010833965,-0.024350675,-0.04837504,4985,4938,0
235248531,235248403,4259850,4325386,-0.0004379551,-4.13251e-05,-0.0021638863,0.0023673314,-0.0060969507,-0.053561285,4988,4934,0
235752725,235752523,4259850,4325386,-0.0007552036,-0.00028414224,-0.001047135,-0.006450046,-0.0021006407,-0.046780914,4958,4964,0
236251056,236250923,4259850,4325386,0.0007772137,-0.0004613756,-0.0015243713,-0.0052560596,-0.016439887,-0.048607733,4987,4934,0
236749852,236749742,4259850,4325386,2.669548e-05,-0.0033922147,-7.245585e-06,0.0008162314,0.00059457106,-0.054709353,5040,4931,0
237253707,237253593,4259850,4325386,0.00026696274,0.001408169,-0.00032693942,0.014452428,0.006064318,-0.04571068,4986,4943,0
237751895,237751757,4259850,4325386,-0.00056831044,0.0003875102,0.0006448458,-0.009840186,0.0020351575,-0.052758764,4987,4933,0
238250794,238250683,4259850,4325386,-0.0005683102,-0.0010507768,0.00059675094,-0.012807307,-0.00027401393,-0.051992938,4916,4931,0
238748976,238748859,4259850,4325386,0.00031185983,-0.0002361763,-0.0001349482,-0.0027408393,-0.018094804,-0.04473092,4946,4688,0
239252927,239252763,4259850,4325386,0.00037339644,0.0013540192,-0.00013173222,0.0025950312,-0.0010580221,-0.04313378,5250,4960,0
239751388,239751264,4259850,4325386,0.0004062026,0.00081233605,2.8710463e-05,-0.005552589,-0.019948665,-0.052552316,4981,4941,0
240250206,240250034,4259850,4325386,-0.000555143,-0.00027021306,5.0330087e-05,0.0043029455,-0.0013231466,-0.053992122,4990,4994,0
240753624,240753470,4259850,4325386,0.0004929085,-0.00041991816,-0.00047526864,0.013327589,0.0053256373,-0.048729714,4998,4999,0
241247172,241247063,4259850,4325386,0.0003168265,-0.002668778,-0.0005989252,0.0012909363,-0.012484612,-0.043389942,4987,4971,0
241750942,241750817,4259850,4325386,0.00021217864,-0.0016060579,0.0005480087,0.0055212867,0.011576847,-0.05429044,4988,4986,0
242249694,242249583,4259850,4325386,-0.00016085779,0.0034022245,-0.00082915276,0.00792235,-0.0032199312,-0.04390877,4987,4959,0
242748668,242748494,4259850,4325386,-0.0008239758,-0.0037890256,0.0005431389,0.013664784,0.017882641,-0.04868527,4988,4989,0
243252714,243252607,4259850,4325386,0.0005105304,0.0014473831,-0.00027966086,0.0067882515,0.0024596972,-0.043753218,4974,4945,0
243751732,243751553,4259850,4325386,-5.9303975e-06,0.0004570083,0.000456311,0.011547549,0.0074728215,-0.042159222,4972,4973,0
244255460,244255170,4259850,4325386,0.00044178724,0.0038197183,-0.00022443646,-0.0015477006,-0.002304249,-0.044694893,5000,4929,0
244749063,244748908,4259850,4325386,0.0003012653,0.0019495361,-0.0005957629,0.015068568,0.0026126627,-0.04416856,4994,4967,0
245248004,245247816,4259850,4325386,-0.00015934119,-0.002042995,-3.8110607e-05,-0.01072794,0.009066187,-0.048415925,4962,4932,0
245751071,245750962,4259850,4325386,-0.0030078383,-0.0010046111,-0.00016224892,0.003161136,-0.006429072,-0.04120542,4948,4952,0
246250050,246249897,4259850,4325386,0.0036276316,-0.0031129783,-0.00021889537,0.010431273,0.0025172906,-0.042368073,4969,4941,0
246753972,246753447,4259850,4325386,0.0015257297,0.0010544162,0.00013346125,-0.0027892396,-0.004409263,-0.052341126,4991,5535,0
247253006,247252864,4259850,4325386,-0.001600573,0.0011836744,-0.00045300953,-0.00071687315,-0.009692876,-0.05033433,4989,4934,0
247751901,247751478,4259850,4325386,0.00076067535,0.00044835143,-0.00016690168,0.0059221103,-0.0015496042,-0.04525519,4983,4936,0
248250475,248250366,4259850,4325386,2.199211e-05,-0.0016816417,-7.085331e-05,-0.0006618919,-0.016279291,-0.043463413,4960,4961,0
248748761,248748652,4259850,4325386,-0.000431222,-0.001507021,0.00031395475,0.0046211877,0.009163986,-0.0504662,5035,4932,0
249252539,249252406,4259850,4325386,0.00072243856,0.0023743445,-0.00019036158,-0.0071728677,-0.013681711,-0.0508225,4969,4931,0
249751138,249751029,4259850,4325386,-0.0013966155,0.0022710226,0.00084113074,-0.0055497903,0.0054493644,-0.054208778,4987,4934,0
250251345,250249798,4259850,4325386,-0.0013416497,0.0011053166,0.000873342,-0.0041237767,0.013933891,-0.06357214,4988,5934,0
250753214,250753055,4259850,4325386,-0.0013523181,-0.0028804175,0.00044087812,-0.01080829,-0.0097542545,-0.046991464,4991,4991,0
251251943,251251819,4259850,4325386,-0.0009179098,-0.0032223386,-7.6355616e-05,-0.0034631912,-0.008976764,-0.052897133,4988,4970,0
251750233,251750087,4259850,4325386,-0.00060885266,-0.0020916308,0.001258871,0.0025821961,0.015618328,-0.043584857,4988,4117,0
252248982,252248852,4259850,4325386,-0.00097517716,0.00316978,0.00065921596,0.0022999756,0.01071423,-0.043614764,4987,4943,0
252748035,252747862,4259850,4325386,-0.0012925739,0.0029482997,0.0001400459,-6.646055e-05,-0.0043808916,-0.052044787,4962,4934,0
253251483,253251373,4259850,4325386,0.00018156304,-2.8784485e-05,-0.00046559132,0.008447571,0.002261479,-0.04356018,4984,4934,0
253750310,253750141,4259850,4325386,0.00085839897,-0.003795959,-0.0011241178,0.006457036,-0.017462596,-0.042471446,4988,4998,0
254253680,254253451,4259850,4325386,0.000617522,0.004045929,-0.000718522,0.009863276,0.005189768,-0.044174455,4994,4937,0
254752320,254752209,4259850,4325386,0.00021594603,0.0017568417,4.825077e-06,0.006817112,0.011528345,-0.052120045,4931,4928,0
255250623,255250512,4259850,4325386,-7.9455516e-05,-4.5888737e-05,0.00039412308,-0.004518387,0.009644872,-0.046456598,4986,4934,0
255749398,255749201,4259850,4325386,0.00022576044,0.003955052,-0.00044995168,-0.0013042501,-0.004990337,-0.053061116,4992,4946,0
256248093,256247965,4259850,4325386,-0.00026441153,-0.0040204083,-0.00041213483,0.005631744,-0.010364359,-0.04426665,4990,4964,0
256751643,256751405,4259850,4325386,-0.000945782,0.00027100224,0.0005951004,-0.0065580388,-0.004575371,-0.050027598,4970,4933,0
257250615,257250504,4259850,4325386,0.0013899456,-0.00034605176,-0.00055956806,0.008658684,-0.0038727063,-0.0466066,4993,4934,0
257749382,257749250,4259850,4325386,-0.0034164484,0.0010171076,0.00088969624,-0.0058704843,0.0102251535,-0.05472022,4987,4927,0
258253134,258253005,4259850,4325386,0.0024164754,0.0005063902,-4.060378e-05,0.00927403,0.008063726,-0.050252955,4972,4936,0
258751937,258751819,4259850,4325386,0.00041766194,4.9154052e-05,0.0008349895,-0.005495568,-0.0037105153,-0.05124472,5035,4925,0
259250924,259250802,4259850,4325386,-0.0009357172,-0.0007687682,-0.00056590966,-0.006367952,-0.017681235,-0.04990059,5245,4925,0
259749413,259749305,4259850,4325386,-0.00016581967,0.000100772304,0.0001729312,0.0036178308,0.0053713955,-0.041566607,4987,4934,0
260253359,260253074,4259850,4325386,-0.0006268951,0.00012441166,0.0003442528,0.014608696,0.016450983,-0.044673108,4971,4933,0
260752345,260752232,4259850,4325386,0.0011616815,0.0015485152,-0.00052544824,-0.0028895745,-0.0077748788,-0.040549964,4947,4745,0
261250777,261250636,4259850,4325386,-0.00022770131,-0.0015354822,-0.00049826666,-0.005334783,-0.019537438,-0.04335657,5031,4919,0
261754463,261754350,4259850,4325386,0.0003944177,-0.0028128237,-0.000626717,0.00304016,-0.017114202,-0.047413036,4988,4987,0
262247790,262247676,4259850,4325386,0.00024328595,-0.0003277477,-0.00012838212,0.0019191143,-0.0070573934,-0.045768958,4994,4972,0
262751541,262751383,4259850,4325386,-0.00016762246,-0.0025695714,-2.2153303e-05,-0.0061383806,-0.009938948,-0.054620106,4988,4966,0
263250599,263250465,4259850,4325386,-0.001036515,-0.00062941585,0.0010706115,-0.009011397,0.004778785,-0.0651684,5299,6141,0
263749033,263748920,4259850,4325386,0.0004397291,0.00038567206,-0.0002698122,-0.010417965,-0.027524263,-0.051674042,4992,4946,0
264252824,264252688,4259850,4325386,8.395216e-05,-0.0023623214,0.00038378366,-0.003957797,-0.010891891,-0.053719327,4992,4937,0
264751899,264751679,4259850,4325386,0.00023799973,0.0015364996,-9.4786745e-05,0.0024264476,0.003171098,-0.042917296,4986,4936,0
265255436,265254699,4259850,4325386,0.0005170506,0.00275454,-0.0006792834,0.0012799347,-0.010099017,-0.058526587,4993,5922,0
265748594,265748471,4259850,4325386,0.00053890963,-0.0035929398,-0.0005901305,0.00046891894,-0.00300534,-0.052733403,4988,4986,0
266247379,266247238,4259850,4325386,0.0004820036,-0.001506563,-0.00026314237,0.0024730412,-0.0047339294,-0.043496706,4987,4990,0
266751231,266751114,4259850,4325386,0.0014214399,0.0022940638,-0.0008289097,0.004687919,-0.010988087,-0.044855375,4959,4955,0
267250184,267250032,4259850,4325386,0.000109726825,0.0009622317,-0.0003917328,-0.0065040514,-0.0190906,-0.041172523,5257,4928,0
267749645,267749524,4259850,4325386,-0.0017953536,-0.0019179303,9.981455e-05,0.0013605322,-0.00088724325,-0.053136874,4986,4945,0
268253540,268253413,4259850,4325386,-0.001674845,-8.582599e-06,-0.0003916834,-0.009416203,-0.013481788,-0.05511831,4983,4983,0
268752290,268752147,4259850,4325386,-9.8236254e-05,0.0014763273,-0.0004435217,-0.0044441004,-0.016996507,-0.054227885,5039,4927,0
269250957,269250812,4259850,4325386,0.0017798198,8.791527e-05,0.00033088724,0.006012761,-0.00032336696,-0.051040146,4986,4964,0
269749848,269749633,4259850,4325386,-0.000555275,-0.000464565,-0.00041925116,0.00088930427,-0.006050403,-0.06185711,4966,5906,0
270248027,270247887,4259850,4325386,0.0028334146,0.0008890387,-0.0002866647,0.0056744465,-0.0101153,-0.045107633,5000,4996,0
270750728,270750619,4259850,4325386,-0.001726525,-0.00020119052,0.00044024672,-0.0040484276,0.013300984,-0.049140252,4964,4934,0
271250060,271249880,4259850,4325386,0.0010209003,0.0007934921,-0.00049668795,0.0038761387,-0.000264439,-0.051394947,5310,5428,0
271748959,271748838,4259850,4325386,-0.0034812852,0.0023384495,-0.0004557893,-0.0076641063,-0.019232806,-0.04446482,5007,4938,0
272253162,272252960,4259850,4325386,0.0025222786,0.002482003,0.0001445,-0.0022388797,0.011137672,-0.049431186,4970,4975,0
272751283,272751161,4259850,4325386,-0.0017040825,0.0007993223,-0.0002013779,-0.00031608116,-0.003969564,-0.05348574,4990,4972,0
273249160,273248978,4259850,4325386,0.0007589677,0.0029860337,0.00014679333,0.0005780784,-0.0011167484,-0.052166734,4990,4974,0
273748174,273747997,4259850,4325386,-0.0012452998,0.0015132993,0.00016602663,0.0030717938,0.0022093002,-0.05045916,4968,4934,0
274251609,274251497,4259850,4325386,-0.000558463,0.0010212853,0.000788736,-0.009939599,-0.0111823585,-0.050631136,4987,4785,0
274750385,274750267,4259850,4325386,-0.000509383,0.0027731862,0.0004290814,0.001663931,0.0047193007,-0.050107718,4923,4940,0
275254401,275254289,4259850,4325386,0.0005793228,-0.0038218752,0.00033472417,0.0005403516,-0.0041005616,-0.045176387,4991,4939,0
275753526,275753392,4259850,4325386,-0.00014226799,0.00042024418,-0.0001889782,0.01003399,0.005066817,-0.04470525,4970,5005,0
276252849,276252007,4259850,4325386,0.0005018964,-0.0019753298,9.5758645e-05,-0.0012967478,-0.007227218,-0.050497763,4984,4938,0
276750901,276750771,4259850,4325386,-0.0011662272,0.0007260806,0.00051343243,-0.0022594775,-0.0069798105,-0.04780191,4987,4935,0
277249896,277249731,4259850,4325386,0.00029943866,0.00034213555,0.00062269793,0.0020212925,0.007836276,-0.049622837,4972,4693,0
277748414,277748306,4259850,4325386,-0.00044459658,0.0015490339,0.00011614044,0.0033760823,0.006007053,-0.045163665,4989,4968,0
278252096,278251948,4259850,4325386,-0.00048948126,0.00088720775,-2.4156201e-05,-0.0022084143,-0.000420918,-0.03607728,4955,3946,0
278750679,278750380,4259850,4325386,0.0005387378,-0.00048076277,-9.470872e-05,0.004406728,-0.007279081,-0.050165616,4991,4934,0
279254315,279254137,4259850,4325386,-0.00035957445,3.8617985e-05,0.0001830314,0.0030591742,0.008132068,-0.048364285,4992,5001,0
279753154,279753006,4259850,4325386,0.0013125322,-0.0021147244,-0.00089308334,0.00019079726,-0.018348096,-0.045520306,4953,4936,0
280251782,280251667,4259850,4325386,0.0003047453,0.0014045085,-0.000118758275,0.005822473,0.0039078826,-0.049257785,4989,4926,0
280750587,280750445,4259850,4325386,-0.0011464024,0.0030941057,0.00019605423,-0.004878034,0.0026689523,-0.05347485,4984,4956,0
281249467,281249298,4259850,4325386,0.000686563,0.0013807742,0.00015291691,0.0070694676,-0.002488487,-0.051473342,4963,4738,0
281753066,281752956,4259850,4325386,0.0006136861,-0.00021952341,-0.00036478377,0.0061240587,0.009346676,-0.04505645,4989,4935,0
282252922,282251724,4259850,4325386,0.0007042966,0.00020961207,0.00018407384,-0.004106148,0.0053318413,-0.049933087,4987,4963,0
282750668,282750546,4259850,4325386,-0.001156876,0.00013656008,-3.991445e-05,-0.0070633125,-0.0016531373,-0.05108965,4972,4934,0
