timestamp,q[0],q[1],q[2],q[3],delta_q_reset[0],delta_q_reset[1],delta_q_reset[2],delta_q_reset[3],quat_reset_counter
50248069,0.7728229,0.019130817,-0.010096169,-0.6342531,-0.9960255,-1.9881533e-08,2.8121416e-09,0.089069106,2
50253034,0.7728411,0.019162893,-0.010074627,-0.6342302,-0.9960255,-1.9881533e-08,2.8121416e-09,0.089069106,2
50297735,0.77281183,0.019080803,-0.010070472,-0.6342684,-0.9960255,-1.9881533e-08,2.8121416e-09,0.089069106,2
50352370,0.77267474,0.019087762,-0.010049337,-0.6344355,-0.9960255,-1.9881533e-08,2.8121416e-09,0.089069106,2
50402071,0.77278006,0.01886396,-0.009832991,-0.6343173,-0.9960255,-1.9881533e-08,2.8121416e-09,0.089069106,2
50451706,0.7727418,0.019288974,-0.010169909,-0.6343458,-0.9960255,-1.9881533e-08,2.8121416e-09,0.089069106,2
50496407,0.7728288,0.01869174,-0.010206571,-0.634257,-0.9960255,-1.9881533e-08,2.8121416e-09,0.089069106,2
50551042,0.7726328,0.01862558,-0.010210327,-0.6344979,-0.9960255,-1.9881533e-08,2.8121416e-09,0.089069106,2
50600710,0.77264345,0.01900909,-0.010109864,-0.63447505,-0.9960255,-1.9881533e-08,2.8121416e-09,0.089069106,2
50650378,0.77288926,0.019604657,-0.010143033,-0.63415694,-0.9960255,-1.9881533e-08,2.8121416e-09,0.089069106,2
50700219,0.77304304,0.01972897,-0.01012582,-0.633966,-0.9960255,-1.9881533e-08,2.8121416e-09,0.089069106,2
50749714,0.77296406,0.019154143,-0.010264247,-0.6340776,-0.9960255,-1.9881533e-08,2.8121416e-09,0.089069106,2
50799382,0.7728475,0.018929735,-0.010238308,-0.63422686,-0.9960255,-1.9881533e-08,2.8121416e-09,0.089069106,2
50849052,0.7728367,0.018892588,-0.010164318,-0.6342423,-0.9960255,-1.9881533e-08,2.8121416e-09,0.089069106,2
50898718,0.7728673,0.019029519,-0.010173091,-0.6342007,-0.9960255,-1.9881533e-08,2.8121416e-09,0.089069106,2
50948466,0.77302724,0.019215176,-0.010036905,-0.63400227,-0.9960255,-1.9881533e-08,2.8121416e-09,0.089069106,2
50998054,0.77316815,0.019191515,-0.010026936,-0.63383144,-0.9960255,-1.9881533e-08,2.8121416e-09,0.089069106,2
51052689,0.7730976,0.01947912,-0.010086487,-0.6339078,-0.9960255,-1.9881533e-08,2.8121416e-09,0.089069106,2
51102357,0.77323705,0.01948525,-0.010058999,-0.6337379,-0.9960255,-1.9881533e-08,2.8121416e-09,0.089069106,2
51147060,0.77329844,0.01877334,-0.010065341,-0.63368446,-0.9960255,-1.9881533e-08,2.8121416e-09,0.089069106,2
51196726,0.773244,0.018707234,-0.010123859,-0.63375163,-0.9960255,-1.9881533e-08,2.8121416e-09,0.089069106,2
51251562,0.7733125,0.019058399,-0.010112218,-0.63365793,-0.9960255,-1.9881533e-08,2.8121416e-09,0.089069106,2
51301032,0.7732848,0.018978992,-0.010276849,-0.6336915,-0.9960255,-1.9881533e-08,2.8121416e-09,0.089069106,2
51350700,0.77324045,0.01892277,-0.010366715,-0.63374573,-0.9960255,-1.9881533e-08,2.8121416e-09,0.089069106,2
51400366,0.7732584,0.019098023,-0.010389425,-0.63371825,-0.9960255,-1.9881533e-08,2.8121416e-09,0.089069106,2
51450034,0.7732269,0.019149998,-0.010514782,-0.63375294,-0.9960255,-1.9881533e-08,2.8121416e-09,0.089069106,2
51499844,0.77323866,0.019077323,-0.010513919,-0.6337409,-0.9960255,-1.9881533e-08,2.8121416e-09,0.089069106,2
51549418,0.7733232,0.01898181,-0.010245072,-0.6336451,-0.9960255,-1.9881533e-08,2.8121416e-09,0.089069106,2
51599038,0.77339613,0.018990673,-0.010017314,-0.6335594,-0.9960255,-1.9881533e-08,2.8121416e-09,0.089069106,2
51648709,0.77349,0.018960476,-0.0098332055,-0.6334486,-0.9960255,-1.9881533e-08,2.8121416e-09,0.089069106,2
51698375,0.77359676,0.018923124,-0.009699729,-0.6333213,-0.9960255,-1.9881533e-08,2.8121416e-09,0.089069106,2
51753096,0.77347696,0.019403871,-0.0099098375,-0.63345,-0.9960255,-1.9881533e-08,2.8121416e-09,0.089069106,2
51802676,0.77347857,0.019450828,-0.009886024,-0.6334468,-0.9960255,-1.9881533e-08,2.8121416e-09,0.089069106,2
51847378,0.77348614,0.0194152,-0.00968011,-0.633442,-0.9960255,-1.9881533e-08,2.8121416e-09,0.089069106,2
51897048,0.7732119,0.018623862,-0.009740503,-0.63379943,-0.9960255,-1.9881533e-08,2.8121416e-09,0.089069106,2
51951685,0.77361286,0.018244976,-0.009950546,-0.6333177,-0.9960255,-1.9881533e-08,2.8121416e-09,0.089069106,2
52001349,0.7729908,0.017188288,-0.010214998,-0.63410217,-0.9960255,-1.9881533e-08,2.8121416e-09,0.089069106,2
52051172,0.77322793,0.018045373,-0.009859199,-0.6337947,-0.9960255,-1.9881533e-08,2.8121416e-09,0.089069106,2
52100682,0.77346164,0.017988432,-0.010180864,-0.6335061,-0.9960255,-1.9881533e-08,2.8121416e-09,0.089069106,2
52150353,0.77351314,0.018409578,-0.009849246,-0.6334363,-0.9960255,-1.9881533e-08,2.8121416e-09,0.089069106,2
52200021,0.7736503,0.018462226,-0.009211572,-0.6332768,-0.9960255,-1.9881533e-08,2.8121416e-09,0.089069106,2
52249689,0.77353424,0.017647168,-0.010027342,-0.63342947,-0.9960255,-1.9881533e-08,2.8121416e-09,0.089069106,2
52299416,0.77348715,0.017772919,-0.010158398,-0.6334814,-0.9960255,-1.9881533e-08,2.8121416e-09,0.089069106,2
52349025,0.77345496,0.017786048,-0.009616847,-0.63352877,-0.9960255,-1.9881533e-08,2.8121416e-09,0.089069106,2
52398704,0.7737479,0.018343808,-0.010039647,-0.63314855,-0.9960255,-1.9881533e-08,2.8121416e-09,0.089069106,2
52453328,0.7736139,0.019011665,-0.009554736,-0.6333,-0.9960255,-1.9881533e-08,2.8121416e-09,0.089069106,2
52498048,0.7733704,0.019240448,-0.01026191,-0.6335794,-0.9960255,-1.9881533e-08,2.8121416e-09,0.089069106,2
52547698,0.77339596,0.019955818,-0.0103466725,-0.6335246,-0.9960255,-1.9881533e-08,2.8121416e-09,0.089069106,2
52597368,0.7733586,0.021217123,-0.009799161,-0.63353795,-0.9960255,-1.9881533e-08,2.8121416e-09,0.089069106,2
52652001,0.77310616,0.021076942,-0.010395465,-0.63384116,-0.9960255,-1.9881533e-08,2.8121416e-09,0.089069106,2
52701668,0.7732833,0.021295592,-0.010168349,-0.6336213,-0.9960255,-1.9881533e-08,2.8121416e-09,0.089069106,2
52751336,0.7734345,0.019602766,-0.009945996,-0.633495,-0.9960255,-1.9881533e-08,2.8121416e-09,0.089069106,2
52801005,0.7738862,0.019305114,-0.009767584,-0.63295513,-0.9960255,-1.9881533e-08,2.8121416e-09,0.089069106,2
52850801,0.7735208,0.018365318,-0.010251825,-0.6334218,-0.9960255,-1.9881533e-08,2.8121416e-09,0.089069106,2
52900340,0.7738242,0.018829407,-0.0094652185,-0.6330498,-0.9960255,-1.9881533e-08,2.8121416e-09,0.089069106,2
52950009,0.7736983,0.018697554,-0.00990122,-0.633201,-0.9960255,-1.9881533e-08,2.8121416e-09,0.089069106,2
52999677,0.77351815,0.01761578,-0.010257602,-0.6334464,-0.9960255,-1.9881533e-08,2.8121416e-09,0.089069106,2
53049344,0.77367705,0.01720321,-0.010054466,-0.63326675,-0.9960255,-1.9881533e-08,2.8121416e-09,0.089069106,2
53099039,0.77365184,0.016985929,-0.009764411,-0.63330805,-0.9960255,-1.9881533e-08,2.8121416e-09,0.089069106,2
53153648,0.7738355,0.016940527,-0.0096680345,-0.6330864,-0.9960255,-1.9881533e-08,2.8121416e-09,0.089069106,2
53198349,0.7735839,0.016399287,-0.0097902315,-0.63340604,-0.9960255,-1.9881533e-08,2.8121416e-09,0.089069106,2
53248017,0.77354735,0.015907792,-0.009674838,-0.633465,-0.9960255,-1.9881533e-08,2.8121416e-09,0.089069106,2
53297688,0.77338934,0.014938198,-0.009896994,-0.633678,-0.9960255,-1.9881533e-08,2.8121416e-09,0.089069106,2
53352321,0.77318656,0.013897954,-0.009027601,-0.633962,-0.9960255,-1.9881533e-08,2.8121416e-09,0.089069106,2
53402175,0.7734892,0.012797196,-0.009681203,-0.63360643,-0.9960255,-1.9881533e-08,2.8121416e-09,0.089069106,2
53446711,0.77345973,0.01093868,-0.009369058,-0.63368183,-0.9960255,-1.9881533e-08,2.8121416e-09,0.089069106,2
53501324,0.7734425,0.00907161,-0.007816899,-0.6337534,-0.9960255,-1.9881533e-08,2.8121416e-09,0.089069106,2
53550992,0.7730315,0.007850184,-0.0070251194,-0.6342803,-0.9960255,-1.9881533e-08,2.8121416e-09,0.089069106,2
53600660,0.7720806,0.007892392,-0.0076900003,-0.6354291,-0.9960255,-1.9881533e-08,2.8121416e-09,0.089069106,2
53650419,0.769777,0.013362297,-0.0106255505,-0.6380846,-0.9960255,-1.9881533e-08,2.8121416e-09,0.089069106,2
53699997,0.7683523,0.018743893,-0.0116432905,-0.6396467,-0.9960255,-1.9881533e-08,2.8121416e-09,0.089069106,2
53749664,0.76867443,0.02424042,-0.010719896,-0.639091,-0.9960255,-1.9881533e-08,2.8121416e-09,0.089069106,2
53799332,0.7682746,0.03090608,-0.011001746,-0.6392791,-0.9960255,-1.9881533e-08,2.8121416e-09,0.089069106,2
53853967,0.7686806,0.032840345,-0.009229344,-0.63872254,-0.9960255,-1.9881533e-08,2.8121416e-09,0.089069106,2
53898710,0.76950145,0.032862253,-0.008353077,-0.63774437,-0.9960255,-1.9881533e-08,2.8121416e-09,0.089069106,2
53948337,0.7699877,0.034244664,-0.0059865657,-0.63711107,-0.9960255,-1.9881533e-08,2.8121416e-09,0.089069106,2
53998005,0.77104306,0.03686023,-0.007970744,-0.6356653,-0.9960255,-1.9881533e-08,2.8121416e-09,0.089069106,2
54052639,0.772037,0.03221936,-0.006824698,-0.6347237,-0.9960255,-1.9881533e-08,2.8121416e-09,0.089069106,2
54102313,0.7752028,0.031925008,-0.004809358,-0.6308869,-0.9960255,-1.9881533e-08,2.8121416e-09,0.089069106,2
54147025,0.7777746,0.028538002,-0.00079564244,-0.62789464,-0.9960255,-1.9881533e-08,2.8121416e-09,0.089069106,2
54201794,0.780555,0.020352427,0.002955507,-0.6247488,-0.9960255,-1.9881533e-08,2.8121416e-09,0.089069106,2
54251312,0.7825189,0.012910912,0.0064041237,-0.6224601,-0.9960255,-1.9881533e-08,2.8121416e-09,0.089069106,2
54300980,0.7843057,0.0023343852,0.0068173385,-0.6203327,-0.9960255,-1.9881533e-08,2.8121416e-09,0.089069106,2
54350648,0.78538114,-0.0046009272,0.0049083405,-0.61897594,-0.9960255,-1.9881533e-08,2.8121416e-09,0.089069106,2
54400327,0.78533244,-0.007092905,0.0002763023,-0.61903375,-0.9960255,-1.9881533e-08,2.8121416e-09,0.089069106,2
54450037,0.7850943,-0.008923643,-0.004328223,-0.6192969,-0.9960255,-1.9881533e-08,2.8121416e-09,0.089069106,2
54499653,0.78600806,-0.008262292,-0.0046578483,-0.61814356,-0.9960255,-1.9881533e-08,2.8121416e-09,0.089069106,2
54549326,0.78689384,-0.010045156,-0.0058837035,-0.6169786,-0.9960255,-1.9881533e-08,2.8121416e-09,0.089069106,2
54598988,0.7869105,-0.010415261,-0.010849352,-0.61688393,-0.9960255,-1.9881533e-08,2.8121416e-09,0.089069106,2
54648664,0.7869954,-0.012229244,-0.014416785,-0.6166693,-0.9960255,-1.9881533e-08,2.8121416e-09,0.089069106,2
54698328,0.78598243,-0.011137666,-0.016709326,-0.6179226,-0.9960255,-1.9881533e-08,2.8121416e-09,0.089069106,2
54753003,0.78495425,-0.008421359,-0.018011767,-0.61923474,-0.9960255,-1.9881533e-08,2.8121416e-09,0.089069106,2
54797660,0.78396463,-0.0037301343,-0.019128414,-0.6204997,-0.9960255,-1.9881533e-08,2.8121416e-09,0.089069106,2
54847330,0.7823516,0.00025004245,-0.018389639,-0.6225655,-0.9960255,-1.9881533e-08,2.8121416e-09,0.089069106,2
54901964,0.78091055,0.0019841457,-0.020950053,-0.6242884,-0.9960255,-1.9881533e-08,2.8121416e-09,0.089069106,2
54951632,0.77907807,0.0059288642,-0.026977424,-0.6263183,-0.9960255,-1.9881533e-08,2.8121416e-09,0.089069106,2
55001462,0.7770269,0.016766164,-0.033473372,-0.6283533,-0.9960255,-1.9881533e-08,2.8121416e-09,0.089069106,2
55050968,0.77498376,0.02793819,-0.037173226,-0.63026804,-0.9960255,-1.9881533e-08,2.8121416e-09,0.089069106,2
55100636,0.7732471,0.031212892,-0.034243718,-0.63240975,-0.9960255,-1.9881533e-08,2.8121416e-09,0.089069106,2
55150304,0.77176094,0.030723797,-0.031794228,-0.6343739,-0.9960255,-1.9881533e-08,2.8121416e-09,0.089069106,2
55199972,0.77010256,0.030530542,-0.031457495,-0.6364122,-0.9960255,-1.9881533e-08,2.8121416e-09,0.089069106,2
55249701,0.76852757,0.03138792,-0.0330733,-0.6381898,-0.9960255,-1.9881533e-08,2.8121416e-09,0.089069106,2
55299333,0.7672634,0.030871293,-0.030647207,-0.6398552,-0.9960255,-1.9881533e-08,2.8121416e-09,0.089069106,2
55348977,0.76659924,0.025547335,-0.025711123,-0.6411022,-0.9960255,-1.9881533e-08,2.8121416e-09,0.089069106,2
55398645,0.7659936,0.020385724,-0.022186182,-0.64214194,-0.9960255,-1.9881533e-08,2.8121416e-09,0.089069106,2
55453281,0.76529187,0.021407807,-0.025967669,-0.642803,-0.9960255,-1.9881533e-08,2.8121416e-09,0.089069106,2
55497981,0.7645317,0.025040776,-0.029557588,-0.64342105,-0.9960255,-1.9881533e-08,2.8121416e-09,0.089069106,2
55547807,0.7640243,0.027000533,-0.030907914,-0.64388084,-0.9960255,-1.9881533e-08,2.8121416e-09,0.089069106,2
55602291,0.76385486,0.026788387,-0.033195335,-0.6439768,-0.9960255,-1.9881533e-08,2.8121416e-09,0.089069106,2
55651952,0.763555,0.028561331,-0.033679903,-0.64423126,-0.9960255,-1.9881533e-08,2.8121416e-09,0.089069106,2
55701620,0.76336586,0.03415359,-0.03292826,-0.6442219,-0.9960255,-1.9881533e-08,2.8121416e-09,0.089069106,2
55746366,0.7638015,0.037314966,-0.031354714,-0.64360845,-0.9960255,-1.9881533e-08,2.8121416e-09,0.089069106,2
55801043,0.7639586,0.03918388,-0.031780243,-0.6432901,-0.9960255,-1.9881533e-08,2.8121416e-09,0.089069106,2
55850624,0.76439416,0.041318025,-0.031731006,-0.6426412,-0.9960255,-1.9881533e-08,2.8121416e-09,0.089069106,2
55900324,0.764552,0.046029978,-0.031835824,-0.6421277,-0.9960255,-1.9881533e-08,2.8121416e-09,0.089069106,2
55950010,0.7648417,0.05137193,-0.03483145,-0.64122134,-0.9960255,-1.9881533e-08,2.8121416e-09,0.089069106,2
55999630,0.76549155,0.05145608,-0.036678314,-0.64033574,-0.9960255,-1.9881533e-08,2.8121416e-09,0.089069106,2
56049301,0.76648843,0.0470378,-0.03511361,-0.63957024,-0.9960255,-1.9881533e-08,2.8121416e-09,0.089069106,2
56098965,0.7677351,0.040121365,-0.029510321,-0.6388287,-0.9960255,-1.9881533e-08,2.8121416e-09,0.089069106,2
56148633,0.7688719,0.033708684,-0.024400111,-0.6380474,-0.9960255,-1.9881533e-08,2.8121416e-09,0.089069106,2
56198352,0.77027744,0.021638466,-0.014401222,-0.637179,-0.9960255,-1.9881533e-08,2.8121416e-09,0.089069106,2
56247969,0.7714405,0.011681086,-0.00606089,-0.63616544,-0.9960255,-1.9881533e-08,2.8121416e-09,0.089069106,2
56302604,0.77231175,0.0065431343,-0.001864895,-0.6352075,-0.9960255,-1.9881533e-08,2.8121416e-09,0.089069106,2
56352467,0.7730752,0.00454563,-0.001224445,-0.634297,-0.9960255,-1.9881533e-08,2.8121416e-09,0.089069106,2
56396973,0.7735116,0.0030321195,-0.0013952658,-0.6337734,-0.9960255,-1.9881533e-08,2.8121416e-09,0.089069106,2
56446641,0.7744561,-0.0018855985,-0.0048536877,-0.6326063,-0.9960255,-1.9881533e-08,2.8121416e-09,0.089069106,2
56501289,0.77530193,-0.010543512,-0.014837377,-0.63132864,-0.9960255,-1.9881533e-08,2.8121416e-09,0.089069106,2
56550946,0.77550715,-0.013169856,-0.017102884,-0.6309698,-0.9960255,-1.9881533e-08,2.8121416e-09,0.089069106,2
56600662,0.7756143,-0.012248544,-0.014829178,-0.63091415,-0.9960255,-1.9881533e-08,2.8121416e-09,0.089069106,2
56650292,0.77597106,-0.01153889,-0.013621945,-0.6305159,-0.9960255,-1.9881533e-08,2.8121416e-09,0.089069106,2
56699949,0.7764034,-0.012518317,-0.013996209,-0.62995654,-0.9960255,-1.9881533e-08,2.8121416e-09,0.089069106,2
56749617,0.7766594,-0.013635295,-0.015543433,-0.6295813,-0.9960255,-1.9881533e-08,2.8121416e-09,0.089069106,2
56799288,0.7768411,-0.013979926,-0.016262544,-0.6293314,-0.9960255,-1.9881533e-08,2.8121416e-09,0.089069106,2
56848954,0.776858,-0.011591918,-0.014668152,-0.62939835,-0.9960255,-1.9881533e-08,2.8121416e-09,0.089069106,2
56898813,0.7767384,-0.008024993,-0.009878907,-0.6296947,-0.9960255,-1.9881533e-08,2.8121416e-09,0.089069106,2
56948289,0.77671564,-0.005489559,-0.0049613677,-0.6298081,-0.9960255,-1.9881533e-08,2.8121416e-09,0.089069106,2
57002925,0.77685827,-0.003319826,-0.0021958214,-0.6296629,-0.9960255,-1.9881533e-08,2.8121416e-09,0.089069106,2
57052592,0.7769506,-0.0020472996,-0.0019768104,-0.6295552,-0.9960255,-1.9881533e-08,2.8121416e-09,0.089069106,2
57097295,0.77684116,-0.0011893302,-0.0026333176,-0.62968993,-0.9960255,-1.9881533e-08,2.8121416e-09,0.089069106,2
57147049,0.777019,-0.00042379688,-0.0026381116,-0.6294715,-0.9960255,-1.9881533e-08,2.8121416e-09,0.089069106,2
57201597,0.777097,0.0015956465,-0.003422554,-0.6293696,-0.9960255,-1.9881533e-08,2.8121416e-09,0.089069106,2
57251266,0.7772354,0.0016737753,-0.0028661469,-0.6292012,-0.9960255,-1.9881533e-08,2.8121416e-09,0.089069106,2
57300933,0.77807564,0.0007025912,-0.0020270806,-0.628167,0.9999992,-1.0920406e-10,-7.619941e-11,0.0012404623,3
57350602,0.7780012,0.00040210562,-0.0012355739,-0.62826157,0.9999992,-1.0920406e-10,-7.619941e-11,0.0012404623,3
57400344,0.7779114,0.0008487411,-0.0008673601,-0.6283729,0.9999992,-1.0920406e-10,-7.619941e-11,0.0012404623,3
57449938,0.7784219,0.0014951165,-0.0008023739,-0.62773913,0.99999934,-1.781156e-10,-4.342327e-10,0.0011947126,4
57499605,0.77806664,0.0021586623,-0.0011183228,-0.6281772,0.99999934,-1.781156e-10,-4.342327e-10,0.0011947126,4
57549273,0.7777652,0.0022351407,-0.0010976329,-0.62855005,0.99999934,-1.781156e-10,-4.342327e-10,0.0011947126,4
57598944,0.7776238,0.0024773418,-0.0014986745,-0.62872326,0.99999934,-1.781156e-10,-4.342327e-10,0.0011947126,4
57648610,0.77750087,0.0023025787,-0.0013827869,-0.62887615,0.99999934,-1.781156e-10,-4.342327e-10,0.0011947126,4
57703420,0.7774035,0.0019467683,-0.0014857545,-0.62899745,0.99999934,-1.781156e-10,-4.342327e-10,0.0011947126,4
57752913,0.777571,0.0020512242,-0.0019067558,-0.6287889,0.99999934,-1.781156e-10,-4.342327e-10,0.0011947126,4
57797614,0.77769417,0.0021139777,-0.0021488122,-0.62863564,0.99999934,-1.781156e-10,-4.342327e-10,0.0011947126,4
57847311,0.77775025,0.002449039,-0.0023556203,-0.62856424,0.99999934,-1.781156e-10,-4.342327e-10,0.0011947126,4
57901922,0.77803767,0.0029319825,-0.0019680648,-0.62820786,0.99999934,-1.781156e-10,-4.342327e-10,0.0011947126,4
57951672,0.77805346,0.0029593413,-0.0019574792,-0.62818813,0.99999934,-1.781156e-10,-4.342327e-10,0.0011947126,4
58001253,0.7780471,0.0020454347,-0.0010835268,-0.62820166,0.99999934,-1.781156e-10,-4.342327e-10,0.0011947126,4
58050921,0.77779365,0.0052271327,-0.0040411996,-0.62848514,0.99999934,-1.781156e-10,-4.342327e-10,0.0011947126,4
58100618,0.77702653,0.021975873,-0.01741735,-0.6288429,0.99999934,-1.781156e-10,-4.342327e-10,0.0011947126,4
58150257,0.7757321,0.041393314,-0.03293292,-0.62884164,0.99999934,-1.781156e-10,-4.342327e-10,0.0011947126,4
58199927,0.77478945,0.05245981,-0.04169252,-0.6286581,0.99999934,-1.781156e-10,-4.342327e-10,0.0011947126,4
58249594,0.77439827,0.057072528,-0.04647264,-0.62840295,0.99999934,-1.781156e-10,-4.342327e-10,0.0011947126,4
58299264,0.7742795,0.05717484,-0.047730092,-0.6284459,0.99999934,-1.781156e-10,-4.342327e-10,0.0011947126,4
58348930,0.7749109,0.050933693,-0.04361484,-0.6285035,0.99999934,-1.781156e-10,-4.342327e-10,0.0011947126,4
58403565,0.7755104,0.04277992,-0.03596176,-0.6288565,0.99999934,-1.781156e-10,-4.342327e-10,0.0011947126,4
58448266,0.77543855,0.04000384,-0.032660533,-0.62930775,0.99999934,-1.781156e-10,-4.342327e-10,0.0011947126,4
58498054,0.775451,0.038770393,-0.03220384,-0.629393,0.99999934,-1.781156e-10,-4.342327e-10,0.0011947126,4
58547604,0.7752978,0.038014144,-0.032458343,-0.6296149,0.99999934,-1.781156e-10,-4.342327e-10,0.0011947126,4
58602238,0.7749722,0.037972424,-0.032728206,-0.63000405,0.99999934,-1.781156e-10,-4.342327e-10,0.0011947126,4
58651907,0.77497905,0.038771935,-0.03287842,-0.629939,0.99999934,-1.781156e-10,-4.342327e-10,0.0011947126,4
58696608,0.77460945,0.03984898,-0.033348154,-0.6303018,0.99999934,-1.781156e-10,-4.342327e-10,0.0011947126,4
58751284,0.7740683,0.042715266,-0.035130233,-0.6306819,0.99999934,-1.781156e-10,-4.342327e-10,0.0011947126,4
58800911,0.77377427,0.045434926,-0.037201624,-0.6307339,0.99999934,-1.781156e-10,-4.342327e-10,0.0011947126,4
58850578,0.7728632,0.049968217,-0.041079145,-0.63126725,0.99999934,-1.781156e-10,-4.342327e-10,0.0011947126,4
58900247,0.77248913,0.052561816,-0.04305731,-0.6313825,0.99999934,-1.781156e-10,-4.342327e-10,0.0011947126,4
58949919,0.77216214,0.05358451,-0.04401271,-0.6316307,0.99999934,-1.781156e-10,-4.342327e-10,0.0011947126,4
58999628,0.7717849,0.054301664,-0.044188157,-0.6320181,0.99999934,-1.781156e-10,-4.342327e-10,0.0011947126,4
59049449,0.7719549,0.05246589,-0.0425389,-0.6320788,0.99999934,-1.781156e-10,-4.342327e-10,0.0011947126,4
59103885,0.772235,0.046002857,-0.036946762,-0.6325914,0.99999934,-1.781156e-10,-4.342327e-10,0.0011947126,4
59148587,0.7727092,0.03833119,-0.030495068,-0.6328676,0.99999934,-1.781156e-10,-4.342327e-10,0.0011947126,4
59198255,0.77332675,0.029634401,-0.023976486,-0.6328608,0.99999934,-1.781156e-10,-4.342327e-10,0.0011947126,4
59247923,0.77350235,0.022339638,-0.019036883,-0.63311344,0.99999934,-1.781156e-10,-4.342327e-10,0.0011947126,4
59302663,0.7736874,0.015693082,-0.014359834,-0.63321036,0.99999934,-1.781156e-10,-4.342327e-10,0.0011947126,4
59352226,0.7741351,0.009277578,-0.009028159,-0.63288814,0.99999934,-1.781156e-10,-4.342327e-10,0.0011947126,4
59396928,0.7742914,0.0051906398,-0.0057975724,-0.6327813,0.99999934,-1.781156e-10,-4.342327e-10,0.0011947126,4
59451562,0.7744517,0.0034172279,-0.0041110283,-0.63261056,0.99999934,-1.781156e-10,-4.342327e-10,0.0011947126,4
59501249,0.77496487,0.0025828192,-0.0025913094,-0.63199383,0.99999934,-1.781156e-10,-4.342327e-10,0.0011947126,4
59550919,0.7750183,0.0028228457,-0.0028811514,-0.63192594,0.99999934,-1.781156e-10,-4.342327e-10,0.0011947126,4
59600568,0.77536356,0.0027440444,-0.002860068,-0.6315028,0.99999934,-1.781156e-10,-4.342327e-10,0.0011947126,4
59650261,0.7755947,0.0019389209,-0.0018551328,-0.63122547,0.99999934,-1.781156e-10,-4.342327e-10,0.0011947126,4
59699906,0.7757553,0.0018912058,-0.0014680647,-0.6310294,0.99999934,-1.781156e-10,-4.342327e-10,0.0011947126,4
59749572,0.7759986,0.0022372734,-0.0013934879,-0.63072914,0.99999934,-1.781156e-10,-4.342327e-10,0.0011947126,4
59799289,0.77580184,0.002260845,-0.0014547252,-0.630971,0.99999934,-1.781156e-10,-4.342327e-10,0.0011947126,4
59849059,0.7759061,0.0018497624,-0.0011235226,-0.6308447,0.99999934,-1.781156e-10,-4.342327e-10,0.0011947126,4
59898583,0.77608293,0.0016886177,-0.0014740628,-0.63062704,0.99999934,-1.781156e-10,-4.342327e-10,0.0011947126,4
59948244,0.7759155,0.0021537752,-0.0025893578,-0.630828,0.99999934,-1.781156e-10,-4.342327e-10,0.0011947126,4
60002880,0.77606666,0.0020391676,-0.002126516,-0.63064414,0.99999934,-1.781156e-10,-4.342327e-10,0.0011947126,4
60047582,0.7760736,0.0019496834,-0.001421324,-0.63063776,0.99999934,-1.781156e-10,-4.342327e-10,0.0011947126,4
60097307,0.7761618,0.0024207267,-0.0008670439,-0.63052857,0.99999934,-1.781156e-10,-4.342327e-10,0.0011947126,4
60151883,0.7762307,0.0031856697,-0.0012347262,-0.63043976,0.99999934,-1.781156e-10,-4.342327e-10,0.0011947126,4
60201552,0.7764832,0.003302898,-0.00017982302,-0.6301293,0.99999934,-1.781156e-10,-4.342327e-10,0.0011947126,4
60251220,0.7768144,0.0038451343,0.00035822613,-0.62971777,0.99999934,-1.781156e-10,-4.342327e-10,0.0011947126,4
60300888,0.7772246,0.004987606,-0.00041339317,-0.6292034,0.99999934,-1.781156e-10,-4.342327e-10,0.0011947126,4
60350583,0.7776936,0.0053138565,-0.0006586949,-0.6286206,0.99999934,-1.781156e-10,-4.342327e-10,0.0011947126,4
60400224,0.77818567,0.004528109,0.00047155624,-0.6280179,0.99999934,-1.781156e-10,-4.342327e-10,0.0011947126,4
60449892,0.77852196,0.0039855954,0.0012933633,-0.6276035,0.99999934,-1.781156e-10,-4.342327e-10,0.0011947126,4
60499560,0.7787733,0.0043022013,0.0010727871,-0.6272898,0.99999934,-1.781156e-10,-4.342327e-10,0.0011947126,4
60549228,0.7788793,0.007603457,-0.0019352058,-0.6271249,0.99999934,-1.781156e-10,-4.342327e-10,0.0011947126,4
60598901,0.7788218,0.016382005,-0.0093881665,-0.62696105,0.99999934,-1.781156e-10,-4.342327e-10,0.0011947126,4
60648733,0.7784318,0.027542586,-0.018676277,-0.6268466,0.99999934,-1.781156e-10,-4.342327e-10,0.0011947126,4
60703203,0.7782062,0.036571875,-0.026232185,-0.62639403,0.99999934,-1.781156e-10,-4.342327e-10,0.0011947126,4
60747901,0.77769566,0.042985223,-0.03193499,-0.62635607,0.99999934,-1.781156e-10,-4.342327e-10,0.0011947126,4
60797569,0.777269,0.049957395,-0.03827159,-0.6260131,0.99999934,-1.781156e-10,-4.342327e-10,0.0011947126,4
60852205,0.77560854,0.06761372,-0.052520737,-0.62538105,0.99999934,-1.781156e-10,-4.342327e-10,0.0011947126,4
60901914,0.77454436,0.078321286,-0.061561335,-0.6246257,0.99999934,-1.781156e-10,-4.342327e-10,0.0011947126,4
60951540,0.7747089,0.07759402,-0.062141277,-0.6244549,0.99999934,-1.781156e-10,-4.342327e-10,0.0011947126,4
60996242,0.7749406,0.07331319,-0.059187964,-0.62497115,0.99999934,-1.781156e-10,-4.342327e-10,0.0011947126,4
61050877,0.77557254,0.068550766,-0.054364063,-0.62516624,0.99999934,-1.781156e-10,-4.342327e-10,0.0011947126,4
61100545,0.7755677,0.06569708,-0.052309655,-0.62565345,0.99999934,-1.781156e-10,-4.342327e-10,0.0011947126,4
61150215,0.775866,0.05994368,-0.048170675,-0.6261935,0.99999934,-1.781156e-10,-4.342327e-10,0.0011947126,4
61200062,0.7762383,0.05226058,-0.04175708,-0.62688065,0.99999934,-1.781156e-10,-4.342327e-10,0.0011947126,4
61249549,0.7763335,0.046306353,-0.036830097,-0.6275393,0.99999934,-1.781156e-10,-4.342327e-10,0.0011947126,4
61299221,0.7762007,0.04259253,-0.033866163,-0.6281333,0.99999934,-1.781156e-10,-4.342327e-10,0.0011947126,4
61348886,0.7760323,0.03896949,-0.031476483,-0.62870073,0.99999934,-1.781156e-10,-4.342327e-10,0.0011947126,4
61398554,0.77609956,0.03126,-0.025234094,-0.62932956,0.99999934,-1.781156e-10,-4.342327e-10,0.0011947126,4
61448302,0.7762462,0.017656151,-0.013274373,-0.63004285,0.99999934,-1.781156e-10,-4.342327e-10,0.0011947126,4
61497897,0.77596915,0.00857138,-0.0047199107,-0.63069504,0.99999934,-1.781156e-10,-4.342327e-10,0.0011947126,4
61552554,0.7754974,0.0056388783,-0.0022934685,-0.63132155,0.99999934,-1.781156e-10,-4.342327e-10,0.0011947126,4
61602198,0.775079,0.0042836852,-0.0027884517,-0.6318436,0.99999934,-1.781156e-10,-4.342327e-10,0.0011947126,4
61651861,0.7748433,0.0015428587,-0.0011192746,-0.63215065,0.99999934,-1.781156e-10,-4.342327e-10,0.0011947126,4
61696611,0.77474433,-9.954201e-05,0.00081260817,-0.63227415,0.99999934,-1.781156e-10,-4.342327e-10,0.0011947126,4
61751203,0.7744713,-0.00036399215,0.0011774576,-0.63260794,0.99999934,-1.781156e-10,-4.342327e-10,0.0011947126,4
61800909,0.77437115,-0.0010140425,0.0012464438,-0.63272965,0.99999934,-1.781156e-10,-4.342327e-10,0.0011947126,4
61850538,0.77448875,-0.0013590174,0.0013986425,-0.63258475,0.99999934,-1.781156e-10,-4.342327e-10,0.0011947126,4
61900203,0.77449757,-0.0013936112,0.0012677545,-0.63257414,0.99999934,-1.781156e-10,-4.342327e-10,0.0011947126,4
61949870,0.774538,-0.0017273922,0.0013018386,-0.6325238,0.99999934,-1.781156e-10,-4.342327e-10,0.0011947126,4
61999681,0.7746035,-0.0016658724,0.00073232036,-0.6324447,0.99999934,-1.781156e-10,-4.342327e-10,0.0011947126,4
62049207,0.77280056,-0.0018891883,0.0005486009,-0.634646,0.99999934,-1.781156e-10,-4.342327e-10,0.0011947126,4
62098875,0.7712257,-0.0022289683,-0.0021035804,-0.6365545,0.99999934,-1.781156e-10,-4.342327e-10,0.0011947126,4
62148543,0.7703768,-0.003165462,-0.0070479796,-0.6375422,0.99999934,-1.781156e-10,-4.342327e-10,0.0011947126,4
62198215,0.76905215,-0.0051373835,-0.011714379,-0.63905805,0.99999934,-1.781156e-10,-4.342327e-10,0.0011947126,4
62252985,0.76785713,-0.008279528,-0.013587119,-0.6404236,0.99999934,-1.781156e-10,-4.342327e-10,0.0011947126,4
62302514,0.7666713,-0.009804962,-0.014642473,-0.641798,0.99999934,-1.781156e-10,-4.342327e-10,0.0011947126,4
62347215,0.7655611,-0.010358728,-0.015693128,-0.64308846,0.99999934,-1.781156e-10,-4.342327e-10,0.0011947126,4
62396884,0.7645769,-0.01180983,-0.016700177,-0.644208,0.99999934,-1.781156e-10,-4.342327e-10,0.0011947126,4
62451519,0.76331097,-0.013458475,-0.01726174,-0.6456604,0.99999934,-1.781156e-10,-4.342327e-10,0.0011947126,4
62501225,0.76178855,-0.013783676,-0.017768847,-0.64743537,0.99999934,-1.781156e-10,-4.342327e-10,0.0011947126,4
62550855,0.7604823,-0.013481112,-0.017302932,-0.64898825,0.99999934,-1.781156e-10,-4.342327e-10,0.0011947126,4
62600523,0.75896347,-0.0128011005,-0.017951421,-0.6507599,0.99999934,-1.781156e-10,-4.342327e-10,0.0011947126,4
62650196,0.75781506,-0.010199426,-0.018566117,-0.65212554,0.99999934,-1.781156e-10,-4.342327e-10,0.0011947126,4
62699859,0.75698763,-0.0033961071,-0.017890686,-0.6531755,0.99999934,-1.781156e-10,-4.342327e-10,0.0011947126,4
62749545,0.75632036,0.0041002883,-0.014725071,-0.65402293,0.99999934,-1.781156e-10,-4.342327e-10,0.0011947126,4
62799309,0.7556237,0.010975246,-0.0107242735,-0.6548263,0.99999934,-1.781156e-10,-4.342327e-10,0.0011947126,4
62848864,0.7549426,0.01873763,-0.006196822,-0.655494,0.99999934,-1.781156e-10,-4.342327e-10,0.0011947126,4
62898533,0.75434685,0.024769804,-0.0036307536,-0.6559987,0.99999934,-1.781156e-10,-4.342327e-10,0.0011947126,4
62953169,0.75397104,0.025117004,-0.0056594163,-0.656403,0.99999934,-1.781156e-10,-4.342327e-10,0.0011947126,4
63002835,0.7539168,0.0206166,-0.009884684,-0.6565721,0.99999934,-1.781156e-10,-4.342327e-10,0.0011947126,4
63047559,0.7534586,0.015364156,-0.015475764,-0.6571336,0.99999934,-1.781156e-10,-4.342327e-10,0.0011947126,4
63097206,0.7532261,0.008903051,-0.02165221,-0.65734506,0.99999934,-1.781156e-10,-4.342327e-10,0.0011947126,4
63151840,0.7530023,0.0023777469,-0.0279758,-0.6574186,0.99999934,-1.781156e-10,-4.342327e-10,0.0011947126,4
63201508,0.75256604,-0.000107233165,-0.030397722,-0.65781486,0.99999934,-1.781156e-10,-4.342327e-10,0.0011947126,4
63251178,0.7521135,-0.0009762101,-0.030756995,-0.65831476,0.99999934,-1.781156e-10,-4.342327e-10,0.0011947126,4
63300847,0.7517464,-0.0013825058,-0.031224165,-0.65871125,0.99999934,-1.781156e-10,-4.342327e-10,0.0011947126,4
63350691,0.7513674,-0.0011943352,-0.032535758,-0.65908045,0.99999934,-1.781156e-10,-4.342327e-10,0.0011947126,4
63400186,0.7512018,-0.000989287,-0.03372956,-0.65920955,0.99999934,-1.781156e-10,-4.342327e-10,0.0011947126,4
63449849,0.7510352,-0.0009527506,-0.034375757,-0.65936595,0.99999934,-1.781156e-10,-4.342327e-10,0.0011947126,4
63499517,0.7509957,-0.00099603,-0.0343259,-0.6594136,0.99999934,-1.781156e-10,-4.342327e-10,0.0011947126,4
63549195,0.75090617,-0.00021157299,-0.034869768,-0.6594878,0.99999934,-1.781156e-10,-4.342327e-10,0.0011947126,4
63598930,0.7507706,4.2173804e-05,-0.03610213,-0.6595757,0.99999934,-1.781156e-10,-4.342327e-10,0.0011947126,4
63653488,0.75074154,5.4734937e-05,-0.0371108,-0.65955293,0.99999934,-1.781156e-10,-4.342327e-10,0.0011947126,4
63698252,0.750798,0.0009046885,-0.036926452,-0.6594983,0.99999934,-1.781156e-10,-4.342327e-10,0.0011947126,4
63747858,0.7507724,0.0025747202,-0.036609154,-0.6595408,0.99999934,-1.781156e-10,-4.342327e-10,0.0011947126,4
63797526,0.7506522,0.004050871,-0.036515582,-0.65967536,0.99999934,-1.781156e-10,-4.342327e-10,0.0011947126,4
63852220,0.75067735,0.004791651,-0.035753842,-0.6596835,0.99999934,-1.781156e-10,-4.342327e-10,0.0011947126,4
63901829,0.75084645,0.0050333636,-0.034340773,-0.6595643,0.99999934,-1.781156e-10,-4.342327e-10,0.0011947126,4
63946573,0.7508836,0.006102493,-0.0342848,-0.65951586,0.99999934,-1.781156e-10,-4.342327e-10,0.0011947126,4
64001167,0.75116944,0.0070377383,-0.034101456,-0.6591905,0.99999934,-1.781156e-10,-4.342327e-10,0.0011947126,4
64050834,0.751468,0.0077953017,-0.03401278,-0.6588461,0.99999934,-1.781156e-10,-4.342327e-10,0.0011947126,4
64100502,0.75174755,0.009707915,-0.03415988,-0.6584941,0.99999934,-1.781156e-10,-4.342327e-10,0.0011947126,4
64150316,0.7520383,0.010423752,-0.034429606,-0.6581371,0.99999934,-1.781156e-10,-4.342327e-10,0.0011947126,4
64199841,0.7526844,0.009104916,-0.03387255,-0.6574466,0.99999934,-1.781156e-10,-4.342327e-10,0.0011947126,4
64249507,0.7536083,0.0071295537,-0.0328997,-0.65646136,0.99999934,-1.781156e-10,-4.342327e-10,0.0011947126,4
64299178,0.7545518,0.0070107407,-0.0331661,-0.65536433,0.99999934,-1.781156e-10,-4.342327e-10,0.0011947126,4
64353810,0.7552347,0.008057089,-0.03359819,-0.65454316,0.99999934,-1.781156e-10,-4.342327e-10,0.0011947126,4
64398618,0.7559601,0.008256236,-0.034273922,-0.6536678,0.99999934,-1.781156e-10,-4.342327e-10,0.0011947126,4
64448210,0.756877,0.008034696,-0.033648763,-0.6526411,0.99999934,-1.781156e-10,-4.342327e-10,0.0011947126,4
64497848,0.7579106,0.0080496,-0.031757087,-0.65153533,0.99999934,-1.781156e-10,-4.342327e-10,0.0011947126,4
64552483,0.7588494,0.010056476,-0.0324714,-0.6503785,0.99999934,-1.781156e-10,-4.342327e-10,0.0011947126,4
64602173,0.7598497,0.010928832,-0.033079278,-0.6491647,0.99999934,-1.781156e-10,-4.342327e-10,0.0011947126,4
64646850,0.7605874,0.01138174,-0.0337611,-0.6482574,0.99999934,-1.781156e-10,-4.342327e-10,0.0011947126,4
64701490,0.76135397,0.0127030285,-0.03516512,-0.64725745,0.99999934,-1.781156e-10,-4.342327e-10,0.0011947126,4
64751203,0.76240355,0.012882996,-0.034918536,-0.64603055,0.99999934,-1.781156e-10,-4.342327e-10,0.0011947126,4
64800824,0.7634669,0.013017381,-0.034969673,-0.64476824,0.99999934,-1.781156e-10,-4.342327e-10,0.0011947126,4
64850492,0.764107,0.01444974,-0.037420113,-0.64384127,0.99999934,-1.781156e-10,-4.342327e-10,0.0011947126,4
64900217,0.7649543,0.015275456,-0.038711708,-0.6427387,0.99999934,-1.781156e-10,-4.342327e-10,0.0011947126,4
64949939,0.7657942,0.014668851,-0.038263623,-0.6417788,0.99999934,-1.781156e-10,-4.342327e-10,0.0011947126,4
64999497,0.76624364,0.014531993,-0.03738581,-0.64129716,0.99999934,-1.781156e-10,-4.342327e-10,0.0011947126,4
65049169,0.7667333,0.014966418,-0.03644087,-0.64075595,0.99999934,-1.781156e-10,-4.342327e-10,0.0011947126,4
65098833,0.7672547,0.013892589,-0.03550172,-0.6402085,0.99999934,-1.781156e-10,-4.342327e-10,0.0011947126,4
65148501,0.76725686,0.013097534,-0.035468142,-0.64022446,0.99999934,-1.781156e-10,-4.342327e-10,0.0011947126,4
65198186,0.7673589,0.0136465505,-0.03553536,-0.640087,0.99999934,-1.781156e-10,-4.342327e-10,0.0011947126,4
65252804,0.7673754,0.013313526,-0.03510327,-0.64009804,0.99999934,-1.781156e-10,-4.342327e-10,0.0011947126,4
65297505,0.76701844,0.013757257,-0.034939025,-0.6405254,0.99999934,-1.781156e-10,-4.342327e-10,0.0011947126,4
65347174,0.7667244,0.014947508,-0.03435997,-0.640882,0.99999934,-1.781156e-10,-4.342327e-10,0.0011947126,4
65401809,0.7661492,0.016384646,-0.03388193,-0.6415598,0.99999934,-1.781156e-10,-4.342327e-10,0.0011947126,4
65451479,0.7656048,0.017192049,-0.03265494,-0.64225197,0.99999934,-1.781156e-10,-4.342327e-10,0.0011947126,4
65501324,0.76499695,0.018446174,-0.031173296,-0.6430145,0.99999934,-1.781156e-10,-4.342327e-10,0.0011947126,4
65550813,0.76427364,0.019675415,-0.030090544,-0.64388925,0.99999934,-1.781156e-10,-4.342327e-10,0.0011947126,4
65600481,0.76330674,0.021329908,-0.029862925,-0.6449932,0.99999934,-1.781156e-10,-4.342327e-10,0.0011947126,4
65650150,0.76232994,0.023640199,-0.029835762,-0.6460681,0.99999934,-1.781156e-10,-4.342327e-10,0.0011947126,4
65699818,0.76148427,0.024926439,-0.028050562,-0.64709634,0.99999934,-1.781156e-10,-4.342327e-10,0.0011947126,4
65749610,0.76072264,0.026475355,-0.026206207,-0.6480073,0.99999934,-1.781156e-10,-4.342327e-10,0.0011947126,4
65799154,0.75979567,0.029130315,-0.025804367,-0.6489962,0.99999934,-1.781156e-10,-4.342327e-10,0.0011947126,4
65848824,0.7588695,0.03131397,-0.024512753,-0.65002733,0.99999934,-1.781156e-10,-4.342327e-10,0.0011947126,4
65898490,0.7580742,0.032214142,-0.022377102,-0.6509878,0.99999934,-1.781156e-10,-4.342327e-10,0.0011947126,4
65953127,0.7574578,0.034194294,-0.018843008,-0.6517158,0.99999934,-1.781156e-10,-4.342327e-10,0.0011947126,4
65997827,0.756387,0.035741575,-0.007618983,-0.65310293,0.99999934,-1.781156e-10,-4.342327e-10,0.0011947126,4
66047496,0.7555926,0.039464686,0.012619881,-0.65373015,0.99999934,-1.781156e-10,-4.342327e-10,0.0011947126,4
66102130,0.7537532,0.049424462,0.029931346,-0.6546125,0.99999934,-1.781156e-10,-4.342327e-10,0.0011947126,4
66151799,0.7518606,0.060661957,0.041168574,-0.65523344,0.99999934,-1.781156e-10,-4.342327e-10,0.0011947126,4
66201474,0.7500862,0.07072432,0.054945514,-0.65524805,0.99999934,-1.781156e-10,-4.342327e-10,0.0011947126,4
66246168,0.74793243,0.08178741,0.06668717,-0.6553325,0.99999934,-1.781156e-10,-4.342327e-10,0.0011947126,4
66300942,0.74502045,0.096597336,0.079276085,-0.6552319,0.99999934,-1.781156e-10,-4.342327e-10,0.0011947126,4
66350472,0.7422234,0.10897897,0.090250015,-0.6550443,0.99999934,-1.781156e-10,-4.342327e-10,0.0011947126,4
66400140,0.7404489,0.11637936,0.09687188,-0.65483373,0.99999934,-1.781156e-10,-4.342327e-10,0.0011947126,4
66449849,0.7406094,0.11537619,0.09499213,-0.65510505,0.99999934,-1.781156e-10,-4.342327e-10,0.0011947126,4
66499476,0.7419402,0.106961355,0.08680901,-0.6561618,0.99999934,-1.781156e-10,-4.342327e-10,0.0011947126,4
66549185,0.74337417,0.09623087,0.07641762,-0.6574913,0.99999934,-1.781156e-10,-4.342327e-10,0.0011947126,4
66598814,0.7449863,0.08418625,0.06289385,-0.6587507,0.99999934,-1.781156e-10,-4.342327e-10,0.0011947126,4
66653448,0.7460136,0.07187416,0.042572737,-0.6606705,0.99999934,-1.781156e-10,-4.342327e-10,0.0011947126,4
66698150,0.74688494,0.0606762,0.026142329,-0.661663,0.99999934,-1.781156e-10,-4.342327e-10,0.0011947126,4
66747817,0.74735147,0.047191918,0.009096071,-0.66268855,0.99999934,-1.781156e-10,-4.342327e-10,0.0011947126,4
66802470,0.7476918,0.031139916,-0.008627682,-0.6632592,0.99999934,-1.781156e-10,-4.342327e-10,0.0011947126,4
66852123,0.74740076,0.016222147,-0.02489766,-0.6637086,0.99999934,-1.781156e-10,-4.342327e-10,0.0011947126,4
66901789,0.74689037,0.00013578657,-0.039866593,-0.66375107,0.99999934,-1.781156e-10,-4.342327e-10,0.0011947126,4
66946490,0.74600923,-0.012973871,-0.053108014,-0.6636879,0.99999934,-1.781156e-10,-4.342327e-10,0.0011947126,4
67001126,0.7446325,-0.028838212,-0.06924474,-0.66324663,0.99999934,-1.781156e-10,-4.342327e-10,0.0011947126,4
67050793,0.74312663,-0.04290504,-0.084166974,-0.66244847,0.99999934,-1.781156e-10,-4.342327e-10,0.0011947126,4
67100561,0.7411569,-0.057158023,-0.097937815,-0.66168547,0.99999934,-1.781156e-10,-4.342327e-10,0.0011947126,4
67150129,0.7391604,-0.069596656,-0.11063081,-0.66072613,0.99999934,-1.781156e-10,-4.342327e-10,0.0011947126,4
67199798,0.7377803,-0.07601429,-0.11490462,-0.6608321,0.99999934,-1.781156e-10,-4.342327e-10,0.0011947126,4
67249467,0.7373369,-0.073436275,-0.11166499,-0.6621725,0.99999934,-1.781156e-10,-4.342327e-10,0.0011947126,4
67299134,0.7377179,-0.06400099,-0.105535746,-0.66373074,0.99999934,-1.781156e-10,-4.342327e-10,0.0011947126,4
67348812,0.73851115,-0.053273693,-0.096494436,-0.66517067,0.99999934,-1.781156e-10,-4.342327e-10,0.0011947126,4
67398471,0.7391803,-0.043854173,-0.0824314,-0.667004,0.99999934,-1.781156e-10,-4.342327e-10,0.0011947126,4
67448141,0.73993343,-0.032097016,-0.06707289,-0.6685578,0.99999934,-1.781156e-10,-4.342327e-10,0.0011947126,4
67502774,0.74113184,-0.012670526,-0.055165462,-0.66896933,0.99999934,-1.781156e-10,-4.342327e-10,0.0011947126,4
67552444,0.7416592,0.010197901,-0.050028592,-0.66883093,0.99999934,-1.781156e-10,-4.342327e-10,0.0011947126,4
67597145,0.7419214,0.03026647,-0.049533974,-0.6679693,0.99999934,-1.781156e-10,-4.342327e-10,0.0011947126,4
67647008,0.7422225,0.048078623,-0.05340116,-0.66629016,0.99999934,-1.781156e-10,-4.342327e-10,0.0011947126,4
67701447,0.7425777,0.061172668,-0.058727577,-0.66437,0.99999934,-1.781156e-10,-4.342327e-10,0.0011947126,4
67751119,0.7437648,0.06288844,-0.057558373,-0.66298276,0.99999934,-1.781156e-10,-4.342327e-10,0.0011947126,4
67800783,0.7453512,0.056588553,-0.053420145,-0.66211456,0.99999934,-1.781156e-10,-4.342327e-10,0.0011947126,4
67850453,0.74710333,0.047019463,-0.04634434,-0.66142124,0.99999934,-1.781156e-10,-4.342327e-10,0.0011947126,4
67900184,0.74890625,0.037262894,-0.03379717,-0.66076374,0.99999934,-1.781156e-10,-4.342327e-10,0.0011947126,4
67949793,0.7503479,0.02867445,-0.017366262,-0.66019255,0.99999934,-1.781156e-10,-4.342327e-10,0.0011947126,4
67999496,0.75148535,0.022035373,0.0020724481,-0.6593785,0.99999934,-1.781156e-10,-4.342327e-10,0.0011947126,4
68049125,0.7524791,0.014625941,0.022480275,-0.6580699,0.99999934,-1.781156e-10,-4.342327e-10,0.0011947126,4
68098799,0.75355095,0.0047152606,0.04086853,-0.6561011,0.99999934,-1.781156e-10,-4.342327e-10,0.0011947126,4
68148461,0.7543819,-0.0067045386,0.056266543,-0.6539857,0.99999934,-1.781156e-10,-4.342327e-10,0.0011947126,4
68203098,0.75506234,-0.011341994,0.063427836,-0.65247935,0.99999934,-1.781156e-10,-4.342327e-10,0.0011947126,4
68252764,0.7559023,-0.0063804686,0.058727518,-0.6520139,0.99999934,-1.781156e-10,-4.342327e-10,0.0011947126,4
68297466,0.75676453,-0.00011868435,0.049128223,-0.6518389,0.99999934,-1.781156e-10,-4.342327e-10,0.0011947126,4
68347134,0.7582001,0.0033214365,0.03198986,-0.6512283,0.99999934,-1.781156e-10,-4.342327e-10,0.0011947126,4
68401788,0.75991464,0.0040233415,0.0063585094,-0.6499794,0.99999934,-1.781156e-10,-4.342327e-10,0.0011947126,4
68451620,0.76144344,0.0006464504,-0.016098382,-0.6480311,0.99999934,-1.781156e-10,-4.342327e-10,0.0011947126,4
68501105,0.7624107,-0.007763088,-0.034917895,-0.64610416,0.99999934,-1.781156e-10,-4.342327e-10,0.0011947126,4
68550774,0.7629094,-0.01693154,-0.050001148,-0.6443466,0.99999934,-1.781156e-10,-4.342327e-10,0.0011947126,4
68600443,0.76327497,-0.01941707,-0.05769767,-0.6431993,0.99999934,-1.781156e-10,-4.342327e-10,0.0011947126,4
68650110,0.76367265,-0.014073771,-0.05697319,-0.64293087,0.99999934,-1.781156e-10,-4.342327e-10,0.0011947126,4
68699922,0.7641833,-0.005078177,-0.050543908,-0.6429957,0.99999934,-1.781156e-10,-4.342327e-10,0.0011947126,4
68749447,0.7646265,0.0029875832,-0.041113853,-0.64315397,0.99999934,-1.781156e-10,-4.342327e-10,0.0011947126,4
68799117,0.7651204,0.007589253,-0.032807644,-0.64300615,0.99999934,-1.781156e-10,-4.342327e-10,0.0011947126,4
68848786,0.76549345,0.009712852,-0.02865385,-0.6427321,0.99999934,-1.781156e-10,-4.342327e-10,0.0011947126,4
68903418,0.76578397,0.011909805,-0.026414199,-0.6424448,0.99999934,-1.781156e-10,-4.342327e-10,0.0011947126,4
68948172,0.76581633,0.012801528,-0.024712048,-0.6424568,0.99999934,-1.781156e-10,-4.342327e-10,0.0011947126,4
68997965,0.7660631,0.012136571,-0.022945786,-0.642241,0.99999934,-1.781156e-10,-4.342327e-10,0.0011947126,4
69047456,0.7659106,0.012195657,-0.022692677,-0.6424308,0.99999934,-1.781156e-10,-4.342327e-10,0.0011947126,4
69102091,0.7660488,0.014246531,-0.022484498,-0.64223105,0.99999934,-1.781156e-10,-4.342327e-10,0.0011947126,4
69151759,0.76555157,0.022782754,-0.019702643,-0.6426691,0.99999934,-1.781156e-10,-4.342327e-10,0.0011947126,4
69201428,0.765065,0.032550845,-0.0136886425,-0.6429843,0.99999934,-1.781156e-10,-4.342327e-10,0.0011947126,4
69251201,0.7652782,0.03459235,-0.012617917,-0.6426457,0.99999934,-1.781156e-10,-4.342327e-10,0.0011947126,4
69300764,0.7656659,0.027587945,-0.018209266,-0.64238876,0.99999934,-1.781156e-10,-4.342327e-10,0.0011947126,4
69350432,0.76596993,0.017253462,-0.022176912,-0.6422622,0.99999934,-1.781156e-10,-4.342327e-10,0.0011947126,4
69400100,0.7659602,0.014086713,-0.022179885,-0.6423509,0.99999934,-1.781156e-10,-4.342327e-10,0.0011947126,4
69449769,0.76600254,0.015273068,-0.021313075,-0.64230263,0.99999934,-1.781156e-10,-4.342327e-10,0.0011947126,4
69499439,0.7658536,0.015628697,-0.021391237,-0.64246905,0.99999934,-1.781156e-10,-4.342327e-10,0.0011947126,4
69549106,0.76580226,0.012912405,-0.02454288,-0.64247805,0.99999934,-1.781156e-10,-4.342327e-10,0.0011947126,4
69603740,0.76566035,0.013515907,-0.02171536,-0.64273643,0.99999934,-1.781156e-10,-4.342327e-10,0.0011947126,4
69648455,0.76538974,0.018685617,-0.017485805,-0.6430582,0.99999934,-1.781156e-10,-4.342327e-10,0.0011947126,4
69698110,0.7646502,0.0306873,-0.013565783,-0.64357156,0.99999934,-1.781156e-10,-4.342327e-10,0.0011947126,4
69747783,0.76368225,0.04542068,-0.006983245,-0.6439547,0.99999934,-1.781156e-10,-4.342327e-10,0.0011947126,4
69802574,0.7629749,0.05850304,0.0071331547,-0.64373577,0.99999934,-1.781156e-10,-4.342327e-10,0.0011947126,4
69852081,0.7622594,0.06683437,0.025115695,-0.64332175,0.99999934,-1.781156e-10,-4.342327e-10,0.0011947126,4
69896828,0.7614969,0.07365403,0.040039517,-0.6427242,0.99999934,-1.781156e-10,-4.342327e-10,0.0011947126,4
69951418,0.76075083,0.0783157,0.047929112,-0.64251673,0.99999934,-1.781156e-10,-4.342327e-10,0.0011947126,4
70001087,0.76149094,0.07357284,0.04703741,-0.64226645,0.99999934,-1.781156e-10,-4.342327e-10,0.0011947126,4
70050811,0.7624022,0.06277102,0.04276681,-0.6426304,0.99999934,-1.781156e-10,-4.342327e-10,0.0011947126,4
70100422,0.7633353,0.05037446,0.034918502,-0.6430882,0.99999934,-1.781156e-10,-4.342327e-10,0.0011947126,4
70150099,0.76436985,0.038620826,0.02245743,-0.6432286,0.99999934,-1.781156e-10,-4.342327e-10,0.0011947126,4
70199759,0.764749,0.029253066,0.00471145,-0.6436467,0.99999934,-1.781156e-10,-4.342327e-10,0.0011947126,4
70249428,0.76482,0.017429158,-0.012257837,-0.6438916,0.99999934,-1.781156e-10,-4.342327e-10,0.0011947126,4
70299110,0.76465917,0.0041741137,-0.028679643,-0.643783,0.99999934,-1.781156e-10,-4.342327e-10,0.0011947126,4
70348767,0.76424295,-0.008895864,-0.045229398,-0.64327896,0.99999934,-1.781156e-10,-4.342327e-10,0.0011947126,4
70398433,0.76342404,-0.022112545,-0.06150213,-0.64258265,0.99999934,-1.781156e-10,-4.342327e-10,0.0011947126,4
70448101,0.7622489,-0.036392093,-0.0762656,-0.64174443,0.99999934,-1.781156e-10,-4.342327e-10,0.0011947126,4
70502735,0.7602841,-0.051415138,-0.09067179,-0.64117336,0.99999934,-1.781156e-10,-4.342327e-10,0.0011947126,4
70552404,0.75898325,-0.058485646,-0.09753985,-0.6411004,0.99999934,-1.781156e-10,-4.342327e-10,0.0011947126,4
70597242,0.7587289,-0.05577224,-0.09730473,-0.64167887,0.99999934,-1.781156e-10,-4.342327e-10,0.0011947126,4
70651740,0.7587806,-0.046411715,-0.08980005,-0.64345485,0.99999934,-1.781156e-10,-4.342327e-10,0.0011947126,4
70701409,0.75918466,-0.03601263,-0.079574786,-0.64498806,0.99999934,-1.781156e-10,-4.342327e-10,0.0011947126,4
70751079,0.75971895,-0.023350092,-0.06689706,-0.64637977,0.99999934,-1.781156e-10,-4.342327e-10,0.0011947126,4
70800745,0.7598681,-0.009107427,-0.053711444,-0.6477906,0.99999934,-1.781156e-10,-4.342327e-10,0.0011947126,4
70850499,0.7597388,0.0034644965,-0.042098407,-0.648855,0.99999934,-1.781156e-10,-4.342327e-10,0.0011947126,4
70900082,0.7591733,0.01713472,-0.039368063,-0.649471,0.99999934,-1.781156e-10,-4.342327e-10,0.0011947126,4
70949750,0.7585543,0.03234814,-0.045073494,-0.6492437,0.99999934,-1.781156e-10,-4.342327e-10,0.0011947126,4
70999418,0.7578247,0.04625664,-0.053580258,-0.6486072,0.99999934,-1.781156e-10,-4.342327e-10,0.0011947126,4
71049089,0.75715,0.054117102,-0.057123132,-0.6484846,0.99999934,-1.781156e-10,-4.342327e-10,0.0011947126,4
71098836,0.7568721,0.059282392,-0.05794752,-0.64828414,0.99999934,-1.781156e-10,-4.342327e-10,0.0011947126,4
71148583,0.7557036,0.06796832,-0.06405511,-0.64822024,0.99999934,-1.781156e-10,-4.342327e-10,0.0011947126,4
71203058,0.7550901,0.07063778,-0.06587719,-0.648467,0.99999934,-1.781156e-10,-4.342327e-10,0.0011947126,4
71247770,0.75582105,0.06308973,-0.058527913,-0.64909834,0.99999934,-1.781156e-10,-4.342327e-10,0.0011947126,4
71297428,0.75663066,0.049857177,-0.048949007,-0.6500987,0.99999934,-1.781156e-10,-4.342327e-10,0.0011947126,4
71352063,0.75729287,0.03482775,-0.037599124,-0.6510613,0.99999934,-1.781156e-10,-4.342327e-10,0.0011947126,4
71401865,0.75734025,0.021046067,-0.026607847,-0.65213877,0.99999934,-1.781156e-10,-4.342327e-10,0.0011947126,4
71451401,0.7572103,0.0065485314,-0.01381081,-0.6529923,0.99999934,-1.781156e-10,-4.342327e-10,0.0011947126,4
71496100,0.7570709,-0.006935886,-0.001989997,-0.653293,0.99999934,-1.781156e-10,-4.342327e-10,0.0011947126,4
71550736,0.75640225,-0.023161035,0.013865215,-0.65354955,0.99999934,-1.781156e-10,-4.342327e-10,0.0011947126,4
71600404,0.75534016,-0.036008716,0.027547587,-0.6537628,0.99999934,-1.781156e-10,-4.342327e-10,0.0011947126,4
71650156,0.754309,-0.040155422,0.032344915,-0.65449166,0.99999934,-1.781156e-10,-4.342327e-10,0.0011947126,4
71699752,0.754025,-0.036623623,0.026975863,-0.65526897,0.99999934,-1.781156e-10,-4.342327e-10,0.0011947126,4
71749410,0.7541312,-0.029447546,0.015817229,-0.6558727,0.99999934,-1.781156e-10,-4.342327e-10,0.0011947126,4
71799077,0.7541735,-0.021323567,0.0037588053,-0.65631807,0.99999934,-1.781156e-10,-4.342327e-10,0.0011947126,4
71848766,0.7539494,-0.009902027,-0.006856923,-0.65682214,0.99999934,-1.781156e-10,-4.342327e-10,0.0011947126,4
71903381,0.7534586,0.00085605687,-0.014138407,-0.6573428,0.99999934,-1.781156e-10,-4.342327e-10,0.0011947126,4
71948219,0.7533379,0.0052454304,-0.017624589,-0.6573766,0.99999934,-1.781156e-10,-4.342327e-10,0.0011947126,4
71997787,0.7530481,0.007989588,-0.02181593,-0.6575552,0.99999934,-1.781156e-10,-4.342327e-10,0.0011947126,4
72052385,0.7525697,0.00986653,-0.026119484,-0.6579206,0.99999934,-1.781156e-10,-4.342327e-10,0.0011947126,4
72102055,0.75225174,0.010719905,-0.027196677,-0.65822715,0.99999934,-1.781156e-10,-4.342327e-10,0.0011947126,4
72151739,0.7521676,0.010434102,-0.025904547,-0.6583799,0.99999934,-1.781156e-10,-4.342327e-10,0.0011947126,4
72196453,0.7520633,0.010695319,-0.026169999,-0.65848446,0.99999934,-1.781156e-10,-4.342327e-10,0.0011947126,4
72251058,0.75164276,0.01040518,-0.027921913,-0.65889716,0.99999934,-1.781156e-10,-4.342327e-10,0.0011947126,4
72300727,0.7514901,0.009966614,-0.02826951,-0.65906304,0.99999934,-1.781156e-10,-4.342327e-10,0.0011947126,4
72350395,0.7514313,0.009698329,-0.027529174,-0.65916556,0.99999934,-1.781156e-10,-4.342327e-10,0.0011947126,4
72400065,0.75132906,0.009052848,-0.02776708,-0.6592812,0.99999934,-1.781156e-10,-4.342327e-10,0.0011947126,4
72449732,0.75125325,0.008060031,-0.02832604,-0.65935683,0.99999934,-1.781156e-10,-4.342327e-10,0.0011947126,4
72499600,0.75121266,0.008396379,-0.029576486,-0.65934384,0.99999934,-1.781156e-10,-4.342327e-10,0.0011947126,4
72549068,0.7514476,0.008703929,-0.029226944,-0.6590877,0.99999934,-1.781156e-10,-4.342327e-10,0.0011947126,4
72598736,0.75147027,0.0073807146,-0.027148994,-0.6591668,0.99999934,-1.781156e-10,-4.342327e-10,0.0011947126,4
72648405,0.7514272,0.007360433,-0.026347037,-0.6592488,0.99999934,-1.781156e-10,-4.342327e-10,0.0011947126,4
72698080,0.75119823,0.007837153,-0.025649983,-0.6595316,0.99999934,-1.781156e-10,-4.342327e-10,0.0011947126,4
72752823,0.75139695,0.007152393,-0.02467772,-0.6593501,0.99999934,-1.781156e-10,-4.342327e-10,0.0011947126,4
72802376,0.75120395,0.0070926496,-0.02775325,-0.6594483,0.99999934,-1.781156e-10,-4.342327e-10,0.0011947126,4
72847077,0.75131947,0.0068151704,-0.028830213,-0.6592735,0.99999934,-1.781156e-10,-4.342327e-10,0.0011947126,4
72896746,0.7511412,0.0063205375,-0.0275005,-0.6595384,0.99999934,-1.781156e-10,-4.342327e-10,0.0011947126,4
72951382,0.7511896,0.0058784573,-0.027896218,-0.6594706,0.99999934,-1.781156e-10,-4.342327e-10,0.0011947126,4
73001078,0.75108916,0.0051407944,-0.028302869,-0.65957385,0.99999934,-1.781156e-10,-4.342327e-10,0.0011947126,4
73050718,0.7510782,0.0065496447,-0.02821119,-0.6595779,0.99999934,-1.781156e-10,-4.342327e-10,0.0011947126,4
73100391,0.7508072,0.014409228,-0.025963794,-0.6598537,0.99999934,-1.781156e-10,-4.342327e-10,0.0011947126,4
73150054,0.75047314,0.029322682,-0.021619542,-0.65989614,0.99999934,-1.781156e-10,-4.342327e-10,0.0011947126,4
73199723,0.74992293,0.04608075,-0.016232409,-0.6597187,0.99999934,-1.781156e-10,-4.342327e-10,0.0011947126,4
73249391,0.7493214,0.061323307,-0.016032873,-0.65916604,0.99999934,-1.781156e-10,-4.342327e-10,0.0011947126,4
73299222,0.74879986,0.07244071,-0.024938112,-0.6583534,0.99999934,-1.781156e-10,-4.342327e-10,0.0011947126,4
73348751,0.7485961,0.076949425,-0.03880987,-0.6574014,0.99999934,-1.781156e-10,-4.342327e-10,0.0011947126,4
73398396,0.7480369,0.0780805,-0.055034976,-0.65674615,0.99999934,-1.781156e-10,-4.342327e-10,0.0011947126,4
73453032,0.7482933,0.070873015,-0.067537576,-0.6561044,0.99999934,-1.781156e-10,-4.342327e-10,0.0011947126,4
73502699,0.7493209,0.057593938,-0.06948421,-0.6560284,0.99999934,-1.781156e-10,-4.342327e-10,0.0011947126,4
73547459,0.75077194,0.04608217,-0.06571565,-0.6556672,0.99999934,-1.781156e-10,-4.342327e-10,0.0011947126,4
73597079,0.75197244,0.033373542,-0.056974575,-0.65587926,0.99999934,-1.781156e-10,-4.342327e-10,0.0011947126,4
73651704,0.7530288,0.018689567,-0.045135275,-0.65617174,0.99999934,-1.781156e-10,-4.342327e-10,0.0011947126,4
73701372,0.7539978,0.00465683,-0.03260279,-0.656051,0.99999934,-1.781156e-10,-4.342327e-10,0.0011947126,4
73751041,0.7544385,-0.008528328,-0.019490123,-0.6560259,0.99999934,-1.781156e-10,-4.342327e-10,0.0011947126,4
73800764,0.75477153,-0.013530816,-0.012719893,-0.6557249,0.99999934,-1.781156e-10,-4.342327e-10,0.0011947126,4
73850378,0.7550376,-0.01042672,-0.014330475,-0.65544206,0.99999934,-1.781156e-10,-4.342327e-10,0.0011947126,4
73900047,0.75506246,-0.002760313,-0.020912267,-0.6553135,0.99999934,-1.781156e-10,-4.342327e-10,0.0011947126,4
73949717,0.7554174,0.003521906,-0.026334912,-0.654705,0.99999934,-1.781156e-10,-4.342327e-10,0.0011947126,4
73999382,0.75559694,0.008512559,-0.030094847,-0.6542898,0.99999934,-1.781156e-10,-4.342327e-10,0.0011947126,4
74049051,0.7558752,0.0118046915,-0.03149559,-0.65385133,0.99999934,-1.781156e-10,-4.342327e-10,0.0011947126,4
74098849,0.75585353,0.01516822,-0.0323718,-0.65376407,0.99999934,-1.781156e-10,-4.342327e-10,0.0011947126,4
74153353,0.75628376,0.018090086,-0.032290015,-0.6531961,0.99999934,-1.781156e-10,-4.342327e-10,0.0011947126,4
74198096,0.75604606,0.023535665,-0.036388054,-0.6530822,0.99999934,-1.781156e-10,-4.342327e-10,0.0011947126,4
74247724,0.7562379,0.026311789,-0.0406779,-0.65250087,0.99999934,-1.781156e-10,-4.342327e-10,0.0011947126,4
74297392,0.756755,0.020312682,-0.03579929,-0.65240157,0.99999934,-1.781156e-10,-4.342327e-10,0.0011947126,4
74352077,0.7575489,0.009317106,-0.023875978,-0.65227515,0.99999934,-1.781156e-10,-4.342327e-10,0.0011947126,4
74401696,0.75780976,-0.0012936201,-0.011276571,-0.65237695,0.99999934,-1.781156e-10,-4.342327e-10,0.0011947126,4
74451364,0.75778633,-0.008325948,-0.004366672,-0.652435,0.99999934,-1.781156e-10,-4.342327e-10,0.0011947126,4
74501031,0.75772667,-0.008814447,-0.0040012556,-0.6525003,0.99999934,-1.781156e-10,-4.342327e-10,0.0011947126,4
74550700,0.7577458,-0.007455725,-0.0043622986,-0.65249264,0.99999934,-1.781156e-10,-4.342327e-10,0.0011947126,4
74600368,0.75786716,-0.00353365,-0.006532443,-0.6523667,0.99999934,-1.781156e-10,-4.342327e-10,0.0011947126,4
74650227,0.7577374,0.005833077,-0.015670575,-0.6523454,0.99999934,-1.781156e-10,-4.342327e-10,0.0011947126,4
74699705,0.75754285,0.018032625,-0.028154965,-0.6519287,0.99999934,-1.781156e-10,-4.342327e-10,0.0011947126,4
74749373,0.7572351,0.025714416,-0.037220158,-0.65157384,0.99999934,-1.781156e-10,-4.342327e-10,0.0011947126,4
74799042,0.75712204,0.028367372,-0.03978544,-0.6514436,0.99999934,-1.781156e-10,-4.342327e-10,0.0011947126,4
74853676,0.75702214,0.025471134,-0.0358264,-0.651909,0.99999934,-1.781156e-10,-4.342327e-10,0.0011947126,4
74898525,0.75712746,0.018088464,-0.028864548,-0.65237844,0.99999934,-1.781156e-10,-4.342327e-10,0.0011947126,4
74948047,0.75734943,0.007116282,-0.01986999,-0.6526686,0.99999934,-1.781156e-10,-4.342327e-10,0.0011947126,4
74997717,0.7572052,-0.0050899372,-0.009419782,-0.6530894,0.99999934,-1.781156e-10,-4.342327e-10,0.0011947126,4
75052351,0.7564545,-0.018347338,0.0032765472,-0.6537808,0.99999934,-1.781156e-10,-4.342327e-10,0.0011947126,4
75102018,0.7559217,-0.023165451,0.007765298,-0.65420604,0.99999934,-1.781156e-10,-4.342327e-10,0.0011947126,4
75146818,0.75560945,-0.02014326,0.0036899485,-0.6547023,0.99999934,-1.781156e-10,-4.342327e-10,0.0011947126,4
75201355,0.7555227,-0.012346765,-0.006995677,-0.6549687,0.99999934,-1.781156e-10,-4.342327e-10,0.0011947126,4
75251023,0.755045,-0.0035052658,-0.015838565,-0.6554723,0.99999934,-1.781156e-10,-4.342327e-10,0.0011947126,4
75300691,0.754679,0.0024826454,-0.020722786,-0.65576214,0.99999934,-1.781156e-10,-4.342327e-10,0.0011947126,4
75350360,0.7546857,0.005089235,-0.023744587,-0.655637,0.99999934,-1.781156e-10,-4.342327e-10,0.0011947126,4
75400028,0.7545679,0.006652067,-0.026231218,-0.6556638,0.99999934,-1.781156e-10,-4.342327e-10,0.0011947126,4
75449866,0.7543962,0.008316066,-0.02802264,-0.6557683,0.99999934,-1.781156e-10,-4.342327e-10,0.0011947126,4
75499407,0.75435835,0.009461629,-0.029203031,-0.6557448,0.99999934,-1.781156e-10,-4.342327e-10,0.0011947126,4
75554000,0.7544926,0.009153904,-0.030353278,-0.6555425,0.99999934,-1.781156e-10,-4.342327e-10,0.0011947126,4
75598702,0.7544373,0.0091287615,-0.031999897,-0.65552807,0.99999934,-1.781156e-10,-4.342327e-10,0.0011947126,4
75648410,0.7544862,0.008758793,-0.032396443,-0.6554573,0.99999934,-1.781156e-10,-4.342327e-10,0.0011947126,4
75698096,0.75472045,0.008554111,-0.031180585,-0.6552494,0.99999934,-1.781156e-10,-4.342327e-10,0.0011947126,4
75752673,0.75528884,0.007295382,-0.030162308,-0.6546571,0.99999934,-1.781156e-10,-4.342327e-10,0.0011947126,4
75802354,0.7556681,0.006542312,-0.030054549,-0.65423214,0.99999934,-1.781156e-10,-4.342327e-10,0.0011947126,4
75847045,0.75607246,0.0055683665,-0.02946576,-0.6538008,0.99999934,-1.781156e-10,-4.342327e-10,0.0011947126,4
75901678,0.75661117,0.0049576815,-0.028217815,-0.65323716,0.99999934,-1.781156e-10,-4.342327e-10,0.0011947126,4
75951381,0.7569949,0.004994251,-0.029142747,-0.65275156,0.99999934,-1.781156e-10,-4.342327e-10,0.0011947126,4
76001014,0.7574709,0.004888156,-0.029795887,-0.6521703,0.99999934,-1.781156e-10,-4.342327e-10,0.0011947126,4
76050683,0.75812787,0.005263022,-0.030683178,-0.65136236,0.99999934,-1.781156e-10,-4.342327e-10,0.0011947126,4
76100397,0.7586768,0.0045159943,-0.030287609,-0.6507471,0.99999934,-1.781156e-10,-4.342327e-10,0.0011947126,4
76150019,0.75927436,0.004224552,-0.029079216,-0.6501069,0.99999934,-1.781156e-10,-4.342327e-10,0.0011947126,4
76199688,0.7595458,0.0049377037,-0.029374817,-0.6497715,0.99999934,-1.781156e-10,-4.342327e-10,0.0011947126,4
76249534,0.7597041,0.0056067845,-0.029951492,-0.64955455,0.99999934,-1.781156e-10,-4.342327e-10,0.0011947126,4
76299027,0.7599184,0.005389514,-0.030198952,-0.6492944,0.99999934,-1.781156e-10,-4.342327e-10,0.0011947126,4
76348751,0.76021606,0.0042956695,-0.02974605,-0.6489747,0.99999934,-1.781156e-10,-4.342327e-10,0.0011947126,4
76398374,0.7604511,0.0045663877,-0.030723307,-0.6486521,0.99999934,-1.781156e-10,-4.342327e-10,0.0011947126,4
76452996,0.7608418,0.004947108,-0.031871237,-0.64813536,0.99999934,-1.781156e-10,-4.342327e-10,0.0011947126,4
76497720,0.760976,0.0045783063,-0.031746667,-0.6479867,0.99999934,-1.781156e-10,-4.342327e-10,0.0011947126,4
76547377,0.7611397,0.0047496054,-0.031044045,-0.6478272,0.99999934,-1.781156e-10,-4.342327e-10,0.0011947126,4
76602001,0.7614061,0.0047299135,-0.030787898,-0.64752656,0.99999934,-1.781156e-10,-4.342327e-10,0.0011947126,4
76651669,0.7615237,0.0047196364,-0.030837603,-0.6473859,0.99999934,-1.781156e-10,-4.342327e-10,0.0011947126,4
76701371,0.7618087,0.005354816,-0.030636018,-0.6470551,0.99999934,-1.781156e-10,-4.342327e-10,0.0011947126,4
76746039,0.7622554,0.005997603,-0.030732,-0.64651877,0.99999934,-1.781156e-10,-4.342327e-10,0.0011947126,4
76800858,0.76238054,0.0047488203,-0.02946889,-0.64644027,0.99999934,-1.781156e-10,-4.342327e-10,0.0011947126,4
76850343,0.76270694,0.0035409068,-0.027902557,-0.64613247,0.99999934,-1.781156e-10,-4.342327e-10,0.0011947126,4
76900011,0.76280946,0.0039415583,-0.029253745,-0.6459493,0.99999934,-1.781156e-10,-4.342327e-10,0.0011947126,4
76949679,0.76286656,0.003183266,-0.029455632,-0.6458769,0.99999934,-1.781156e-10,-4.342327e-10,0.0011947126,4
76999347,0.76289195,0.0019028792,-0.027928872,-0.64591974,0.99999934,-1.781156e-10,-4.342327e-10,0.0011947126,4
77049104,0.7628201,0.00096579915,-0.027118325,-0.6460412,0.99999934,-1.781156e-10,-4.342327e-10,0.0011947126,4
77098685,0.7627269,0.001399446,-0.028935397,-0.6460717,0.99999934,-1.781156e-10,-4.342327e-10,0.0011947126,4
77153320,0.76299196,0.002142435,-0.029214952,-0.64574397,0.99999934,-1.781156e-10,-4.342327e-10,0.0011947126,4
77198021,0.7626718,0.0034207297,-0.029596321,-0.6460991,0.99999934,-1.781156e-10,-4.342327e-10,0.0011947126,4
77247689,0.76264256,0.0051385527,-0.029841159,-0.646111,0.99999934,-1.781156e-10,-4.342327e-10,0.0011947126,4
77302341,0.7626209,0.0064444235,-0.03068963,-0.646085,0.99999934,-1.781156e-10,-4.342327e-10,0.0011947126,4
77351992,0.7627463,0.0066642943,-0.030453239,-0.6459461,0.99999934,-1.781156e-10,-4.342327e-10,0.0011947126,4
77401683,0.7629225,0.0061939606,-0.030482633,-0.64574116,0.99999934,-1.781156e-10,-4.342327e-10,0.0011947126,4
