timestamp,lat,lon,alt,alt_ellipsoid,delta_alt,eph,epv,terrain_alt,lat_lon_reset_counter,alt_reset_counter,terrain_alt_valid,dead_reckoning
57628795,34.03370538875684,108.76376459191968,438.5669,410.432,-0.0,2.0912833,2.1712754,0.0,2,0,0,0
57638676,34.0337053917909,108.76376457650511,438.57953,410.44464,-0.0,1.9077729,2.1711545,0.0,2,0,0,0
57832381,34.03370521821372,108.76376406313517,438.82184,410.67975,-0.0,1.9096335,2.1695387,0.0,2,0,0,0
58036021,34.03370451022733,108.76376379265348,439.06583,410.91357,-0.0,1.8120829,2.1682503,0.0,2,0,0,0
58234835,34.033703618819374,108.76376368158016,439.275,411.10632,-0.0,1.7511555,2.1672575,0.0,2,0,0,0
58433368,34.033702796994625,108.76376402933745,439.42923,411.24075,-0.0,1.7091942,2.1670258,0.0,2,0,0,0
58632038,34.033701945569895,108.76376480347012,439.51782,411.30997,-0.0,1.6524537,2.165168,0.0,2,0,0,0
58825755,34.03370149171879,108.7637657916524,439.54953,411.32068,-0.0,1.6554675,2.1658487,0.0,2,0,0,0
59034501,34.03370097422394,108.76376718568704,439.54407,411.2957,-0.0,1.6193291,2.1641,0.0,2,0,0,0
59233023,34.033701157036795,108.7637686647146,439.49997,411.2313,-0.0,1.6227771,2.164405,0.0,2,0,0,0
59431695,34.03370144069384,108.76376995850245,439.43573,411.14676,-0.0,1.6106915,2.1637094,0.0,2,0,0,0
59630368,34.03370152850692,108.76377102865494,439.34384,411.03458,-0.0,1.6005914,2.1630702,0.0,2,0,0,0
59829096,34.03370144454973,108.76377208623425,439.223,410.89252,-0.0,1.5921305,2.1631198,0.0,2,0,0,0
60027723,34.03370121051116,108.76377313632966,439.0866,410.73694,-0.0,1.5848386,2.1625826,0.0,2,0,0,0
60231352,34.03370106813043,108.76377408610102,438.9624,410.59354,-0.0,1.5785681,2.1620493,0.0,2,0,0,0
60430025,34.03370097817576,108.76377524884143,438.88672,410.49796,-0.0,1.5733061,2.1621914,0.0,2,0,0,0
60628722,34.03370064587584,108.76377667798133,438.83575,410.42706,-0.0,1.5687643,2.1618078,0.0,2,0,0,0
60832339,34.0337001172506,108.76377787351682,438.81967,410.39145,-0.0,1.564537,2.1613483,0.0,2,0,0,0
61031009,34.033700185220525,108.7637793876948,438.8289,410.38013,-0.0,1.5609335,2.1615148,0.0,2,0,0,0
61234652,34.03370063350952,108.76378099508176,438.85275,410.384,-0.0,1.5581483,2.1612859,0.0,2,0,0,0
61433335,34.03370129960176,108.76378268011871,438.89676,410.40787,-0.0,1.5565197,2.161331,0.0,2,0,0,0
61631994,34.03370185865832,108.7637841813071,438.9568,410.44824,-0.0,1.5539217,2.161486,0.0,2,0,0,0
61830674,34.03370194404671,108.76378560686102,439.03497,410.5065,-0.0,1.5518925,2.1612024,0.0,2,0,0,0
62034340,34.033701992376685,108.7637870035273,439.13596,410.58737,-0.0,1.5513644,2.1613348,0.0,2,0,0,0
62233074,34.033702116714124,108.76378809844002,439.2181,410.64975,-0.0,1.5513574,2.1621022,0.0,2,0,0,0
62426685,34.03370238946479,108.76378913367063,439.23602,410.64697,-0.0,1.5509653,2.1621153,0.0,2,0,0,0
62635292,34.03370245438389,108.76378978469171,439.20276,410.59427,-0.0,1.5431579,2.1612315,0.0,2,0,0,0
62834012,34.03370229336536,108.76379041671906,439.1748,410.54623,-0.0,1.5489057,2.1618912,0.0,2,0,0,0
63032637,34.03370209290619,108.7637913144894,439.16507,410.5159,-0.0,1.5489999,2.1625826,0.0,2,0,0,0
63231361,34.03370196443335,108.76379229600673,439.17203,410.50336,-0.0,1.5489607,2.1626625,0.0,2,0,0,0
63434948,34.033701704886525,108.76379307914499,439.18103,410.49237,-0.0,1.5480069,2.1624818,0.0,2,0,0,0
63633621,34.03370153811711,108.76379362270345,439.19952,410.49084,-0.0,1.5473945,2.1629455,0.0,2,0,0,0
63832307,34.03370144006429,108.76379383446935,439.21033,410.48212,-0.0,1.5456724,2.1624765,0.0,2,0,0,0
64026000,34.03370115222423,108.76379386251082,439.22037,410.47202,-0.0,1.5438864,2.162443,0.0,2,0,0,0
64234606,34.033701310800616,108.76379433243889,439.23718,410.469,-0.0,1.5368372,2.1611218,0.0,2,0,0,0
64423560,34.03370127229974,108.7637942819185,439.2509,410.46283,-0.0,1.5415573,2.1616693,0.0,2,0,0,0
64636921,34.03370085082364,108.76379443997631,439.25385,410.44537,-0.0,1.535092,2.160399,0.0,2,0,0,0
64835593,34.033700462776984,108.76379461370045,439.2588,410.4307,-0.0,1.5343039,2.1600642,0.0,2,0,0,0
65034264,34.03370055430749,108.76379476110635,439.27536,410.4271,-0.0,1.5335704,2.1602464,0.0,2,0,0,0
65233109,34.03370054444549,108.7637946750877,439.27963,410.41077,-0.0,1.5380591,2.1609144,0.0,2,0,0,0
65431613,34.033700373792165,108.76379429729477,439.2873,410.39844,-0.0,1.5372664,2.160592,0.0,2,0,0,0
65625316,34.033700026393966,108.76379353693525,439.28348,410.37497,-0.0,1.5363011,2.1606603,0.0,2,0,0,0
65828957,34.03369975356994,108.76379232312911,439.2817,410.35297,-0.0,1.5356344,2.160363,0.0,2,0,0,0
66027743,34.033699543106806,108.76379147985838,439.2659,410.31732,-0.0,1.5350263,2.1600802,0.0,2,0,0,0
66236235,34.0336993390175,108.76379155924046,439.24677,410.2782,-0.0,1.5302731,2.159091,0.0,2,0,0,0
66434909,34.033699106054826,108.76379280213588,439.24405,410.25528,-0.0,1.5344125,2.1602428,0.0,2,0,0,0
66633580,34.03369893438242,108.76379500987844,439.25217,410.2426,-0.0,1.5349904,2.1604304,0.0,2,0,0,0
66832359,34.03369897576436,108.76379774667235,439.2523,410.22348,-0.0,1.5353395,2.1604936,0.0,2,0,0,0
67030927,34.03369935544759,108.76380024197972,439.24698,410.19794,-0.0,1.5352368,2.16086,0.0,2,0,0,0
67224632,34.033700129452924,108.76380222215846,439.24762,410.17847,-0.0,1.5351275,2.1606557,0.0,2,0,0,0
67433239,34.03370117001459,108.76380352910918,439.2706,410.18152,-0.0,1.5363444,2.1610827,0.0,2,0,0,0
67631987,34.03370184621202,108.76380397411886,439.28308,410.17422,-0.0,1.5371982,2.161293,0.0,2,0,0,0
67830584,34.03370264405249,108.76380424814946,439.29633,410.16705,-0.0,1.5380254,2.1620283,0.0,2,0,0,0
68029257,34.03370356267392,108.76380471692913,439.31595,410.1663,-0.0,1.5382953,2.1620104,0.0,2,0,0,0
68232915,34.033704178065314,108.76380503299875,439.3362,410.16666,-0.0,1.5388554,2.16209,0.0,2,0,0,0
68431668,34.03370443787061,108.76380564368591,439.34076,410.1519,-0.0,1.5401859,2.1630113,0.0,2,0,0,0
68625276,34.033704549103206,108.76380622293944,439.32773,410.11868,-0.0,1.5409784,2.163098,0.0,2,0,0,0
68833882,34.033704696946984,108.76380657808801,439.32547,410.09647,-0.0,1.5417496,2.1632693,0.0,2,0,0,0
69027589,34.03370491719707,108.76380685205886,439.3262,410.07755,-0.0,1.5428278,2.164028,0.0,2,0,0,0
69236228,34.03370501976234,108.76380726584168,439.32584,410.0569,-0.0,1.5445166,2.1644793,0.0,2,0,0,0
69434873,34.03370505785378,108.76380771781619,439.3256,410.03622,-0.0,1.5452329,2.1645532,0.0,2,0,0,0
69633542,34.033705125119354,108.76380825377834,439.32327,410.014,-0.0,1.5452329,2.1650393,0.0,2,0,0,0
69832214,34.033705204897764,108.76380909119912,439.31732,409.98798,-0.0,1.5450665,2.1648235,0.0,2,0,0,0
70030887,34.03370520658261,108.76381042936572,439.30774,409.95868,-0.0,1.5446672,2.1645265,0.0,2,0,0,0
70229560,34.03370528522489,108.76381225649284,439.29767,409.9284,-0.0,1.5435532,2.1645846,0.0,2,0,0,0
70428234,34.03370498934131,108.76381402207731,439.27963,409.89157,-0.0,1.5448378,2.1648316,0.0,2,0,0,0
70631873,34.03370520613835,108.7638153776413,439.27878,409.86972,-0.0,1.5444509,2.164496,0.0,2,0,0,0
70830550,34.033705261161806,108.7638157831705,439.27084,409.8421,-0.0,1.5449598,2.164456,0.0,2,0,0,0
71034186,34.03370524927881,108.7638156793147,439.25558,409.80618,-0.0,1.5453919,2.1650283,0.0,2,0,0,0
71232859,34.0337057112726,108.76381584183608,439.24246,409.7734,-0.0,1.5455899,2.1648946,0.0,2,0,0,0
71421782,34.033706392364515,108.76381620276513,439.2255,409.73703,-0.0,1.5460359,2.165419,0.0,2,0,0,0
71635213,34.03370690607594,108.76381668612694,439.18484,409.67557,-0.0,1.5462843,2.1653512,0.0,2,0,0,0
71833845,34.033707112035955,108.76381711229804,439.14493,409.61667,-0.0,1.5399939,2.1641333,0.0,2,0,0,0
72032518,34.033707055634146,108.76381765503378,439.10587,409.55704,-0.0,1.5459067,2.1648102,0.0,2,0,0,0
72231199,34.03370716182999,108.76381796399836,439.06982,409.50098,-0.0,1.5449181,2.1642745,0.0,2,0,0,0
72429864,34.033707143108174,108.76381837443829,439.02887,409.4397,-0.0,1.5456237,2.164932,0.0,2,0,0,0
72633521,34.03370737825765,108.76381860830286,438.9925,409.38382,-0.0,1.5448251,2.1644566,0.0,2,0,0,0
72832177,34.03370734004904,108.76381892302159,438.96976,409.3412,-0.0,1.5459044,2.1645977,0.0,2,0,0,0
73031017,34.033707389541476,108.76381930521816,438.955,409.3066,-0.0,1.5457103,2.1649544,0.0,2,0,0,0
73229523,34.033707396239,108.76381990337994,438.94006,409.2721,-0.0,1.5466282,2.165029,0.0,2,0,0,0
73433165,34.03370759191831,108.76382069990794,438.92462,409.23575,-0.0,1.54784,2.1651762,0.0,2,0,0,0
73626870,34.033708178237404,108.76382160761932,438.8991,409.19055,-0.0,1.5471961,2.1653602,0.0,2,0,0,0
73825701,34.03370867473316,108.76382238363512,438.87448,409.14572,-0.0,1.5472349,2.165158,0.0,2,0,0,0
74034151,34.033709280779114,108.76382324352734,438.8459,409.0979,-0.0,1.5415103,2.1642954,0.0,2,0,0,0
74232823,34.033709762864476,108.76382362980706,438.81458,409.0461,-0.0,1.5475775,2.164891,0.0,2,0,0,0
74436464,34.033710066386554,108.76382423585525,438.77975,408.9913,-0.0,1.5474123,2.1646266,0.0,2,0,0,0
74635250,34.033710535630725,108.76382490846545,438.74573,408.93726,-0.0,1.5417126,2.16435,0.0,2,0,0,0
74833819,34.03371113918979,108.76382564142286,438.70505,408.8765,-0.0,1.5477726,2.1649318,0.0,2,0,0,0
75027515,34.03371147171543,108.76382638917448,438.66882,408.82047,-0.0,1.5475211,2.1645763,0.0,2,0,0,0
75226189,34.03371161912587,108.7638271665976,438.63693,408.76834,-0.0,1.547423,2.1649585,0.0,2,0,0,0
75434926,34.033711596582485,108.76382781695116,438.59482,408.70624,-0.0,1.5476477,2.1648579,0.0,2,0,0,0
75633469,34.03371170307836,108.76382839978562,438.5626,408.65393,-0.0,1.547627,2.1646185,0.0,2,0,0,0
75832142,34.03371185207344,108.76382895868207,438.53253,408.60458,-0.0,1.5414962,2.1635206,0.0,2,0,0,0
76035782,34.03371202175644,108.76382931907267,438.50046,408.552,-0.0,1.547353,2.164669,0.0,2,0,0,0
76234514,34.03371209751715,108.7638295888339,438.4692,408.50034,-0.0,1.5483859,2.1647108,0.0,2,0,0,0
76433128,34.03371209054105,108.76382979431003,438.4361,408.4472,-0.0,1.5476391,2.164254,0.0,2,0,0,0
76631802,34.03371225370806,108.76383001779935,438.41193,408.40286,-0.0,1.5462539,2.16361,0.0,2,0,0,0
76825508,34.03371257743913,108.76383032280549,438.39032,408.36176,-0.0,1.5447445,2.163457,0.0,2,0,0,0
77034134,34.03371273532559,108.76383062535872,438.37073,408.32236,-0.0,1.5380319,2.162009,0.0,2,0,0,0
77232789,34.033712565274215,108.76383049370442,438.3634,408.295,-0.0,1.5429578,2.162486,0.0,2,0,0,0
77431463,34.0337123987199,108.76383045175835,438.35492,408.26624,-0.0,1.5420381,2.1625373,0.0,2,0,0,0
77630135,34.03371248158967,108.76383046804312,438.34854,408.24,-0.0,1.5411872,2.1620424,0.0,2,0,0,0
77828835,34.0337126756288,108.76383046237181,438.34375,408.2153,-0.0,1.5403916,2.1615758,0.0,2,0,0,0
78027482,34.03371336313264,108.76383065703858,438.34818,408.1994,-0.0,1.5396636,2.161138,0.0,2,0,0,0
78231123,34.033713721953966,108.76383065924327,438.3491,408.18002,-0.0,1.5389434,2.1612434,0.0,2,0,0,0
78424829,34.0337141148201,108.76383065096408,438.34622,408.15756,-0.0,1.5380375,2.1607072,0.0,2,0,0,0
78633437,34.03371473653808,108.76383108099071,438.35275,408.1443,-0.0,1.5376437,2.1604493,0.0,2,0,0,0
78832111,34.033715530048156,108.76383126459928,438.3549,408.12634,-0.0,1.5370572,2.160084,0.0,2,0,0,0
79035751,34.03371627844625,108.76383171460027,438.3578,408.10922,-0.0,1.5374767,2.1606164,0.0,2,0,0,0
79234422,34.03371648329172,108.76383201349506,438.35413,408.08536,-0.0,1.5368955,2.1602566,0.0,2,0,0,0
79433098,34.03371661046117,108.7638321557626,438.33673,408.04785,-0.0,1.536357,2.1599123,0.0,2,0,0,0
79626803,34.033716718401806,108.76383245023813,438.32114,408.0124,-0.0,1.5358546,2.1600428,0.0,2,0,0,0
79825523,34.033716843878324,108.76383280349286,438.31107,407.9823,-0.0,1.5353683,2.159721,0.0,2,0,0,0
80034096,34.033717071763704,108.76383321768985,438.30054,407.95178,-0.0,1.5351306,2.1595316,0.0,2,0,0,0
80232758,34.03371728619454,108.76383362167721,438.29224,407.9232,-0.0,1.5346988,2.1592312,0.0,2,0,0,0
80431430,34.03371740609307,108.76383394213998,438.28406,407.89493,-0.0,1.5348083,2.1596148,0.0,2,0,0,0
80630103,34.03371751991189,108.7638342223334,438.2775,407.86884,-0.0,1.5348861,2.159504,0.0,2,0,0,0
80828929,34.03371775212103,108.76383447431975,438.2745,407.84573,-0.0,1.5344625,2.1592064,0.0,2,0,0,0
81032417,34.033718046568424,108.76383468252321,438.27255,407.8233,-0.0,1.5340682,2.1594005,0.0,2,0,0,0
81226131,34.03371853095955,108.7638350237471,438.27533,407.8062,-0.0,1.5347507,2.1594615,0.0,2,0,0,0
81434731,34.033719088491914,108.763835342218,438.27704,407.787,-0.0,1.5345423,2.1592956,0.0,2,0,0,0
81633566,34.033719383884836,108.763835643664,438.27435,407.76505,-0.0,1.5352353,2.1593852,0.0,2,0,0,0
81832078,34.03371965569104,108.76383591910202,438.27264,407.7438,-0.0,1.5347813,2.1595826,0.0,2,0,0,0
82035718,34.033719409654076,108.76383603016079,438.26974,407.72018,-0.0,1.5352143,2.1595845,0.0,2,0,0,0
82229437,34.03371953086304,108.7638357232248,438.27576,407.7068,-0.0,1.534493,2.1591756,0.0,2,0,0,0
82428185,34.033719425694734,108.76383555010065,438.2802,407.69104,-0.0,1.5348786,2.159652,0.0,2,0,0,0
82626771,34.033719357045605,108.76383534799834,438.2773,407.66824,-0.0,1.5344241,2.1593702,0.0,2,0,0,0
82835380,34.03371911148708,108.76383494712093,438.2746,407.64554,-0.0,1.5342416,2.1592207,0.0,2,0,0,0
83034052,34.03371880137039,108.76383446156503,438.28128,407.6325,-0.0,1.5340433,2.1590214,0.0,2,0,0,0
83232822,34.03371851365252,108.76383404506007,438.2941,407.62555,-0.0,1.5340765,2.159378,0.0,2,0,0,0
83431399,34.03371803742527,108.76383368127975,438.29593,407.60706,-0.0,1.5344009,2.1593518,0.0,2,0,0,0
83630073,34.033717747406754,108.76383319717796,438.30487,407.5959,-0.0,1.5339637,2.1590846,0.0,2,0,0,0
83828746,34.03371766247319,108.76383229400497,438.31406,407.5853,-0.0,1.5335307,2.1588242,0.0,2,0,0,0
84027490,34.03371778197451,108.76383163821284,438.32098,407.5717,-0.0,1.5330997,2.159044,0.0,2,0,0,0
84231061,34.03371822656222,108.76383090330529,438.32443,407.55536,-0.0,1.53267,2.1587918,0.0,2,0,0,0
84434701,34.03371863198911,108.76383028047607,438.31265,407.5238,-0.0,1.5322737,2.1585526,0.0,2,0,0,0
84633374,34.033718416322415,108.76382937726676,438.29218,407.48285,-0.0,1.5318937,2.158322,0.0,2,0,0,0
84832061,34.03371771747708,108.7638281573357,438.29132,407.46225,-0.0,1.5315299,2.1585581,0.0,2,0,0,0
85025755,34.03371705850536,108.7638270691934,438.29977,407.45068,-0.0,1.5309623,2.1582198,0.0,2,0,0,0
85234362,34.033716786330785,108.76382587601576,438.31793,407.44852,-0.0,1.5308275,2.1581218,0.0,2,0,0,0
85428069,34.033716912988496,108.76382457533963,438.33014,407.44086,-0.0,1.5302927,2.1582513,0.0,2,0,0,0
85636741,34.03371741817005,108.76382337573558,438.32938,407.4201,-0.0,1.5301695,2.1581619,0.0,2,0,0,0
85835350,34.03371808332866,108.76382238722748,438.32812,407.39862,-0.0,1.5298423,2.1579628,0.0,2,0,0,0
86034023,34.033718714312776,108.76382129263843,438.3205,407.37152,-0.0,1.5295159,2.1577685,0.0,2,0,0,0
86232697,34.033719091647136,108.76382029163325,438.31348,407.3446,-0.0,1.5291898,2.1580248,0.0,2,0,0,0
86431377,34.03371955064887,108.76381947324255,438.2954,407.3073,-0.0,1.5249143,2.157272,0.0,2,0,0,0
86625078,34.03372025363777,108.76381844174836,438.28314,407.27466,-0.0,1.5286283,2.1576376,0.0,2,0,0,0
86833699,34.03372123316434,108.76381680514804,438.28043,407.25226,-0.0,1.5251735,2.157247,0.0,2,0,0,0
87032367,34.033722267564094,108.76381488545138,438.2812,407.2329,-0.0,1.5292943,2.1581864,0.0,2,0,0,0
87231032,34.03372301139741,108.76381247310952,438.28275,407.2143,-0.0,1.5290201,2.1579943,0.0,2,0,0,0
87434695,34.03372348785523,108.76380995466069,438.2789,407.19073,-0.0,1.5287831,2.1578062,0.0,2,0,0,0
87633346,34.03372375959695,108.76380777951287,438.27847,407.17017,-0.0,1.5243984,2.1569624,0.0,2,0,0,0
87832024,34.033723813567995,108.76380585819074,438.2899,407.1611,-0.0,1.5284147,2.1578844,0.0,2,0,0,0
88030694,34.03372389754646,108.76380367490565,438.29773,407.14896,-0.0,1.5282433,2.1576989,0.0,2,0,0,0
88229367,34.03372385815468,108.76380190077202,438.2925,407.1236,-0.0,1.5280764,2.15796,0.0,2,0,0,0
88433007,34.03372388327167,108.76380045406367,438.29898,407.11032,-0.0,1.5279166,2.157779,0.0,2,0,0,0
88631906,34.03372388897537,108.76379950753463,438.3052,407.09622,-0.0,1.5277586,2.1575963,0.0,2,0,0,0
88835322,34.033723643560556,108.76379849661178,438.3037,407.0752,-0.0,1.5235326,2.1571975,0.0,2,0,0,0
89033996,34.03372357373877,108.76379730292712,438.31122,407.06265,-0.0,1.5274632,2.157682,0.0,2,0,0,0
89232669,34.033723706120995,108.76379623366509,438.3205,407.05185,-0.0,1.5275204,2.157589,0.0,2,0,0,0
89431469,34.0337239621221,108.76379482668283,438.3331,407.04465,-0.0,1.5273527,2.1574163,0.0,2,0,0,0
89625050,34.03372417390019,108.76379305253377,438.3354,407.02673,-0.0,1.526976,2.1575727,0.0,2,0,0,0
89833659,34.03372405189208,108.76379098988588,438.33606,407.0073,-0.0,1.5270289,2.1575196,0.0,2,0,0,0
90032331,34.03372390457652,108.76378899842605,438.3388,406.99002,-0.0,1.5268723,2.1573553,0.0,2,0,0,0
90231105,34.03372380495964,108.76378726635222,438.34277,406.9744,-0.0,1.5267127,2.1576297,0.0,2,0,0,0
90434646,34.03372398890012,108.76378549272967,438.35147,406.9628,-0.0,1.526533,2.1574686,0.0,2,0,0,0
90633319,34.03372417956683,108.76378328007698,438.3603,406.9514,-0.0,1.5263376,2.1573114,0.0,2,0,0,0
90831993,34.03372431010943,108.76378089254985,438.37292,406.94397,-0.0,1.5261471,2.1571572,0.0,2,0,0,0
91030731,34.03372446694781,108.76377867877294,438.375,406.92563,-0.0,1.5259744,2.1574364,0.0,2,0,0,0
91229340,34.03372450956299,108.76377665102181,438.37265,406.9036,-0.0,1.525797,2.1572769,0.0,2,0,0,0
91433005,34.03372470986325,108.76377395523515,438.37817,406.88882,-0.0,1.525646,2.1571205,0.0,2,0,0,0
91631655,34.03372516233905,108.76377117018464,438.3854,406.87643,-0.0,1.5257341,2.157477,0.0,2,0,0,0
91830364,34.03372564626518,108.76376857861437,438.3965,406.86777,-0.0,1.5259315,2.157427,0.0,2,0,0,0
92033969,34.033726109650296,108.76376636023889,438.40808,406.8594,-0.0,1.5258719,2.1572752,0.0,2,0,0,0
92232643,34.03372618780884,108.76376491753561,438.42203,406.85266,-0.0,1.5258298,2.1571236,0.0,2,0,0,0
92426354,34.033726165130155,108.76376367290726,438.42734,406.83823,-0.0,1.5255792,2.1572917,0.0,2,0,0,0
92634985,34.03372599540995,108.763762051432,438.4342,406.82553,-0.0,1.5257615,2.1572537,0.0,2,0,0,0
92833641,34.03372605796759,108.76376001734282,438.44165,406.81317,-0.0,1.525731,2.1571074,0.0,2,0,0,0
93032318,34.033726379281156,108.7637573587604,438.43994,406.79175,-0.0,1.5218108,2.156752,0.0,2,0,0,0
93230979,34.03372682679288,108.76375456591279,438.44003,406.77158,-0.0,1.5257144,2.157242,0.0,2,0,0,0
93429654,34.033727238943264,108.76375221871113,438.44458,406.75607,-0.0,1.5258532,2.1570914,0.0,2,0,0,0
93628330,34.03372780544458,108.76375029544438,438.44528,406.7367,-0.0,1.5262841,2.157372,0.0,2,0,0,0
93831968,34.03372840171093,108.76374827475392,438.44452,406.71616,-0.0,1.5267867,2.1572232,0.0,2,0,0,0
94030644,34.03372889831726,108.76374681612421,438.44174,406.69308,-0.0,1.5273122,2.1570778,0.0,2,0,0,0
94229316,34.0337295295568,108.76374498259926,438.43756,406.66867,-0.0,1.5278285,2.1569343,0.0,2,0,0,0
94432957,34.033730456616,108.76374253658878,438.447,406.6591,-0.0,1.528371,2.1572158,0.0,2,0,0,0
94626663,34.03373112711898,108.76373983939548,438.45663,406.64758,-0.0,1.5288427,2.1569586,0.0,2,0,0,0
94835333,34.03373201481775,108.76373673897551,438.46484,406.63635,-0.0,1.5263456,2.1563065,0.0,2,0,0,0
95033946,34.0337325395549,108.76373409703223,438.49503,406.64627,-0.0,1.5305277,2.1572132,0.0,2,0,0,0
95232619,34.033732960480855,108.76373159807312,438.52438,406.65558,-0.0,1.5311326,2.1570702,0.0,2,0,0,0
95436260,34.03373326072545,108.76372909965997,438.54922,406.66055,-0.0,1.5313499,2.1573539,0.0,2,0,0,0
95634934,34.03373331742027,108.76372650737305,438.5822,406.67355,-0.0,1.5311886,2.1572099,0.0,2,0,0,0
95833608,34.03373320509405,108.76372453696112,438.63528,406.70682,-0.0,1.5306425,2.157068,0.0,2,0,0,0
96027362,34.03373335416147,108.76372362857705,438.68454,406.7357,-0.0,1.529523,2.1572442,0.0,2,0,0,0
96225989,34.03373313985787,108.76372327954242,438.7677,406.79843,-0.0,1.5286676,2.1571062,0.0,2,0,0,0
96434774,34.03373304512077,108.76372330722441,438.8618,406.8728,-0.0,1.5280815,2.1570802,0.0,2,0,0,0
96633271,34.03373316950075,108.76372332311321,438.9366,406.92725,-0.0,1.5273224,2.1569438,0.0,2,0,0,0
96831944,34.03373312475672,108.76372356494154,439.01913,406.98975,-0.0,1.5266236,2.1568081,0.0,2,0,0,0
97030620,34.0337326452948,108.76372351838519,439.10025,407.05078,-0.0,1.5262381,2.1571896,0.0,2,0,0,0
97229418,34.03373211676612,108.76372340715311,439.18652,407.11707,-0.0,1.5259203,2.1571553,0.0,2,0,0,0
97427966,34.03373171555921,108.76372331735192,439.26926,407.18008,-0.0,1.5255002,2.1570694,0.0,2,0,0,0
97631619,34.03373157893387,108.76372295127703,439.311,407.2025,-0.0,1.5253406,2.1574962,0.0,2,0,0,0
97825314,34.03373167516321,108.76372265799166,439.30463,407.17545,-0.0,1.5252059,2.1574464,0.0,2,0,0,0
98034029,34.03373189669232,108.76372223404039,439.29263,407.14355,-0.0,1.5249159,2.1574073,0.0,2,0,0,0
98232596,34.03373225131738,108.7637217570046,439.2864,407.1173,-0.0,1.5248897,2.1574087,0.0,2,0,0,0
98436238,34.03373260346801,108.76372106396991,439.2875,407.09836,-0.0,1.5244508,2.1576915,0.0,2,0,0,0
98634912,34.033732983344386,108.76371970675987,439.28607,407.0769,-0.0,1.524102,2.157564,0.0,2,0,0,0
98833663,34.03373332999065,108.76371817675175,439.29068,407.0613,-0.0,1.5237204,2.1574109,0.0,2,0,0,0
99032260,34.03373373193669,108.76371670545034,439.28845,407.03925,-0.0,1.5233455,2.1572583,0.0,2,0,0,0
99225966,34.03373416057527,108.76371532566827,439.28873,407.02014,-0.0,1.52288,2.1574497,0.0,2,0,0,0
99424642,34.03373471263745,108.7637137398252,439.29184,407.00256,-0.0,1.5225873,2.157298,0.0,2,0,0,0
99633290,34.03373521879319,108.76371179983222,439.295,406.98572,-0.0,1.5225135,2.1572614,0.0,2,0,0,0
99836909,34.03373559431629,108.76370920775717,439.2937,406.96432,-0.0,1.5222542,2.1571128,0.0,2,0,0,0
100035564,34.033735943978684,108.76370649504999,439.29144,406.94217,-0.0,1.5220162,2.1573987,0.0,2,0,0,0
100234238,34.03373660920203,108.76370387285289,439.29892,406.9295,-0.0,1.5217834,2.1572533,0.0,2,0,0,0
100432939,34.03373723390508,108.76370109195867,439.311,406.92212,-0.0,1.5215491,2.1571069,0.0,2,0,0,0
100631627,34.03373753717217,108.76369834719429,439.32446,406.91492,-0.0,1.521342,2.1573887,0.0,2,0,0,0
100825293,34.03373779363452,108.7636955438215,439.33167,406.9028,-0.0,1.520925,2.1571264,0.0,2,0,0,0
101033901,34.03373808805229,108.7636923007975,439.34308,406.89432,-0.0,1.5209308,2.1570895,0.0,2,0,0,0
101232575,34.033738623215115,108.76368907284709,439.3618,406.89233,-0.0,1.5207474,2.1573722,0.0,2,0,0,0
101431249,34.033739033704514,108.76368644522692,439.38397,406.89435,-0.0,1.5205611,2.1572256,0.0,2,0,0,0
101629925,34.033739423417295,108.76368420609072,439.3987,406.88953,-0.0,1.5203898,2.1570778,0.0,2,0,0,0
101828599,34.033739914284574,108.76368194614699,439.4112,406.883,-0.0,1.5202315,2.1573594,0.0,2,0,0,0
102027272,34.0337402975861,108.76367945865711,439.4285,406.87924,-0.0,1.5200939,2.1572068,0.0,2,0,0,0
102230963,34.03374069926735,108.763677165937,439.44263,406.87302,-0.0,1.5199406,2.1570556,0.0,2,0,0,0
102434554,34.033741126007314,108.76367495292244,439.45615,406.8668,-0.0,1.5197723,2.1573372,0.0,2,0,0,0
102633230,34.03374148797874,108.7636725250138,439.47757,406.8689,-0.0,1.5196275,2.1571915,0.0,2,0,0,0
102831906,34.03374145605063,108.76367027208221,439.50522,406.87616,-0.0,1.519499,2.15705,0.0,2,0,0,0
103035543,34.033740998929034,108.76366805556019,439.53577,406.8868,-0.0,1.519376,2.1569085,0.0,2,0,0,0
103234217,34.03374060304219,108.76366586993093,439.5757,406.90656,-0.0,1.5192555,2.1571968,0.0,2,0,0,0
103423157,34.0337401051625,108.76366380680722,439.61838,406.92902,-0.0,1.5189404,2.1569493,0.0,2,0,0,0
103626599,34.03373969493766,108.76366162239925,439.66104,406.95197,-0.0,1.5188104,2.156813,0.0,2,0,0,0
103835208,34.033738961447796,108.76365933217986,439.705,406.97614,-0.0,1.5188935,2.1567903,0.0,2,0,0,0
104033881,34.033738190373185,108.76365715162238,439.75375,407.00458,-0.0,1.5187798,2.157081,0.0,2,0,0,0
104232723,34.033737262696526,108.76365525234004,439.81046,407.0413,-0.0,1.5186687,2.156948,0.0,2,0,0,0
104431229,34.03373643467333,108.76365318856489,439.86658,407.07788,-0.0,1.5185608,2.1568115,0.0,2,0,0,0
104629906,34.03373580032272,108.76365128056808,439.91382,407.1033,-0.0,1.5184597,2.1570995,0.0,2,0,0,0
104833561,34.0337350097791,108.76364910520617,439.94562,407.11655,-0.0,1.5183318,2.1569598,0.0,2,0,0,0
105032355,34.03373403018989,108.76364677883703,439.96945,407.12027,-0.0,1.5182303,2.1568236,0.0,2,0,0,0
105230893,34.03373304032151,108.76364437419576,439.99414,407.12506,-0.0,1.518515,2.1571145,0.0,2,0,0,0
105434554,34.03373201439078,108.76364213084938,440.02353,407.13474,-0.0,1.5187308,2.1569815,0.0,2,0,0,0
105628242,34.03373122234207,108.76364021898232,440.06912,407.16006,-0.0,1.5186245,2.1567419,0.0,2,0,0,0
105826988,34.03373023016903,108.76363822789126,440.1178,407.18872,-0.0,1.5184511,2.1566157,0.0,2,0,0,0
106025592,34.03372918663699,108.76363610101673,440.1501,407.2012,-0.0,1.5182862,2.1569104,0.0,2,0,0,0
106234203,34.03372821567997,108.76363385823967,440.17212,407.20334,-0.0,1.5183258,2.1568937,0.0,2,0,0,0
106432873,34.033727263040724,108.76363193002105,440.19064,407.20178,-0.0,1.5181795,2.1567686,0.0,2,0,0,0
106631656,34.033726507560026,108.76362974065678,440.21146,407.20187,-0.0,1.5180439,2.156644,0.0,2,0,0,0
106830222,34.03372571417075,108.76362757469252,440.2247,407.21512,-0.0,1.5178975,2.156939,0.0,2,0,0,0
107028896,34.033725096633994,108.76362552390601,440.23285,407.18396,-0.0,1.5181704,2.1568074,0.0,2,0,0,0
107232537,34.033724536137775,108.76362324151116,440.23843,407.17404,-0.0,1.5186316,2.1566815,0.0,2,0,0,0
107431253,34.03372402961407,108.76362097970112,440.25797,407.18802,-0.0,1.5198884,2.156558,0.0,2,0,0,0
107629885,34.033723008696235,108.76361898663376,440.2867,407.21497,-0.0,1.5213736,2.1568537,0.0,2,0,0,0
107833527,34.03372198939423,108.76361719018357,440.30823,407.23785,-0.0,1.5227947,2.1567314,0.0,2,0,0,0
108037168,34.03372094224017,108.76361579274261,440.32166,407.26035,-0.0,1.5241188,2.1566098,0.0,2,0,0,0
108235917,34.033720460354935,108.7636145460391,440.33432,407.28775,-0.0,1.5254339,2.1569083,0.0,2,0,0,0
108434518,34.033719971837684,108.76361319204382,440.3565,407.32568,-0.0,1.5267296,2.1567898,0.0,2,0,0,0
108633195,34.03371983225884,108.7636122822113,440.37146,407.35864,-0.0,1.5276951,2.156669,0.0,2,0,0,0
108831865,34.03371980841632,108.76361176006554,440.382,407.3901,-0.0,1.5282845,2.1569645,0.0,2,0,0,0
109030540,34.03371954175545,108.76361139115282,440.37912,407.40466,-0.0,1.5284421,2.156837,0.0,2,0,0,0
109234182,34.033719387757756,108.76361093398056,440.37326,407.41888,-0.0,1.5286131,2.1567106,0.0,2,0,0,0
109432855,34.033719300311226,108.76361045851051,440.36606,407.4314,-0.0,1.5288057,2.1565878,0.0,2,0,0,0
109631529,34.03371930360849,108.7636101065185,440.35147,407.4368,-0.0,1.5293193,2.1569805,0.0,2,0,0,0
109830206,34.033719255410865,108.76360982374308,440.34143,407.44736,-0.0,1.5295764,2.156878,0.0,2,0,0,0
110028878,34.03371919200139,108.76360940341436,440.33008,407.45584,-0.0,1.5298077,2.1571698,0.0,2,0,0,0
110232519,34.03371912053657,108.76360831508637,440.32693,407.47266,-0.0,1.5302241,2.1570346,0.0,2,0,0,0
110421439,34.033719181700555,108.76360661312401,440.32895,407.49448,-0.0,1.5306655,2.1568427,0.0,2,0,0,0
110624902,34.03371923921051,108.76360462425674,440.33646,407.52228,-0.0,1.5311906,2.1567116,0.0,2,0,0,0
110833509,34.033719028611245,108.76360232821071,440.33197,407.54065,-0.0,1.5319761,2.157115,0.0,2,0,0,0
111032208,34.03371890579496,108.76360037173728,440.32974,407.55582,-0.0,1.532519,2.1569808,0.0,2,0,0,0
111231051,34.03371891047581,108.76359809977379,440.32883,407.57425,-0.0,1.533102,2.1568496,0.0,2,0,0,0
111434500,34.03371893297913,108.76359530233196,440.3463,407.61243,-0.0,1.5336611,2.1567194,0.0,2,0,0,0
111633220,34.03371895039207,108.76359242825316,440.36185,407.6483,-0.0,1.5342851,2.1570127,0.0,2,0,0,0
111831848,34.03371888011274,108.76358977216306,440.37503,407.68097,-0.0,1.5349354,2.156885,0.0,2,0,0,0
112030677,34.03371879032189,108.76358732441592,440.38687,407.7123,-0.0,1.5354632,2.1567583,0.0,2,0,0,0
112229208,34.03371870494564,108.7635847684973,440.40216,407.7476,-0.0,1.5359125,2.1570528,0.0,2,0,0,0
112427872,34.033718706231575,108.76358221112956,440.41763,407.78366,-0.0,1.536293,2.1569245,0.0,2,0,0,0
112631514,34.033718944713534,108.76357932109157,440.43362,407.82047,-0.0,1.5367297,2.1567957,0.0,2,0,0,0
112830316,34.033718900137885,108.76357659480172,440.45078,407.83762,-0.0,1.5371935,2.1570845,0.0,2,0,0,0
113033830,34.033718475990305,108.76357421111788,440.46494,407.89047,-0.0,1.537486,2.1569486,0.0,2,0,0,0
113227536,34.03371765277088,108.76357220444136,440.47147,407.917,-0.0,1.5375079,2.1567116,0.0,2,0,0,0
113426212,34.03371685962206,108.76357019716457,440.47144,407.93677,-0.0,1.5376714,2.1565862,0.0,2,0,0,0
113634934,34.033716153401585,108.76356767879493,440.47394,407.95947,-0.0,1.5379099,2.1569903,0.0,2,0,0,0
113833494,34.03371538990239,108.76356525373528,440.48816,407.99368,-0.0,1.5378523,2.1568646,0.0,2,0,0,0
114027204,34.03371451460967,108.76356304294902,440.5096,408.03528,-0.0,1.5375416,2.1570475,0.0,2,0,0,0
114235809,34.0337133761899,108.76356073692868,440.5267,408.07275,-0.0,1.5376421,2.157026,0.0,2,0,0,0
114434558,34.03371164234471,108.76355886682475,440.53232,408.09814,-0.0,1.537479,2.1568968,0.0,2,0,0,0
114633188,34.03370971653273,108.76355685286532,440.52603,408.11188,-0.0,1.5373168,2.1567671,0.0,2,0,0,0
114826866,34.03370812872087,108.76355445444725,440.53613,408.14526,-0.0,1.5369041,2.1569495,0.0,2,0,0,0
115035474,34.03370633120487,108.7635518885151,440.54593,408.17157,-0.0,1.5368278,2.1569276,0.0,2,0,0,0
115234195,34.03370466788282,108.76354969927858,440.55548,408.20123,-0.0,1.536531,2.1568027,0.0,2,0,0,0
115432823,34.03370270782414,108.7635486513906,440.5645,408.23053,-0.0,1.5358247,2.1566772,0.0,2,0,0,0
115631498,34.033701117311296,108.76354776520002,440.57718,408.2632,-0.0,1.5348177,2.1569707,0.0,2,0,0,0
115835139,34.03369994613922,108.76354658790173,440.59387,408.29962,-0.0,1.5337828,2.1568394,0.0,2,0,0,0
116033881,34.03369897910543,108.7635452366924,440.60687,408.3322,-0.0,1.5333868,2.1567078,0.0,2,0,0,0
116232489,34.0336978415091,108.76354405620648,440.6239,408.36963,-0.0,1.5327003,2.1570005,0.0,2,0,0,0
116436130,34.03369697131215,108.76354276075925,440.64554,408.41068,-0.0,1.5318054,2.1568723,0.0,2,0,0,0
116634804,34.033695677112355,108.7635415262088,440.66486,408.4503,-0.0,1.5309104,2.1568177,0.0,2,0,0,0
116833479,34.03369436946311,108.76354043714964,440.68033,408.48938,-0.0,1.5297292,2.15669,0.0,2,0,0,0
117032154,34.033693091896176,108.76353929948986,440.68832,408.51407,-0.0,1.5278531,2.156981,0.0,2,0,0,0
117230829,34.03369161008547,108.7635383999072,440.68384,408.52966,-0.0,1.5263085,2.1568499,0.0,2,0,0,0
117429503,34.033690126061266,108.76353768185228,440.68182,408.54767,-0.0,1.5253953,2.1573176,0.0,2,0,0,0
117628177,34.03368870251882,108.76353732672837,440.68732,408.57327,-0.0,1.524252,2.1571875,0.0,2,0,0,0
117831818,34.033687456648146,108.7635369792004,440.68875,408.5943,-0.0,1.523247,2.1570456,0.0,2,0,0,0
118030493,34.0336863492529,108.76353652581888,440.6799,408.6063,-0.0,1.5223885,2.1569076,0.0,2,0,0,0
118234135,34.03368529855163,108.76353577071218,440.6846,408.63086,-0.0,1.5216569,2.1571946,0.0,2,0,0,0
118432810,34.03368458910891,108.76353499670664,440.69012,408.65616,-0.0,1.5210205,2.157057,0.0,2,0,0,0
118631484,34.03368372555999,108.76353436539841,440.69467,408.68152,-0.0,1.5204585,2.1569216,0.0,2,0,0,0
118825196,34.03368263920213,108.7635339471219,440.71072,408.69757,-0.0,1.5197414,2.1571004,0.0,2,0,0,0
119033800,34.033681673392564,108.76353348792374,440.7321,408.75793,-0.0,1.519395,2.157074,0.0,2,0,0,0
119232475,34.03368116081158,108.76353320230368,440.75464,408.80017,-0.0,1.5189828,2.1569424,0.0,2,0,0,0
119431149,34.03368098238999,108.7635329584941,440.76807,408.83362,-0.0,1.5186284,2.156811,0.0,2,0,0,0
119629824,34.03368090672271,108.76353283568888,440.7764,408.86243,-0.0,1.5183039,2.1571033,0.0,2,0,0,0
119828640,34.033681019292516,108.7635327246607,440.778,408.8852,-0.0,1.5180275,2.1569712,0.0,2,0,0,0
120027210,34.03368105479941,108.76353260680217,440.7787,408.90442,-0.0,1.5177481,2.1568387,0.0,2,0,0,0
120230814,34.03368114823906,108.763532472695,440.78262,408.92828,-0.0,1.5175261,2.1567087,0.0,2,0,0,0
120424522,34.033681243205436,108.76353238335912,440.78735,408.95316,-0.0,1.5171317,2.1568923,0.0,2,0,0,0
120633274,34.033681374354295,108.76353227466987,440.7933,408.97833,-0.0,1.5171324,2.1568682,0.0,2,0,0,0
120836799,34.033681461432295,108.76353216432481,440.7976,409.00305,-0.0,1.5169685,2.1567378,0.0,2,0,0,0
121035459,34.03368153057256,108.76353216985117,440.79913,409.02502,-0.0,1.516818,2.1570313,0.0,2,0,0,0
121234121,34.03368153159985,108.76353229652726,440.7989,409.04373,-0.0,1.5166619,2.1569018,0.0,2,0,0,0
121432951,34.03368151328915,108.76353247884151,440.80084,409.0665,-0.0,1.5165374,2.1567755,0.0,2,0,0,0
121631471,34.033681395755835,108.76353269056891,440.80292,409.0901,-0.0,1.5163985,2.156648,0.0,2,0,0,0
121825178,34.03368129008617,108.76353294655011,440.80923,409.11526,-0.0,1.5160592,2.1568315,0.0,2,0,0,0
122033832,34.033681235068,108.76353331999633,440.81512,409.14148,-0.0,1.5161356,2.1568148,0.0,2,0,0,0
122232569,34.03368121365086,108.76353373028613,440.81903,409.16467,-0.0,1.516021,2.1566894,0.0,2,0,0,0
122431137,34.033681201097636,108.76353414243881,440.82425,409.18988,-0.0,1.515909,2.156985,0.0,2,0,0,0
122629811,34.03368116847718,108.76353448698957,440.83496,409.2201,-0.0,1.5158008,2.1568556,0.0,2,0,0,0
122833458,34.03368109467849,108.7635349155151,440.84882,409.2547,-0.0,1.5157197,2.1571417,0.0,2,0,0,0
123032162,34.0336810190596,108.76353544151084,440.875,409.30093,-0.0,1.5156244,2.1570039,0.0,2,0,0,0
123225907,34.033680968709284,108.76353584832334,440.9033,409.34866,-0.0,1.5153406,2.156761,0.0,2,0,0,0
123434443,34.03368086389106,108.76353621458723,440.93008,409.39523,-0.0,1.515487,2.1571603,0.0,2,0,0,0
123633118,34.03368084921057,108.76353648518148,440.94833,409.43466,-0.0,1.515441,2.1570215,0.0,2,0,0,0
123831795,34.03368090611879,108.76353666821997,440.9638,409.46997,-0.0,1.5153761,2.1568835,0.0,2,0,0,0
124035436,34.033681047204134,108.76353682863457,440.9736,409.5031,-0.0,1.515317,2.1567473,0.0,2,0,0,0
124234109,34.033681182058594,108.76353699091207,440.96997,409.5161,-0.0,1.5151918,2.1570327,0.0,2,0,0,0
124432784,34.03368127428954,108.76353717461284,440.9687,409.53497,-0.0,1.5151399,2.1568987,0.0,2,0,0,0
124631480,34.03368136935501,108.76353733937428,440.9665,409.55298,-0.0,1.5150906,2.156765,0.0,2,0,0,0
124830133,34.03368149382088,108.76353740440929,440.9639,409.56937,-0.0,1.5150409,2.1570494,0.0,2,0,0,0
125028849,34.03368167959638,108.76353736061033,440.96378,409.58963,-0.0,1.514995,2.1569116,0.0,2,0,0,0
125232450,34.03368191068202,108.76353730975298,440.96317,409.6087,-0.0,1.5149517,2.156774,0.0,2,0,0,0
125431134,34.03368203121087,108.76353717841937,440.9654,409.63104,-0.0,1.5149045,2.1570606,0.0,2,0,0,0
125629803,34.03368209547925,108.76353698035327,440.97388,409.6592,-0.0,1.5148582,2.156927,0.0,2,0,0,0
125833440,34.03368207571224,108.76353693214602,440.9815,409.68756,-0.0,1.5148333,2.1567948,0.0,2,0,0,0
126032152,34.03368198554612,108.76353674554743,440.9917,409.71692,-0.0,1.5147858,2.1570818,0.0,2,0,0,0
126230793,34.03368199658565,108.76353637199784,440.99808,409.74362,-0.0,1.5147637,2.1569467,0.0,2,0,0,0
126434432,34.033682016122484,108.76353602092702,441.00363,409.76917,-0.0,1.514721,2.1568122,0.0,2,0,0,0
126633109,34.03368212411995,108.76353536589546,441.00775,409.79306,-0.0,1.5146775,2.1566808,0.0,2,0,0,0
126831784,34.03368219286931,108.76353500644153,441.00806,409.8136,-0.0,1.5146612,2.156973,0.0,2,0,0,0
127030457,34.03368231990692,108.76353441031843,441.00427,409.8297,-0.0,1.5146284,2.1568422,0.0,2,0,0,0
127234098,34.03368238507579,108.7635341855303,441.0048,409.85043,-0.0,1.5146009,2.156714,0.0,2,0,0,0
127432775,34.03368263522454,108.7635338466711,441.00095,409.86627,-0.0,1.5145745,2.1565871,0.0,2,0,0,0
127631649,34.03368287920099,108.76353388883368,440.99518,409.88092,-0.0,1.5145661,2.156881,0.0,2,0,0,0
127830125,34.03368317291955,108.7635339220957,440.98846,409.894,-0.0,1.5145346,2.156756,0.0,2,0,0,0
128033764,34.03368330125099,108.76353380427831,440.9906,409.91635,-0.0,1.5145029,2.1570468,0.0,2,0,0,0
128232439,34.03368336279624,108.76353357946948,440.99384,409.93958,-0.0,1.5144715,2.1569154,0.0,2,0,0,0
128431242,34.03368329534061,108.76353321827723,440.9964,409.96265,-0.0,1.5144427,2.156787,0.0,2,0,0,0
128634757,34.033682994209066,108.76353283721487,440.9911,409.97763,-0.0,1.5144134,2.1566582,0.0,2,0,0,0
128833468,34.03368260939132,108.76353243851743,440.9809,409.98715,-0.0,1.5143875,2.1569524,0.0,2,0,0,0
129037073,34.03368195397979,108.76353208072139,440.97665,410.00333,-0.0,1.5143707,2.156828,0.0,2,0,0,0
129235871,34.03368102015896,108.76353170061292,440.9691,410.01544,-0.0,1.51435,2.1567035,0.0,2,0,0,0
129434422,34.033679850080375,108.76353115323884,440.9557,410.02182,-0.0,1.5143647,2.1565807,0.0,2,0,0,0
129633097,34.033678698804,108.76353069704254,440.95386,410.03992,-0.0,1.514385,2.1568778,0.0,2,0,0,0
129826805,34.033677686818024,108.76353023635424,440.96793,410.07437,-0.0,1.5142118,2.1566448,0.0,2,0,0,0
130025545,34.03367644883438,108.76352978009612,440.9811,410.10757,-0.0,1.5142365,2.1565244,0.0,2,0,0,0
130234088,34.03367504980593,108.76352939740165,440.9887,410.1351,-0.0,1.5144653,2.156932,0.0,2,0,0,0
130432763,34.03367356872721,108.76352897268904,440.9899,410.15643,-0.0,1.5144957,2.1568112,0.0,2,0,0,0
130631438,34.03367218491995,108.76352852303425,440.988,410.17548,-0.0,1.514529,2.1566846,0.0,2,0,0,0
130830205,34.03367068855559,108.7635281002053,440.97913,410.18546,-0.0,1.5145637,2.1569781,0.0,2,0,0,0
131033755,34.03366918736267,108.76352771241929,440.96683,410.19278,-0.0,1.5146413,2.1568515,0.0,2,0,0,0
131232430,34.03366764016046,108.76352725638979,440.96005,410.20663,-0.0,1.5147372,2.1567273,0.0,2,0,0,0
131426137,34.03366615905778,108.76352664213925,440.96716,410.234,-0.0,1.5146466,2.156914,0.0,2,0,0,0
131624814,34.033664801144894,108.76352592586447,440.9813,410.26773,-0.0,1.5147308,2.1567893,0.0,2,0,0,0
131833421,34.0336634045131,108.76352529219834,440.98178,410.28882,-0.0,1.5150149,2.1567779,0.0,2,0,0,0
132027129,34.03366225055673,108.76352494742335,440.9848,410.31064,-0.0,1.5148832,2.1565468,0.0,2,0,0,0
132235738,34.03366114259205,108.76352443277396,440.9802,410.32535,-0.0,1.515149,2.15695,0.0,2,0,0,0
132434413,34.03366007814938,108.7635239464196,440.97412,410.34027,-0.0,1.515252,2.1568282,0.0,2,0,0,0
132633088,34.033659202129904,108.76352325800399,440.97943,410.34558,-0.0,1.5153358,2.1566994,0.0,2,0,0,0
132831763,34.033658006014285,108.7635224167915,440.99426,410.40082,-0.0,1.5153254,2.1569846,0.0,2,0,0,0
133025471,34.03365654040441,108.76352139016085,441.00308,410.42972,-0.0,1.5152099,2.156742,0.0,2,0,0,0
133234099,34.03365477473832,108.76352056923479,441.00955,410.4559,-0.0,1.5154768,2.1567192,0.0,2,0,0,0
133432755,34.033653141936384,108.76351964199985,441.01566,410.4817,-0.0,1.515558,2.1570113,0.0,2,0,0,0
133631430,34.03365167701758,108.76351896219671,441.02643,410.5129,-0.0,1.5156133,2.1568835,0.0,2,0,0,0
133835071,34.033650239286956,108.76351846599097,441.02298,410.5299,-0.0,1.5156392,2.156755,0.0,2,0,0,0
134033747,34.03364875471925,108.76351782868237,441.01385,410.5408,-0.0,1.5156311,2.1566281,0.0,2,0,0,0
134232423,34.03364689155838,108.76351687584393,441.01685,410.56348,-0.0,1.5156153,2.156921,0.0,2,0,0,0
134426131,34.03364500684869,108.76351587397039,441.01575,410.5823,-0.0,1.5153824,2.1566787,0.0,2,0,0,0
134634738,34.033642990449,108.76351457585753,441.01114,410.59808,-0.0,1.5155164,2.156657,0.0,2,0,0,0
134833414,34.03364109818721,108.76351338612274,441.01382,410.62012,-0.0,1.5154529,2.1569493,0.0,2,0,0,0
135032095,34.03363934497804,108.76351230534551,441.0159,410.64255,-0.0,1.5154033,2.1568213,0.0,2,0,0,0
135230763,34.03363764891479,108.76351125157997,441.02002,410.66656,-0.0,1.5153183,2.156692,0.0,2,0,0,0
135429597,34.03363604724558,108.76351019261881,441.02222,410.68884,-0.0,1.5152273,2.156984,0.0,2,0,0,0
135633081,34.033634113717966,108.76350925594657,441.03738,410.72403,-0.0,1.5151362,2.15685,0.0,2,0,0,0
135831755,34.03363204428519,108.76350814381196,441.04636,410.7529,-0.0,1.5150415,2.1567173,0.0,2,0,0,0
136035397,34.03363011056851,108.76350702894477,441.05142,410.77737,-0.0,1.5149465,2.157008,0.0,2,0,0,0
136234280,34.03362838950882,108.76350602024058,441.0504,410.79626,-0.0,1.5148813,2.156878,0.0,2,0,0,0
136432747,34.03362689361122,108.76350531915972,441.04257,410.80832,-0.0,1.5148082,2.1567519,0.0,2,0,0,0
136626456,34.033625476378305,108.7635046739444,441.04047,410.82745,-0.0,1.5145429,2.1569362,0.0,2,0,0,0
136835064,34.03362375486495,108.76350409850535,441.034,410.84024,-0.0,1.5146453,2.156919,0.0,2,0,0,0
137033839,34.03362200329119,108.76350379595796,441.0389,410.86517,-0.0,1.5145667,2.1567953,0.0,2,0,0,0
137232415,34.033620257403854,108.7635035625028,441.03088,410.87723,-0.0,1.514489,2.1566713,0.0,2,0,0,0
137431094,34.033618801834734,108.76350347631794,441.023,410.88885,-0.0,1.5144043,2.1569679,0.0,2,0,0,0
137634732,34.03361721970076,108.7635034101698,441.012,410.89822,-0.0,1.5143156,2.1568413,0.0,2,0,0,0
137833478,34.03361595356259,108.76350314531327,441.00858,410.91486,-0.0,1.514218,2.1567132,0.0,2,0,0,0
138032082,34.033614638957204,108.76350247832274,441.01254,410.9387,-0.0,1.5141165,2.157003,0.0,2,0,0,0
138230760,34.03361297992485,108.7635021303208,441.02228,410.96826,-0.0,1.5140172,2.1568687,0.0,2,0,0,0
138434399,34.033611349718846,108.76350197651391,441.03937,411.0054,-0.0,1.5139302,2.1567347,0.0,2,0,0,0
138633116,34.033609893325895,108.76350166941197,441.04886,411.03485,-0.0,1.513854,2.1570246,0.0,2,0,0,0
138831749,34.033608520546395,108.76350145506062,441.05487,411.05954,-0.0,1.5138304,2.1569116,0.0,2,0,0,0
139035391,34.03360684375284,108.76350155096286,441.06494,411.08844,-0.0,1.5137787,2.1567802,0.0,2,0,0,0
139234073,34.033605019004234,108.76350157487552,441.07132,411.10956,-0.0,1.5137024,2.156652,0.0,2,0,0,0
139432754,34.03360311972471,108.76350147697663,441.06125,411.11212,-0.0,1.5136344,2.156946,0.0,2,0,0,0
139626449,34.033601126720384,108.76350150465699,441.0508,411.11334,-0.0,1.5133576,2.1567097,0.0,2,0,0,0
139825125,34.033598920862204,108.76350161947946,441.0446,411.11514,-0.0,1.5132616,2.156585,0.0,2,0,0,0
140028767,34.03359670231046,108.76350164258609,441.03473,411.10907,-0.0,1.5131519,2.1568804,0.0,2,0,0,0
140237389,34.03359457392423,108.76350153630496,441.02393,411.0996,-0.0,1.5132186,2.1568677,0.0,2,0,0,0
140436050,34.03359287947047,108.76350116435486,441.0197,411.09274,-0.0,1.5130888,2.1567461,0.0,2,0,0,0
140634726,34.03359179989028,108.76350081169403,441.0182,411.08487,-0.0,1.5129474,2.1566262,0.0,2,0,0,0
140833401,34.03359131151181,108.76350025897857,441.01282,411.07144,-0.0,1.5127828,2.156922,0.0,2,0,0,0
141032088,34.03359082645229,108.76349961599617,440.99792,411.0454,-0.0,1.512638,2.1568,0.0,2,0,0,0
141230780,34.033590241346225,108.76349873744233,440.9797,411.01337,-0.0,1.5125068,2.1566784,0.0,2,0,0,0
141429427,34.0335890496515,108.76349781563019,440.97565,410.99448,-0.0,1.512354,2.1569715,0.0,2,0,0,0
141633069,34.03358751006366,108.76349665249322,440.97995,410.98108,-0.0,1.5122093,2.1568422,0.0,2,0,0,0
141831774,34.03358578446643,108.7634954495533,440.9883,410.97232,-0.0,1.5120417,2.1567123,0.0,2,0,0,0
142030420,34.03358398338646,108.76349419954488,440.98944,410.95392,-0.0,1.5119292,2.1570072,0.0,2,0,0,0
142234061,34.03358201364757,108.76349292132475,440.97772,410.922,-0.0,1.5118241,2.1568797,0.0,2,0,0,0
142427811,34.03358014063588,108.76349178747769,440.97403,410.89862,-0.0,1.511537,2.1566458,0.0,2,0,0,0
142626470,34.033578292273035,108.763490530639,440.9747,410.879,-0.0,1.5114546,2.1565237,0.0,2,0,0,0
142825119,34.033576431002615,108.76348936148004,440.97037,410.85535,-0.0,1.5113826,2.1568213,0.0,2,0,0,0
143033728,34.03357435409906,108.7634880799694,440.96692,410.8317,-0.0,1.5115005,2.1568105,0.0,2,0,0,0
143232403,34.03357262971066,108.76348670529289,440.9564,410.80096,-0.0,1.5114359,2.15669,0.0,2,0,0,0
143431088,34.03357090342749,108.763485624724,440.94003,410.76483,-0.0,1.5113857,2.1565697,0.0,2,0,0,0
143634721,34.033569372442045,108.76348454138088,440.93332,410.7385,-0.0,1.511342,2.1568677,0.0,2,0,0,0
143833396,34.0335679780562,108.76348350947356,440.93777,410.72287,-0.0,1.5113128,2.1567497,0.0,2,0,0,0
144032071,34.033566415028986,108.76348261297758,440.9364,410.70175,-0.0,1.5113021,2.156632,0.0,2,0,0,0
144230746,34.033564654439424,108.76348154671176,440.93246,410.67755,-0.0,1.5113323,2.1565144,0.0,2,0,0,0
144429422,34.03356284403707,108.76348053658094,440.92682,410.6521,-0.0,1.5113593,2.1568127,0.0,2,0,0,0
144633063,34.0335611945492,108.76347966200528,440.92767,410.63315,-0.0,1.5113987,2.1566935,0.0,2,0,0,0
144831740,34.03355957813277,108.76347882801963,440.9329,410.61847,-0.0,1.5114455,2.1565762,0.0,2,0,0,0
145030414,34.03355776074939,108.76347796004748,440.9411,410.60687,-0.0,1.5115099,2.1568766,0.0,2,0,0,0
145234056,34.033555896657546,108.7634769673867,440.94833,410.5934,-0.0,1.5115725,2.1567543,0.0,2,0,0,0
145432731,34.03355401033538,108.76347607298263,440.95306,410.57825,-0.0,1.5116231,2.156632,0.0,2,0,0,0
145631591,34.03355208891731,108.76347498038893,440.95938,410.56445,-0.0,1.511677,2.156929,0.0,2,0,0,0
145835049,34.03355034446894,108.7634739605919,440.97333,410.55838,-0.0,1.5117353,2.1568074,0.0,2,0,0,0
146028757,34.033548837146334,108.76347292139944,440.98532,410.551,-0.0,1.5116074,2.156993,0.0,2,0,0,0
146227432,34.0335471185476,108.76347180934842,441.00128,410.54636,-0.0,1.5116856,2.1568685,0.0,2,0,0,0
146426233,34.03354556609477,108.7634707120757,441.02292,410.5483,-0.0,1.5117431,2.1567447,0.0,2,0,0,0
146634717,34.03354397629946,108.76346963266613,441.0289,410.53445,-0.0,1.5119733,2.1567307,0.0,2,0,0,0
146833392,34.033542545823096,108.76346857482406,441.02817,410.5138,-0.0,1.5119978,2.156608,0.0,2,0,0,0
147032068,34.03354093671295,108.76346736561325,441.03082,410.4965,-0.0,1.5120144,2.1569045,0.0,2,0,0,0
147230862,34.03353935005656,108.7634662469798,441.0367,410.48227,-0.0,1.5120239,2.1567817,0.0,2,0,0,0
147429418,34.03353801316807,108.76346521041575,441.03485,410.46042,-0.0,1.5120258,2.1566582,0.0,2,0,0,0
147633060,34.03353662608997,108.76346444221016,441.03217,410.43805,-0.0,1.5120093,2.156954,0.0,2,0,0,0
147831735,34.033535382275566,108.7634637534249,441.04712,410.4328,-0.0,1.5120298,2.1568332,0.0,2,0,0,0
148030546,34.0335342384986,108.76346305954743,441.05356,410.41855,-0.0,1.5121542,2.156748,0.0,2,0,0,0
148234053,34.033533334506735,108.76346258617205,441.04663,410.39178,-0.0,1.512183,2.1566248,0.0,2,0,0,0
148432728,34.03353290385706,108.76346198090309,441.04034,410.36542,-0.0,1.5122229,2.1569233,0.0,2,0,0,0
148636376,34.0335327048442,108.76346139150915,441.0293,410.33386,-0.0,1.5122721,2.1568034,0.0,2,0,0,0
148835137,34.03353258554223,108.76346079497391,441.01376,410.29883,-0.0,1.5123283,2.1566796,0.0,2,0,0,0
149033721,34.033532586004085,108.76346027208409,440.99942,410.2652,-0.0,1.5124136,2.156975,0.0,2,0,0,0
149227429,34.03353253716759,108.76345973025518,440.99036,410.23563,-0.0,1.5123092,2.1567416,0.0,2,0,0,0
149426106,34.0335325657437,108.76345928107324,440.98264,410.208,-0.0,1.5123508,2.1566174,0.0,2,0,0,0
149634753,34.03353269737646,108.76345892213712,440.975,410.17938,-0.0,1.512573,2.156605,0.0,2,0,0,0
149833407,34.03353280996942,108.76345866785354,440.97467,410.16034,-0.0,1.512573,2.1568975,0.0,2,0,0,0
150032064,34.03353289446573,108.76345853043476,440.9734,410.13898,-0.0,1.5125896,2.1567693,0.0,2,0,0,0
150235707,34.03353304054219,108.76345845765772,440.97885,410.12466,-0.0,1.5130168,2.1572402,0.0,2,0,0,0
150434447,34.03353317370241,108.7634584347231,440.986,410.11215,-0.0,1.5094124,2.1564755,0.0,2,0,0,0
150633057,34.03353329897244,108.76345852337505,440.99152,410.09708,-0.0,1.5129944,2.1569731,0.0,2,0,0,0
150831733,34.03353353169017,108.7634586374446,440.9937,410.0794,-0.0,1.5129595,2.1568403,0.0,2,0,0,0
151025454,34.0335337320914,108.76345880878746,440.99796,410.06345,-0.0,1.512734,2.157023,0.0,2,0,0,0
151234088,34.03353387612734,108.7634590229975,440.99823,410.0438,-0.0,1.5128784,2.1570013,0.0,2,0,0,0
151432726,34.03353400626866,108.76345902245886,440.99753,410.0231,-0.0,1.512841,2.1572888,0.0,2,0,0,0
151631402,34.033534016354345,108.76345886502472,440.9977,410.00278,-0.0,1.5127972,2.1571455,0.0,2,0,0,0
151830077,34.033534097282775,108.76345871537305,441.00464,409.9895,-0.0,1.5127329,2.1570015,0.0,2,0,0,0
152028752,34.0335339757864,108.76345861020354,441.0077,409.97308,-0.0,1.5126758,2.1572852,0.0,2,0,0,0
152232394,34.033533840996434,108.76345855237194,441.0022,409.94754,-0.0,1.5126283,2.1571422,0.0,2,0,0,0
152431070,34.03353363311683,108.7634585600105,440.99716,409.92175,-0.0,1.5125988,2.157002,0.0,2,0,0,0
152619973,34.03353333166652,108.76345856019788,440.9976,409.90338,-0.0,1.5123906,2.1567554,0.0,2,0,0,0
152833387,34.03353281482361,108.76345860124522,440.99863,409.88425,-0.0,1.512586,2.1571527,0.0,2,0,0,0
153032062,34.03353222890472,108.76345862432635,441.00174,409.86713,-0.0,1.5125903,2.1570184,0.0,2,0,0,0
153235705,34.03353133566921,108.76345868218236,441.00507,409.85104,-0.0,1.512585,2.1568851,0.0,2,0,0,0
153434383,34.03353036188229,108.76345874535822,441.00912,409.8342,-0.0,1.5125756,2.1567547,0.0,2,0,0,0
153633056,34.03352926472985,108.7634589177821,441.0134,409.81848,-0.0,1.5125442,2.157046,0.0,2,0,0,0
153831731,34.03352826749451,108.7634589801922,441.01065,409.79544,-0.0,1.512505,2.1569152,0.0,2,0,0,0
154025441,34.03352750942632,108.7634590848267,441.00473,409.76917,-0.0,1.512275,2.156676,0.0,2,0,0,0
154234218,34.033526566481214,108.76345928904318,441.00787,409.75266,-0.0,1.512631,2.156744,0.0,2,0,0,0
154432724,34.03352574832533,108.76345937952001,441.02106,409.74615,-0.0,1.5127556,2.1570961,0.0,2,0,0,0
154631400,34.03352488006504,108.76345950220414,441.0214,409.72546,-0.0,1.5127299,2.1569633,0.0,2,0,0,0
154835042,34.03352386624278,108.76345965353576,441.02203,409.707,-0.0,1.5133618,2.1571085,0.0,2,0,0,0
155033843,34.03352296003983,108.76345986284396,441.02332,409.6887,-0.0,1.5134761,2.1570323,0.0,2,0,0,0
155232393,34.03352219228008,108.7634599657605,441.02902,409.6736,-0.0,1.5134385,2.157321,0.0,2,0,0,0
155426101,34.033521267843035,108.76346007436973,441.0319,409.6562,-0.0,1.5135405,2.157212,0.0,2,0,0,0
155634711,34.03352038002782,108.76346008509485,441.035,409.63968,-0.0,1.5136468,2.1571782,0.0,2,0,0,0
155833483,34.033519724689874,108.76346008929903,441.03705,409.62152,-0.0,1.5137117,2.1575222,0.0,2,0,0,0
156032061,34.03351871956406,108.76346014609979,441.0322,409.59677,-0.0,1.5137565,2.15742,0.0,2,0,0,0
156235704,34.03351716718304,108.76346038457471,441.02213,409.5669,-0.0,1.5142435,2.1574883,0.0,2,0,0,0
156434379,34.0335152235033,108.76346063818175,441.01883,409.54358,-0.0,1.5141333,2.1573324,0.0,2,0,0,0
156633214,34.03351306357294,108.76346078962095,441.02155,409.52582,-0.0,1.5142584,2.1576989,0.0,2,0,0,0
156831730,34.03351083352025,108.76346092346652,441.0225,409.50732,-0.0,1.5149031,2.1578164,0.0,2,0,0,0
157030406,34.03350864177062,108.76346103464691,441.0117,409.47638,-0.0,1.5148234,2.1576464,0.0,2,0,0,0
157229082,34.033506077831056,108.76346122320025,440.99203,409.43692,-0.0,1.514736,2.1579196,0.0,2,0,0,0
157427810,34.03350348939745,108.76346170213519,440.98227,409.40686,-0.0,1.514631,2.1577485,0.0,2,0,0,0
157631399,34.03350089631573,108.76346234307856,440.9847,409.38977,-0.0,1.5144964,2.1575797,0.0,2,0,0,0
157830095,34.033498514440936,108.7634628267734,440.99896,409.38416,-0.0,1.5143954,2.157415,0.0,2,0,0,0
158033718,34.03349622213984,108.76346318116336,441.01413,409.37872,-0.0,1.5143056,2.1576862,0.0,2,0,0,0
158232393,34.03349407275937,108.76346360984029,441.02823,409.3724,-0.0,1.5141991,2.157516,0.0,2,0,0,0
158436035,34.03349205700215,108.76346397468204,441.02902,409.3533,-0.0,1.514089,2.1573482,0.0,2,0,0,0
158634710,34.03348995729726,108.76346436887478,441.0238,409.3277,-0.0,1.5139847,2.1576202,0.0,2,0,0,0
158833386,34.033487784434016,108.7634647823382,441.0299,409.3143,-0.0,1.5138606,2.1574566,0.0,2,0,0,0
159032066,34.03348546904511,108.7634653058155,441.0281,409.2926,-0.0,1.5137504,2.1572962,0.0,2,0,0,0
159230737,34.03348310434049,108.76346571540891,441.02353,409.268,-0.0,1.5136281,2.1571376,0.0,2,0,0,0
159434379,34.03348080859182,108.76346616629588,441.01718,409.24158,-0.0,1.513479,2.1574097,0.0,2,0,0,0
159633055,34.03347857560665,108.76346659499363,441.0038,409.20837,-0.0,1.5133251,2.1572523,0.0,2,0,0,0
159831731,34.03347629321992,108.76346688207134,440.99234,409.17688,-0.0,1.5131938,2.1570992,0.0,2,0,0,0
160030406,34.033474032257445,108.76346712793794,440.97696,409.14136,-0.0,1.5130615,2.1573765,0.0,2,0,0,0
160229083,34.033471635613495,108.76346751287926,440.9628,409.10745,-0.0,1.5129105,2.1572247,0.0,2,0,0,0
160432726,34.033469172758295,108.76346793391924,440.95914,409.08453,-0.0,1.5127549,2.1570745,0.0,2,0,0,0
160631399,34.033466725752376,108.76346824384876,440.96033,409.06442,-0.0,1.5126309,2.156926,0.0,2,0,0,0
160830076,34.03346471874301,108.76346849952557,440.95612,409.04102,-0.0,1.5124873,2.1572065,0.0,2,0,0,0
161033717,34.033462858238885,108.76346865531015,440.9498,409.01498,-0.0,1.5123562,2.1570623,0.0,2,0,0,0
161232594,34.03346107221399,108.76346883260035,440.94736,408.99194,-0.0,1.5122217,2.1569197,0.0,2,0,0,0
161436036,34.033459170713556,108.76346892529557,440.9471,408.9717,-0.0,1.5120817,2.1567817,0.0,2,0,0,0
161634711,34.03345728463366,108.76346893567218,440.9522,408.957,-0.0,1.5119315,2.1570687,0.0,2,0,0,0
161833408,34.03345542251659,108.7634688681183,440.9608,408.94467,-0.0,1.5117722,2.156933,0.0,2,0,0,0
162032222,34.03345374971952,108.76346886189384,440.9626,408.92755,-0.0,1.5116041,2.1567967,0.0,2,0,0,0
162230738,34.033452341322146,108.76346898159906,440.95505,408.90015,-0.0,1.5114568,2.156664,0.0,2,0,0,0
162429413,34.03345068274568,108.76346922512448,440.94754,408.87262,-0.0,1.5113174,2.156952,0.0,2,0,0,0
162628089,34.033448614345104,108.76346951551307,440.9492,408.85428,-0.0,1.5111809,2.15682,0.0,2,0,0,0
162836945,34.033446327172705,108.76346983090636,440.95807,408.84256,-0.0,1.5112218,2.1567955,0.0,2,0,0,0
163030406,34.03344401310416,108.76347018161161,440.9583,408.8241,-0.0,1.5108674,2.1569755,0.0,2,0,0,0
163234049,34.0334417800842,108.7634704156797,440.96286,408.80804,-0.0,1.5107259,2.1568477,0.0,2,0,0,0
163432725,34.033439766848055,108.76347060009095,440.9645,408.79,-0.0,1.5105644,2.1567216,0.0,2,0,0,0
163631483,34.033437658308905,108.7634708491237,440.968,408.77286,-0.0,1.5104188,2.1565962,0.0,2,0,0,0
163825109,34.03343583058465,108.76347105905573,440.98212,408.76764,-0.0,1.5100696,2.1567798,0.0,2,0,0,0
164033735,34.03343400894931,108.76347106489906,441.00012,408.76575,-0.0,1.5101011,2.1567597,0.0,2,0,0,0
164232394,34.03343236263669,108.76347102348679,441.0016,408.7464,-0.0,1.509947,2.156632,0.0,2,0,0,0
164431123,34.03343052084661,108.76347114116497,441.01147,408.73657,-0.0,1.509772,2.1569245,0.0,2,0,0,0
164634712,34.033428555879475,108.76347128985016,441.02307,408.72815,-0.0,1.509597,2.1567965,0.0,2,0,0,0
164833388,34.03342697092393,108.76347127720878,441.03357,408.71844,-0.0,1.5094211,2.1566706,0.0,2,0,0,0
165027097,34.033425611395806,108.76347131461594,441.03632,408.7009,-0.0,1.5090649,2.1568563,0.0,2,0,0,0
165225815,34.03342393769025,108.76347157281663,441.03528,408.67987,-0.0,1.5088953,2.1567323,0.0,2,0,0,0
165434385,34.03342215041349,108.76347188866342,441.03488,408.65945,-0.0,1.5089091,2.156719,0.0,2,0,0,0
165633057,34.03342040697999,108.76347206587053,441.03238,408.63763,-0.0,1.5087475,2.1565976,0.0,2,0,0,0
165831733,34.03341831590293,108.76347237900681,441.02087,408.60556,-0.0,1.5086153,2.1568944,0.0,2,0,0,0
166030408,34.03341625237391,108.76347269112877,441.01495,408.57974,-0.0,1.5084726,2.1567726,0.0,2,0,0,0
166234051,34.03341430205565,108.76347285157067,441.01205,408.55682,-0.0,1.5083368,2.1566505,0.0,2,0,0,0
166432727,34.03341241619915,108.76347303803053,441.00677,408.53165,-0.0,1.5082153,2.1565316,0.0,2,0,0,0
166626435,34.03341062825295,108.76347315452863,441.01318,408.51727,-0.0,1.5079223,2.1567209,0.0,2,0,0,0
166835045,34.03340871162338,108.76347323853032,441.02948,408.51477,-0.0,1.5079691,2.1567094,0.0,2,0,0,0
167033720,34.03340676600507,108.7634733970265,441.0344,408.4998,-0.0,1.5078816,2.1565938,0.0,2,0,0,0
167232398,34.0334050917505,108.76347361515452,441.02747,408.47275,-0.0,1.5078064,2.1564775,0.0,2,0,0,0
167431071,34.033403437187864,108.76347385356713,441.01788,408.44333,-0.0,1.5079215,2.156865,0.0,2,0,0,0
167629748,34.03340146988802,108.76347405459907,441.00488,408.41037,-0.0,1.5078659,2.1567388,0.0,2,0,0,0
167828423,34.03339932731687,108.76347429023973,441.00104,408.3862,-0.0,1.5078189,2.157032,0.0,2,0,0,0
168032065,34.033397408388936,108.7634744451756,441.00558,408.37115,-0.0,1.5077772,2.1569042,0.0,2,0,0,0
168230742,34.03339569639711,108.76347456521287,441.00934,408.35483,-0.0,1.5077418,2.1567771,0.0,2,0,0,0
168429418,34.033393718736534,108.76347468402982,441.01974,408.34482,-0.0,1.5076985,2.1566508,0.0,2,0,0,0
168633060,34.033391512423876,108.76347482073118,441.03012,408.335,-0.0,1.5076618,2.1569457,0.0,2,0,0,0
168826768,34.03338953922282,108.76347480778058,441.03162,408.31696,-0.0,1.5074462,2.156711,0.0,2,0,0,0
169035380,34.033387438265116,108.76347494905596,441.02838,408.29343,-0.0,1.5075918,2.156698,0.0,2,0,0,0
169234053,34.03338563934091,108.76347508614919,441.02402,408.2691,-0.0,1.507575,2.1565773,0.0,2,0,0,0
169432729,34.033383950951794,108.76347517159891,441.0104,408.23608,-0.0,1.5075426,2.1568751,0.0,2,0,0,0
169636371,34.033382010136485,108.76347537049874,440.9982,408.20358,-0.0,1.50752,2.1567538,0.0,2,0,0,0
169835229,34.03337979806066,108.76347563778774,440.99942,408.1847,-0.0,1.5074743,2.1566331,0.0,2,0,0,0
170033723,34.03337771607496,108.76347602262382,441.00885,408.17413,-0.0,1.5074451,2.1569316,0.0,2,0,0,0
170232408,34.03337612000465,108.76347623476954,441.02118,408.16577,-0.0,1.5074136,2.156806,0.0,2,0,0,0
170431075,34.033374609528536,108.76347633373486,441.02304,408.14832,-0.0,1.5073619,2.1566792,0.0,2,0,0,0
170629860,34.033373077988806,108.76347664933212,441.02872,408.134,-0.0,1.5073109,2.156973,0.0,2,0,0,0
170828426,34.03337180240896,108.76347690320516,441.01978,408.10498,-0.0,1.5072651,2.1568458,0.0,2,0,0,0
171032069,34.03337022273728,108.76347718897583,441.0063,408.07166,-0.0,1.5072256,2.1567197,0.0,2,0,0,0
171235711,34.03336890163261,108.76347734316441,441.00235,408.04773,-0.0,1.5071932,2.1565955,0.0,2,0,0,0
171434537,34.03336822102813,108.76347739234667,441.0122,408.0376,-0.0,1.5071713,2.1568913,0.0,2,0,0,0
171633067,34.03336806503677,108.76347731872218,441.02316,408.02878,-0.0,1.5071636,2.15677,0.0,2,0,0,0
171831740,34.03336797957906,108.76347711666244,441.01523,407.9999,-0.0,1.5071511,2.1566494,0.0,2,0,0,0
172025447,34.03336785130709,108.76347696448654,441.0043,407.9691,-0.0,1.5069398,2.1568372,0.0,2,0,0,0
172234181,34.033367732743784,108.7634767958345,440.99194,407.93732,-0.0,1.5070813,2.156826,0.0,2,0,0,0
172432732,34.0333676731532,108.76347663765577,440.98093,407.90622,-0.0,1.5070624,2.1567082,0.0,2,0,0,0
172631408,34.03336763520999,108.76347649259992,440.97174,407.87613,-0.0,1.5070287,2.1565886,0.0,2,0,0,0
172830129,34.033367570199054,108.7634763617227,440.96426,407.8492,-0.0,1.5069746,2.1568851,0.0,2,0,0,0
173028777,34.03336750072834,108.76347624353376,440.95804,407.82373,-0.0,1.5069503,2.1567612,0.0,2,0,0,0
173232449,34.03336746563263,108.76347613182337,440.95175,407.79733,-0.0,1.5069351,2.1566339,0.0,2,0,0,0
173431082,34.03336734202629,108.76347596600706,440.9523,407.77777,-0.0,1.5069286,2.156929,0.0,2,0,0,0
173629753,34.0333671292233,108.76347579151833,440.949,407.75488,-0.0,1.5069536,2.156805,0.0,2,0,0,0
173828461,34.033366837447055,108.76347564642194,440.94983,407.73483,-0.0,1.5069815,2.1566806,0.0,2,0,0,0
