timestamp,timestamp_sample,baro_device_id,baro_alt_meter,baro_temp_celcius,baro_pressure_pa,rho
50227440,50204650,3997730,409.42477,31.5,96503.0,1.1466153
50277589,50257465,3997730,409.37985,31.5,96503.5,1.1466212
50438375,50418237,3997730,409.70483,31.5,96499.75,1.1465766
50649571,50631804,3997730,409.61765,31.5,96500.75,1.1465886
50810237,50792615,3997730,409.57538,31.5,96501.24,1.1465944
51031517,51008872,3997730,409.512,31.51,96501.99,1.1466033
51242551,51222431,3997730,409.79208,31.51,96498.75,1.1465648
51403449,51383249,3997730,409.59653,31.51,96501.0,1.1465915
51615170,51597104,3997730,409.401,31.51,96503.25,1.1466182
51835854,51813173,3997730,409.68372,31.51,96500.0,1.1465796
52046963,52026826,3997730,409.83432,31.519999,96498.25,1.1465589
52207810,52187628,3997730,409.64142,31.519999,96500.5,1.1465856
52418738,52401114,3997730,409.55423,31.519999,96501.5,1.1465975
52639943,52617152,3997730,409.59653,31.519999,96500.99,1.1465914
52850919,52830773,3997730,409.7498,31.519999,96499.25,1.1465707
53011873,52991626,3997730,409.68372,31.519999,96500.0,1.1465796
53223009,53205402,3997730,409.64142,31.529999,96500.5,1.1465856
53404119,53381423,3997730,409.8132,31.529999,96498.5,1.1465619
53615123,53594988,3997730,409.726,31.529999,96499.5,1.1465737
53846305,53823567,3997730,409.61765,31.529999,96500.75,1.1465886
54007222,53984467,3997730,409.85812,31.529999,96498.0,1.1465559
54218248,54198120,3997730,409.85812,31.529999,96498.0,1.1465559
54429402,54411716,3997730,409.5331,31.539999,96501.74,1.1466004
54650518,54627785,3997730,409.726,31.539999,96499.5,1.1465737
54811174,54788556,3997730,409.61765,31.539999,96500.75,1.1465886
55032510,55008201,3997730,409.64938,31.539999,96500.41,1.1465845
55193398,55175742,3997730,409.512,31.539999,96501.99,1.1466033
55414619,55391949,3997730,410.00873,31.539999,96496.25,1.146535
55625682,55605564,3997730,409.7498,31.539999,96499.25,1.1465707
55836955,55819261,3997730,409.7709,31.55,96499.0,1.1465677
55997703,55980075,3997730,409.96646,31.55,96496.75,1.146541
56218885,56196199,3997730,410.02988,31.55,96496.0,1.146532
56429996,56409819,3997730,410.4632,31.55,96491.0,1.1464727
56641081,56623381,3997730,410.376,31.55,96492.0,1.1464846
56802274,56784400,3997730,410.4632,31.56,96491.0,1.1464727
57023173,57000429,3997730,410.89655,31.56,96486.0,1.1464133
57234224,57213971,3997730,411.20044,31.56,96482.49,1.1463716
57445051,57427434,3997730,411.09207,31.56,96483.75,1.1463865
57605795,57588167,3997730,411.45935,31.56,96479.5,1.1463361
57827061,57804317,3997730,411.69717,31.56,96476.74,1.1463033
58038018,58017826,3997730,411.91385,31.56,96474.25,1.1462737
58249124,58231439,3997730,412.2177,31.57,96470.74,1.146232
58410161,58392397,3997730,412.47665,31.57,96467.75,1.1461965
58631166,58608463,3997730,412.38943,31.57,96468.75,1.1462083
58842251,58822066,3997730,412.6061,31.57,96466.25,1.1461786
59003164,58983033,3997730,412.69333,31.57,96465.25,1.1461668
59214470,59196547,3997730,412.41324,31.57,96468.5,1.1462053
59435312,59412599,3997730,412.6061,31.57,96466.25,1.1461786
59646392,59626187,3997730,412.47665,31.57,96467.75,1.1461965
59807247,59787054,3997730,412.36832,31.58,96469.0,1.1462113
60019094,60000704,3997730,412.56384,31.58,96466.75,1.1461846
60239647,60216939,3997730,412.32605,31.58,96469.49,1.1462171
60451087,60430425,3997730,412.1754,31.58,96471.25,1.1462381
60621604,60603827,3997730,412.2177,31.58,96470.74,1.146232
60842737,60820047,3997730,412.0671,31.58,96472.5,1.1462529
61013534,60993420,3997730,411.8927,31.59,96474.5,1.1462766
61224749,61207084,3997730,412.15164,31.59,96471.5,1.146241
61405657,61382999,3997730,412.02216,31.59,96473.0,1.1462588
61616879,61596723,3997730,412.41324,31.59,96468.5,1.1462053
61828038,61810362,3997730,412.3049,31.599998,96469.74,1.1462201
62049075,62026438,3997730,412.28375,31.599998,96469.99,1.1462231
62210000,62187272,3997730,412.3049,31.599998,96469.74,1.1462201
62421052,62400884,3997730,412.4344,31.599998,96468.25,1.1462024
62632281,62614583,3997730,412.2177,31.599998,96470.74,1.146232
62793016,62775390,3997730,412.3921,31.599998,96468.74,1.1462083
63014103,62991429,3997730,412.3921,31.599998,96468.74,1.1462083
63225061,63204947,3997730,412.26263,31.609999,96470.24,1.146226
63386578,63365729,3997730,412.37094,31.609999,96468.99,1.1462113
63617211,63594497,3997730,412.1754,31.609999,96471.25,1.1462381
63828252,63808131,3997730,412.4344,31.609999,96468.24,1.1462023
64039467,64021769,3997730,412.47665,31.609999,96467.75,1.1461965
64200476,64182665,3997730,412.41324,31.609999,96468.49,1.1462053
64421665,64398900,3997730,412.56384,31.619999,96466.75,1.1461846
64632691,64612540,3997730,412.71445,31.619999,96465.0,1.1461638
64843982,64826244,3997730,412.69333,31.619999,96465.25,1.1461668
65004865,64987158,3997730,412.4344,31.619999,96468.24,1.1462023
65226045,65203302,3997730,412.47665,31.619999,96467.75,1.1461965
65437200,65416891,3997730,412.65103,31.619999,96465.75,1.1461726
65648253,65630547,3997730,412.8466,31.619999,96463.5,1.1461459
65809074,65791443,3997730,412.69333,31.63,96465.25,1.1461668
66040346,66020129,3997730,412.50043,31.63,96467.49,1.1461934
66201085,66180947,3997730,412.585,31.63,96466.49,1.1461815
66412292,66394555,3997730,412.37094,31.63,96468.99,1.1462113
66633235,66610600,3997730,412.6299,31.63,96466.0,1.1461756
66844461,66824298,3997730,412.41324,31.63,96468.49,1.1462053
67005226,66984951,3997730,412.67218,31.64,96465.5,1.1461697
67216261,67198505,3997730,412.69333,31.64,96465.25,1.1461668
67437392,67414627,3997730,412.3049,31.64,96469.74,1.1462201
67648304,67628140,3997730,412.4555,31.64,96467.99,1.1461993
67809102,67788915,3997730,412.54272,31.64,96467.0,1.1461875
68020381,68002623,3997730,412.6299,31.64,96466.0,1.1461756
68241459,68218833,3997730,412.52155,31.64,96467.25,1.1461905
68402858,68379731,3997730,412.52155,31.65,96467.25,1.1461905
68623831,68606144,3997730,412.82544,31.65,96463.74,1.1461488
68845533,68822459,3997730,412.585,31.65,96466.5,1.1461816
69016128,68995980,3997730,412.67218,31.65,96465.5,1.1461697
69227339,69209652,3997730,412.67218,31.65,96465.5,1.1461697
69448412,69425735,3997730,412.3921,31.65,96468.74,1.1462083
69609372,69586530,3997730,412.2177,31.65,96470.74,1.146232
69820558,69800286,3997730,412.3049,31.66,96469.74,1.1462201
70031851,70014074,3997730,412.56384,31.66,96466.75,1.1461846
70192485,70174877,3997730,412.54272,31.66,96466.99,1.1461874
70413500,70390877,3997730,412.2177,31.66,96470.74,1.146232
70624739,70604493,3997730,412.56384,31.66,96466.75,1.1461846
70835957,70818160,3997730,412.32605,31.66,96469.49,1.1462171
71016826,70994176,3997730,412.3472,31.66,96469.24,1.1462141
71227780,71207663,3997730,412.3049,31.67,96469.74,1.1462201
71438885,71421248,3997730,412.37094,31.67,96468.99,1.1462113
71599749,71582092,3997730,412.4555,31.67,96468.0,1.1461995
71820863,71798146,3997730,412.38943,31.67,96468.75,1.1462083
72032018,72011758,3997730,412.19656,31.679998,96471.0,1.1462351
72243233,72225573,3997730,412.04333,31.67,96472.75,1.1462559
72404199,72386384,3997730,412.02216,31.679998,96473.0,1.1462588
72625305,72602570,3997730,412.08823,31.679998,96472.25,1.1462499
72836609,72816352,3997730,412.3049,31.679998,96469.75,1.1462202
73047760,73030058,3997730,412.0671,31.679998,96472.5,1.1462529
73208515,73190912,3997730,412.0671,31.679998,96472.5,1.1462529
73429784,73406954,3997730,411.78436,31.679998,96475.74,1.1462914
73640706,73620588,3997730,411.69717,31.689999,96476.75,1.1463034
73851707,73834056,3997730,411.50165,31.689999,96479.0,1.1463301
74012640,73994944,3997730,411.82663,31.689999,96475.25,1.1462855
74233907,74211066,3997730,411.82663,31.689999,96475.25,1.1462855
74444895,74424734,3997730,411.74207,31.689999,96476.25,1.1462975
74605760,74585535,3997730,411.74207,31.689999,96476.24,1.1462973
74816909,74799232,3997730,411.78436,31.689999,96475.74,1.1462914
75037890,75015218,3997730,411.52542,31.699999,96478.75,1.1463271
75249100,75228915,3997730,411.50165,31.699999,96479.0,1.1463301
75409984,75389788,3997730,411.50165,31.699999,96479.0,1.1463301
75621155,75603519,3997730,411.76324,31.699999,96476.0,1.1462945
75842471,75819700,3997730,411.30875,31.699999,96481.25,1.1463568
76003240,75980554,3997730,411.26382,31.71,96481.75,1.1463628
76214431,76194283,3997730,411.20044,31.699999,96482.5,1.1463717
76425756,76408098,3997730,411.45935,31.699999,96479.5,1.1463361
76647134,76624343,3997730,411.39328,31.699999,96480.25,1.146345
76807968,76785334,3997730,411.54654,31.71,96478.5,1.1463242
77019053,76998891,3997730,411.50165,31.71,96479.0,1.1463301
77230369,77212686,3997730,411.50165,31.71,96479.0,1.1463301
77391341,77373698,3997730,411.35104,31.71,96480.75,1.1463509
77612410,77589772,3997730,411.26382,31.72,96481.75,1.1463628
77823375,77803249,3997730,411.60995,31.72,96477.75,1.1463152
78034384,78016740,3997730,411.22156,31.72,96482.25,1.1463687
78195195,78177566,3997730,411.20044,31.72,96482.49,1.1463716
78416208,78393516,3997730,411.48053,31.72,96479.25,1.1463331
78627339,78607191,3997730,411.26382,31.73,96481.75,1.1463628
78838417,78820762,3997730,411.50165,31.73,96479.0,1.1463301
78999332,78981633,3997730,411.50165,31.72,96479.0,1.1463301
79220435,79197778,3997730,411.32986,31.73,96481.0,1.1463538
79431504,79411379,3997730,411.30875,31.73,96481.25,1.1463568
79642624,79624972,3997730,411.41708,31.73,96480.0,1.146342
79803686,79785902,3997730,411.17664,31.73,96482.75,1.1463747
80025271,80002182,3997730,411.24268,31.73,96481.99,1.1463656
80246104,80228465,3997730,411.07095,31.74,96484.0,1.1463895
80406982,80389266,3997730,411.37482,31.74,96480.49,1.1463479
80628104,80605387,3997730,411.20044,31.74,96482.49,1.1463716
80839375,80819078,3997730,411.20044,31.74,96482.49,1.1463716
81050338,81032719,3997730,411.52542,31.74,96478.75,1.1463271
81211078,81193458,3997730,411.28497,31.74,96481.5,1.1463598
81432150,81409528,3997730,411.026,31.74,96484.5,1.1463954
81643261,81623051,3997730,411.26382,31.75,96481.75,1.1463628
81804226,81783935,3997730,411.54654,31.75,96478.5,1.1463242
82015423,81997702,3997730,411.24268,31.74,96481.99,1.1463656
82236506,82213823,3997730,411.07095,31.75,96484.0,1.1463895
82447646,82427490,3997730,411.32986,31.75,96481.0,1.1463538
82608546,82588244,3997730,411.41708,31.75,96480.0,1.146342
82819639,82801884,3997730,411.07095,31.75,96484.0,1.1463895
83040760,83018003,3997730,411.04715,31.76,96484.25,1.1463925
83251918,83231648,3997730,411.37216,31.75,96480.5,1.146348
83412723,83392496,3997730,411.43823,31.75,96479.75,1.146339
83623825,83606115,3997730,411.65488,31.76,96477.25,1.1463094
83844986,83822362,3997730,411.24268,31.75,96482.0,1.1463658
84005940,83983295,3997730,411.41708,31.76,96480.0,1.146342
84216960,84196797,3997730,411.32986,31.76,96480.99,1.1463538
84428133,84410462,3997730,411.45935,31.76,96479.5,1.1463361
84649237,84626560,3997730,411.5677,31.76,96478.25,1.1463212
84810188,84787474,3997730,411.5677,31.76,96478.25,1.1463212
85021284,85000975,3997730,411.48053,31.769999,96479.25,1.1463331
85232225,85214578,3997730,411.24268,31.769999,96481.99,1.1463656
85393047,85375433,3997730,411.54654,31.769999,96478.5,1.1463242
85614282,85591616,3997730,411.60995,31.769999,96477.75,1.1463152
85825581,85805450,3997730,411.74207,31.769999,96476.24,1.1462973
86036810,86019040,3997730,411.54654,31.769999,96478.5,1.1463242
86197630,86179987,3997730,411.20044,31.769999,96482.49,1.1463716
86418786,86396098,3997730,411.5677,31.779999,96478.25,1.1463212
86630116,86609993,3997730,411.26382,31.779999,96481.74,1.1463627
86841195,86823535,3997730,411.39328,31.769999,96480.25,1.146345
87002055,86984446,3997730,411.37482,31.779999,96480.49,1.1463479
87223318,87200593,3997730,411.74207,31.779999,96476.25,1.1462975
87434515,87414350,3997730,411.5677,31.779999,96478.25,1.1463212
87605422,87581098,3997730,411.50427,31.779999,96478.99,1.14633
87826550,87803926,3997730,411.48053,31.789999,96479.25,1.1463331
88037887,88017707,3997730,411.72095,31.789999,96476.49,1.1463003
88249057,88231390,3997730,411.74207,31.789999,96476.25,1.1462975
88429978,88407313,3997730,411.67603,31.789999,96477.0,1.1463064
88641138,88620973,3997730,411.43823,31.789999,96479.75,1.146339
88852211,88834526,3997730,411.22156,31.789999,96482.25,1.1463687
89012932,88995300,3997730,411.37482,31.789999,96480.49,1.1463479
89233947,89211249,3997730,411.09207,31.789999,96483.75,1.1463865
89444932,89424810,3997730,411.20044,31.789999,96482.49,1.1463716
89606226,89585699,3997730,411.43823,31.789999,96479.75,1.146339
89817062,89799317,3997730,411.69717,31.8,96476.75,1.1463034
90038279,90015600,3997730,411.5677,31.8,96478.25,1.1463212
90249437,90229322,3997730,411.26382,31.8,96481.75,1.1463628
90410515,90390241,3997730,411.28497,31.8,96481.5,1.1463598
90621602,90603930,3997730,411.04715,31.8,96484.25,1.1463925
90843588,90820081,3997730,411.45935,31.8,96479.5,1.1463361
91013673,90993454,3997730,411.52542,31.8,96478.75,1.1463271
91224873,91207154,3997730,411.32986,31.81,96481.0,1.1463538
91446059,91423301,3997730,411.37216,31.81,96480.51,1.146348
91606852,91584204,3997730,411.45935,31.8,96479.5,1.1463361
91818097,91797901,3997730,411.54654,31.81,96478.5,1.1463242
92029435,92011663,3997730,411.67603,31.81,96476.99,1.1463063
92250466,92227786,3997730,411.24268,31.81,96481.99,1.1463656
92411169,92388545,3997730,411.45935,31.81,96479.5,1.1463361
92622388,92602223,3997730,410.9177,31.81,96485.74,1.1464102
92833709,92816024,3997730,411.15814,31.82,96482.99,1.1463776
93014814,92992108,3997730,411.09207,31.81,96483.74,1.1463865
93225989,93205866,3997730,411.37216,31.81,96480.5,1.146348
93437200,93419469,3997730,411.43823,31.82,96479.75,1.146339
93598141,93580500,3997730,411.13437,31.82,96483.25,1.1463807
93819445,93796752,3997730,410.9626,31.82,96485.25,1.1464044
94030593,94010390,3997730,410.85428,31.82,96486.5,1.1464193
94201430,94177270,3997730,411.17398,31.82,96482.8,1.1463752
94422547,94399829,3997730,411.1132,31.82,96483.5,1.1463836
94633651,94613521,3997730,411.15814,31.82,96482.99,1.1463776
94844699,94827041,3997730,411.39328,31.83,96480.25,1.146345
95025613,94995313,3997730,411.18982,31.83,96482.6,1.1463729
95236827,95216649,3997730,411.07095,31.83,96484.0,1.1463895
95448489,95430247,3997730,411.15814,31.83,96482.99,1.1463776
95608717,95591087,3997730,411.13437,31.83,96483.24,1.1463805
95830054,95807370,3997730,411.28763,31.83,96481.49,1.1463597
96041384,96021066,3997730,411.41708,31.83,96480.0,1.146342
96252147,96234515,3997730,411.24268,31.84,96481.99,1.1463656
96413015,96395399,3997730,411.04977,31.84,96484.24,1.1463925
96634448,96611703,3997730,411.39328,31.84,96480.25,1.146345
96845629,96825475,3997730,411.67603,31.84,96477.0,1.1463064
97006506,96986330,3997730,411.58884,31.84,96478.0,1.1463182
97217633,97199876,3997730,411.69717,31.84,96476.75,1.1463034
97438880,97416011,3997730,411.93497,31.84,96474.0,1.1462708
97649834,97629655,3997730,412.00104,31.849998,96473.25,1.1462618
97810518,97790408,3997730,411.8055,31.849998,96475.5,1.1462885
98021730,98004068,3997730,411.63376,31.849998,96477.5,1.1463124
98243061,98220315,3997730,411.63376,31.849998,96477.5,1.1463124
98403894,98381216,3997730,411.72095,31.849998,96476.5,1.1463004
98615108,98594972,3997730,412.02216,31.849998,96473.0,1.1462588
98826122,98808506,3997730,411.78436,31.849998,96475.75,1.1462915
99047614,99024832,3997730,412.15164,31.849998,96471.5,1.146241
99208362,99185738,3997730,412.19656,31.849998,96471.0,1.1462351
99419519,99399391,3997730,411.8055,31.849998,96475.5,1.1462885
99630543,99612899,3997730,411.84778,31.859999,96475.0,1.1462826
99791465,99773736,3997730,412.08823,31.859999,96472.25,1.1462499
100012530,99989871,3997730,412.4344,31.859999,96468.25,1.1462024
100223568,100203412,3997730,412.3921,31.859999,96468.74,1.1462083
100394726,100370411,3997730,412.54272,31.859999,96467.01,1.1461877
100615873,100593109,3997730,412.3049,31.869999,96469.74,1.1462201
100826878,100806712,3997730,412.23883,31.859999,96470.49,1.146229
101038252,101020441,3997730,412.3472,31.869999,96469.25,1.1462142
101199074,101181243,3997730,412.3049,31.869999,96469.74,1.1462201
101420102,101397420,3997730,412.52155,31.869999,96467.24,1.1461904
101641246,101617016,3997730,412.33398,31.869999,96469.4,1.146216
101801954,101784324,3997730,412.54272,31.869999,96466.99,1.1461874
102023050,102000403,3997730,412.37094,31.869999,96468.99,1.1462113
102234292,102214083,3997730,412.26263,31.869999,96470.24,1.146226
102445888,102427670,3997730,412.4978,31.869999,96467.5,1.1461935
102606139,102588439,3997730,412.50043,31.88,96467.49,1.1461934
102827324,102804613,3997730,412.8466,31.869999,96463.5,1.1461459
103038439,103018210,3997730,412.78052,31.869999,96464.24,1.1461548
103249594,103231808,3997730,412.9549,31.88,96462.24,1.146131
103410307,103392612,3997730,412.52155,31.88,96467.24,1.1461904
103631359,103608679,3997730,412.9549,31.88,96462.24,1.146131
103842537,103822395,3997730,412.82544,31.88,96463.74,1.1461488
104003351,103983145,3997730,413.1478,31.88,96460.0,1.1461043
104234541,104211885,3997730,412.8466,31.89,96463.5,1.1461459
104445671,104425409,3997730,412.9972,31.88,96461.75,1.1461252
104606362,104586179,3997730,412.8677,31.89,96463.24,1.1461428
104817766,104799976,3997730,412.8889,31.89,96462.99,1.14614
105038757,105016123,3997730,412.8677,31.88,96463.25,1.146143
105249829,105229615,3997730,412.97607,31.89,96462.0,1.1461282
105410619,105390444,3997730,413.235,31.89,96459.0,1.1460925
105621617,105603968,3997730,412.82544,31.89,96463.74,1.1461488
105842733,105820072,3997730,412.93378,31.89,96462.5,1.146134
106003619,105980906,3997730,412.71445,31.89,96465.0,1.1461638
106214873,106194518,3997730,412.97607,31.89,96462.0,1.1461282
106426104,106408297,3997730,413.0183,31.89,96461.5,1.1461222
106647230,106624573,3997730,412.8466,31.89,96463.5,1.1461459
106808034,106785391,3997730,412.73822,31.9,96464.75,1.1461608
107019124,106998984,3997730,412.78052,31.9,96464.24,1.1461548
107230216,107212553,3997730,413.49658,31.89,96456.0,1.1460569
107451380,107428742,3997730,412.8889,31.9,96463.0,1.14614
107612399,107589752,3997730,413.08438,31.9,96460.76,1.1461134
107823530,107803383,3997730,412.91,31.9,96462.74,1.146137
108034748,108017078,3997730,413.08438,31.9,96460.76,1.1461134
108195636,108177993,3997730,412.91,31.9,96462.74,1.146137
108426870,108406691,3997730,412.91,31.9,96462.74,1.146137
108638040,108620322,3997730,412.78052,31.9,96464.24,1.1461548
108799050,108781372,3997730,412.8677,31.91,96463.24,1.1461428
109020365,108997645,3997730,412.80164,31.9,96463.99,1.1461518
109231423,109211264,3997730,412.73822,31.9,96464.75,1.1461608
109442693,109425042,3997730,412.8466,31.9,96463.5,1.1461459
109623679,109601050,3997730,412.97607,31.9,96462.0,1.1461282
109834716,109814563,3997730,412.6299,31.91,96466.0,1.1461756
110045712,110028042,3997730,412.8677,31.91,96463.24,1.1461428
110206474,110188823,3997730,412.7594,31.91,96464.5,1.1461579
110427794,110405007,3997730,412.7594,31.91,96464.49,1.1461577
110638732,110618605,3997730,412.8466,31.91,96463.5,1.1461459
110849989,110832327,3997730,413.0421,31.91,96461.24,1.1461191
111010725,110993063,3997730,413.0606,31.91,96461.0,1.1461163
111232234,111209269,3997730,413.30106,31.91,96458.25,1.1460836
111443305,111423004,3997730,413.0183,31.92,96461.5,1.1461222
111604667,111584065,3997730,413.2799,31.92,96458.5,1.1460866
111815360,111797668,3997730,413.19272,31.92,96459.5,1.1460984
112036466,112013847,3997730,413.25613,31.92,96458.75,1.1460896
112247683,112227554,3997730,413.3222,31.92,96457.99,1.1460805
112409315,112388412,3997730,413.4305,31.91,96456.74,1.1460657
112639873,112617227,3997730,413.34332,31.92,96457.75,1.1460776
112851059,112830944,3997730,413.4094,31.92,96456.99,1.1460686
113012051,112991883,3997730,413.12668,31.92,96460.25,1.1461073
113223377,113205546,3997730,413.0606,31.929998,96461.0,1.1461163
113444340,113421577,3997730,413.30106,31.929998,96458.25,1.1460836
113605084,113582407,3997730,413.38828,31.929998,96457.25,1.1460717
113826123,113808514,3997730,413.5177,31.929998,96455.75,1.1460539
114047189,114024540,3997730,413.34332,31.929998,96457.74,1.1460775
114208291,114185554,3997730,413.235,31.929998,96459.0,1.1460925
114419338,114399150,3997730,413.0606,31.929998,96461.0,1.1461163
114630443,114612766,3997730,413.36447,31.929998,96457.5,1.1460747
114851618,114828941,3997730,413.49658,31.939999,96455.99,1.1460568
115012502,114989769,3997730,413.4305,31.929998,96456.75,1.1460657
115223557,115203352,3997730,413.6472,31.929998,96454.25,1.146036
115384807,115364219,3997730,413.885,31.929998,96451.5,1.1460034
115615767,115593036,3997730,413.38828,31.939999,96457.25,1.1460717
115826917,115806731,3997730,413.34332,31.929998,96457.74,1.1460775
116038166,116020528,3997730,413.38828,31.939999,96457.24,1.1460716
116199108,116181483,3997730,413.45166,31.939999,96456.5,1.1460627
116420462,116397692,3997730,413.68948,31.939999,96453.75,1.1460301
116631683,116611350,3997730,413.4305,31.939999,96456.75,1.1460657
116842811,116825099,3997730,413.08438,31.939999,96460.76,1.1461134
117023812,116993439,3997730,413.30368,31.939999,96458.2,1.146083
117234653,117214541,3997730,413.56,31.939999,96455.25,1.146048
117445721,117428072,3997730,413.2799,31.949999,96458.5,1.1460866
117606754,117589035,3997730,413.235,31.939999,96459.0,1.1460925
117828011,117805384,3997730,413.1716,31.939999,96459.74,1.1461014
118039037,118018926,3997730,413.34332,31.949999,96457.75,1.1460776
118250304,118232595,3997730,413.45166,31.949999,96456.5,1.1460627
118411248,118393546,3997730,413.235,31.949999,96459.0,1.1460925
118632802,118609790,3997730,413.66837,31.949999,96453.99,1.1460329
118843665,118823547,3997730,413.62607,31.949999,96454.5,1.146039
119005338,118984529,3997730,413.4094,31.949999,96456.99,1.1460686
119215831,119198133,3997730,413.47546,31.949999,96456.24,1.1460598
119437056,119414357,3997730,413.77667,31.949999,96452.75,1.1460183
119648113,119627978,3997730,413.45166,31.949999,96456.5,1.1460627
119809088,119788804,3997730,413.5177,31.949999,96455.75,1.1460539
120020097,120002420,3997730,413.6023,31.949999,96454.75,1.146042
120241962,120218571,3997730,413.4728,31.96,96456.25,1.1460599
120412197,120392062,3997730,413.58112,31.96,96455.0,1.146045
120623358,120605673,3997730,413.6472,31.96,96454.25,1.146036
120844609,120821908,3997730,413.66837,31.96,96454.0,1.146033
121005445,120982772,3997730,413.4305,31.96,96456.75,1.1460657
121216497,121196287,3997730,413.58112,31.96,96455.0,1.146045
121427496,121409848,3997730,413.21387,31.96,96459.25,1.1460955
121648594,121625931,3997730,413.49658,31.96,96456.0,1.1460569
121809561,121786769,3997730,413.1478,31.96,96460.0,1.1461043
122020687,122000505,3997730,413.7344,31.96,96453.25,1.1460241
122231842,122214154,3997730,413.6472,31.96,96454.25,1.146036
122413496,122382549,3997730,413.7027,31.96,96453.59,1.1460283
122633951,122616222,3997730,413.81897,31.96,96452.25,1.1460123
122794734,122777119,3997730,413.68948,31.97,96453.75,1.1460301
123015878,122993239,3997730,413.6023,31.96,96454.75,1.146042
123237765,123213123,3997730,413.80576,31.96,96452.41,1.1460141
123398325,123380664,3997730,413.6472,31.96,96454.25,1.146036
123619495,123596845,3997730,413.49658,31.96,96456.0,1.1460569
123830641,123810468,3997730,413.885,31.97,96451.49,1.1460032
124041719,124024095,3997730,413.7344,31.97,96453.25,1.1460241
124202575,124184865,3997730,414.01447,31.97,96450.0,1.1459856
124424982,124400916,3997730,413.6472,31.97,96454.26,1.1460361
124644941,124627300,3997730,413.56,31.97,96455.25,1.146048
124805845,124788110,3997730,414.21,31.97,96447.75,1.1459588
125026971,125004225,3997730,413.75555,31.97,96453.0,1.1460212
125238143,125217783,3997730,414.01447,31.97,96450.0,1.1459856
125449049,125431425,3997730,413.81897,31.97,96452.25,1.1460123
125609817,125592206,3997730,413.66837,31.98,96454.0,1.146033
125840942,125820802,3997730,413.62607,31.98,96454.5,1.146039
126052005,126034369,3997730,414.0594,31.97,96449.5,1.1459796
126212842,126195200,3997730,413.9722,31.98,96450.49,1.1459914
126434226,126411531,3997730,413.9722,31.98,96450.5,1.1459914
126645392,126625234,3997730,413.92728,31.98,96451.0,1.1459974
126806361,126786131,3997730,414.21,31.98,96447.75,1.1459588
127017423,126999772,3997730,414.2523,31.98,96447.25,1.1459528
127238668,127215919,3997730,413.7344,31.99,96453.25,1.1460241
127449816,127429691,3997730,413.99335,31.99,96450.25,1.1459885
127610942,127590719,3997730,413.81897,31.98,96452.25,1.1460123
127842208,127819575,3997730,413.99335,31.99,96450.25,1.1459885
128053478,128033288,3997730,414.03827,31.99,96449.75,1.1459826
128214326,128194058,3997730,413.81897,31.99,96452.25,1.1460123
128425593,128407943,3997730,413.77667,31.99,96452.75,1.1460183
128646716,128624067,3997730,413.81897,31.99,96452.25,1.1460123
128807430,128784782,3997730,414.16776,31.99,96448.25,1.1459647
129018606,128998464,3997730,413.53888,31.99,96455.5,1.1460509
129229796,129212130,3997730,413.81897,32.0,96452.25,1.1460123
129451088,129428346,3997730,414.01447,31.99,96450.0,1.1459856
129611803,129589129,3997730,413.95108,32.0,96450.75,1.1459944
129822818,129802701,3997730,413.49658,31.99,96456.0,1.1460569
130033998,130016311,3997730,413.90616,32.0,96451.25,1.1460004
130194899,130177158,3997730,414.16776,32.0,96448.25,1.1459647
130426093,130405861,3997730,413.92993,32.0,96450.99,1.1459973
130637154,130619461,3997730,413.68948,32.0,96453.75,1.1460301
130798140,130780338,3997730,413.99335,32.0,96450.25,1.1459885
131019246,130996487,3997730,413.92728,32.0,96451.0,1.1459974
131230422,131210052,3997730,414.10168,32.0,96449.0,1.1459737
131441586,131423815,3997730,413.7978,32.0,96452.5,1.1460153
131602229,131584555,3997730,414.03827,32.0,96449.75,1.1459826
131823518,131800856,3997730,413.7978,32.0,96452.5,1.1460153
132044535,132026899,3997730,413.9722,32.01,96450.5,1.1459914
132205386,132187745,3997730,413.92728,32.01,96451.0,1.1459974
132436627,132416510,3997730,414.27606,32.01,96447.0,1.14595
132647776,132630140,3997730,414.01447,32.01,96450.0,1.1459856
132808529,132790867,3997730,414.23117,32.0,96447.5,1.1459558
133029741,133006946,3997730,414.1228,32.01,96448.75,1.1459707
133240730,133220574,3997730,414.08054,32.01,96449.25,1.1459767
133401452,133381340,3997730,413.7978,32.01,96452.5,1.1460153
133612834,133594923,3997730,414.10168,32.01,96449.0,1.1459737
133833938,133811318,3997730,414.29718,32.01,96446.75,1.145947
133995378,133972233,3997730,414.03827,32.02,96449.75,1.1459826
134216143,134198452,3997730,413.9722,32.02,96450.5,1.1459914
134437367,134414621,3997730,414.18887,32.02,96448.0,1.1459618
134648253,134628110,3997730,414.0594,32.02,96449.5,1.1459796
134809185,134788995,3997730,414.03827,32.02,96449.75,1.1459826
135020286,135002485,3997730,414.29718,32.02,96446.75,1.145947
135241904,135218597,3997730,414.42667,32.02,96445.24,1.145929
135412164,135391970,3997730,414.27606,32.02,96447.0,1.14595
135623481,135605717,3997730,414.0594,32.02,96449.5,1.1459796
135844653,135821952,3997730,413.92993,32.02,96450.99,1.1459973
136005458,135982839,3997730,414.27606,32.02,96447.0,1.14595
136216456,136196341,3997730,414.38443,32.03,96445.74,1.1459349
136427594,136409933,3997730,414.14658,32.03,96448.5,1.1459677
136648853,136626196,3997730,414.10168,32.03,96449.0,1.1459737
136809751,136787059,3997730,414.03827,32.03,96449.75,1.1459826
137020795,137000618,3997730,413.9722,32.03,96450.5,1.1459914
137231866,137214222,3997730,414.16776,32.03,96448.25,1.1459647
137412983,137382687,3997730,413.9643,32.04,96450.6,1.1459928
137624135,137603865,3997730,414.01447,32.03,96450.0,1.1459856
137855464,137832828,3997730,414.10168,32.03,96449.0,1.1459737
138016235,137993492,3997730,414.29718,32.03,96446.75,1.145947
138227331,138207055,3997730,414.46896,32.03,96444.75,1.1459231
138438511,138420836,3997730,414.03827,32.04,96449.75,1.1459826
138599367,138581680,3997730,414.42667,32.03,96445.24,1.145929
138820665,138798029,3997730,414.14658,32.04,96448.5,1.1459677
139031748,139011633,3997730,413.7978,32.04,96452.5,1.1460153
139242864,139225225,3997730,413.7978,32.04,96452.5,1.1460153
139404126,139386026,3997730,414.0594,32.04,96449.5,1.1459796
139624958,139602287,3997730,414.0594,32.04,96449.5,1.1459796
139836266,139815921,3997730,414.08054,32.04,96449.25,1.1459767
140047304,140029677,3997730,413.9722,32.04,96450.49,1.1459914
140208744,140190491,3997730,413.86386,32.04,96451.75,1.1460063
140429409,140406757,3997730,413.84274,32.04,96452.0,1.1460093
140640555,140620387,3997730,413.99335,32.04,96450.25,1.1459885
140851505,140833836,3997730,413.885,32.04,96451.5,1.1460034
141012512,140994717,3997730,414.03827,32.04,96449.75,1.1459826
141243798,141223540,3997730,413.81897,32.04,96452.25,1.1460123
141404663,141384469,3997730,413.92728,32.04,96451.0,1.1459974
141615764,141598144,3997730,413.66837,32.04,96454.0,1.146033
141837242,141814354,3997730,413.7344,32.04,96453.25,1.1460241
142048244,142028102,3997730,413.7344,32.05,96453.25,1.1460241
142208989,142188861,3997730,414.08054,32.05,96449.25,1.1459767
142420027,142402409,3997730,413.86386,32.05,96451.75,1.1460063
142641365,142618592,3997730,414.03827,32.04,96449.75,1.1459826
142802208,142779436,3997730,413.92728,32.05,96451.0,1.1459974
143013438,142993248,3997730,413.90878,32.05,96451.24,1.1460003
143224551,143206886,3997730,413.885,32.05,96451.5,1.1460034
143445720,143423097,3997730,414.14658,32.05,96448.5,1.1459677
143606582,143583875,3997730,413.92728,32.05,96451.0,1.1459974
143817742,143797563,3997730,413.7978,32.05,96452.5,1.1460153
144028752,144011140,3997730,414.01447,32.05,96450.0,1.1459856
144249978,144227248,3997730,413.90878,32.05,96451.24,1.1460003
144410757,144388128,3997730,414.10168,32.059998,96449.0,1.1459737
144621782,144601666,3997730,413.9722,32.05,96450.5,1.1459914
144852966,144822776,3997730,413.84274,32.059998,96452.0,1.1460093
145014011,144991303,3997730,414.2523,32.059998,96447.25,1.1459528
145225491,145205030,3997730,414.08054,32.059998,96449.25,1.1459767
145436425,145418778,3997730,414.33948,32.059998,96446.25,1.145941
145597306,145579652,3997730,413.99335,32.059998,96450.25,1.1459885
145828563,145808412,3997730,414.36063,32.059998,96446.0,1.145938
146039912,146022144,3997730,414.18887,32.059998,96448.0,1.1459618
146200717,146183003,3997730,414.14658,32.059998,96448.5,1.1459677
146421947,146399174,3997730,414.03827,32.059998,96449.75,1.1459826
146632764,146612632,3997730,413.9722,32.07,96450.5,1.1459914
146843886,146826241,3997730,414.10168,32.07,96449.0,1.1459737
147004674,146987067,3997730,414.1228,32.07,96448.75,1.1459707
147225992,147203278,3997730,413.86386,32.07,96451.74,1.1460062
147436977,147416813,3997730,414.03827,32.07,96449.75,1.1459826
147648028,147630392,3997730,414.29718,32.07,96446.75,1.145947
147808779,147791161,3997730,414.0594,32.07,96449.5,1.1459796
148029955,148007327,3997730,414.2523,32.07,96447.25,1.1459528
148240953,148220771,3997730,414.27606,32.07,96447.0,1.14595
148452081,148434392,3997730,414.29718,32.07,96446.75,1.145947
148633000,148602751,3997730,414.033,32.07,96449.79,1.1459831
148843929,148823781,3997730,413.86386,32.079998,96451.74,1.1460062
149005060,148984790,3997730,413.885,32.079998,96451.5,1.1460034
149216040,149198392,3997730,414.18887,32.079998,96448.0,1.1459618
149437388,149414491,3997730,413.84274,32.079998,96452.0,1.1460093
149608136,149587961,3997730,414.03827,32.07,96449.75,1.1459826
149819314,149801673,3997730,413.885,32.079998,96451.5,1.1460034
150040444,150017823,3997730,414.08054,32.079998,96449.25,1.1459767
150201518,150178637,3997730,414.01447,32.079998,96450.0,1.1459856
150412583,150392391,3997730,414.01447,32.079998,96450.0,1.1459856
150623558,150605836,3997730,414.0594,32.079998,96449.5,1.1459796
150844943,150822106,3997730,413.86386,32.079998,96451.74,1.1460062
151005601,150982918,3997730,413.90616,32.079998,96451.25,1.1460004
151247183,151224353,3997730,413.90878,32.079998,96451.24,1.1460003
151407920,151385273,3997730,413.7978,32.09,96452.5,1.1460153
151618809,151598671,3997730,413.92993,32.079998,96450.99,1.1459973
151829961,151812353,3997730,414.10168,32.09,96449.0,1.1459737
152051101,152028427,3997730,413.92993,32.09,96450.99,1.1459973
152212160,152189479,3997730,414.29718,32.09,96446.75,1.145947
152423304,152403151,3997730,414.03827,32.09,96449.75,1.1459826
152634345,152616723,3997730,414.31836,32.09,96446.5,1.145944
152795387,152777585,3997730,414.27606,32.09,96447.0,1.14595
153016447,152993695,3997730,414.10168,32.09,96449.0,1.1459737
153227690,153207402,3997730,413.81897,32.1,96452.25,1.1460123
153438808,153421155,3997730,414.16776,32.09,96448.25,1.1459647
153599512,153581894,3997730,414.21,32.09,96447.75,1.1459588
153820631,153797994,3997730,414.14658,32.09,96448.5,1.1459677
154031724,154011586,3997730,414.5139,32.09,96444.24,1.1459172
154242882,154225250,3997730,414.10168,32.09,96449.0,1.1459737
154404145,154386233,3997730,414.21,32.09,96447.75,1.1459588
154624960,154602316,3997730,414.33948,32.09,96446.25,1.145941
154836334,154815920,3997730,413.84274,32.09,96451.99,1.1460092
155047148,155029509,3997730,414.21,32.09,96447.75,1.1459588
155208158,155190453,3997730,414.1228,32.1,96448.75,1.1459707
155429511,155406647,3997730,414.18887,32.09,96448.0,1.1459618
155640495,155620332,3997730,414.10168,32.1,96449.0,1.1459737
155801402,155781077,3997730,414.01447,32.1,96450.0,1.1459856
156012648,155994873,3997730,414.08054,32.1,96449.25,1.1459767
156233690,156210966,3997730,414.08054,32.1,96449.25,1.1459767
156444801,156424511,3997730,414.23117,32.1,96447.5,1.1459558
156605558,156585423,3997730,414.0594,32.1,96449.5,1.1459796
156816758,156799107,3997730,413.81897,32.1,96452.25,1.1460123
157037956,157015336,3997730,414.18887,32.1,96448.0,1.1459618
157249115,157228974,3997730,413.95108,32.1,96450.75,1.1459944
157409916,157389753,3997730,413.95108,32.1,96450.75,1.1459944
157621010,157603333,3997730,414.38443,32.1,96445.74,1.1459349
157852254,157832037,3997730,414.01447,32.1,96450.0,1.1459856
158013221,157992965,3997730,414.29718,32.1,96446.75,1.145947
158224263,158206538,3997730,413.86386,32.11,96451.75,1.1460063
158445335,158422626,3997730,414.23117,32.1,96447.5,1.1459558
158606339,158583443,3997730,414.21,32.1,96447.75,1.1459588
158817095,158796968,3997730,413.95108,32.11,96450.75,1.1459944
159028217,159010553,3997730,413.9722,32.11,96450.5,1.1459914
159249437,159226786,3997730,413.885,32.11,96451.49,1.1460032
159410357,159387688,3997730,414.01447,32.11,96450.0,1.1459856
159621416,159601166,3997730,414.03827,32.11,96449.75,1.1459826
159832817,159814955,3997730,414.1228,32.11,96448.75,1.1459707
159993490,159975819,3997730,414.18887,32.11,96448.0,1.1459618
160214805,160191948,3997730,414.01447,32.11,96450.0,1.1459856
160425923,160405562,3997730,414.10168,32.11,96449.0,1.1459737
160637008,160619358,3997730,413.75555,32.11,96453.0,1.1460212
160797960,160780316,3997730,414.0594,32.11,96449.5,1.1459796
161019184,160996392,3997730,414.10168,32.12,96449.0,1.1459737
161230154,161209975,3997730,413.95108,32.12,96450.74,1.1459944
161441339,161423577,3997730,413.86386,32.11,96451.75,1.1460063
161602032,161584357,3997730,413.95108,32.11,96450.75,1.1459944
161822993,161800356,3997730,413.75555,32.12,96453.0,1.1460212
162034186,162014029,3997730,414.14658,32.11,96448.5,1.1459677
162245302,162227613,3997730,414.38443,32.12,96445.74,1.1459349
162405994,162388365,3997730,413.75555,32.12,96453.0,1.1460212
162627160,162604400,3997730,413.7344,32.12,96453.25,1.1460241
162838412,162818022,3997730,413.99335,32.12,96450.25,1.1459885
163049516,163031701,3997730,413.84274,32.12,96452.0,1.1460093
163210156,163192527,3997730,414.10168,32.12,96449.0,1.1459737
163431422,163408702,3997730,414.03827,32.12,96449.75,1.1459826
163653108,163628398,3997730,413.98013,32.12,96450.41,1.1459904
163813491,163795767,3997730,414.16776,32.12,96448.25,1.1459647
164034772,164011854,3997730,413.68948,32.12,96453.75,1.1460301
164245726,164225598,3997730,413.99335,32.12,96450.25,1.1459885
164406737,164386500,3997730,414.03827,32.12,96449.75,1.1459826
164617908,164600217,3997730,414.0594,32.12,96449.5,1.1459796
164839203,164816445,3997730,413.885,32.12,96451.49,1.1460032
165050332,165030145,3997730,413.75555,32.13,96453.0,1.1460212
165211301,165190978,3997730,414.14658,32.13,96448.5,1.1459677
165422266,165404537,3997730,414.16776,32.13,96448.25,1.1459647
165643425,165620651,3997730,413.99335,32.13,96450.25,1.1459885
165804247,165781563,3997730,414.08054,32.13,96449.25,1.1459767
166015370,165995213,3997730,414.0594,32.12,96449.5,1.1459796
166226675,166209050,3997730,414.27606,32.12,96447.0,1.14595
166447964,166425194,3997730,414.33948,32.13,96446.25,1.145941
166608886,166586215,3997730,414.36063,32.13,96446.0,1.145938
166820118,166799940,3997730,413.62607,32.13,96454.5,1.146039
167031311,167013671,3997730,414.1228,32.13,96448.75,1.1459707
167252641,167229885,3997730,413.99335,32.13,96450.25,1.1459885
167423486,167403342,3997730,414.14658,32.13,96448.5,1.1459677
167634569,167616926,3997730,414.14658,32.13,96448.5,1.1459677
167795465,167777746,3997730,413.75555,32.13,96453.0,1.1460212
168016544,167993833,3997730,414.29718,32.13,96446.75,1.145947
168227649,168207454,3997730,413.99335,32.13,96450.25,1.1459885
168438844,168421185,3997730,414.10168,32.13,96449.0,1.1459737
168599830,168582108,3997730,414.1228,32.13,96448.75,1.1459707
168820724,168798086,3997730,414.1228,32.13,96448.75,1.1459707
169031981,169011836,3997730,414.01447,32.13,96450.0,1.1459856
169243112,169225408,3997730,414.10168,32.13,96449.0,1.1459737
169404000,169386262,3997730,413.9722,32.13,96450.5,1.1459914
169625107,169602463,3997730,414.03827,32.14,96449.75,1.1459826
169846596,169822041,3997730,413.91144,32.13,96451.2,1.1459998
170007137,169989462,3997730,414.14658,32.14,96448.5,1.1459677
170228302,170205632,3997730,413.95108,32.14,96450.75,1.1459944
170439448,170419304,3997730,413.84274,32.14,96451.99,1.1460092
170651248,170632869,3997730,414.01447,32.13,96450.0,1.1459856
170811374,170793701,3997730,413.66837,32.14,96454.0,1.146033
171032499,171009682,3997730,414.08054,32.14,96449.25,1.1459767
171243652,171223457,3997730,413.81897,32.14,96452.25,1.1460123
171404434,171384279,3997730,413.885,32.14,96451.49,1.1460032
171615608,171597984,3997730,413.6472,32.14,96454.25,1.146036
171836823,171814183,3997730,413.90878,32.14,96451.24,1.1460003
172047859,172027718,3997730,413.7978,32.14,96452.5,1.1460153
172208856,172188660,3997730,413.68948,32.14,96453.75,1.1460301
172420018,172402366,3997730,414.08054,32.14,96449.25,1.1459767
172641182,172618518,3997730,413.92728,32.14,96451.0,1.1459974
172812077,172791945,3997730,413.5177,32.14,96455.75,1.1460539
173023347,173005665,3997730,414.03827,32.14,96449.75,1.1459826
173244491,173221815,3997730,413.81897,32.14,96452.25,1.1460123
173405172,173382500,3997730,413.81897,32.14,96452.25,1.1460123
173616454,173596214,3997730,413.95108,32.149998,96450.75,1.1459944
173827599,173809891,3997730,413.90616,32.149998,96451.25,1.1460004
174048732,174025994,3997730,413.7344,32.149998,96453.25,1.1460241
174209493,174186875,3997730,413.6023,32.149998,96454.75,1.146042
174420583,174400377,3997730,413.6472,32.149998,96454.25,1.146036
174631792,174614125,3997730,413.6472,32.149998,96454.25,1.146036
174793082,174775118,3997730,413.7106,32.149998,96453.5,1.1460271
175014149,174991404,3997730,413.81897,32.149998,96452.25,1.1460123
175235481,175211296,3997730,413.7899,32.149998,96452.6,1.1460165
175396362,175378629,3997730,414.10168,32.149998,96449.0,1.1459737
175617802,175594927,3997730,413.7978,32.149998,96452.5,1.1460153
175828579,175808461,3997730,413.68948,32.149998,96453.75,1.1460301
176039716,176022083,3997730,413.81897,32.149998,96452.25,1.1460123
176200663,176183037,3997730,414.03827,32.149998,96449.75,1.1459826
176422173,176399021,3997730,413.81897,32.149998,96452.25,1.1460123
176642837,176625185,3997730,413.6472,32.149998,96454.25,1.146036
176803577,176785938,3997730,414.18887,32.149998,96448.0,1.1459618
177034727,177014604,3997730,413.75555,32.149998,96453.0,1.1460212
177245946,177228220,3997730,413.95108,32.16,96450.75,1.1459944
177426683,177404028,3997730,414.16776,32.149998,96448.25,1.1459647
177637782,177617643,3997730,414.01447,32.16,96450.0,1.1459856
177848984,177831352,3997730,414.21,32.16,96447.75,1.1459588
178009975,177992271,3997730,413.95108,32.16,96450.74,1.1459944
178231214,178208540,3997730,414.0594,32.16,96449.5,1.1459796
178442309,178422128,3997730,414.14658,32.16,96448.5,1.1459677
178653433,178635826,3997730,413.75555,32.16,96453.0,1.1460212
178814258,178796512,3997730,413.92728,32.16,96451.0,1.1459974
179035353,179012665,3997730,413.6023,32.16,96454.75,1.146042
179246378,179226191,3997730,413.62607,32.16,96454.5,1.146039
179407110,179386937,3997730,413.90616,32.149998,96451.25,1.1460004
179618162,179600503,3997730,413.6472,32.16,96454.25,1.146036
179839310,179816603,3997730,413.66837,32.16,96454.0,1.146033
180050462,180030324,3997730,413.68948,32.16,96453.75,1.1460301
180211398,180191174,3997730,413.885,32.16,96451.5,1.1460034
180422445,180404780,3997730,413.4728,32.16,96456.25,1.1460599
180643569,180620763,3997730,413.9722,32.16,96450.5,1.1459914
180804244,180781572,3997730,413.49658,32.16,96455.99,1.1460568
181015419,180995247,3997730,413.3671,32.16,96457.49,1.1460745
181226502,181208881,3997730,413.81897,32.16,96452.25,1.1460123
181447724,181425078,3997730,413.56,32.16,96455.25,1.146048
181608590,181585960,3997730,413.62607,32.16,96454.5,1.146039
181819881,181799680,3997730,413.4728,32.17,96456.25,1.1460599
182030980,182013313,3997730,413.92993,32.16,96450.99,1.1459973
182191938,182174134,3997730,413.49658,32.16,96455.99,1.1460568
182413068,182390370,3997730,413.7106,32.16,96453.5,1.1460271
182624169,182603944,3997730,413.92993,32.16,96450.99,1.1459973
182855322,182832669,3997730,413.7978,32.16,96452.5,1.1460153
183016185,182993513,3997730,413.7344,32.16,96453.25,1.1460241
183227352,183207126,3997730,413.81897,32.16,96452.25,1.1460123
183438325,183420632,3997730,413.90616,32.17,96451.25,1.1460004
183599205,183581533,3997730,413.84274,32.16,96451.99,1.1460092
183820407,183797771,3997730,413.86386,32.17,96451.74,1.1460062
184032488,184011345,3997730,414.03827,32.17,96449.75,1.1459826
184202537,184184855,3997730,413.45166,32.17,96456.5,1.1460627
184423842,184401078,3997730,413.9722,32.16,96450.5,1.1459914
184634918,184614765,3997730,413.68948,32.17,96453.75,1.1460301
184846271,184828282,3997730,413.62607,32.17,96454.5,1.146039
185026793,185004081,3997730,413.90878,32.16,96451.24,1.1460003
185237960,185217680,3997730,413.92993,32.17,96450.99,1.1459973
185448891,185431205,3997730,413.34332,32.17,96457.75,1.1460776
185609935,185592229,3997730,413.77667,32.17,96452.75,1.1460183
185831023,185808332,3997730,413.4094,32.17,96457.0,1.1460687
186042100,186021948,3997730,413.66837,32.17,96454.0,1.146033
186203094,186182933,3997730,414.21,32.17,96447.75,1.1459588
186414135,186396464,3997730,413.92728,32.17,96451.0,1.1459974
186635370,186612728,3997730,413.5177,32.17,96455.75,1.1460539
186846396,186826216,3997730,414.03827,32.17,96449.74,1.1459825
187007251,186987046,3997730,413.7344,32.17,96453.25,1.1460241
187218401,187200571,3997730,414.08054,32.17,96449.25,1.1459767
187439609,187416846,3997730,414.03827,32.17,96449.75,1.1459826
187650850,187630628,3997730,413.99335,32.17,96450.25,1.1459885
187811653,187791506,3997730,413.62607,32.17,96454.5,1.146039
188022874,188005169,3997730,413.81897,32.17,96452.25,1.1460123
188244156,188221276,3997730,413.86386,32.17,96451.75,1.1460063
188404839,188382198,3997730,413.86386,32.17,96451.74,1.1460062
188615958,188595760,3997730,413.885,32.17,96451.5,1.1460034
188827005,188809317,3997730,413.68948,32.17,96453.75,1.1460301
189048065,189025420,3997730,414.18887,32.17,96448.0,1.1459618
189208887,189186226,3997730,413.885,32.17,96451.5,1.1460034
189420070,189399832,3997730,413.84274,32.18,96452.0,1.1460093
189631183,189613531,3997730,413.885,32.17,96451.5,1.1460034
189853683,189829679,3997730,413.66837,32.17,96454.0,1.146033
190023351,190003120,3997730,414.10168,32.18,96449.0,1.1459737
190234547,190216781,3997730,414.01447,32.17,96450.0,1.1459856
190395360,190377682,3997730,414.21,32.17,96447.75,1.1459588
190616448,190593821,3997730,414.0594,32.18,96449.5,1.1459796
190837642,190819961,3997730,413.86386,32.18,96451.75,1.1460063
190998607,190980964,3997730,414.40555,32.18,96445.49,1.145932
191219875,191197173,3997730,414.08054,32.18,96449.25,1.1459767
191430911,191410732,3997730,414.23117,32.18,96447.5,1.1459558
191601834,191577641,3997730,414.27606,32.18,96446.99,1.1459498
191822943,191800291,3997730,413.9722,32.18,96450.5,1.1459914
192034038,192013785,3997730,414.21,32.18,96447.75,1.1459588
192245183,192227505,3997730,414.23117,32.18,96447.5,1.1459558
192405972,192388303,3997730,414.21,32.18,96447.75,1.1459588
192627224,192604437,3997730,414.21,32.18,96447.75,1.1459588
192848277,192823987,3997730,414.13602,32.18,96448.59,1.1459688
193009136,192991516,3997730,413.92993,32.18,96450.99,1.1459973
193230427,193207776,3997730,413.84274,32.18,96452.0,1.1460093
193441521,193421332,3997730,413.9722,32.18,96450.5,1.1459914
193602876,193582279,3997730,414.01447,32.18,96450.0,1.1459856
193813540,193795883,3997730,414.18887,32.18,96448.0,1.1459618
194035287,194012049,3997730,414.16776,32.18,96448.25,1.1459647
194205617,194185418,3997730,414.03827,32.18,96449.75,1.1459826
194416739,194399039,3997730,413.7344,32.19,96453.25,1.1460241
194637866,194615146,3997730,413.90616,32.18,96451.25,1.1460004
194848995,194828720,3997730,414.1228,32.19,96448.75,1.1459707
195009658,194989484,3997730,414.21,32.18,96447.75,1.1459588
195220608,195202999,3997730,414.18887,32.19,96448.0,1.1459618
195441689,195419045,3997730,414.31836,32.19,96446.5,1.145944
195652723,195632595,3997730,414.10168,32.19,96449.0,1.1459737
195813657,195793467,3997730,414.23117,32.19,96447.5,1.1459558
196024812,196007175,3997730,414.16776,32.19,96448.25,1.1459647
196205887,196175552,3997730,414.25757,32.19,96447.195,1.1459522
196417147,196396822,3997730,414.31836,32.19,96446.5,1.145944
196628120,196610411,3997730,414.2523,32.2,96447.25,1.1459528
196849347,196826587,3997730,414.2523,32.19,96447.25,1.1459528
197010137,196987419,3997730,414.29718,32.2,96446.75,1.145947
197221196,197201017,3997730,414.5139,32.2,96444.24,1.1459172
197432547,197414834,3997730,414.16776,32.2,96448.24,1.1459646
197593353,197575723,3997730,414.33948,32.19,96446.25,1.145941
197814630,197791896,3997730,414.16776,32.2,96448.25,1.1459647
198025734,198005558,3997730,414.03827,32.2,96449.75,1.1459826
198187172,198166486,3997730,414.31836,32.2,96446.5,1.145944
198417974,198395298,3997730,414.33948,32.2,96446.25,1.145941
198629168,198608975,3997730,414.18887,32.2,96448.0,1.1459618
198840263,198822596,3997730,414.68564,32.2,96442.25,1.1458935
199001060,198983352,3997730,414.33948,32.2,96446.25,1.145941
199222068,199199354,3997730,414.44785,32.2,96444.99,1.145926
199433209,199412949,3997730,414.57996,32.2,96443.49,1.1459082
199644321,199626558,3997730,414.60107,32.2,96443.25,1.1459054
199805090,199787471,3997730,414.68826,32.2,96442.24,1.1458933
200026311,200003639,3997730,414.5139,32.2,96444.24,1.1459172
200237406,200217282,3997730,414.75168,32.21,96441.5,1.1458845
200448553,200430833,3997730,414.5139,32.2,96444.24,1.1459172
200609479,200591752,3997730,414.75168,32.2,96441.5,1.1458845
200830588,200807925,3997730,414.38443,32.2,96445.74,1.1459349
201041769,201021618,3997730,414.53503,32.2,96443.99,1.1459142
201252811,201235202,3997730,414.49274,32.21,96444.49,1.1459202
201413880,201396031,3997730,414.2523,32.21,96447.25,1.1459528
201644951,201624755,3997730,414.38443,32.21,96445.74,1.1459349
201805868,201785570,3997730,414.47162,32.21,96444.74,1.1459231
202016907,201999280,3997730,414.2523,32.21,96447.25,1.1459528
202237959,202215319,3997730,414.57996,32.21,96443.49,1.1459082
202449296,202429065,3997730,414.5139,32.21,96444.24,1.1459172
202610069,202589941,3997730,414.33948,32.21,96446.25,1.145941
202821486,202803553,3997730,414.55615,32.21,96443.74,1.1459112
203042370,203019734,3997730,414.42667,32.21,96445.24,1.145929
203203136,203180397,3997730,414.36063,32.21,96446.0,1.145938
203414332,203394061,3997730,414.38443,32.21,96445.74,1.1459349
203625362,203607600,3997730,414.42667,32.21,96445.24,1.145929
203806222,203783516,3997730,414.2523,32.21,96447.25,1.1459528
204017281,203997117,3997730,414.5139,32.21,96444.24,1.1459172
204228508,204210836,3997730,414.73056,32.21,96441.75,1.1458875
204449657,204426900,3997730,414.6645,32.21,96442.49,1.1458963
204610425,204587751,3997730,414.7094,32.21,96442.0,1.1458905
204821603,204801471,3997730,414.44785,32.21,96444.99,1.145926
205032803,205015142,3997730,414.57996,32.21,96443.49,1.1459082
205193589,205175895,3997730,414.6645,32.21,96442.5,1.1458964
205414867,205392118,3997730,414.49274,32.21,96444.49,1.1459202
205625986,205605758,3997730,414.18887,32.219997,96448.0,1.1459618
205837063,205819424,3997730,414.18887,32.219997,96448.0,1.1459618
205997881,205980268,3997730,414.36063,32.219997,96446.0,1.145938
206218963,206196222,3997730,414.10168,32.21,96448.99,1.1459736
206429982,206409839,3997730,414.21,32.21,96447.75,1.1459588
206641368,206623582,3997730,414.40555,32.21,96445.49,1.145932
206802076,206784372,3997730,414.38443,32.21,96445.74,1.1459349
207023011,207000368,3997730,414.2523,32.219997,96447.25,1.1459528
207234182,207214038,3997730,414.29718,32.219997,96446.75,1.145947
207445614,207427641,3997730,414.03827,32.219997,96449.75,1.1459826
207606004,207588362,3997730,413.90878,32.219997,96451.24,1.1460003
207827023,207804395,3997730,414.23117,32.219997,96447.5,1.1459558
208038337,208018187,3997730,414.1228,32.21,96448.75,1.1459707
208249578,208231833,3997730,414.14658,32.219997,96448.5,1.1459677
208410245,208392631,3997730,414.18887,32.219997,96448.0,1.1459618
208631254,208608611,3997730,414.14658,32.219997,96448.5,1.1459677
208842434,208822289,3997730,414.29718,32.219997,96446.75,1.145947
209003418,208983159,3997730,414.16776,32.219997,96448.25,1.1459647
209214637,209196968,3997730,414.49274,32.219997,96444.49,1.1459202
209435916,209413257,3997730,414.10168,32.219997,96449.0,1.1459737
209647154,209627011,3997730,414.0594,32.219997,96449.5,1.1459796
209807847,209787709,3997730,413.92728,32.23,96451.0,1.1459974
210019029,210001305,3997730,414.01715,32.219997,96449.99,1.1459855
210240167,210217438,3997730,414.14658,32.219997,96448.5,1.1459677
210451247,210431061,3997730,414.33948,32.219997,96446.25,1.145941
210612143,210591969,3997730,414.18887,32.219997,96448.0,1.1459618
210823565,210805576,3997730,414.0594,32.219997,96449.5,1.1459796
211044526,211021720,3997730,414.1228,32.219997,96448.75,1.1459707
211205482,211182656,3997730,414.01447,32.219997,96450.0,1.1459856
211416500,211396216,3997730,414.08054,32.219997,96449.25,1.1459767
211627436,211609826,3997730,414.18887,32.219997,96448.0,1.1459618
211848502,211825847,3997730,413.90878,32.219997,96451.24,1.1460003
212009383,211986571,3997730,414.01447,32.219997,96450.0,1.1459856
212220474,212200240,3997730,414.27606,32.219997,96447.0,1.14595
212431629,212413848,3997730,413.7978,32.23,96452.5,1.1460153
212652705,212629979,3997730,413.885,32.219997,96451.5,1.1460034
212813448,212790820,3997730,413.95108,32.219997,96450.74,1.1459944
213024589,213004433,3997730,414.01447,32.219997,96450.0,1.1459856
213235592,213217978,3997730,414.03827,32.219997,96449.75,1.1459826
213396654,213378914,3997730,413.81897,32.23,96452.25,1.1460123
213617870,213595202,3997730,414.16776,32.23,96448.25,1.1459647
213828902,213808757,3997730,413.7978,32.219997,96452.5,1.1460153
214040097,214022421,3997730,413.885,32.23,96451.5,1.1460034
214201080,214183292,3997730,414.10168,32.219997,96449.0,1.1459737
214422099,214399421,3997730,413.99335,32.219997,96450.25,1.1459885
214643449,214619101,3997730,413.66837,32.219997,96453.99,1.1460329
214804187,214786518,3997730,413.90616,32.23,96451.25,1.1460004
215025247,215002587,3997730,413.92993,32.219997,96450.99,1.1459973
215236553,215216330,3997730,414.03827,32.23,96449.75,1.1459826
215447835,215429989,3997730,414.21,32.23,96447.75,1.1459588
215608596,215590919,3997730,413.95108,32.23,96450.75,1.1459944
215829650,215807017,3997730,414.03827,32.23,96449.75,1.1459826
216040802,216020593,3997730,413.56,32.23,96455.25,1.146048
216252521,216234235,3997730,413.92728,32.23,96451.0,1.1459974
216412702,216395060,3997730,413.75555,32.23,96453.0,1.1460212
216635268,216611138,3997730,413.66837,32.23,96454.0,1.146033
216804888,216784633,3997730,413.6023,32.23,96454.75,1.146042
217015917,216998199,3997730,413.56,32.23,96455.25,1.146048
217237010,217214299,3997730,413.95108,32.23,96450.74,1.1459944
217448103,217427965,3997730,413.7344,32.23,96453.25,1.1460241
217609065,217588901,3997730,413.77667,32.23,96452.75,1.1460183
217820119,217802465,3997730,413.5177,32.23,96455.75,1.1460539
218051395,218031234,3997730,413.68948,32.23,96453.75,1.1460301
218212222,218192066,3997730,413.62607,32.23,96454.5,1.146039
218443343,218420636,3997730,413.6472,32.23,96454.25,1.146036
218604328,218581566,3997730,413.75555,32.23,96453.0,1.1460212
218815677,218795129,3997730,413.6023,32.23,96454.75,1.146042
219026566,219008947,3997730,413.58112,32.23,96455.0,1.146045
219247622,219224892,3997730,413.7344,32.23,96453.25,1.1460241
219408371,219385724,3997730,413.49658,32.23,96455.99,1.1460568
219620283,219599391,3997730,413.6472,32.23,96454.25,1.146036
219850623,219827942,3997730,413.58112,32.23,96455.0,1.146045
220011290,219988580,3997730,413.77667,32.239998,96452.75,1.1460183
220222500,220202323,3997730,413.92728,32.23,96451.0,1.1459974
220434934,220416056,3997730,413.92728,32.239998,96451.0,1.1459974
220594727,220577060,3997730,413.7978,32.23,96452.5,1.1460153
220816022,220793342,3997730,413.92993,32.239998,96450.99,1.1459973
221027109,221006939,3997730,413.7978,32.23,96452.5,1.1460153
221238390,221220591,3997730,413.6472,32.23,96454.25,1.146036
221399334,221381579,3997730,413.58112,32.239998,96455.0,1.146045
221620428,221597673,3997730,413.7344,32.239998,96453.25,1.1460241
221831668,221811368,3997730,413.4305,32.239998,96456.75,1.1460657
222043429,222025029,3997730,413.53888,32.239998,96455.5,1.1460509
222203380,222185724,3997730,413.90616,32.239998,96451.25,1.1460004
222424470,222401768,3997730,413.7978,32.239998,96452.5,1.1460153
222605451,222581243,3997730,413.75555,32.239998,96453.0,1.1460212
222826466,222803827,3997730,413.6023,32.239998,96454.75,1.146042
223037600,223017479,3997730,413.56,32.239998,96455.25,1.146048
223248675,223231026,3997730,413.92728,32.239998,96451.0,1.1459974
223409446,223391802,3997730,414.03827,32.239998,96449.75,1.1459826
223630632,223607996,3997730,413.84274,32.239998,96452.0,1.1460093
223841929,223821644,3997730,413.84274,32.239998,96452.0,1.1460093
224002776,223982629,3997730,413.68948,32.239998,96453.75,1.1460301
224234167,224203951,3997730,413.64984,32.239998,96454.2,1.1460354
224445197,224424955,3997730,413.75555,32.239998,96453.0,1.1460212
224606334,224585854,3997730,413.53888,32.239998,96455.5,1.1460509
224817134,224799493,3997730,413.9722,32.239998,96450.5,1.1459914
225038312,225015558,3997730,413.7978,32.239998,96452.5,1.1460153
225249414,225229260,3997730,413.6472,32.239998,96454.25,1.146036
225410461,225390104,3997730,413.84274,32.239998,96451.99,1.1460092
225621399,225603735,3997730,413.66837,32.239998,96454.0,1.146033
225842597,225819775,3997730,413.77667,32.25,96452.75,1.1460183
226053609,226033406,3997730,413.6023,32.239998,96454.75,1.146042
226214415,226194245,3997730,413.81897,32.239998,96452.25,1.1460123
226425517,226407883,3997730,413.6472,32.25,96454.26,1.1460361
226646635,226624010,3997730,413.86386,32.239998,96451.75,1.1460063
226807591,226784934,3997730,413.77667,32.25,96452.75,1.1460183
227018752,226998544,3997730,414.08054,32.25,96449.25,1.1459767
227229917,227212263,3997730,413.81897,32.25,96452.25,1.1460123
227451155,227428509,3997730,413.75555,32.25,96453.0,1.1460212
227612122,227589470,3997730,413.68948,32.25,96453.75,1.1460301
227823195,227803027,3997730,413.92728,32.25,96451.0,1.1459974
227994299,227970000,3997730,413.68683,32.25,96453.8,1.1460307
228215158,228192508,3997730,413.7978,32.25,96452.5,1.1460153
228426379,228406161,3997730,413.68948,32.25,96453.75,1.1460301
228637389,228619584,3997730,413.77667,32.25,96452.75,1.1460183
228798105,228780459,3997730,413.68948,32.25,96453.75,1.1460301
229019328,228996660,3997730,413.58112,32.25,96455.0,1.146045
229240623,229216453,3997730,413.68683,32.25,96453.8,1.1460307
229401574,229383930,3997730,413.7344,32.25,96453.25,1.1460241
229622993,229600042,3997730,413.75555,32.26,96453.0,1.1460212
229833902,229813760,3997730,413.99335,32.25,96450.25,1.1459885
230045478,230027376,3997730,413.56,32.25,96455.25,1.146048
230206008,230188324,3997730,413.7106,32.25,96453.5,1.1460271
230427400,230404306,3997730,413.7978,32.26,96452.5,1.1460153
230648185,230630466,3997730,413.7344,32.25,96453.25,1.1460241
230809218,230791382,3997730,413.7106,32.26,96453.5,1.1460271
231030237,231007543,3997730,413.49658,32.25,96455.99,1.1460568
231241448,231221158,3997730,413.7978,32.25,96452.5,1.1460153
231402046,231381932,3997730,413.68948,32.26,96453.75,1.1460301
231613181,231595499,3997730,413.68948,32.26,96453.75,1.1460301
231834524,231811742,3997730,413.92728,32.26,96451.0,1.1459974
232045565,232025428,3997730,414.0594,32.26,96449.5,1.1459796
232206569,232186333,3997730,413.6023,32.26,96454.75,1.146042
232417694,232400065,3997730,413.58112,32.26,96455.0,1.146045
232638913,232616210,3997730,413.81897,32.26,96452.25,1.1460123
232849995,232829774,3997730,413.81897,32.26,96452.25,1.1460123
233010918,232990668,3997730,414.03827,32.26,96449.75,1.1459826
233221955,233204301,3997730,413.7106,32.26,96453.5,1.1460271
233443080,233420339,3997730,413.56,32.26,96455.25,1.146048
233603850,233581211,3997730,413.84274,32.26,96452.0,1.1460093
233825009,233800828,3997730,413.84274,32.26,96452.0,1.1460093
234046344,234023590,3997730,413.90616,32.26,96451.25,1.1460004
234207100,234184425,3997730,413.6472,32.26,96454.25,1.146036
234418369,234398234,3997730,413.86386,32.26,96451.74,1.1460062
234649988,234619465,3997730,414.01447,32.26,96450.0,1.1459856
234820592,234800345,3997730,413.9722,32.26,96450.5,1.1459914
235031625,235013941,3997730,413.99335,32.26,96450.25,1.1459885
235192307,235174656,3997730,413.6023,32.26,96454.75,1.146042
235413550,235390737,3997730,413.99335,32.27,96450.24,1.1459885
235634424,235616770,3997730,413.77667,32.27,96452.75,1.1460183
235795209,235777536,3997730,413.99335,32.27,96450.25,1.1459885
236026428,236006299,3997730,413.62607,32.27,96454.5,1.146039
236237496,236219874,3997730,413.92728,32.27,96451.0,1.1459974
236418613,236395937,3997730,413.56,32.27,96455.25,1.146048
236629559,236609402,3997730,413.90878,32.27,96451.24,1.1460003
236840628,236822975,3997730,413.58112,32.27,96455.0,1.146045
237001642,236983916,3997730,413.5177,32.27,96455.75,1.1460539
237222704,237199938,3997730,413.81897,32.27,96452.25,1.1460123
237433825,237413632,3997730,413.77667,32.27,96452.75,1.1460183
237644949,237627238,3997730,413.81897,32.27,96452.25,1.1460123
237805760,237788069,3997730,413.90616,32.27,96451.25,1.1460004
238026794,238004169,3997730,413.81897,32.27,96452.25,1.1460123
238247999,238230359,3997730,413.75555,32.27,96453.0,1.1460212
238409028,238391368,3997730,413.90616,32.27,96451.25,1.1460004
238630237,238607597,3997730,413.84274,32.28,96452.0,1.1460093
238841389,238821247,3997730,413.77667,32.28,96452.75,1.1460183
239052442,239034837,3997730,413.56,32.27,96455.25,1.146048
239213365,239195681,3997730,413.7978,32.27,96452.5,1.1460153
239434558,239411926,3997730,413.99335,32.27,96450.25,1.1459885
239645586,239625433,3997730,413.49658,32.28,96456.0,1.1460569
239806374,239786225,3997730,414.03827,32.27,96449.75,1.1459826
240017484,239999805,3997730,413.66837,32.28,96454.0,1.146033
240238708,240215956,3997730,413.90616,32.28,96451.25,1.1460004
240449791,240429566,3997730,413.6472,32.28,96454.25,1.146036
240610745,240590553,3997730,413.99335,32.28,96450.24,1.1459885
240821924,240804275,3997730,413.90878,32.28,96451.24,1.1460003
241002876,240980124,3997730,413.34332,32.28,96457.74,1.1460775
241213907,241193728,3997730,413.95108,32.28,96450.75,1.1459944
241445168,241422482,3997730,413.58112,32.28,96455.0,1.146045
