timestamp,timestamp_sample,control[0],control[1],control[2],control[3],control[4],control[5],control[6],control[7]
38900274,38899405,0.036925,0.149522,-0.00864742,0.106473,0.0,0.0,0.0,-1.0
38902773,38901907,0.0487935,0.172173,0.0101501,0.106473,0.0,0.0,0.0,-1.0
39000354,38999487,0.0344493,0.024938,0.011557,0.106473,0.0,0.0,0.0,-1.0
39102935,39102075,0.144694,0.104923,0.0240753,0.106473,0.0,0.0,0.0,-1.0
39203022,39202161,-0.171742,0.201824,0.00467566,0.107491,0.0,0.0,0.0,-1.0
39303121,39302249,-0.187304,0.0418886,-0.0188209,0.106473,0.0,0.0,0.0,-1.0
39403199,39402334,0.0926094,0.0532907,-0.0114881,0.107491,0.0,0.0,0.0,-1.0
39500771,39499917,-0.462584,0.396755,0.0148971,0.107491,0.0,0.0,0.0,-1.0
39603367,39602505,-0.154649,-0.0386693,-0.0180823,0.107491,0.0,0.0,0.0,-1.0
39700957,39700089,0.232863,-0.382645,-0.0172367,0.107491,0.0,0.0,0.0,-1.0
39803537,39802677,0.160199,-0.0659245,0.00787693,0.106473,0.0,0.0,0.0,-1.0
39903636,39902763,-0.310066,0.297804,-0.00234967,0.106473,0.0,0.0,0.0,-1.0
40001216,40000354,0.0320533,0.305077,-0.006067,0.107491,0.0,0.0,0.0,-1.0
40103795,40102935,0.140137,0.211404,-0.00780297,0.107491,0.0,0.0,0.0,-1.0
40201394,40200519,-0.0323791,0.132348,-0.00760171,0.106473,0.0,0.0,0.0,-1.0
40303970,40303107,0.0112245,-0.289318,-0.0122972,0.122764,0.0,0.0,0.0,-1.0
40401557,40400691,-0.304648,0.0214764,-0.0144049,0.151273,0.0,0.0,0.0,-1.0
40501634,40500779,-0.288129,0.149567,-0.0128879,0.151273,0.0,0.0,0.0,-1.0
40601718,40600863,0.229126,-0.0656316,-0.0103975,0.151273,0.0,0.0,0.0,-1.0
40701811,40700956,-0.18517,-0.0240968,-0.0139978,0.162473,0.0,0.0,0.0,-1.0
40804412,40803538,0.105152,0.0694541,-0.0338327,0.196073,0.0,0.0,0.0,-1.0
40901976,40901122,0.0532878,0.0347117,-0.022468,0.201164,0.0,0.0,0.0,-1.0
41002067,41001208,0.0886606,0.153275,-0.0400787,0.205236,0.0,0.0,0.0,-1.0
41102161,41101294,0.0552989,0.0417561,-0.0416608,0.207273,0.0,0.0,0.0,-1.0
41202239,41201380,0.167817,0.139877,-0.0429741,0.208291,0.0,0.0,0.0,-1.0
41304828,41303968,-0.13498,-0.0576587,-0.0255957,0.2144,0.0,0.0,0.0,-1.0
41402407,41401552,0.046203,0.0298363,-0.0329981,0.223564,0.0,0.0,0.0,-1.0
41502500,41501638,0.055702,0.169704,-0.0467223,0.2256,0.0,0.0,0.0,-1.0
41602583,41601725,-0.174496,-0.0342811,-0.0409524,0.241891,0.0,0.0,0.0,-1.0
41700185,41699309,-0.0147341,-0.279568,-0.026354,0.246982,0.0,0.0,0.0,-1.0
41800271,41799395,-0.0390598,0.0720579,-0.0494698,0.262255,0.0,0.0,0.0,-1.0
41900366,41899481,0.0729605,0.022218,-0.0398438,0.265309,0.0,0.0,0.0,-1.0
42002924,42002070,0.0497271,-0.225358,-0.0432548,0.285673,0.0,0.0,0.0,-1.0
42103014,42102157,-0.0900097,0.261325,-0.0366867,0.284655,0.0,0.0,0.0,-1.0
42203115,42202242,-0.180695,0.0703702,-0.0304947,0.286691,0.0,0.0,0.0,-1.0
42300685,42299826,0.0897539,0.0261695,-0.0271003,0.301964,0.0,0.0,0.0,-1.0
42400805,42399912,-0.0564337,-0.0628968,-0.0330968,0.320291,0.0,0.0,0.0,-1.0
42500859,42499998,-0.0258375,-0.0314052,-0.0432473,0.327418,0.0,0.0,0.0,-1.0
42603442,42602587,-0.00574273,0.00722641,-0.0366291,0.3264,0.0,0.0,0.0,-1.0
42701038,42700171,-0.114298,-0.0534486,-0.0368894,0.325382,0.0,0.0,0.0,-1.0
42801136,42800274,-0.0757573,-0.0419857,-0.0328974,0.325382,0.0,0.0,0.0,-1.0
42901210,42900344,0.0604783,-0.0571644,-0.0377073,0.325382,0.0,0.0,0.0,-1.0
43001305,43000430,0.00550406,-0.0860265,-0.037427,0.325382,0.0,0.0,0.0,-1.0
43103877,43103020,-0.0562389,0.152099,-0.0385629,0.327418,0.0,0.0,0.0,-1.0
43201472,43200606,-0.0761484,0.0199545,-0.0225762,0.325382,0.0,0.0,0.0,-1.0
43301559,43300689,-0.0290879,0.0209717,-0.026092,0.324364,0.0,0.0,0.0,-1.0
43401643,43400775,-0.016624,-0.0759434,-0.0294821,0.325382,0.0,0.0,0.0,-1.0
43501722,43500861,0.0363796,0.0154585,-0.0349811,0.325382,0.0,0.0,0.0,-1.0
43604330,43603450,-0.0531475,0.0220493,-0.0304056,0.324364,0.0,0.0,0.0,-1.0
43701900,43701034,-0.00527821,0.18564,-0.0292272,0.323345,0.0,0.0,0.0,-1.0
43801980,43801120,-0.0104678,0.113775,-0.0275925,0.323345,0.0,0.0,0.0,-1.0
43902069,43901207,0.0640848,0.0120931,-0.0318315,0.324364,0.0,0.0,0.0,-1.0
44002159,44001293,-0.0329434,-0.0285202,-0.0343284,0.323345,0.0,0.0,0.0,-1.0
44104747,44103883,-0.0343488,0.0500277,-0.0266318,0.325382,0.0,0.0,0.0,-1.0
44202338,44201466,0.0217503,-0.0359477,-0.0279439,0.327418,0.0,0.0,0.0,-1.0
44302422,44301552,0.00415615,0.17599,-0.0331096,0.328436,0.0,0.0,0.0,-1.0
44402498,44401639,-0.0275549,0.0611784,-0.0314182,0.3376,0.0,0.0,0.0,-1.0
44502585,44501725,0.0071506,-0.0139381,-0.0231838,0.363055,0.0,0.0,0.0,-1.0
44600184,44599317,0.0062414,-0.114281,-0.0128755,0.376291,0.0,0.0,0.0,-1.0
44702768,44701898,-0.0017874,0.16483,-0.0243435,0.376291,0.0,0.0,0.0,-1.0
44805349,44804486,0.112987,0.0344379,-0.0295456,0.380364,0.0,0.0,0.0,-1.0
44902943,44902071,-0.0436636,-0.0486307,-0.0159355,0.384436,0.0,0.0,0.0,-1.0
45003017,45002157,0.038259,0.0639578,-0.0296174,0.405818,0.0,0.0,0.0,-1.0
45100594,45099741,0.220581,0.100526,-0.0392963,0.405818,0.0,0.0,0.0,-1.0
45203191,45202330,-0.0242263,0.0340697,-0.042092,0.408873,0.0,0.0,0.0,-1.0
45300786,45299915,0.14805,0.0884285,-0.0349027,0.408873,0.0,0.0,0.0,-1.0
45403378,45402503,0.0842269,-0.0098969,-0.0195236,0.408873,0.0,0.0,0.0,-1.0
45503449,45502589,-0.0569784,-0.00707738,-0.0165526,0.408873,0.0,0.0,0.0,-1.0
45601027,45600174,0.0409843,-0.110082,-0.0116741,0.409891,0.0,0.0,0.0,-1.0
45703636,45702762,0.102762,0.07899,-0.0232245,0.424145,0.0,0.0,0.0,-1.0
45801200,45800347,0.0943287,-0.0630727,-0.0220765,0.431273,0.0,0.0,0.0,-1.0
45903795,45902936,0.0931719,-0.0722622,-0.00580673,0.432291,0.0,0.0,0.0,-1.0
46001377,46000520,0.163879,0.0349109,-0.0198277,0.433309,0.0,0.0,0.0,-1.0
46101465,46100607,0.0669872,-0.00546661,-0.0171372,0.433309,0.0,0.0,0.0,-1.0
46204070,46203195,-0.0114299,-0.035371,-0.0245508,0.433309,0.0,0.0,0.0,-1.0
46301633,46300779,0.171772,0.0526198,-0.0154368,0.433309,0.0,0.0,0.0,-1.0
46404242,46403368,0.0463519,0.0373516,-0.0179483,0.436364,0.0,0.0,0.0,-1.0
46501806,46500953,0.115002,0.0529595,-0.0171968,0.436364,0.0,0.0,0.0,-1.0
46601892,46601039,-0.0383066,-0.00448275,-0.0148038,0.436364,0.0,0.0,0.0,-1.0
46701981,46701126,0.0107909,-0.0547577,-0.0138165,0.434327,0.0,0.0,0.0,-1.0
46802081,46801214,0.0117302,-0.08821,-0.0127102,0.434327,0.0,0.0,0.0,-1.0
46904667,46903801,-0.251875,-0.0506954,-0.0119441,0.434327,0.0,0.0,0.0,-1.0
47002241,47001386,-0.034617,-0.00190926,-0.0226635,0.436364,0.0,0.0,0.0,-1.0
47104855,47103974,-0.1072,-0.0121569,-0.0223979,0.441455,0.0,0.0,0.0,-1.0
47202411,47201559,-0.316264,0.00159106,-0.0242974,0.441455,0.0,0.0,0.0,-1.0
47302501,47301645,-0.221898,-0.0742819,-0.0145978,0.442473,0.0,0.0,0.0,-1.0
47400089,47399230,-0.157973,0.0372214,-0.0228468,0.442473,0.0,0.0,0.0,-1.0
47502671,47501819,-0.0783167,0.0364075,-0.0244977,0.441455,0.0,0.0,0.0,-1.0
47605285,47604408,-0.0167162,-0.0429381,-0.0180631,0.441455,0.0,0.0,0.0,-1.0
47702848,47701992,-0.232777,0.0153334,-0.01433,0.450618,0.0,0.0,0.0,-1.0
47802931,47802079,-0.26712,-0.0086516,-0.015264,0.450618,0.0,0.0,0.0,-1.0
47900525,47899663,-0.181444,-0.059528,-0.0224514,0.4496,0.0,0.0,0.0,-1.0
48003133,48002259,-0.204169,-0.00308143,-0.00987674,0.4496,0.0,0.0,0.0,-1.0
48100699,48099836,-0.428831,-0.0703561,-0.0136901,0.450618,0.0,0.0,0.0,-1.0
48203292,48202425,-0.266385,0.0042265,-0.00726567,0.4496,0.0,0.0,0.0,-1.0
48303372,48302512,-0.221065,-0.0259452,-0.012071,0.450618,0.0,0.0,0.0,-1.0
48400956,48400096,-0.267494,-0.0442061,-0.00949735,0.446545,0.0,0.0,0.0,-1.0
48503569,48502695,-0.170111,0.0460096,-0.0207617,0.4496,0.0,0.0,0.0,-1.0
48601141,48600279,-0.145286,-0.0624498,-0.0111154,0.4496,0.0,0.0,0.0,-1.0
48703733,48702862,-0.283851,0.0347503,-0.00867215,0.4496,0.0,0.0,0.0,-1.0
48801316,48800443,-0.0360003,-0.0753647,-0.0533409,0.428218,0.0,0.0,0.0,-1.0
48901403,48900537,0.0749127,-0.0605449,-0.0783114,0.430255,0.0,0.0,0.0,-1.0
49003975,49003122,-0.0552456,-0.106701,-0.147787,0.429236,0.0,0.0,0.0,-1.0
49101569,49100704,0.032747,0.00827062,0.0242034,0.429236,0.0,0.0,0.0,-1.0
49204175,49203308,-0.0496926,-0.0507361,0.0232687,0.430255,0.0,0.0,0.0,-1.0
49301743,49300877,0.146694,0.00723092,0.0197208,0.430255,0.0,0.0,0.0,-1.0
49404338,49403466,0.00645819,-0.047422,0.0218818,0.429236,0.0,0.0,0.0,-1.0
49501910,49501050,0.228,0.00572875,0.0157571,0.429236,0.0,0.0,0.0,-1.0
49602003,49601137,0.205977,0.0332447,0.000625026,0.429236,0.0,0.0,0.0,-1.0
49704582,49703726,0.0414431,-0.00389178,0.0084821,0.425164,0.0,0.0,0.0,-1.0
49802177,49801314,0.258939,-0.000292204,0.00309197,0.428218,0.0,0.0,0.0,-1.0
49904775,49903900,-0.152269,0.024687,-0.00717282,0.430255,0.0,0.0,0.0,-1.0
50002352,50001484,0.0639917,-0.0843887,-0.00793852,0.429236,0.0,0.0,0.0,-1.0
50102442,50101571,0.100613,0.00395826,-0.00690094,0.430255,0.0,0.0,0.0,-1.0
50200017,50199156,0.207805,0.0297749,0.00582131,0.430255,0.0,0.0,0.0,-1.0
50302631,50301748,0.0915876,-0.0334173,0.0674437,0.429236,0.0,0.0,0.0,-1.0
50405189,50404334,-0.253212,0.0965803,0.0928486,0.430255,0.0,0.0,0.0,-1.0
50502791,50501923,-0.024021,-0.0116189,0.0601523,0.430255,0.0,0.0,0.0,-1.0
50602865,50602005,-0.175479,-0.0650651,0.0627519,0.429236,0.0,0.0,0.0,-1.0
50700452,50699590,-0.0766967,0.0124599,-0.128278,0.4272,0.0,0.0,0.0,-1.0
50803050,50802179,-0.0450951,0.0264207,-0.0894753,0.430255,0.0,0.0,0.0,-1.0
50900637,50899769,0.0015861,0.0955764,-0.0729392,0.445527,0.0,0.0,0.0,-1.0
51003215,51002353,-0.00589995,-0.0873477,-0.0583905,0.487273,0.0,0.0,0.0,-1.0
51103315,51102440,-0.0342765,-0.0180799,-0.0503183,0.485236,0.0,0.0,0.0,-1.0
51200895,51200024,0.244025,0.0197707,-0.050799,0.487273,0.0,0.0,0.0,-1.0
51303473,51302613,0.235229,-0.00617036,-0.0408577,0.488291,0.0,0.0,0.0,-1.0
51401065,51400205,0.299842,-0.0276604,-0.0304594,0.489309,0.0,0.0,0.0,-1.0
51503662,51502787,0.214274,-0.031209,-0.0234773,0.487273,0.0,0.0,0.0,-1.0
51601233,51600372,0.324038,0.0309516,-0.0295155,0.486255,0.0,0.0,0.0,-1.0
51703840,51702961,0.51127,-0.00955368,-0.0198324,0.486255,0.0,0.0,0.0,-1.0
51803918,51803048,0.350193,0.000431837,-0.0292472,0.487273,0.0,0.0,0.0,-1.0
51901489,51900635,0.0842702,0.0130612,-0.0141387,0.487273,0.0,0.0,0.0,-1.0
52004083,52003223,0.332718,-0.0315784,-0.00230383,0.486255,0.0,0.0,0.0,-1.0
52101687,52100808,-0.0867906,-0.00223998,-0.00801539,0.487273,0.0,0.0,0.0,-1.0
52204273,52203396,0.0855627,0.00422224,-0.0203734,0.481164,0.0,0.0,0.0,-1.0
52301855,52300990,-0.0444722,-0.0172661,-0.0155494,0.4832,0.0,0.0,0.0,-1.0
52401921,52401067,0.0644335,0.00982121,-0.0118951,0.453673,0.0,0.0,0.0,-1.0
52504523,52503656,0.346178,-0.0239136,-0.0193208,0.441455,0.0,0.0,0.0,-1.0
52602110,52601241,0.100575,0.00184487,-0.0161948,0.423127,0.0,0.0,0.0,-1.0
52704690,52703830,0.204454,-0.0757643,-0.0117424,0.422109,0.0,0.0,0.0,-1.0
52802290,52801417,-0.0249933,0.0870191,-0.0180731,0.423127,0.0,0.0,0.0,-1.0
52902361,52901504,0.0447694,-0.0113952,-0.0141665,0.422109,0.0,0.0,0.0,-1.0
52999946,52999087,-0.10608,-0.0355057,-0.0073251,0.423127,0.0,0.0,0.0,-1.0
53102530,53101676,0.111473,0.0453756,-0.0106742,0.424145,0.0,0.0,0.0,-1.0
53205133,53204271,0.202765,0.0257366,-0.01297,0.423127,0.0,0.0,0.0,-1.0
53302706,53301851,-0.0153389,-0.0988534,-0.0120345,0.423127,0.0,0.0,0.0,-1.0
53402791,53401937,0.169553,-0.0113487,-0.0230715,0.422109,0.0,0.0,0.0,-1.0
53500382,53499521,-0.00906671,-0.0527221,-0.0137371,0.423127,0.0,0.0,0.0,-1.0
53602968,53602111,0.0728104,0.0665884,-0.0188066,0.423127,0.0,0.0,0.0,-1.0
53700558,53699696,-0.0119944,0.000881095,-0.0197553,0.423127,0.0,0.0,0.0,-1.0
53803140,53802285,0.109717,0.0125459,-0.0206445,0.425164,0.0,0.0,0.0,-1.0
53900729,53899869,-0.149961,0.0170501,-0.0102243,0.424145,0.0,0.0,0.0,-1.0
54003336,54002459,-0.0781613,0.006185,-0.012494,0.423127,0.0,0.0,0.0,-1.0
54100912,54100044,-0.0449608,-0.0376616,-0.0171735,0.4272,0.0,0.0,0.0,-1.0
54200998,54200131,-0.137343,-0.0337134,-0.0120246,0.425164,0.0,0.0,0.0,-1.0
54303598,54302722,-0.157582,-0.0361772,-0.00542453,0.425164,0.0,0.0,0.0,-1.0
54401165,54400305,-0.257622,0.0306152,-0.0100157,0.425164,0.0,0.0,0.0,-1.0
54503764,54502896,-0.24396,-0.115893,-0.000103468,0.424145,0.0,0.0,0.0,-1.0
54601347,54600479,-0.0397633,0.00257575,-0.0136118,0.426182,0.0,0.0,0.0,-1.0
54701425,54700566,-0.107081,-0.0619291,-0.00874606,0.426182,0.0,0.0,0.0,-1.0
54804009,54803155,-0.155265,-0.0243216,-0.00263746,0.426182,0.0,0.0,0.0,-1.0
54901600,54900740,-0.263094,0.0885731,-0.016409,0.452655,0.0,0.0,0.0,-1.0
55004184,55003330,-0.0986746,0.0117513,-0.0183477,0.462836,0.0,0.0,0.0,-1.0
55101776,55100914,-0.231087,-0.0142602,-0.0266024,0.480145,0.0,0.0,0.0,-1.0
55201862,55201001,-0.154816,0.0172077,-0.0203993,0.480145,0.0,0.0,0.0,-1.0
55304461,55303592,-0.216947,-0.0129186,-0.0152677,0.477091,0.0,0.0,0.0,-1.0
55402044,55401176,-0.195999,0.0270085,-0.0304809,0.477091,0.0,0.0,0.0,-1.0
55504634,55503766,-0.352931,-0.00986397,-0.0119811,0.477091,0.0,0.0,0.0,-1.0
55602211,55601350,-0.530514,-0.0305917,-0.0198432,0.478109,0.0,0.0,0.0,-1.0
55702318,55701437,-0.229752,0.00589553,-0.0206102,0.475055,0.0,0.0,0.0,-1.0
55799874,55799022,-0.227042,0.0166662,-0.03651,0.473018,0.0,0.0,0.0,-1.0
55902472,55901613,-0.32519,-0.010903,-0.0125443,0.470982,0.0,0.0,0.0,-1.0
56005059,56004200,-0.0669224,0.0152814,-0.0677022,0.459782,0.0,0.0,0.0,-1.0
56102647,56101785,-0.167201,0.004059,-0.0891199,0.447564,0.0,0.0,0.0,-1.0
56202740,56201873,-0.102173,0.0879452,0.00775968,0.448582,0.0,0.0,0.0,-1.0
56305323,56304463,0.102282,0.00491977,-0.00993304,0.446545,0.0,0.0,0.0,-1.0
56402919,56402053,-0.139838,0.0103734,0.000938676,0.441455,0.0,0.0,0.0,-1.0
56500489,56499635,-0.296066,-0.0102165,0.00851633,0.444509,0.0,0.0,0.0,-1.0
56603102,56602223,-0.124639,0.0646333,-0.000955119,0.444509,0.0,0.0,0.0,-1.0
56705673,56704812,0.217737,-0.066404,-0.0119244,0.445527,0.0,0.0,0.0,-1.0
56805758,56804899,0.0706964,-0.0121795,-0.0122364,0.443491,0.0,0.0,0.0,-1.0
56903351,56902482,0.0173712,0.0640263,-0.00598862,0.443491,0.0,0.0,0.0,-1.0
57000920,57000067,-0.184745,-0.0269856,-0.00300901,0.445527,0.0,0.0,0.0,-1.0
57106027,57105160,-0.0718491,-0.0350064,-0.000995173,0.443491,0.0,0.0,0.0,-1.0
57201117,57200244,-0.200858,-0.0278971,0.000676483,0.442473,0.0,0.0,0.0,-1.0
57303705,57302838,-0.357648,-0.0407384,0.00515256,0.441455,0.0,0.0,0.0,-1.0
57403778,57402918,-0.27455,-0.065439,0.00400021,0.441455,0.0,0.0,0.0,-1.0
57501371,57500503,-0.170175,-0.0188601,-0.00486221,0.442473,0.0,0.0,0.0,-1.0
57603952,57603093,-0.20037,-0.0487245,-0.00496281,0.441455,0.0,0.0,0.0,-1.0
57701530,57700678,-0.161433,-0.0181985,-0.0161645,0.441455,0.0,0.0,0.0,-1.0
57804155,57803284,-0.0610829,-0.0567518,-0.0126607,0.441455,0.0,0.0,0.0,-1.0
57901712,57900852,-0.108674,0.00387997,-0.0230199,0.442473,0.0,0.0,0.0,-1.0
58001792,58000939,-0.202926,0.0448381,-0.0209451,0.443491,0.0,0.0,0.0,-1.0
58106897,58106033,-0.0770006,-0.0546938,-0.0147309,0.454691,0.0,0.0,0.0,-1.0
58202019,58201137,-0.0852856,-0.0475584,-0.0233477,0.454691,0.0,0.0,0.0,-1.0
58304563,58303703,-0.197227,-0.0607374,-0.0223089,0.465891,0.0,0.0,0.0,-1.0
58402146,58401288,-0.00768174,-0.00803176,-0.0220042,0.473018,0.0,0.0,0.0,-1.0
58502233,58501376,-0.147761,-0.0794618,-0.0282662,0.473018,0.0,0.0,0.0,-1.0
58602337,58601464,-0.185925,-0.0317263,-0.0265988,0.472,0.0,0.0,0.0,-1.0
58702411,58701550,-0.157997,0.00602769,-0.0253437,0.470982,0.0,0.0,0.0,-1.0
58805015,58804139,-0.10918,0.0353075,-0.019427,0.474036,0.0,0.0,0.0,-1.0
58902577,58901724,-0.281688,0.108172,-0.023083,0.473018,0.0,0.0,0.0,-1.0
59002664,59001811,-0.227247,-0.0893454,-0.0188722,0.462836,0.0,0.0,0.0,-1.0
59102772,59101899,-0.0912558,-0.057885,-0.0188655,0.431273,0.0,0.0,0.0,-1.0
59202839,59201986,-0.0505471,0.0656421,-0.0213484,0.431273,0.0,0.0,0.0,-1.0
59300431,59299571,-0.294147,-0.0395536,-0.0136612,0.431273,0.0,0.0,0.0,-1.0
59403013,59402161,-0.1745,-0.0860362,-0.00363242,0.429236,0.0,0.0,0.0,-1.0
59503105,59502248,-0.100006,-0.00484665,-0.0151212,0.431273,0.0,0.0,0.0,-1.0
59603189,59602335,-0.072847,-0.0609168,-0.011773,0.431273,0.0,0.0,0.0,-1.0
59703284,59702422,-0.0620569,-0.0446445,-0.00561038,0.432291,0.0,0.0,0.0,-1.0
59800873,59800008,-0.0937304,0.0201555,-0.0122264,0.433309,0.0,0.0,0.0,-1.0
59903450,59902597,-0.11669,-0.0406261,-0.00120893,0.431273,0.0,0.0,0.0,-1.0
60001049,60000182,-0.149137,0.00258044,-0.012627,0.429236,0.0,0.0,0.0,-1.0
60103640,60102772,-0.224391,0.0206563,-0.00347474,0.430255,0.0,0.0,0.0,-1.0
60203712,60202859,-0.149549,-0.0174694,0.00561468,0.4384,0.0,0.0,0.0,-1.0
60301322,60300444,-0.148246,0.00346657,-0.00526533,0.487273,0.0,0.0,0.0,-1.0
60403886,60403034,-0.325334,0.0472717,-0.00997432,0.485236,0.0,0.0,0.0,-1.0
60501490,60500622,-0.335021,0.0660634,-0.028598,0.484218,0.0,0.0,0.0,-1.0
60604065,60603208,-0.0831133,0.0337551,-0.0211552,0.489309,0.0,0.0,0.0,-1.0
60701653,60700794,-0.274113,-0.0609018,-0.0230933,0.489309,0.0,0.0,0.0,-1.0
60801744,60800881,-0.302116,-0.00927496,-0.041678,0.486255,0.0,0.0,0.0,-1.0
60901850,60900968,-0.304481,-0.00939723,-0.0308249,0.482182,0.0,0.0,0.0,-1.0
61001916,61001056,-0.213512,0.0283845,-0.0309336,0.481164,0.0,0.0,0.0,-1.0
61104504,61103645,-0.00586997,-0.012476,-0.0290614,0.481164,0.0,0.0,0.0,-1.0
61202097,61201230,-0.293763,-0.0485945,-0.0245833,0.470982,0.0,0.0,0.0,-1.0
61302178,61301318,-0.350541,-0.00665396,-0.0167387,0.472,0.0,0.0,0.0,-1.0
61402283,61401405,-0.230137,-0.00375996,-0.0275498,0.458764,0.0,0.0,0.0,-1.0
61502361,61501492,-0.185206,0.0296001,-0.027699,0.444509,0.0,0.0,0.0,-1.0
61604934,61604082,0.096933,0.0696545,-0.0252272,0.444509,0.0,0.0,0.0,-1.0
61702527,61701667,-0.190799,-0.0261117,-0.0207684,0.445527,0.0,0.0,0.0,-1.0
61802641,61801754,-0.182501,-0.0160671,-0.0197815,0.447564,0.0,0.0,0.0,-1.0
61902701,61901842,-0.23739,0.0721043,-0.0196457,0.447564,0.0,0.0,0.0,-1.0
62002791,62001929,-0.264522,-0.0108065,-0.0122315,0.448582,0.0,0.0,0.0,-1.0
62100375,62099515,-0.179956,-0.116309,-0.0165158,0.447564,0.0,0.0,0.0,-1.0
62202970,62202104,-0.143284,-0.0158294,-0.0153437,0.447564,0.0,0.0,0.0,-1.0
62303061,62302191,-0.0736866,0.0415582,-0.0148003,0.447564,0.0,0.0,0.0,-1.0
62403144,62402281,-0.0573336,-0.0334864,-0.00554682,0.445527,0.0,0.0,0.0,-1.0
62503237,62502366,-0.130837,0.0394412,-0.00655866,0.447564,0.0,0.0,0.0,-1.0
62600805,62599951,-0.201192,-0.0303475,-0.006893,0.447564,0.0,0.0,0.0,-1.0
62703408,62702543,-0.0603639,0.0201418,-0.0116153,0.447564,0.0,0.0,0.0,-1.0
62800983,62800126,-0.226732,-0.00687366,-0.00669317,0.447564,0.0,0.0,0.0,-1.0
62903598,62902716,-0.20438,-0.0213605,-9.4913e-05,0.448582,0.0,0.0,0.0,-1.0
63003685,63002803,-0.327347,0.00872924,0.00511422,0.448582,0.0,0.0,0.0,-1.0
63101257,63100396,-0.231445,-0.0908651,0.00649184,0.448582,0.0,0.0,0.0,-1.0
63203837,63202977,-0.26538,-0.0366045,0.00461072,0.448582,0.0,0.0,0.0,-1.0
63301430,63300564,-0.386927,-0.0125845,0.00748034,0.447564,0.0,0.0,0.0,-1.0
63404025,63403152,-0.224727,-0.0130714,0.00224753,0.447564,0.0,0.0,0.0,-1.0
63501593,63500739,-0.343048,-0.0092136,0.00253558,0.448582,0.0,0.0,0.0,-1.0
63601681,63600825,-0.430218,-0.0288206,0.000752277,0.447564,0.0,0.0,0.0,-1.0
63704284,63703414,-0.133953,-0.0555972,-0.00420869,0.447564,0.0,0.0,0.0,-1.0
63801856,63801001,-0.122421,-0.00288195,-0.00645589,0.448582,0.0,0.0,0.0,-1.0
63904455,63903590,0.115401,-0.0143348,-0.0179364,0.447564,0.0,0.0,0.0,-1.0
64002033,64001176,0.0295384,0.00630972,-0.0138019,0.447564,0.0,0.0,0.0,-1.0
64102124,64101269,0.170955,-0.0502645,-0.0131309,0.447564,0.0,0.0,0.0,-1.0
64202203,64201349,0.205733,-0.0775097,-0.0278335,0.447564,0.0,0.0,0.0,-1.0
64302310,64301438,0.265532,-0.00287091,-0.0231296,0.447564,0.0,0.0,0.0,-1.0
64404888,64404028,0.161343,0.0121263,-0.023079,0.447564,0.0,0.0,0.0,-1.0
64502484,64501615,0.192478,0.00548762,-0.0212772,0.447564,0.0,0.0,0.0,-1.0
64602556,64601698,0.213971,0.0327235,-0.0211457,0.447564,0.0,0.0,0.0,-1.0
64702647,64701788,0.183792,-0.124526,-0.0178308,0.444509,0.0,0.0,0.0,-1.0
64802734,64801873,0.131084,0.0126146,-0.0238116,0.447564,0.0,0.0,0.0,-1.0
64900329,64899458,0.0715957,0.00325869,-0.0223446,0.448582,0.0,0.0,0.0,-1.0
65002904,65002047,0.135474,0.0466119,-0.0185294,0.448582,0.0,0.0,0.0,-1.0
65100498,65099633,0.15453,-0.0492713,-0.0280941,0.448582,0.0,0.0,0.0,-1.0
65203083,65202224,0.245548,-0.0834237,-0.028586,0.448582,0.0,0.0,0.0,-1.0
65300667,65299807,0.0297772,0.0308787,-0.0259812,0.448582,0.0,0.0,0.0,-1.0
65400754,65399895,0.00948047,0.00124122,-0.024714,0.446545,0.0,0.0,0.0,-1.0
65500857,65499982,-0.0377423,-0.0344595,-0.0220616,0.446545,0.0,0.0,0.0,-1.0
65600929,65600070,-0.0368348,-0.046865,-0.0292955,0.431273,0.0,0.0,0.0,-1.0
65703532,65702669,0.212082,0.108714,-0.0910507,0.431273,0.0,0.0,0.0,-1.0
65801119,65800244,0.0625891,0.0761901,-0.00945706,0.433309,0.0,0.0,0.0,-1.0
65901197,65900332,-0.119001,-0.0578552,-0.000425232,0.433309,0.0,0.0,0.0,-1.0
66001293,66000419,-0.0244909,0.00680374,-0.00321279,0.433309,0.0,0.0,0.0,-1.0
66101377,66100506,0.0141425,-0.064413,-0.000952473,0.431273,0.0,0.0,0.0,-1.0
66203951,66203096,0.202241,-0.0519587,-0.00882127,0.431273,0.0,0.0,0.0,-1.0
66301540,66300681,0.111554,0.00462239,-0.0104502,0.434327,0.0,0.0,0.0,-1.0
66401629,66400768,0.0204331,0.0734267,-0.00904957,0.472,0.0,0.0,0.0,-1.0
66501728,66500865,-0.105012,0.000198197,-0.0131071,0.489309,0.0,0.0,0.0,-1.0
66601803,66600943,0.0150114,-0.00269566,-0.0233945,0.492364,0.0,0.0,0.0,-1.0
66704405,66703534,0.292398,0.0628569,-0.0396508,0.492364,0.0,0.0,0.0,-1.0
66801978,66801118,0.106111,-0.00849192,-0.0247283,0.492364,0.0,0.0,0.0,-1.0
66902067,66901205,0.106142,-0.0227261,-0.0362483,0.492364,0.0,0.0,0.0,-1.0
67002154,67001293,0.245435,0.017966,-0.0407938,0.492364,0.0,0.0,0.0,-1.0
67102247,67101380,0.251496,0.0034666,-0.0468866,0.492364,0.0,0.0,0.0,-1.0
67204827,67203970,0.221664,-0.0907915,-0.0355037,0.492364,0.0,0.0,0.0,-1.0
67302415,67301555,0.260955,0.0297106,-0.0456303,0.491345,0.0,0.0,0.0,-1.0
67402502,67401642,0.183169,0.0327531,-0.0468763,0.491345,0.0,0.0,0.0,-1.0
67505110,67504233,-0.0496766,-0.0110196,-0.0308786,0.492364,0.0,0.0,0.0,-1.0
67602676,67601817,0.111682,0.0511812,-0.0373643,0.492364,0.0,0.0,0.0,-1.0
67700260,67699402,0.161553,0.0212561,-0.0282097,0.490327,0.0,0.0,0.0,-1.0
67802858,67801992,0.299692,-0.0435242,-0.0216217,0.490327,0.0,0.0,0.0,-1.0
67902949,67902079,0.196917,-0.035115,-0.0276284,0.461818,0.0,0.0,0.0,-1.0
68003029,68002166,0.0594244,-0.0127507,-0.021465,0.428218,0.0,0.0,0.0,-1.0
68103122,68102254,0.0660564,-0.122253,-0.0195106,0.4272,0.0,0.0,0.0,-1.0
68200709,68199854,0.0419235,0.0131459,-0.0192615,0.4272,0.0,0.0,0.0,-1.0
68303302,68302429,0.0979119,-0.0186075,-0.0273058,0.426182,0.0,0.0,0.0,-1.0
68400867,68400014,0.138945,0.08004,-0.0289939,0.4272,0.0,0.0,0.0,-1.0
68503472,68502604,0.153037,-0.0186108,-0.026707,0.4272,0.0,0.0,0.0,-1.0
68603570,68602698,0.238043,-0.0326032,-0.0247429,0.4272,0.0,0.0,0.0,-1.0
68701138,68700282,0.0282731,0.102298,-0.0242089,0.426182,0.0,0.0,0.0,-1.0
68803725,68802866,-0.019681,-0.0647337,-0.0307287,0.4272,0.0,0.0,0.0,-1.0
68901312,68900454,-0.0322774,-0.00700549,-0.0260879,0.4272,0.0,0.0,0.0,-1.0
69003900,69003041,0.193809,-0.000382729,-0.0393115,0.426182,0.0,0.0,0.0,-1.0
69101478,69100626,-0.0197981,-0.0313609,-0.0307378,0.4272,0.0,0.0,0.0,-1.0
69201571,69200718,-0.0431854,0.138066,-0.0422257,0.4272,0.0,0.0,0.0,-1.0
69304163,69303303,0.226225,0.107547,-0.0427955,0.492364,0.0,0.0,0.0,-1.0
69401741,69400888,0.0523784,-0.0661001,-0.041522,0.491345,0.0,0.0,0.0,-1.0
69504349,69503478,0.20836,-0.0448461,-0.0517698,0.491345,0.0,0.0,0.0,-1.0
69601919,69601063,0.279138,0.00609522,-0.0487715,0.490327,0.0,0.0,0.0,-1.0
69702006,69701151,0.340256,-0.0116235,-0.0513266,0.490327,0.0,0.0,0.0,-1.0
69802098,69801238,0.243687,-0.00246426,-0.0520474,0.484218,0.0,0.0,0.0,-1.0
69902178,69901326,0.128786,0.00496589,-0.0503962,0.489309,0.0,0.0,0.0,-1.0
70004785,70003915,-0.225976,0.0424493,-0.0374031,0.491345,0.0,0.0,0.0,-1.0
70102370,70101501,-0.0214718,0.00558595,-0.0550116,0.489309,0.0,0.0,0.0,-1.0
70202441,70201588,-0.0772325,-0.0694152,-0.0475381,0.493382,0.0,0.0,0.0,-1.0
70302532,70301676,-0.145648,-0.012747,-0.0449777,0.487273,0.0,0.0,0.0,-1.0
70402618,70401763,-0.159074,-0.0565502,-0.0326782,0.478109,0.0,0.0,0.0,-1.0
70500221,70499351,0.164022,-0.0622349,-0.0375054,0.478109,0.0,0.0,0.0,-1.0
70602819,70601953,-0.0620946,-0.056273,-0.0249787,0.4496,0.0,0.0,0.0,-1.0
70702878,70702025,0.0110853,-0.0105682,-0.0223902,0.448582,0.0,0.0,0.0,-1.0
70802965,70802113,0.0640955,-0.0148967,-0.0137332,0.451636,0.0,0.0,0.0,-1.0
70903056,70902200,0.112468,-0.0283948,-0.00938013,0.453673,0.0,0.0,0.0,-1.0
71000648,70999786,0.207502,0.0208116,-0.00421446,0.452655,0.0,0.0,0.0,-1.0
71103230,71102376,0.356034,-0.0597134,-0.0138275,0.452655,0.0,0.0,0.0,-1.0
71200829,71199963,0.418953,-0.0324507,-0.0136268,0.452655,0.0,0.0,0.0,-1.0
71303418,71302550,0.153992,0.0206964,-0.0160497,0.452655,0.0,0.0,0.0,-1.0
71403494,71402638,0.212313,-0.0289472,-0.014441,0.453673,0.0,0.0,0.0,-1.0
71501096,71500225,0.31108,-0.029147,-0.00708931,0.452655,0.0,0.0,0.0,-1.0
71603667,71602813,0.208864,-0.0621447,-0.00683648,0.453673,0.0,0.0,0.0,-1.0
71701274,71700399,0.318402,-0.00438539,-0.00730587,0.453673,0.0,0.0,0.0,-1.0
71803841,71802988,-0.0589326,0.0104624,-0.0150689,0.453673,0.0,0.0,0.0,-1.0
71901440,71900575,-0.0121168,-0.00441303,-0.0111571,0.452655,0.0,0.0,0.0,-1.0
72001521,72000661,0.134304,-0.0229596,-0.0152607,0.452655,0.0,0.0,0.0,-1.0
72101611,72100749,0.100443,-0.0267497,-0.0190613,0.451636,0.0,0.0,0.0,-1.0
72201702,72200836,-0.0870486,-0.0526848,-0.016773,0.451636,0.0,0.0,0.0,-1.0
72304287,72303426,-0.362248,-0.062549,-0.0089375,0.450618,0.0,0.0,0.0,-1.0
72401877,72401011,-0.221113,-0.0159095,-0.0115874,0.450618,0.0,0.0,0.0,-1.0
72501959,72501099,-0.251655,0.0141167,-0.0138834,0.450618,0.0,0.0,0.0,-1.0
72602057,72601189,-0.341154,0.0231799,-0.0148809,0.4496,0.0,0.0,0.0,-1.0
72702146,72701280,-0.247337,0.0623091,-0.0168366,0.450618,0.0,0.0,0.0,-1.0
72804723,72803864,-0.170469,0.108436,-0.015731,0.450618,0.0,0.0,0.0,-1.0
72902321,72901449,-0.0949014,-0.0361455,-0.014677,0.450618,0.0,0.0,0.0,-1.0
73002396,73001537,-0.125702,-0.0646735,-0.018745,0.446545,0.0,0.0,0.0,-1.0
73102490,73101624,-0.0798606,0.00492031,-0.01868,0.450618,0.0,0.0,0.0,-1.0
73202571,73201712,-0.0714467,0.0158366,-0.0224528,0.488291,0.0,0.0,0.0,-1.0
73300151,73299297,-0.0682334,-0.08201,-0.021272,0.491345,0.0,0.0,0.0,-1.0
73402746,73401887,-0.193561,-0.0273494,-0.0124585,0.488291,0.0,0.0,0.0,-1.0
73505358,73504476,-0.047641,-0.0158025,-0.0221209,0.489309,0.0,0.0,0.0,-1.0
73602928,73602062,-0.107066,-0.0116607,-0.017318,0.488291,0.0,0.0,0.0,-1.0
73703008,73702149,-0.0731246,-0.073208,-0.0110279,0.488291,0.0,0.0,0.0,-1.0
73800597,73799735,-0.195897,-0.0110675,-0.0140291,0.477091,0.0,0.0,0.0,-1.0
73903194,73902332,-0.262569,0.0330342,-0.00342044,0.442473,0.0,0.0,0.0,-1.0
74000779,73999910,-0.322798,-0.0128458,-0.00657613,0.442473,0.0,0.0,0.0,-1.0
74103373,74102502,-0.174341,-0.0612719,-0.00669982,0.418036,0.0,0.0,0.0,-1.0
74203447,74202587,-0.170247,-0.0310158,-0.0116471,0.392582,0.0,0.0,0.0,-1.0
74301028,74300174,-0.202474,0.0211184,-0.0194677,0.389527,0.0,0.0,0.0,-1.0
74403637,74402761,-0.20204,-0.0456677,-0.0103118,0.3936,0.0,0.0,0.0,-1.0
74501219,74500349,-0.199899,0.0272062,-0.0168069,0.396655,0.0,0.0,0.0,-1.0
74603809,74602936,-0.112897,-0.107306,-0.00758068,0.396655,0.0,0.0,0.0,-1.0
74701380,74700523,-0.193048,-0.08959,-0.0154154,0.397673,0.0,0.0,0.0,-1.0
74801463,74800609,-0.179704,-0.119293,-0.0102446,0.397673,0.0,0.0,0.0,-1.0
74904071,74903206,-0.0769477,-0.0442106,-0.0225785,0.396655,0.0,0.0,0.0,-1.0
75001638,75000784,-0.0828416,0.0354964,-0.0308655,0.487273,0.0,0.0,0.0,-1.0
75104245,75103374,-0.080223,-0.0169847,-0.0233495,0.489309,0.0,0.0,0.0,-1.0
75201820,75200965,-0.252819,-0.0453493,-0.014918,0.489309,0.0,0.0,0.0,-1.0
75301909,75301048,-0.288306,-0.0171994,-0.0137588,0.518788,0.0,0.0,0.0,-1.0
75401989,75401134,-0.122731,0.0536216,-0.0167517,0.518788,0.0,0.0,0.0,-1.0
75502106,75501230,-0.241882,-0.00886501,-0.000698447,0.52,0.0,0.0,0.0,-1.0
75604683,75603811,-0.0373929,-0.0272267,-0.00629338,0.521212,0.0,0.0,0.0,-1.0
75702259,75701397,-0.119136,-0.0248963,0.00216688,0.521212,0.0,0.0,0.0,-1.0
75804860,75803986,0.112827,-0.0493711,-0.000415392,0.513939,0.0,0.0,0.0,-1.0
75902442,75901573,-0.323928,-0.0551956,0.00434651,0.511515,0.0,0.0,0.0,-1.0
76002513,76001659,-0.170687,0.0349685,-0.00619926,0.509091,0.0,0.0,0.0,-1.0
76100113,76099244,-0.226792,-0.071582,-0.0023712,0.510303,0.0,0.0,0.0,-1.0
76202701,76201845,-0.168418,0.0473927,-0.00529426,0.509091,0.0,0.0,0.0,-1.0
76300306,76299419,-0.268071,0.0149558,-0.0106824,0.511515,0.0,0.0,0.0,-1.0
76402866,76402009,-0.377906,0.000834107,-0.00798309,0.498473,0.0,0.0,0.0,-1.0
76500454,76499594,-0.126481,-0.0216931,-0.0198307,0.459782,0.0,0.0,0.0,-1.0
76600563,76599684,-0.0470122,-0.0432256,-0.0167438,0.452655,0.0,0.0,0.0,-1.0
76703137,76702278,-0.257808,-0.0846713,-0.00261361,0.454691,0.0,0.0,0.0,-1.0
76800717,76799857,-0.032396,0.0037844,-0.00783324,0.459782,0.0,0.0,0.0,-1.0
76903332,76902448,-0.101204,-0.00625125,0.000317142,0.458764,0.0,0.0,0.0,-1.0
77000891,77000032,0.0621745,0.0544581,0.00123441,0.458764,0.0,0.0,0.0,-1.0
77100990,77100119,0.0825696,0.0906696,-0.00448815,0.459782,0.0,0.0,0.0,-1.0
77201069,77200207,0.115323,-0.0440898,-0.00126207,0.459782,0.0,0.0,0.0,-1.0
77301160,77300298,0.0210668,-0.0835658,-0.00632861,0.458764,0.0,0.0,0.0,-1.0
77403742,77402884,-0.0926608,0.00807224,-0.0135471,0.458764,0.0,0.0,0.0,-1.0
77501352,77500483,0.0909051,-0.0538762,-0.0156348,0.459782,0.0,0.0,0.0,-1.0
77601419,77600557,0.0988158,0.0507903,-0.0156293,0.458764,0.0,0.0,0.0,-1.0
77701507,77700645,0.0818837,0.0235031,-0.0184194,0.459782,0.0,0.0,0.0,-1.0
77801602,77800732,0.119384,-0.142515,-0.0141188,0.459782,0.0,0.0,0.0,-1.0
77904178,77903323,-0.233071,-0.084021,-0.0132536,0.459782,0.0,0.0,0.0,-1.0
78001775,78000910,-0.024914,-0.0237576,-0.0202625,0.459782,0.0,0.0,0.0,-1.0
78104368,78103498,-0.16686,-0.00804342,-0.0103801,0.459782,0.0,0.0,0.0,-1.0
78201948,78201082,-0.0810292,-0.118787,-0.00683531,0.459782,0.0,0.0,0.0,-1.0
78302030,78301169,-0.152046,0.00600422,-0.0177513,0.456727,0.0,0.0,0.0,-1.0
78404620,78403766,-0.189913,0.00355532,-0.0131309,0.458764,0.0,0.0,0.0,-1.0
78502218,78501345,-0.0278745,0.022355,-0.0217083,0.458764,0.0,0.0,0.0,-1.0
78604801,78603934,-0.262919,-0.0640747,-0.00430932,0.458764,0.0,0.0,0.0,-1.0
78704879,78704023,-0.236233,-0.0404356,-0.0205084,0.458764,0.0,0.0,0.0,-1.0
78802477,78801607,-0.143355,-0.0844719,-0.0183579,0.458764,0.0,0.0,0.0,-1.0
78900047,78899192,0.13158,0.02254,-0.0192157,0.457745,0.0,0.0,0.0,-1.0
79002642,79001782,-0.0630846,-0.0461536,-0.0154376,0.457745,0.0,0.0,0.0,-1.0
79105232,79104373,-0.228333,-0.161838,-0.00907047,0.4608,0.0,0.0,0.0,-1.0
79202819,79201957,-0.0157006,0.0302077,-0.0204026,0.459782,0.0,0.0,0.0,-1.0
79302904,79302044,-0.0263437,0.0457737,-0.014947,0.458764,0.0,0.0,0.0,-1.0
79400491,79399636,0.223775,-0.0737028,-0.0177236,0.459782,0.0,0.0,0.0,-1.0
79503097,79502222,-0.107512,-0.130488,-0.0078652,0.457745,0.0,0.0,0.0,-1.0
79600658,79599805,0.108344,0.0121809,-0.00928055,0.454691,0.0,0.0,0.0,-1.0
79703270,79702395,-0.112447,-0.014036,-0.0129503,0.454691,0.0,0.0,0.0,-1.0
79803353,79802482,-0.0924424,-0.046811,-0.00726073,0.452655,0.0,0.0,0.0,-1.0
79900953,79900097,0.168602,-0.0424397,-0.0120601,0.448582,0.0,0.0,0.0,-1.0
80003517,80002657,-0.113499,-0.0422042,-0.0375801,0.450618,0.0,0.0,0.0,-1.0
80101102,80100242,0.209688,0.0134453,-0.071162,0.454691,0.0,0.0,0.0,-1.0
80203704,80202832,-0.0697974,-0.0615021,-0.092248,0.4496,0.0,0.0,0.0,-1.0
80301278,80300417,0.0432517,-0.0263795,-0.0835242,0.4496,0.0,0.0,0.0,-1.0
80401363,80400505,-0.0173015,-0.0310024,-0.0538728,0.4496,0.0,0.0,0.0,-1.0
80503954,80503094,-0.180598,-0.0208204,-0.0218214,0.443491,0.0,0.0,0.0,-1.0
80601532,80600680,-0.141842,-0.0784726,0.0116526,0.4496,0.0,0.0,0.0,-1.0
80706628,80705774,-0.124293,0.0381241,0.0314306,0.4496,0.0,0.0,0.0,-1.0
80801717,80800855,-0.17604,-0.0630383,0.0247765,0.450618,0.0,0.0,0.0,-1.0
80906816,80905956,0.10814,0.0130401,0.0162388,0.447564,0.0,0.0,0.0,-1.0
81001883,81001030,-0.26789,0.0620224,0.0115661,0.447564,0.0,0.0,0.0,-1.0
81101974,81101117,-0.101957,0.0332997,-0.0182308,0.447564,0.0,0.0,0.0,-1.0
81204576,81203714,0.211591,0.0383005,-0.0289675,0.4496,0.0,0.0,0.0,-1.0
81302149,81301293,-0.138502,-0.0477942,-0.0622318,0.451636,0.0,0.0,0.0,-1.0
81404777,81403899,0.0994184,0.025614,-0.0795342,0.473018,0.0,0.0,0.0,-1.0
81502327,81501468,-0.0079931,0.00884576,-0.0819509,0.472,0.0,0.0,0.0,-1.0
81602417,81601564,-0.122285,-0.0735246,-0.0838598,0.470982,0.0,0.0,0.0,-1.0
81700000,81699141,-0.0303717,-0.0206515,-0.0715012,0.472,0.0,0.0,0.0,-1.0
81802588,81801730,-0.00755646,0.0279509,-0.0721481,0.470982,0.0,0.0,0.0,-1.0
81907678,81906824,0.03274,0.018252,-0.0471693,0.470982,0.0,0.0,0.0,-1.0
82002762,82001905,-0.0393576,0.00557005,-0.0395091,0.472,0.0,0.0,0.0,-1.0
82102848,82101993,-0.179343,-0.0582435,-0.0389593,0.472,0.0,0.0,0.0,-1.0
82200446,82199581,-0.00699749,0.0106197,0.037646,0.472,0.0,0.0,0.0,-1.0
82303027,82302168,-0.198903,-0.0441499,0.0953737,0.472,0.0,0.0,0.0,-1.0
82400615,82399753,0.187031,-0.0553869,0.0645469,0.472,0.0,0.0,0.0,-1.0
82503196,82502343,-0.119263,0.0189088,0.0443166,0.484218,0.0,0.0,0.0,-1.0
82603297,82602431,-0.111739,0.0257023,0.0240122,0.497455,0.0,0.0,0.0,-1.0
82700876,82700016,0.0641463,-0.0213903,0.000709122,0.530909,0.0,0.0,0.0,-1.0
82803467,82802606,-0.181696,0.029086,-0.0147109,0.533333,0.0,0.0,0.0,-1.0
82901058,82900194,0.280157,-0.0634674,-0.0383872,0.530909,0.0,0.0,0.0,-1.0
83003647,83002781,-0.144511,-0.0421762,-0.0361458,0.52,0.0,0.0,0.0,-1.0
83101243,83100369,0.0544149,0.038505,-0.0336045,0.522424,0.0,0.0,0.0,-1.0
83203826,83202959,-0.0826463,-0.0219889,-0.0341464,0.521212,0.0,0.0,0.0,-1.0
83303896,83303044,-0.312479,-0.0236276,-0.0265669,0.521212,0.0,0.0,0.0,-1.0
83401496,83400629,-0.0364487,0.00672268,-0.0224546,0.521212,0.0,0.0,0.0,-1.0
83504076,83503224,-0.277258,0.0324437,-0.0126562,0.521212,0.0,0.0,0.0,-1.0
83601670,83600804,-0.184391,-0.0399677,-0.0153735,0.517576,0.0,0.0,0.0,-1.0
83704265,83703394,-0.228129,-0.0113668,-0.011566,0.4832,0.0,0.0,0.0,-1.0
83801841,83800979,-0.334131,0.0194543,-0.023989,0.474036,0.0,0.0,0.0,-1.0
83901928,83901067,-0.242348,-0.0247493,-0.014538,0.440436,0.0,0.0,0.0,-1.0
84004513,84003657,0.0430957,-0.00977445,-0.0143029,0.425164,0.0,0.0,0.0,-1.0
84102113,84101242,-0.0896285,0.0523291,-0.0178686,0.401745,0.0,0.0,0.0,-1.0
84204684,84203832,-0.0236138,-0.0171248,-0.0177334,0.403782,0.0,0.0,0.0,-1.0
84302309,84301417,-0.0460815,0.0433327,-0.0180663,0.403782,0.0,0.0,0.0,-1.0
84402377,84401505,0.0136372,0.0161052,-0.0134602,0.408873,0.0,0.0,0.0,-1.0
84499962,84499097,-0.058966,-0.0210263,-0.0116628,0.405818,0.0,0.0,0.0,-1.0
84602540,84601680,0.0603596,-0.0462245,-0.00383041,0.405818,0.0,0.0,0.0,-1.0
84705132,84704279,0.179609,0.101535,-0.0134049,0.407855,0.0,0.0,0.0,-1.0
84802726,84801855,-0.00758376,0.0554357,-0.012676,0.406836,0.0,0.0,0.0,-1.0
84902802,84901942,0.033593,0.0488592,-0.0137839,0.406836,0.0,0.0,0.0,-1.0
85002918,85002030,-0.0569038,-0.116731,-0.0121329,0.406836,0.0,0.0,0.0,-1.0
85102977,85102118,-0.00978777,-0.0565591,-0.00643037,0.4048,0.0,0.0,0.0,-1.0
85200563,85199703,-0.0280127,0.0396437,-0.00748804,0.452655,0.0,0.0,0.0,-1.0
85303153,85302293,-0.0924059,0.00825146,-0.00696888,0.486255,0.0,0.0,0.0,-1.0
85403242,85402381,-0.107286,0.0453654,-0.0131196,0.500606,0.0,0.0,0.0,-1.0
85503354,85502468,-0.221052,-0.0139087,-0.011078,0.500606,0.0,0.0,0.0,-1.0
85603422,85602556,-0.178297,-0.192896,-0.00582859,0.500606,0.0,0.0,0.0,-1.0
85700998,85700144,-0.06525,0.0694785,-0.00147926,0.493382,0.0,0.0,0.0,-1.0
85803604,85802731,-0.238021,0.125985,-0.0133731,0.496436,0.0,0.0,0.0,-1.0
85901178,85900316,-0.0804613,0.0172785,-0.0181488,0.4944,0.0,0.0,0.0,-1.0
86003780,86002906,-0.318328,0.016659,0.00228228,0.501818,0.0,0.0,0.0,-1.0
86103854,86102993,-0.187058,0.05411,-0.0112902,0.529697,0.0,0.0,0.0,-1.0
86201438,86200579,-0.244275,0.0423235,-0.0256954,0.530909,0.0,0.0,0.0,-1.0
86304041,86303169,-0.174573,0.0141552,-0.00440046,0.521212,0.0,0.0,0.0,-1.0
86401610,86400754,-0.302231,0.0360806,0.0182557,0.521212,0.0,0.0,0.0,-1.0
86504204,86503344,-0.16476,0.0815504,0.00462764,0.521212,0.0,0.0,0.0,-1.0
86601784,86600929,-0.279396,0.0550865,0.0093134,0.521212,0.0,0.0,0.0,-1.0
86701871,86701017,-0.2172,-0.0229148,-0.00534059,0.521212,0.0,0.0,0.0,-1.0
86804468,86803608,0.0498476,-0.0129226,-0.00266679,0.521212,0.0,0.0,0.0,-1.0
86902051,86901192,-0.523544,-0.0150108,0.0165766,0.517576,0.0,0.0,0.0,-1.0
87004642,87003782,-0.392958,0.0967596,0.0160542,0.516364,0.0,0.0,0.0,-1.0
87102227,87101368,-0.295355,0.0962928,-0.00577876,0.527273,0.0,0.0,0.0,-1.0
87202326,87201455,-0.184131,-0.0759964,0.00589882,0.528485,0.0,0.0,0.0,-1.0
87299903,87299041,-0.0403282,-0.0290865,-0.0774765,0.526061,0.0,0.0,0.0,-1.0
87402497,87401632,-0.155783,-0.0128815,-0.0680584,0.526061,0.0,0.0,0.0,-1.0
87505088,87504223,-0.173414,0.0280452,-0.112243,0.523636,0.0,0.0,0.0,-1.0
87602660,87601806,-0.172488,-0.0302553,-0.0802199,0.523636,0.0,0.0,0.0,-1.0
87700259,87699392,-0.0202005,-0.0611437,-0.0660064,0.524848,0.0,0.0,0.0,-1.0
87802861,87801983,0.0878913,-0.0281903,0.0227679,0.524848,0.0,0.0,0.0,-1.0
87902923,87902069,0.174263,-0.0491994,0.0816465,0.521212,0.0,0.0,0.0,-1.0
88000514,87999654,0.292552,0.0184153,0.0577436,0.521212,0.0,0.0,0.0,-1.0
88103114,88102246,0.202004,0.0594035,0.0500035,0.521212,0.0,0.0,0.0,-1.0
88203186,88202332,0.300548,0.0143011,0.0330739,0.52,0.0,0.0,0.0,-1.0
88303291,88302419,0.240173,0.0357097,0.0111353,0.52,0.0,0.0,0.0,-1.0
88400867,88400007,0.112618,0.0334502,0.0174654,0.52,0.0,0.0,0.0,-1.0
88500952,88500092,0.0441322,0.0150224,-0.00172157,0.484218,0.0,0.0,0.0,-1.0
88603536,88602682,0.210954,-0.014947,-0.0140025,0.457745,0.0,0.0,0.0,-1.0
88703654,88702771,0.0926301,0.0531045,-0.0123175,0.399709,0.0,0.0,0.0,-1.0
88803717,88802859,0.216799,0.050802,-0.0210944,0.400727,0.0,0.0,0.0,-1.0
88901315,88900443,0.169874,-0.0315742,-0.0178718,0.399709,0.0,0.0,0.0,-1.0
89001400,89000538,0.0773282,0.0116818,-0.023841,0.399709,0.0,0.0,0.0,-1.0
89103979,89103122,0.0115215,-0.0835535,-0.0246253,0.399709,0.0,0.0,0.0,-1.0
89201566,89200706,0.0485547,0.0748648,-0.0240667,0.399709,0.0,0.0,0.0,-1.0
89304152,89303296,0.0211694,0.0382455,-0.0298478,0.399709,0.0,0.0,0.0,-1.0
89404276,89403385,0.0103722,-0.0188325,-0.0202221,0.398691,0.0,0.0,0.0,-1.0
89501831,89500969,0.00747569,-0.0192747,-0.0175775,0.399709,0.0,0.0,0.0,-1.0
89604435,89603571,-0.0038031,0.037014,-0.0168439,0.399709,0.0,0.0,0.0,-1.0
89702005,89701144,0.0533091,0.113925,-0.0159696,0.398691,0.0,0.0,0.0,-1.0
89804600,89803736,-0.0126363,-0.0471779,-0.0134984,0.399709,0.0,0.0,0.0,-1.0
89904679,89903823,0.0640005,0.0281799,-0.00986397,0.399709,0.0,0.0,0.0,-1.0
90002277,90001407,0.0142741,0.131471,-0.0203002,0.399709,0.0,0.0,0.0,-1.0
90102367,90101495,-0.0709343,0.108922,-0.012267,0.399709,0.0,0.0,0.0,-1.0
90202445,90201583,-0.0506203,0.0565273,-0.0132252,0.398691,0.0,0.0,0.0,-1.0
90305026,90304172,0.0325849,-0.0167127,-0.0115097,0.398691,0.0,0.0,0.0,-1.0
90402628,90401765,-0.122919,-0.0517814,-0.00562192,0.398691,0.0,0.0,0.0,-1.0
90502708,90501846,-0.0747276,-0.114198,-0.00213295,0.399709,0.0,0.0,0.0,-1.0
90602816,90601933,-0.0624733,-0.00516398,-0.00694355,0.399709,0.0,0.0,0.0,-1.0
90702881,90702021,-0.0694145,0.0453334,-0.0101023,0.398691,0.0,0.0,0.0,-1.0
90800459,90799607,0.0509852,0.0198498,-0.0116799,0.399709,0.0,0.0,0.0,-1.0
90903068,90902196,0.0264412,0.0866507,-0.01105,0.398691,0.0,0.0,0.0,-1.0
91003144,91002284,-0.0412753,-0.0508905,-0.000873498,0.4832,0.0,0.0,0.0,-1.0
91103249,91102372,-0.0953616,0.0957361,-0.00356521,0.511515,0.0,0.0,0.0,-1.0
91203330,91202459,-0.143205,0.0600431,-0.00627879,0.550303,0.0,0.0,0.0,-1.0
91300912,91300045,-0.120839,-0.0576562,-0.0056821,0.53697,0.0,0.0,0.0,-1.0
91403495,91402635,-0.175316,0.0286971,0.0360044,0.53697,0.0,0.0,0.0,-1.0
91501076,91500222,-0.379002,0.0663248,0.0422038,0.53697,0.0,0.0,0.0,-1.0
91603677,91602810,-0.0664108,-0.0375712,0.0200907,0.53697,0.0,0.0,0.0,-1.0
91703758,91702898,-0.107942,0.0886764,0.0159224,0.53697,0.0,0.0,0.0,-1.0
91801345,91800483,-0.370005,-0.0096965,0.0333432,0.581818,0.0,0.0,0.0,-1.0
91903939,91903073,0.000361941,-0.10413,0.0368623,0.587879,0.0,0.0,0.0,-1.0
92001520,92000659,-0.177128,0.103502,-0.011503,0.585455,0.0,0.0,0.0,-1.0
92104130,92103249,0.0543197,0.0779424,0.00700617,0.572121,0.0,0.0,0.0,-1.0
92201692,92200836,-0.194541,-0.0437181,-0.0238131,0.510303,0.0,0.0,0.0,-1.0
92301776,92300922,-0.181957,0.0330864,-0.0156114,0.500606,0.0,0.0,0.0,-1.0
92404371,92403512,0.183811,0.0277427,-0.0243416,0.485236,0.0,0.0,0.0,-1.0
92501950,92501097,-0.0674812,0.00707757,-0.0118684,0.486255,0.0,0.0,0.0,-1.0
92604547,92603688,0.0974148,-0.00955035,-0.0216358,0.486255,0.0,0.0,0.0,-1.0
92702143,92701279,0.0273593,0.0244537,-0.02576,0.455709,0.0,0.0,0.0,-1.0
92802217,92801361,-0.0875283,0.0270186,-0.0224227,0.432291,0.0,0.0,0.0,-1.0
92902321,92901448,-0.0466706,-0.0011638,-0.021856,0.434327,0.0,0.0,0.0,-1.0
93002392,93001536,-0.123802,-0.00577523,-0.024969,0.436364,0.0,0.0,0.0,-1.0
93104988,93104126,0.0874208,0.0541993,-0.0199415,0.435345,0.0,0.0,0.0,-1.0
93202565,93201711,-0.0872604,-0.00255958,-0.00831906,0.439418,0.0,0.0,0.0,-1.0
93302652,93301799,-0.181003,0.00113505,-0.00153006,0.440436,0.0,0.0,0.0,-1.0
93402763,93401887,-0.0868906,-0.0483786,0.00581579,0.440436,0.0,0.0,0.0,-1.0
93502827,93501974,-0.140009,0.0206732,-0.00721605,0.441455,0.0,0.0,0.0,-1.0
93600420,93599560,-0.024303,0.0816758,-0.00994793,0.441455,0.0,0.0,0.0,-1.0
93703020,93702156,-0.15619,0.0274019,-0.00651482,0.441455,0.0,0.0,0.0,-1.0
93803108,93802238,-0.204961,0.000499529,-0.00220581,0.442473,0.0,0.0,0.0,-1.0
93903179,93902326,-0.18931,0.132539,-0.0110071,0.441455,0.0,0.0,0.0,-1.0
94003274,94002413,-0.138345,-0.0844475,-0.00422745,0.440436,0.0,0.0,0.0,-1.0
94100859,94099999,-0.115021,-0.0557393,-0.00303176,0.440436,0.0,0.0,0.0,-1.0
94203441,94202589,-0.283074,-0.0554138,0.000573589,0.440436,0.0,0.0,0.0,-1.0
94301036,94300174,-0.113005,0.0368861,-0.0106465,0.440436,0.0,0.0,0.0,-1.0
94403630,94402764,-0.193379,0.0451113,-0.00538838,0.440436,0.0,0.0,0.0,-1.0
94503731,94502859,-0.0525573,0.000591312,-0.00679343,0.487273,0.0,0.0,0.0,-1.0
94601309,94600438,-0.283711,0.0394676,0.000205658,0.489309,0.0,0.0,0.0,-1.0
94703881,94703027,-0.027385,0.0598067,-0.000135116,0.496436,0.0,0.0,0.0,-1.0
94801479,94800616,-0.162329,0.0251055,-0.0142917,0.496436,0.0,0.0,0.0,-1.0
94904060,94903203,0.264268,0.000514693,-0.0229987,0.497455,0.0,0.0,0.0,-1.0
95001649,95000788,0.0278952,0.0366003,-0.0275084,0.511515,0.0,0.0,0.0,-1.0
95101743,95100876,0.144848,-0.0829877,-0.0260184,0.496436,0.0,0.0,0.0,-1.0
95201841,95200964,-0.0403242,0.0100403,-0.0256243,0.496436,0.0,0.0,0.0,-1.0
95301912,95301052,0.0156163,0.0783523,-0.0219924,0.496436,0.0,0.0,0.0,-1.0
95404503,95403650,0.261236,0.120389,-0.0339682,0.495418,0.0,0.0,0.0,-1.0
95502088,95501227,0.0489184,0.0146303,-0.0240101,0.4944,0.0,0.0,0.0,-1.0
95602189,95601315,0.0161553,-0.0043215,-0.0593051,0.4944,0.0,0.0,0.0,-1.0
95702284,95701403,-0.086954,0.0501613,-0.097987,0.492364,0.0,0.0,0.0,-1.0
95802365,95801491,-0.0559921,0.111371,-0.122688,0.493382,0.0,0.0,0.0,-1.0
95904933,95904081,0.00518517,0.141936,-0.145022,0.493382,0.0,0.0,0.0,-1.0
96002526,96001666,-0.112144,-0.00113293,-0.110591,0.493382,0.0,0.0,0.0,-1.0
96102621,96101754,-0.0158259,0.080902,-0.101281,0.491345,0.0,0.0,0.0,-1.0
96202703,96201842,-0.0567498,-0.0784543,-0.0610638,0.491345,0.0,0.0,0.0,-1.0
96302799,96301933,-0.0192856,0.013959,-0.0622142,0.491345,0.0,0.0,0.0,-1.0
96400373,96399517,0.0710126,-0.0501261,-0.0429684,0.492364,0.0,0.0,0.0,-1.0
96502975,96502106,0.155625,0.0280979,-0.0347494,0.492364,0.0,0.0,0.0,-1.0
96603059,96602193,0.104043,-0.078481,-0.0300745,0.492364,0.0,0.0,0.0,-1.0
96703147,96702281,0.2578,0.0270746,-0.0337165,0.4944,0.0,0.0,0.0,-1.0
96803271,96802376,0.213094,0.0583006,-0.0407856,0.4944,0.0,0.0,0.0,-1.0
96900811,96899954,0.197171,0.0354912,-0.0304959,0.4944,0.0,0.0,0.0,-1.0
97003405,97002544,0.131458,-0.00425571,-0.039664,0.4944,0.0,0.0,0.0,-1.0
97100986,97100132,0.24255,-0.00188223,-0.0357687,0.4944,0.0,0.0,0.0,-1.0
97203609,97202720,0.206333,-0.0407246,-0.00496265,0.4944,0.0,0.0,0.0,-1.0
97303670,97302808,0.0802058,0.0167974,0.115054,0.4944,0.0,0.0,0.0,-1.0
97401260,97400395,0.314512,-0.0353284,0.0762435,0.4944,0.0,0.0,0.0,-1.0
97503844,97502983,0.16264,0.0856772,0.0465339,0.4944,0.0,0.0,0.0,-1.0
97601429,97600569,0.19441,-0.025734,0.0322562,0.493382,0.0,0.0,0.0,-1.0
97704032,97703159,-0.147431,-0.00946737,0.0171094,0.4944,0.0,0.0,0.0,-1.0
97801602,97800746,0.239354,-0.0332947,-0.0012173,0.495418,0.0,0.0,0.0,-1.0
97901700,97900834,0.190783,-0.112044,-0.0136746,0.4944,0.0,0.0,0.0,-1.0
98004297,98003423,-0.138366,0.00946633,-0.0118839,0.488291,0.0,0.0,0.0,-1.0
98101867,98101010,-0.0187793,-0.0726807,-0.0180451,0.493382,0.0,0.0,0.0,-1.0
98204460,98203600,-0.243018,-0.070324,-0.018145,0.4944,0.0,0.0,0.0,-1.0
98302040,98301184,0.0687836,-0.0725775,-0.0254765,0.488291,0.0,0.0,0.0,-1.0
98402132,98401278,-0.0713215,-0.030909,-0.0262554,0.489309,0.0,0.0,0.0,-1.0
98502219,98501361,0.013851,0.00165493,-0.0270777,0.490327,0.0,0.0,0.0,-1.0
98599805,98598945,0.169554,0.0068097,-0.0274036,0.490327,0.0,0.0,0.0,-1.0
98704904,98704038,-0.0493302,0.0105065,-0.0220389,0.490327,0.0,0.0,0.0,-1.0
98802493,98801625,0.0667293,-0.00179378,-0.0209437,0.490327,0.0,0.0,0.0,-1.0
98900088,98899222,0.0854954,-0.0782037,-0.0169733,0.490327,0.0,0.0,0.0,-1.0
99002656,99001799,0.250391,0.0283704,-0.0196273,0.490327,0.0,0.0,0.0,-1.0
99102745,99101888,0.207554,0.0207853,-0.0201689,0.490327,0.0,0.0,0.0,-1.0
99202834,99201976,0.209997,-0.0262133,-0.0157851,0.486255,0.0,0.0,0.0,-1.0
99302919,99302064,0.211524,-0.00865035,-0.0195073,0.441455,0.0,0.0,0.0,-1.0
99403005,99402150,0.0251084,0.0745894,-0.0149679,0.411927,0.0,0.0,0.0,-1.0
99503101,99502240,0.103722,0.0319036,-0.0148215,0.370182,0.0,0.0,0.0,-1.0
99603181,99602327,0.0831394,0.110177,-0.0148485,0.366109,0.0,0.0,0.0,-1.0
99700774,99699912,-0.0271086,0.00509339,-0.00220174,0.365091,0.0,0.0,0.0,-1.0
99803363,99802502,-0.0263734,-0.0178744,-0.0071254,0.369164,0.0,0.0,0.0,-1.0
99900960,99900088,0.0247553,0.0652758,-0.0107076,0.3712,0.0,0.0,0.0,-1.0
100003532,100002678,-0.033357,0.00734306,-0.00794608,0.370182,0.0,0.0,0.0,-1.0
100101138,100100272,-0.0288393,0.0352657,-0.00872204,0.372218,0.0,0.0,0.0,-1.0
100201225,100200354,-0.0129344,0.0251858,-0.0113517,0.372218,0.0,0.0,0.0,-1.0
100301331,100300449,0.0154247,0.0758589,-0.00502468,0.3712,0.0,0.0,0.0,-1.0
100401395,100400528,0.0297825,0.0318865,-0.00381789,0.435345,0.0,0.0,0.0,-1.0
100503978,100503117,-0.0658899,-0.0234426,0.00650848,0.461818,0.0,0.0,0.0,-1.0
100601563,100600703,0.0120103,-0.00201835,0.00198514,0.4832,0.0,0.0,0.0,-1.0
100701653,100700791,0.0365584,-0.0166339,-0.00389488,0.486255,0.0,0.0,0.0,-1.0
100801762,100800879,0.00257275,-0.0178026,-0.00514743,0.488291,0.0,0.0,0.0,-1.0
100901826,100900967,-0.0114081,-0.099839,-0.0235988,0.488291,0.0,0.0,0.0,-1.0
101004428,101003567,-0.20555,-0.0551339,-0.0275108,0.4832,0.0,0.0,0.0,-1.0
101102002,101101142,-0.00196494,0.0422866,-0.0290839,0.485236,0.0,0.0,0.0,-1.0
101202090,101201230,0.0882664,0.0342395,-0.0280344,0.53697,0.0,0.0,0.0,-1.0
101302178,101301319,0.132466,-0.080175,-0.028063,0.53697,0.0,0.0,0.0,-1.0
101402286,101401409,0.143823,-0.0514628,-0.0256807,0.550303,0.0,0.0,0.0,-1.0
101504852,101503998,0.125668,-0.0176795,-0.0376623,0.550303,0.0,0.0,0.0,-1.0
101602441,101601582,-0.162544,-0.0304744,-0.0130562,0.53697,0.0,0.0,0.0,-1.0
101702537,101701671,0.0721798,-0.0344106,-0.00665228,0.550303,0.0,0.0,0.0,-1.0
101802618,101801757,-0.1473,-0.0316506,0.0114999,0.515152,0.0,0.0,0.0,-1.0
101902706,101901845,-0.100816,0.00955279,0.0169065,0.535758,0.0,0.0,0.0,-1.0
102000292,101999431,-0.302725,-0.0434531,0.0179614,0.578182,0.0,0.0,0.0,-1.0
102102901,102102034,-0.208369,0.0256383,0.0191905,0.578182,0.0,0.0,0.0,-1.0
102202969,102202109,-0.354224,-0.0796721,0.0332455,0.533333,0.0,0.0,0.0,-1.0
102303068,102302197,-0.263756,0.010035,0.00226331,0.418036,0.0,0.0,0.0,-1.0
102403161,102402291,-0.120911,0.0350183,0.00801788,0.332509,0.0,0.0,0.0,-1.0
102500722,102499870,-0.0545021,-0.0242515,-0.00248711,0.328436,0.0,0.0,0.0,-1.0
102603332,102602463,-0.0665475,-0.0300454,0.000579718,0.330473,0.0,0.0,0.0,-1.0
102700898,102700046,0.328493,-1.60681,0.086401,0.330473,0.0,0.0,0.0,-1.0
102803495,102802636,-0.197464,0.274333,-0.00297224,0.373236,0.0,0.0,0.0,-1.0
102903602,102902724,0.0410177,0.0546198,0.00527071,0.435345,0.0,0.0,0.0,-1.0
103001164,103000311,-0.0350977,-0.126839,-0.0186543,0.487273,0.0,0.0,0.0,-1.0
103103759,103102899,-0.0834647,0.0256706,-0.0107847,0.517576,0.0,0.0,0.0,-1.0
103201355,103200485,-0.183701,0.0291159,-0.011421,0.517576,0.0,0.0,0.0,-1.0
103303946,103303075,0.00256406,-0.031992,-0.0139574,0.510303,0.0,0.0,0.0,-1.0
103401516,103400661,-0.0744825,-0.00920661,-0.017862,0.509091,0.0,0.0,0.0,-1.0
103501605,103500748,-0.0370233,-0.0142414,-0.0096103,0.507879,0.0,0.0,0.0,-1.0
103604200,103603340,-0.101999,-0.0336896,-0.00545272,0.507879,0.0,0.0,0.0,-1.0
103701785,103700927,-0.232673,-0.0210151,-0.0129787,0.504242,0.0,0.0,0.0,-1.0
103804377,103803514,-0.0396898,0.0453725,-0.0136801,0.480145,0.0,0.0,0.0,-1.0
103901966,103901100,-0.146384,0.0322087,-0.0177532,0.481164,0.0,0.0,0.0,-1.0
104002046,104001188,-0.124352,0.0113264,-0.014944,0.482182,0.0,0.0,0.0,-1.0
104102134,104101282,-0.231704,-0.0385481,-0.013252,0.4832,0.0,0.0,0.0,-1.0
104202219,104201364,-0.248707,0.00032291,-0.0143081,0.482182,0.0,0.0,0.0,-1.0
104304834,104303953,0.0453719,-0.0147235,-0.0151219,0.481164,0.0,0.0,0.0,-1.0
104402391,104401539,0.0186967,-0.0723852,-0.0108152,0.482182,0.0,0.0,0.0,-1.0
104502489,104501630,-0.118702,-0.0563022,-0.00820768,0.481164,0.0,0.0,0.0,-1.0
104602583,104601727,-0.0748479,-0.00912585,-0.011019,0.481164,0.0,0.0,0.0,-1.0
104702656,104701802,-0.0212408,0.0351132,-0.0103063,0.481164,0.0,0.0,0.0,-1.0
104800260,104799388,-0.35614,0.004384,-0.00637614,0.481164,0.0,0.0,0.0,-1.0
104902831,104901978,-0.170078,-0.0275994,-0.00848131,0.440436,0.0,0.0,0.0,-1.0
105002921,105002068,0.0774488,-0.00576191,-0.0137066,0.411927,0.0,0.0,0.0,-1.0
105103006,105102154,-0.0147335,-0.0153673,-0.0116666,0.400727,0.0,0.0,0.0,-1.0
105203111,105202248,0.11486,0.079666,-0.0154258,0.401745,0.0,0.0,0.0,-1.0
105300689,105299827,5.1755e-05,-0.00837882,-0.0112725,0.4048,0.0,0.0,0.0,-1.0
105403287,105402417,0.155289,0.0929331,-0.0150073,0.405818,0.0,0.0,0.0,-1.0
105500871,105500002,0.0890229,0.0616247,-0.00912961,0.405818,0.0,0.0,0.0,-1.0
105603445,105602592,-0.0817923,-0.0664017,-0.00540741,0.407855,0.0,0.0,0.0,-1.0
105703533,105702680,-0.0782556,-0.133291,0.00570574,0.407855,0.0,0.0,0.0,-1.0
105801141,105800279,-0.0131988,-0.0631532,-0.00218163,0.406836,0.0,0.0,0.0,-1.0
105903725,105902856,0.0341688,0.0739636,-0.0104425,0.406836,0.0,0.0,0.0,-1.0
106001312,106000441,-0.0282874,-0.0471852,-0.0097327,0.407855,0.0,0.0,0.0,-1.0
106103886,106103031,-0.024074,-0.0225715,-0.00551681,0.4048,0.0,0.0,0.0,-1.0
106201504,106200617,-0.0490036,-0.0149933,-0.00594109,0.442473,0.0,0.0,0.0,-1.0
106301564,106300704,-0.0901207,-0.0763877,-0.00969437,0.530909,0.0,0.0,0.0,-1.0
106401652,106400792,-0.03466,-0.00414984,-0.0124597,0.53697,0.0,0.0,0.0,-1.0
106501739,106500880,-0.0600915,-0.033829,-0.0132975,0.512727,0.0,0.0,0.0,-1.0
106604328,106603469,0.0206168,-0.0695395,-0.00775093,0.53697,0.0,0.0,0.0,-1.0
106701915,106701055,0.0171817,-0.0612231,-0.00156278,0.587879,0.0,0.0,0.0,-1.0
106802002,106801143,-0.198592,-0.0850335,0.00819146,0.604849,0.0,0.0,0.0,-1.0
106902100,106901230,-0.144672,0.00672429,0.00876871,0.604849,0.0,0.0,0.0,-1.0
107002180,107001318,-0.0311569,-0.0478911,0.00725253,0.602424,0.0,0.0,0.0,-1.0
107104764,107103907,-0.215452,0.105647,-0.0122922,0.53697,0.0,0.0,0.0,-1.0
107202366,107201493,-0.0878057,0.00181301,-0.0261789,0.534545,0.0,0.0,0.0,-1.0
107302453,107301591,-0.0487412,-0.0580931,-0.0119814,0.517576,0.0,0.0,0.0,-1.0
107402528,107401668,0.102229,-0.0191862,-0.0130545,0.500606,0.0,0.0,0.0,-1.0
107502615,107501755,0.0630551,-0.0839591,-0.00889658,0.477091,0.0,0.0,0.0,-1.0
107600195,107599341,0.212548,-0.0478338,-0.014654,0.475055,0.0,0.0,0.0,-1.0
107702791,107701930,-0.143894,-0.03955,-0.0120011,0.480145,0.0,0.0,0.0,-1.0
107802889,107802018,-0.0807809,-0.0419632,-0.0134781,0.480145,0.0,0.0,0.0,-1.0
107902966,107902105,-0.218532,0.0134162,-0.0173396,0.480145,0.0,0.0,0.0,-1.0
108003061,108002193,-0.139093,0.00696716,-0.0193151,0.481164,0.0,0.0,0.0,-1.0
108100632,108099778,0.0346788,-0.0664662,-0.0267023,0.481164,0.0,0.0,0.0,-1.0
108203236,108202368,-0.220586,-0.0636939,-0.0160133,0.482182,0.0,0.0,0.0,-1.0
108300807,108299953,-0.0371509,-0.0474989,-0.0192326,0.481164,0.0,0.0,0.0,-1.0
108403402,108402542,-0.297365,-0.0551486,-0.0089065,0.481164,0.0,0.0,0.0,-1.0
108503501,108502630,-0.42097,-0.0340336,-0.00827032,0.445527,0.0,0.0,0.0,-1.0
108601082,108600221,-0.183455,-0.0721689,-0.0103764,0.442473,0.0,0.0,0.0,-1.0
108703685,108702807,-0.070848,0.0329038,-0.0183556,0.443491,0.0,0.0,0.0,-1.0
108801251,108800390,-0.27047,-0.0887365,-0.00482684,0.447564,0.0,0.0,0.0,-1.0
108903841,108902979,-0.0208271,-0.0201671,-0.00848063,0.448582,0.0,0.0,0.0,-1.0
109001432,109000565,-0.0992348,-0.042877,-0.0073738,0.446545,0.0,0.0,0.0,-1.0
109101527,109100652,-0.00132503,0.035617,-0.0169304,0.445527,0.0,0.0,0.0,-1.0
109204121,109203241,0.0988239,0.0327758,-0.0134937,0.446545,0.0,0.0,0.0,-1.0
109301688,109300826,-0.158788,-0.00912077,-0.00728951,0.446545,0.0,0.0,0.0,-1.0
109404302,109403416,0.068429,0.0233078,-0.0230744,0.451636,0.0,0.0,0.0,-1.0
109501855,109501001,-0.126308,-0.0532785,-0.0145867,0.446545,0.0,0.0,0.0,-1.0
109601943,109601088,-0.160725,-0.0210286,-0.0170516,0.446545,0.0,0.0,0.0,-1.0
109702041,109701177,-0.00198656,-0.0359249,-0.0168929,0.445527,0.0,0.0,0.0,-1.0
109802123,109801269,-0.0690513,0.0336565,-0.0259441,0.445527,0.0,0.0,0.0,-1.0
109904712,109903852,0.0185643,-0.0112041,-0.0166301,0.448582,0.0,0.0,0.0,-1.0
110002304,110001437,-0.154428,0.000480334,-0.0148988,0.445527,0.0,0.0,0.0,-1.0
110102383,110101526,-0.146858,-0.056216,-0.0131439,0.445527,0.0,0.0,0.0,-1.0
110202466,110201612,-0.162513,-0.0335891,-0.0152917,0.447564,0.0,0.0,0.0,-1.0
110300062,110299197,-0.0281677,0.0501945,-0.0188726,0.446545,0.0,0.0,0.0,-1.0
110400154,110399288,-0.144165,-0.0553399,-0.010045,0.4496,0.0,0.0,0.0,-1.0
110500249,110499371,-0.160466,-0.101212,-0.00683714,0.510303,0.0,0.0,0.0,-1.0
110605343,110604462,-0.0709368,0.025669,-0.00637684,0.552727,0.0,0.0,0.0,-1.0
110702904,110702048,-0.280834,0.069956,-0.00165073,0.575758,0.0,0.0,0.0,-1.0
110802989,110802135,-0.345052,0.0694147,0.0033835,0.575758,0.0,0.0,0.0,-1.0
110900590,110899719,-0.354806,0.0673097,-0.0130574,0.572121,0.0,0.0,0.0,-1.0
111003168,111002311,0.0222854,0.0187857,-0.0112703,0.570909,0.0,0.0,0.0,-1.0
111100765,111099896,0.0189839,0.112301,-0.0286826,0.572121,0.0,0.0,0.0,-1.0
111203368,111202497,0.313215,-0.108003,-0.0234188,0.53697,0.0,0.0,0.0,-1.0
111303426,111302570,0.345139,-0.00501351,-0.0369385,0.517576,0.0,0.0,0.0,-1.0
111401014,111400154,0.27953,-0.0433638,-0.025437,0.495418,0.0,0.0,0.0,-1.0
111501120,111500242,0.230752,-0.0936484,-0.0213782,0.485236,0.0,0.0,0.0,-1.0
111601188,111600329,0.124992,-0.035676,-0.0188677,0.482182,0.0,0.0,0.0,-1.0
111703772,111702918,-0.0850675,-0.0619273,-0.0102595,0.482182,0.0,0.0,0.0,-1.0
111801393,111800513,0.116775,-0.0674903,-0.0187916,0.454691,0.0,0.0,0.0,-1.0
111901449,111900589,0.0305472,-0.019198,-0.0146186,0.454691,0.0,0.0,0.0,-1.0
112001538,112000676,-0.000703668,-0.000870249,-0.00753133,0.456727,0.0,0.0,0.0,-1.0
112101625,112100765,0.00867755,-0.134594,-0.00465479,0.457745,0.0,0.0,0.0,-1.0
112204207,112203352,-0.142723,-0.0525975,-0.00030417,0.457745,0.0,0.0,0.0,-1.0
112301797,112300937,-0.0612858,0.0086102,-0.0127785,0.457745,0.0,0.0,0.0,-1.0
112401884,112401024,-0.0476076,-0.0854873,-0.00177986,0.458764,0.0,0.0,0.0,-1.0
112501973,112501110,0.000953742,-0.0697626,0.00229614,0.458764,0.0,0.0,0.0,-1.0
112602069,112601201,-0.0420117,0.00196098,-0.0072215,0.458764,0.0,0.0,0.0,-1.0
112704642,112703788,-0.159076,0.0368295,-0.0116621,0.457745,0.0,0.0,0.0,-1.0
112802241,112801371,-0.119719,-0.103655,-0.00633671,0.457745,0.0,0.0,0.0,-1.0
112904838,112903962,-0.200654,-0.043588,0.000763018,0.457745,0.0,0.0,0.0,-1.0
113002412,113001545,-0.00703309,-0.0203344,-0.0069336,0.456727,0.0,0.0,0.0,-1.0
113102491,113101631,-0.197141,-0.0917989,-0.00400696,0.452655,0.0,0.0,0.0,-1.0
113200071,113199218,0.157249,0.0101923,-0.00810617,0.455709,0.0,0.0,0.0,-1.0
113302665,113301805,0.0556825,0.010492,-0.00940646,0.454691,0.0,0.0,0.0,-1.0
113405267,113404394,-0.0768305,-0.0381904,-0.00611353,0.456727,0.0,0.0,0.0,-1.0
113505366,113504483,-0.163669,-0.0123717,-0.00519506,0.456727,0.0,0.0,0.0,-1.0
113602935,113602069,-0.22096,-0.0535579,-0.00183941,0.454691,0.0,0.0,0.0,-1.0
113700503,113699650,-0.227145,-0.00573759,-0.00323532,0.454691,0.0,0.0,0.0,-1.0
113803108,113802239,-0.253456,-0.00275131,-0.0017471,0.455709,0.0,0.0,0.0,-1.0
113900676,113899824,-0.0306482,-0.0492203,-0.00812963,0.453673,0.0,0.0,0.0,-1.0
114003289,114002413,0.127042,-0.0722641,-0.00752306,0.451636,0.0,0.0,0.0,-1.0
114103368,114102499,0.12327,-0.0045066,-0.0121669,0.453673,0.0,0.0,0.0,-1.0
114200940,114200084,0.0819948,-0.0216954,-0.0082317,0.452655,0.0,0.0,0.0,-1.0
114303549,114302682,0.148895,-0.0981965,-0.00740298,0.451636,0.0,0.0,0.0,-1.0
114401116,114400257,0.230224,0.020342,-0.0119817,0.451636,0.0,0.0,0.0,-1.0
114503705,114502846,0.20548,-0.00659989,-0.00924236,0.451636,0.0,0.0,0.0,-1.0
114601306,114600430,0.296883,-0.0144351,-0.0118958,0.451636,0.0,0.0,0.0,-1.0
114701378,114700517,0.121945,0.0152785,-0.0155217,0.451636,0.0,0.0,0.0,-1.0
114803976,114803106,-0.0843129,-0.00934895,-0.0176244,0.452655,0.0,0.0,0.0,-1.0
114901544,114900691,0.0980845,-0.100164,-0.0147009,0.451636,0.0,0.0,0.0,-1.0
115004152,115003290,-0.0170874,-0.0738405,-0.00750771,0.450618,0.0,0.0,0.0,-1.0
115101716,115100864,-0.0371594,-0.0265778,-0.00118227,0.455709,0.0,0.0,0.0,-1.0
115204332,115203453,-0.137213,0.0141368,-0.00393113,0.487273,0.0,0.0,0.0,-1.0
115301893,115301037,-0.144262,-0.0256801,-0.00764271,0.487273,0.0,0.0,0.0,-1.0
115401980,115401124,-0.162182,0.0143977,-0.0144406,0.487273,0.0,0.0,0.0,-1.0
115504575,115503713,-0.0533967,-0.0592324,-0.0132891,0.486255,0.0,0.0,0.0,-1.0
115602150,115601297,0.107889,-0.0391241,-0.018182,0.487273,0.0,0.0,0.0,-1.0
115704767,115703891,-0.0780044,-0.035786,-0.0151999,0.482182,0.0,0.0,0.0,-1.0
115802333,115801470,0.0727521,-0.0823188,-0.0160787,0.482182,0.0,0.0,0.0,-1.0
115902414,115901557,-0.00183265,-0.0752252,-0.0166866,0.482182,0.0,0.0,0.0,-1.0
116000001,115999141,0.122889,-0.022968,-0.0244128,0.482182,0.0,0.0,0.0,-1.0
116102586,116101733,-0.173567,-0.0399583,-0.0127561,0.482182,0.0,0.0,0.0,-1.0
116205181,116204319,-0.328691,-0.0481388,-0.00776769,0.482182,0.0,0.0,0.0,-1.0
116302760,116301903,-0.306783,-0.144992,-0.00484174,0.482182,0.0,0.0,0.0,-1.0
116402843,116401990,-0.227775,-0.0438717,-0.0106676,0.482182,0.0,0.0,0.0,-1.0
116500444,116499574,-0.175469,-0.0708503,-0.0133185,0.4832,0.0,0.0,0.0,-1.0
116603030,116602163,-0.391935,-0.0283031,-0.00270596,0.52,0.0,0.0,0.0,-1.0
116700616,116699753,-0.301962,-0.0123976,-0.0173339,0.533333,0.0,0.0,0.0,-1.0
