timestamp,gyro_rad[0],gyro_rad[1],gyro_rad[2],gyro_integral_dt,accelerometer_timestamp_relative,accelerometer_m_s2[0],accelerometer_m_s2[1],accelerometer_m_s2[2],accelerometer_integral_dt,accelerometer_clipping
38896902,-0.0718268,-0.129068,-0.0880515,5004,0,3.54456,-6.86713,-4.98414,5004,0
38901907,0.0227095,-0.269066,-0.318672,5005,0,-0.375483,-4.02061,-3.97253,5005,0
38906907,-0.347156,-0.21946,-0.139543,5000,0,-4.19005,2.43519,-9.4941,5000,0
38911912,-0.524603,0.0491821,0.13166,5005,0,-4.26663,4.2284,-16.6872,5005,0
38916916,0.543376,0.292601,0.174683,5004,0,-0.576577,2.31664,-15.661,5004,0
38921923,0.609192,0.175696,0.141572,5007,0,2.87279,-1.87426,-10.1199,5007,0
38926925,-0.285859,-0.156437,-0.121177,5002,0,2.71584,-6.155,-4.54864,5002,0
38931929,-0.038705,-0.228719,-0.340255,5004,0,-1.01056,-3.17128,-4.91388,5004,0
38936936,-0.215619,-0.189954,-0.121517,5007,0,-4.49364,3.51946,-10.3949,5007,0
38941937,-0.439169,0.0953158,0.193987,5001,0,-3.96514,3.8159,-16.8703,5001,0
38946942,0.574482,0.299106,0.192081,5005,0,0.226641,0.678185,-14.9452,5005,0
38951946,0.444566,0.175944,0.0874305,5004,0,3.23453,-3.49085,-9.19286,5004,0
38956954,-0.406201,-0.194123,-0.198164,5008,0,2.30886,-5.06852,-4.50372,5008,0
38961955,-0.0506112,-0.21126,-0.298714,5001,0,-1.80011,-0.838136,-5.69607,5001,0
38966959,-0.209308,-0.154861,-0.0212305,5004,0,-4.78207,4.20738,-11.8014,5004,0
38971963,-0.188886,0.162699,0.220045,5004,0,-3.15887,2.59927,-16.5348,5004,0
38976985,0.604645,0.328312,0.173589,5022,0,1.12953,-1.29651,-13.6371,5022,0
38981972,0.0782597,0.0496294,0.00240018,4987,0,3.28517,-4.64711,-7.41634,4987,0
38986976,-0.358921,-0.216384,-0.248379,5004,0,1.52343,-3.60013,-5.59346,5004,0
38991981,-0.0884467,-0.184651,-0.222044,5005,0,-2.54971,1.66829,-7.38302,5005,0
38996985,-0.244496,-0.0587744,0.0833446,5004,0,-4.61301,4.24271,-13.2041,5004,0
39001989,0.126378,0.194197,0.230879,5004,0,-1.91507,1.43632,-14.8616,5004,0
39006993,0.478358,0.257721,0.138214,5004,0,1.9083,-3.07845,-11.6082,5004,0
39011998,-0.220531,-0.0916522,-0.121507,5005,0,3.02621,-5.21708,-6.76635,5005,0
39017002,-0.230116,-0.177457,-0.270427,5004,0,0.150908,-1.32255,-6.6939,5004,0
39022006,-0.16434,-0.184509,-0.102009,5004,0,-3.52412,3.2253,-9.29375,5004,0
39027010,-0.193953,0.0291744,0.165088,5004,0,-3.9227,3.2096,-14.2482,5004,0
39032015,0.393377,0.237427,0.196402,5005,0,-0.44291,-0.465713,-13.4984,5005,0
39037019,0.148305,0.129977,0.0309111,5004,0,2.42414,-4.27326,-9.18333,5004,0
39042023,-0.336183,-0.172199,-0.200949,5004,0,2.04854,-3.85983,-7.24096,5004,0
39047028,-0.186529,-0.147235,-0.237022,5005,0,-1.20775,0.985521,-8.06713,5005,0
39052032,-0.206837,-0.0932587,0.0124096,5004,0,-4.07812,4.03297,-11.1795,5004,0
39057039,0.0726965,0.116929,0.213488,5007,0,-2.92638,2.01471,-13.3108,5007,0
39062041,0.408976,0.262677,0.15412,5002,0,0.727032,-2.68721,-11.9365,5002,0
39067045,-0.183533,-0.0398567,-0.0985026,5004,0,2.81971,-4.99071,-7.63262,5004,0
39072049,-0.311479,-0.159911,-0.275341,5004,0,1.10375,-2.05122,-8.51182,5004,0
39077054,-0.162468,-0.130671,-0.123022,5005,0,-2.68548,3.07842,-9.85178,5005,0
39082058,-0.135074,0.0112814,0.135468,5004,0,-3.89325,3.95311,-12.3032,5004,0
39087062,0.283447,0.170987,0.183,5004,0,-1.01599,0.16834,-12.4383,5004,0
39092066,0.193028,0.14113,0.00716533,5004,0,1.84796,-4.56988,-9.34672,5004,0
39097071,-0.286649,-0.144844,-0.225551,5005,0,1.59954,-4.86859,-8.24311,5005,0
39102075,-0.400246,-0.0838358,-0.221295,5004,0,-1.46467,0.507268,-10.1603,5004,0
39107079,-0.274072,0.023647,0.0380126,5004,0,-3.21823,4.62627,-11.5612,5004,0
39112084,0.292422,0.0922076,0.179686,5005,0,-1.67414,2.5537,-10.5367,5005,0
39117088,0.304539,0.134025,0.0631757,5004,0,0.832914,-3.53608,-9.59432,5004,0
39122092,-0.34796,-0.017787,-0.136751,5004,0,0.953833,-4.76594,-10.0091,5004,0
39127099,-0.497028,0.0731983,-0.179347,5007,0,-2.00082,-0.408805,-11.2096,5007,0
39132101,-0.0859597,0.0322428,-0.0135591,5002,0,-2.89633,3.23656,-10.6211,5002,0
39137105,0.313936,0.038048,0.146632,5004,0,0.445296,2.2245,-9.84671,5004,0
39142117,0.0834797,0.102145,0.0775414,5012,0,3.19701,-2.75138,-9.20109,5012,0
39147114,-0.457487,0.028144,-0.106201,4997,0,-0.423356,-3.07765,-10.557,4997,0
39152118,-0.497182,0.0239058,-0.0879923,5004,0,-5.29385,1.36623,-11.6933,5004,0
39157122,0.210108,-0.0158033,0.0667936,5004,0,-2.88746,2.32083,-10.1531,5004,0
39162127,0.40306,0.118553,0.177375,5005,0,3.54886,-1.24876,-10.1093,5005,0
39167131,-0.309805,0.154376,0.022886,5004,0,3.73231,-3.31251,-10.5214,5004,0
39172135,-0.671425,0.0907888,-0.117613,5004,0,-3.00048,0.15225,-9.7976,5004,0
39177139,-0.0970445,-0.167383,-0.0656414,5004,0,-5.36909,1.80902,-7.23082,5004,0
39182144,0.517862,-0.10784,0.0949367,5005,0,0.424874,0.454693,-10.3595,5005,0
39187150,-0.153288,0.215928,0.154226,5006,0,3.92845,-1.50897,-15.3421,5006,0
39192152,-0.743472,0.417403,-0.00292096,5002,0,-0.663832,-1.32478,-13.6317,5002,0
39197157,-0.00244605,-0.0610965,-0.104721,5005,0,-4.37814,0.26021,-4.28993,5005,0
39202161,0.373116,-0.360357,-0.0377367,5004,0,-1.65485,0.742236,-4.9894,5004,0
39207166,-0.112952,0.0670911,0.121813,5005,0,2.71664,0.253292,-13.6006,5005,0
39212170,-0.61993,0.474477,0.164844,5004,0,1.50005,-0.367592,-16.3706,5004,0
39217174,0.0180568,0.0180666,-0.00798313,5004,0,-2.62346,-1.51902,-7.72145,5004,0
39222178,0.316219,-0.411949,-0.0981261,5004,0,-3.22112,-0.511165,-4.59182,5004,0
39227183,-0.201871,-0.018102,0.0027559,5005,0,0.410259,1.30985,-11.4499,5005,0
39232195,-0.518934,0.514804,0.154115,5012,0,1.12737,1.92578,-17.2922,5012,0
39237191,0.16947,0.0847093,0.122127,4996,0,-0.137272,-1.24312,-8.18528,4996,0
39242195,0.428588,-0.341785,-0.0541734,5004,0,-0.858278,-2.29911,-4.17149,5004,0
39247203,-0.286185,-0.0672798,-0.125407,5008,0,-1.24788,1.08413,-11.075,5008,0
39252204,-0.832825,0.348005,0.1352,5001,0,-1.73614,3.10656,-18.0178,5001,0
39257208,0.630653,0.0622115,0.184625,5004,0,0.6264,-0.97455,-9.30216,5004,0
39262214,0.709094,-0.130158,-0.0229888,5006,0,0.856992,-2.31594,-4.06802,5006,0
39267220,-0.742438,-0.0363363,-0.146545,5006,0,-2.03962,0.796684,-7.84644,5006,0
39272223,-0.75403,0.0406402,0.0614908,5003,0,-1.90324,2.17818,-15.9494,5003,0
39277236,1.09455,-0.104752,0.159047,5013,0,2.31989,-0.42144,-13.1312,5013,0
39282230,0.463398,-0.00177573,0.0676236,4994,0,1.60647,-2.5417,-8.50728,4994,0
39287236,-0.957379,0.283751,-0.0985424,5006,0,-4.05132,-0.411423,-8.1147,5006,0
39292238,-0.18921,-0.105743,-0.0825301,5002,0,-3.33248,2.30022,-7.96016,5002,0
39297254,0.913896,-0.433837,0.124839,5016,0,2.63348,0.995574,-10.33,5016,0
39302249,0.19185,0.202652,0.135852,4995,0,3.09304,-2.50314,-13.4934,4995,0
39307253,-0.621388,0.57946,-0.0568971,5004,0,-2.79573,0.0227201,-10.5228,5004,0
39312258,-0.123466,-0.394713,-0.114491,5005,0,-3.49363,0.701701,-6.11425,5005,0
39317267,0.891471,-0.729743,0.102494,5009,0,1.7527,0.672763,-10.7639,5009,0
39322271,0.389035,0.517832,0.160351,5004,0,2.28704,-0.65022,-16.1998,5004,0
39327271,-0.845131,0.747661,-0.0145504,5000,0,-4.12906,0.395033,-7.8781,5000,0
39332279,-0.0958227,-0.629399,-0.0955537,5008,0,-2.95645,-0.509638,-1.86451,5008,0
39337279,1.22938,-0.838667,0.00814981,5000,0,3.56211,-0.541711,-14.1567,5000,0
39342282,-0.088983,0.713243,0.139891,5003,0,2.01135,0.242076,-24.1926,5003,0
39347294,-0.856823,0.757965,0.0223801,5012,0,-4.7285,-0.392768,-6.32633,5012,0
39352293,0.819293,-0.631169,-0.13166,4999,0,-3.03398,0.0680981,4.31847,4999,0
39357304,0.971292,-0.845235,-0.0112877,5011,0,3.16821,1.06059,-8.3277,5011,0
39362299,-0.810361,0.458301,0.212356,4995,0,1.91707,-0.349342,-24.1798,4995,0
39367308,-0.0889995,0.571286,-0.0111135,5009,0,-1.86094,-2.82943,-9.69425,5009,0
39372307,1.08711,-0.546466,-0.187526,4999,0,-2.01406,0.0152049,-0.153887,4999,0
39377317,0.147402,-0.702937,0.0383065,5010,0,-0.284903,2.75233,-10.6229,5010,0
39382316,-0.600797,0.351715,0.196932,4999,0,-0.278637,-0.524011,-20.1909,4999,0
39387322,0.634287,0.422881,-0.0524489,5006,0,-1.18687,-2.46012,-6.67737,5006,0
39392325,0.606388,-0.323716,-0.142041,5003,0,-0.997844,0.258348,-1.4847,5003,0
39397329,-0.349123,-0.565709,0.0528846,5004,0,0.292327,1.12189,-14.3624,5004,0
39402334,0.0434016,0.185188,0.0968402,5005,0,-0.0389689,-1.39895,-20.1696,5005,0
39407339,0.717178,0.296684,-0.030423,5005,0,-1.32449,-1.58332,-5.34753,5005,0
39412342,0.255494,-0.0638719,-0.130547,5003,0,-1.59374,0.393428,-1.26731,5003,0
39417346,-0.326183,-0.375248,-0.00927365,5004,0,-0.214132,1.31838,-14.4974,5004,0
39422353,0.210352,-0.161245,0.083206,5007,0,0.193691,-1.37835,-17.7223,5007,0
39427355,0.810077,0.234623,-0.0187984,5002,0,-0.482836,-2.54644,-6.23134,5002,0
39432359,0.203193,0.249963,-0.16804,5004,0,-2.07179,1.40954,-3.8465,5004,0
39437363,-0.575882,-0.356871,-0.0377609,5004,0,-1.08183,1.7406,-13.627,5004,0
39442368,0.339499,-0.461788,0.0941598,5005,0,0.807496,-3.10422,-16.7943,5005,0
39447372,1.10278,0.42754,-0.0566604,5004,0,-0.357934,-2.46302,-9.79647,5004,0
39452376,-0.348301,0.504516,-0.156433,5004,0,-3.42781,3.27742,-4.58059,5004,0
39457383,-0.627714,-0.615294,-0.00511355,5007,0,-0.654903,-0.0968771,-7.54794,5007,0
39462385,1.07289,-0.542299,0.0143463,5002,0,2.76915,-5.35799,-16.6056,5002,0
39467389,0.537273,0.868735,-0.0770421,5004,0,-1.30244,-0.300405,-16.7737,5004,0
39472393,-0.990978,0.438079,-0.0990331,5004,0,-4.25394,3.65438,-2.88858,5004,0
39477398,0.251544,-0.961135,-0.069035,5005,0,1.05521,-2.2523,-3.70992,5005,0
39482402,1.33634,-0.302427,-0.0529256,5004,0,2.98303,-3.33961,-18.3231,5004,0
39487406,-0.700421,1.08871,0.0665282,5004,0,-2.98784,1.88655,-15.8604,5004,0
39492415,-0.665564,-0.0219469,-0.0800124,5009,0,-3.16863,-0.275098,-0.11211,5009,0
39497415,1.33959,-1.08794,-0.201391,5000,0,1.79732,-3.67605,-6.78965,5000,0
39502419,0.266783,0.198216,0.021655,5004,0,1.21028,0.564829,-20.5095,5004,0
39507424,-1.01086,0.964876,0.142122,5005,0,-3.433,2.64612,-9.03418,5005,0
39512428,0.356261,-0.433058,-0.170842,5004,0,-1.77814,-2.80195,-1.74243,5004,0
39517432,0.960984,-0.940626,-0.151184,5004,0,2.31939,-2.87198,-15.023,5004,0
39522438,-0.506952,0.778773,0.176435,5006,0,-0.497305,1.12417,-22.655,5006,0
39527447,-0.298477,0.708159,0.00324317,5009,0,-3.33336,-0.146716,-0.824122,5009,0
39532447,0.553893,-0.82294,-0.28174,5000,0,-0.724855,-2.30906,0.202276,5000,0
39537449,0.191394,-0.609334,0.0271126,5002,0,2.45389,0.0860665,-20.4405,5002,0
39542463,-0.560087,0.927818,0.251735,5014,0,-0.960634,0.25119,-19.7841,5014,0
39547458,0.308137,0.272858,-0.164249,4995,0,-3.57714,-2.66083,0.43126,4995,0
39552468,0.376378,-0.921024,-0.248768,5010,0,-0.420833,-0.969118,-3.73053,5010,0
39557466,-0.281666,-0.0605482,0.168224,4998,0,1.93538,1.20002,-22.8386,4998,0
39562471,-0.239998,0.794357,0.174466,5005,0,-1.49353,-1.18633,-12.3292,5005,0
39567478,0.328288,-0.0790871,-0.252663,5007,0,-2.88501,-3.17592,0.535954,5007,0
39572479,0.0617761,-0.680445,-0.122631,5001,0,0.937844,0.734183,-9.55382,5001,0
39577483,-0.331456,0.187064,0.230451,5004,0,1.13499,1.38304,-20.7774,5004,0
39582488,0.0784806,0.441633,0.0548783,5005,0,-2.18859,-2.23855,-7.7178,5005,0
39587492,0.205859,-0.208725,-0.254687,5004,0,-2.10378,-2.2937,-1.9779,5004,0
39592496,-0.354841,-0.341752,-0.00645548,5004,0,0.819813,1.45845,-13.9891,5004,0
39597501,-0.151053,0.132046,0.21206,5005,0,0.505807,-0.140162,-15.057,5005,0
39602505,0.402598,0.251044,-0.0805536,5004,0,-1.73761,-3.64648,-5.70396,5004,0
39607509,-0.252909,-0.0761147,-0.170839,5004,0,-1.18606,0.276678,-5.84536,5004,0
39612514,-0.639113,-0.26986,0.0808513,5005,0,-0.0282905,1.61945,-15.4392,5005,0
39617521,0.384788,0.0197306,0.1038,5007,0,-0.528315,-2.50397,-14.0706,5007,0
39622522,0.348926,0.335888,-0.115453,5001,0,-1.47626,-2.7636,-6.62945,5001,0
39627526,-0.844639,0.0326359,-0.0809111,5004,0,-1.17907,2.58674,-7.12572,5004,0
39632531,-0.411597,-0.497866,0.101266,5005,0,0.383809,-0.243594,-12.4093,5005,0
39637535,0.813454,0.0647329,0.00715035,5004,0,-0.0511364,-5.04093,-15.3857,5004,0
39642539,-0.235635,0.797606,-0.102504,5004,0,-2.22658,-0.248331,-9.74115,5004,0
39647544,-1.22576,0.026677,-0.0167575,5005,0,-1.95059,4.28455,-3.47191,5005,0
39652548,0.245541,-0.87334,0.0693232,5004,0,1.59099,-1.71035,-8.45079,5004,0
39657552,0.802607,0.184118,-0.00730617,5004,0,0.523217,-5.19501,-20.1455,5004,0
39662568,-1.1105,1.14846,-0.00874473,5016,0,-3.01341,1.13653,-10.5535,5016,0
39667561,-0.896768,-0.267833,0.015234,4993,0,-1.60996,2.25853,0.550822,4993,0
39672565,0.988293,-1.06962,-0.0207183,5004,0,1.61917,-3.78846,-11.4907,5004,0
39677579,0.0340934,0.657691,-0.0136896,5014,0,-0.216805,-2.33727,-23.1741,5014,0
39682574,-1.38582,1.10778,0.108675,4995,0,-2.98616,4.4536,-5.54326,4995,0
39687578,-0.179349,-0.757392,-0.0335867,5004,0,-1.17977,-0.766809,1.67053,5004,0
39692583,0.953619,-0.863612,-0.0681744,5005,0,1.50203,-4.92362,-18.1698,5005,0
39697587,-0.585948,1.12287,0.14909,5004,0,-0.39124,1.77952,-23.4849,5004,0
39702591,-1.01836,0.806662,0.0540232,5004,0,-2.46407,3.134,1.04645,5004,0
39707595,0.291466,-0.936996,-0.15126,5004,0,-0.35948,-2.91059,2.1037,5004,0
39712600,0.557959,-0.558402,0.000454741,5005,0,1.74671,-2.44301,-21.6966,5005,0
39717607,-1.04549,1.09043,0.271245,5007,0,-1.13057,3.0856,-22.3117,5007,0
39722608,-0.385992,0.424588,-0.0184725,5001,0,-2.17131,1.03532,0.475165,5001,0
39727612,0.734035,-0.788829,-0.247872,5004,0,0.310394,-4.01034,-0.898689,5004,0
39732617,-0.348104,-0.315399,0.0617067,5005,0,0.162073,-0.597254,-20.9592,5005,0
39737621,-1.06138,0.699686,0.301373,5004,0,-1.00771,2.80917,-14.835,5004,0
39742625,0.476644,0.234833,-0.0390201,5004,0,-0.45302,-0.841482,-1.23298,5004,0
39747630,0.365981,-0.563202,-0.197509,5005,0,-0.113922,-2.32711,-6.89072,5005,0
39752634,-1.09038,-0.25564,0.176643,5004,0,-1.18599,2.00154,-18.2677,5004,0
39757640,-0.0473513,0.397843,0.127159,5006,0,0.217513,0.421301,-10.2441,5006,0
39762643,0.685633,0.238651,-0.18288,5003,0,0.263816,-2.12376,-4.65534,5003,0
39767647,-0.728602,-0.430377,0.00279373,5004,0,-1.13597,-0.123964,-11.6328,5004,0
39772651,-0.501983,-0.29257,0.215807,5004,0,-0.396879,1.44394,-13.5722,5004,0
39777656,0.589353,0.331665,-0.0581885,5005,0,-0.122569,-1.67069,-8.13735,5005,0
39782660,-0.147119,0.230131,-0.216802,5004,0,-1.36279,-1.56106,-7.70794,5004,0
39787664,-0.977366,-0.406982,0.153041,5004,0,-0.804749,2.55834,-13.8672,5004,0
39792668,0.387582,-0.278805,0.202994,5004,0,0.686342,0.361045,-12.5146,5004,0
39797678,0.430558,0.408084,-0.203028,5010,0,-1.35972,-2.97451,-7.8064,5010,0
39802677,-0.861757,0.199156,-0.197499,4999,0,-2.27668,0.594296,-7.92209,4999,0
39807681,-0.376598,-0.545466,0.201497,5004,0,1.00834,1.58718,-11.8417,5004,0
39812686,0.824497,-0.144033,0.143201,5005,0,1.60293,-2.40999,-13.2104,5005,0
39817690,-0.248467,0.609736,-0.246495,5004,0,-2.73023,-1.14252,-9.37878,5004,0
39822694,-1.03749,-0.0597561,-0.12006,5004,0,-2.89052,4.19569,-5.55734,5004,0
39827698,0.485954,-0.662846,0.183868,5004,0,1.9956,-0.462919,-11.4124,5004,0
39832703,0.705783,0.216122,0.0337778,5005,0,0.533088,-4.00656,-18.0597,5005,0
39837707,-1.18329,0.798707,-0.16046,5004,0,-4.36336,1.59546,-9.15307,5004,0
39842712,-0.365189,-0.358167,-0.0102597,5005,0,-0.87043,3.14966,-1.26794,5005,0
39847716,1.23781,-0.674909,0.0520079,5004,0,3.33269,-3.33888,-11.3472,5004,0
39852720,-0.41812,0.599105,-0.0295343,5004,0,-1.43813,-2.45012,-21.463,5004,0
39857724,-1.12055,0.560225,0.028707,5004,0,-3.87532,4.47517,-6.45532,5004,0
39862729,0.711571,-0.659111,-0.0304279,5005,0,0.700032,-0.272481,-2.2499,5005,0
39867733,0.711786,-0.270242,-0.0717883,5004,0,1.47195,-4.8966,-16.7959,5004,0
39872737,-0.996191,0.884084,0.060016,5004,0,-2.23947,1.48569,-15.506,5004,0
39877744,-0.401939,0.133042,0.0273497,5007,0,-2.02971,3.21392,0.912064,5007,0
39882746,0.857465,-0.732709,-0.100909,5002,0,1.31694,-2.58208,-4.30856,5002,0
39887769,-0.00644701,0.173537,-0.0300618,5023,0,0.15809,-2.55595,-24.6119,5023,0
39892757,-0.872823,0.784511,0.160948,4988,0,-1.9656,3.36532,-13.6084,4988,0
39897759,0.347241,-0.127218,-0.0283358,5002,0,-0.942054,0.825407,2.38472,5002,0
39902763,0.830144,-0.563182,-0.225402,5004,0,0.309836,-2.97564,-5.57347,5004,0
39907768,-0.81395,0.103517,0.0919286,5005,0,0.294922,1.17734,-21.3634,5005,0
39912772,-0.409241,0.374711,0.22463,5004,0,-0.0215438,2.32402,-12.293,5004,0
39917776,0.921618,-0.0702258,-0.157716,5004,0,-1.28668,-1.85158,-2.8542,5004,0
39922785,0.112124,-0.226631,-0.209051,5009,0,-1.77603,-1.44651,-10.9012,5009,0
39927785,-0.765265,0.0135429,0.205946,5000,0,0.634219,2.68946,-13.986,5000,0
39932796,0.419909,0.239072,0.0907997,5011,0,0.851892,-0.72108,-7.30651,5011,0
39937793,0.456232,0.0841349,-0.247958,4997,0,-2.06895,-2.3626,-6.36915,4997,0
39942797,-0.730325,-0.287197,-0.0175105,5004,0,-1.36888,1.60781,-15.5153,5004,0
39947802,0.167295,-0.255635,0.204343,5005,0,2.32959,1.4686,-13.4128,5005,0
39952806,0.762832,0.387683,-0.0699227,5004,0,-0.656752,-2.64777,-6.95416,5004,0
39957814,-0.362897,0.301139,-0.262341,5008,0,-4.47064,-0.236943,-6.51405,5008,0
39962815,-0.582838,-0.594018,0.0880104,5001,0,0.534681,2.37448,-11.8125,5001,0
39967820,0.851953,-0.303557,0.18666,5005,0,3.89737,-1.92877,-14.7709,5005,0
39972823,0.346887,0.833894,-0.179183,5003,0,-2.87539,-2.5833,-12.7248,5003,0
39977828,-1.05125,0.229809,-0.157508,5005,0,-4.77008,3.10954,-2.82322,5005,0
39982832,0.127831,-0.961064,0.158519,5004,0,2.80282,0.394585,-6.53736,5004,0
39987836,1.18194,-0.0455381,-0.0018573,5004,0,2.58718,-3.53667,-18.9092,5004,0
39992844,-0.846204,1.1413,-0.120229,5008,0,-4.55648,0.936443,-14.0173,5008,0
39997862,-0.674768,-0.284268,0.0254788,5018,0,-2.22532,2.26451,0.478563,5018,0
40002849,1.36654,-1.03138,0.0293018,4987,0,3.6102,-2.91513,-7.94762,4987,0
40007853,0.122083,0.554665,-0.0522836,5004,0,-0.0943369,-1.52928,-22.5415,5004,0
40012866,-1.33433,0.884256,0.0331805,5013,0,-4.01481,3.13221,-7.34011,5013,0
40017862,0.464496,-0.731288,-0.0192622,4996,0,-0.404205,-0.21515,0.294397,4996,0
40022866,1.07172,-0.746686,-0.0482993,5004,0,2.82172,-3.33906,-16.7582,5004,0
40027872,-0.917331,0.979961,0.0696529,5006,0,-1.45096,0.613703,-24.1579,5006,0
40032875,-0.512734,0.47071,0.0258281,5003,0,-2.84032,1.65809,0.86126,5003,0
40037879,0.955883,-0.938624,-0.100851,5004,0,0.326107,-1.25102,2.73191,5004,0
40042883,0.236979,-0.348648,-0.030819,5004,0,1.59546,-1.84102,-22.3392,5004,0
40047888,-1.03578,0.863922,0.166462,5005,0,-0.856035,1.38006,-20.5436,5005,0
40052892,0.287592,-0.0299977,-0.0467263,5004,0,-1.44287,-0.0580475,0.420738,5004,0
40057896,0.952185,-0.733084,-0.156234,5004,0,-1.45087,-1.04245,-4.06231,5004,0
40062901,-0.484205,0.0462242,0.0543494,5005,0,-0.353798,0.401514,-21.7611,5005,0
40067905,-0.557256,0.459933,0.155267,5004,0,0.473045,0.815442,-11.6962,5004,0
40072909,0.755517,-0.121796,-0.116172,5004,0,-0.848304,-1.06281,-0.27324,5004,0
40077914,0.297766,-0.380417,-0.12599,5005,0,-1.65688,-0.410906,-10.7754,5005,0
40082918,-0.735109,-0.0499263,0.127315,5004,0,0.0392525,0.690241,-17.78,5004,0
40087922,0.410824,0.125801,0.0477596,5004,0,0.701115,0.280463,-8.33879,5004,0
40092927,0.5955,0.141209,-0.157346,5005,0,-1.87281,0.337682,-4.21113,5005,0
40097931,-0.560007,-0.165031,-0.0288439,5004,0,-2.1945,-0.324905,-13.9561,5004,0
40102935,-0.0660441,-0.394195,0.097376,5004,0,1.59989,-1.06683,-13.7654,5004,0
40107939,0.96215,0.224134,-0.0220918,5004,0,0.631096,-0.456668,-7.54793,5004,0
40112944,-0.182818,0.506314,-0.0809563,5005,0,-3.88992,1.1642,-6.33807,5005,0
40117949,-0.628551,-0.492307,-0.00873069,5005,0,-0.970742,-0.190244,-9.84445,5005,0
40122953,0.733364,-0.527483,0.019776,5004,0,2.99549,-1.39921,-14.8895,5004,0
40127957,0.457594,0.7542,-0.0163897,5004,0,-1.44653,-0.718355,-13.4985,5004,0
40132961,-0.67251,0.546424,-0.0850885,5004,0,-5.37522,1.11459,-4.30306,5004,0
40137969,0.0399313,-1.01453,0.0239538,5008,0,1.6303,0.0268308,-5.96962,5008,0
40142969,0.905538,-0.209164,0.0523304,5000,0,3.54269,-1.4631,-17.9489,5000,0
40147974,-0.333913,1.34796,-0.0580225,5005,0,-3.70175,-0.781774,-15.8242,5005,0
40152978,-0.682103,-0.0857793,-0.0813186,5004,0,-3.58883,0.522622,1.78486,5004,0
40157990,0.947425,-1.30681,0.0192017,5012,0,2.66182,-1.37662,-7.00859,5012,0
40162987,0.585847,0.49707,0.0147229,4997,0,1.19983,0.150096,-24.3432,4997,0
40167991,-1.16164,1.34272,-0.0326418,5004,0,-3.94899,1.74488,-9.8062,5004,0
40172995,0.0772164,-0.735772,-0.0760537,5004,0,-1.21076,-0.834014,2.56416,5004,0
40178000,1.41631,-1.0578,-0.00972229,5005,0,2.82097,-2.3445,-14.0173,5005,0
40183004,-0.549564,1.11128,0.0755005,5004,0,-0.867834,0.501156,-26.2853,5004,0
40188008,-0.855342,0.825682,-0.0332198,5004,0,-3.36583,0.586758,0.244299,5004,0
40193012,0.986117,-1.00443,-0.130675,5004,0,0.294381,-1.35404,3.41368,5004,0
40198017,0.604496,-0.600035,0.0517196,5005,0,2.3547,-0.725967,-20.6838,5005,0
40203021,-1.09412,1.08222,0.103418,5004,0,-1.35728,-0.482724,-22.5079,5004,0
40208025,0.0974352,0.17994,-0.121737,5004,0,-2.00288,-0.616296,0.979108,5004,0
40213030,1.13555,-0.879964,-0.0974391,5005,0,-0.00609127,0.237669,-2.37445,5005,0
40218034,-0.357328,-0.0469505,0.130876,5004,0,0.668282,-0.028019,-23.7919,5004,0
40223038,-0.717121,0.603842,0.0464802,5004,0,-0.775863,-1.4555,-11.6642,5004,0
40228043,0.766843,-0.122187,-0.181536,5005,0,-1.42092,-0.523402,1.42026,5005,0
40233047,0.386903,-0.46515,0.00391599,5004,0,-0.139154,0.610552,-9.84088,5004,0
40238055,-0.719485,0.133868,0.133227,5008,0,0.00372595,-1.20158,-21.7514,5008,0
40243059,0.15655,0.175852,0.0189235,5004,0,-0.356267,-0.445772,-8.14621,5004,0
40248060,0.569361,-0.0700744,-0.0924394,5001,0,-1.53609,0.824952,-1.63413,5001,0
40253064,-0.298712,-0.168608,-0.0281963,5004,0,-1.32845,-0.344968,-12.6957,5004,0
40258068,-0.322424,-0.255266,0.0517757,5004,0,0.863175,-1.67649,-14.1602,5004,0
40263073,0.753125,0.0766204,0.036391,5005,0,0.65955,0.111363,-8.19509,5005,0
40268077,-0.0236669,0.288022,-0.0125024,5004,0,-2.58122,1.3501,-6.9645,5004,0
40273081,-0.707116,-0.277714,-0.0624697,5004,0,-1.79286,-2.11275,-11.4403,5004,0
40278086,0.494175,-0.518948,-0.0188477,5005,0,1.8953,-1.64912,-13.5406,5005,0
40283097,0.537496,0.546829,0.0769213,5011,0,-0.673714,1.42234,-12.6727,5011,0
40288094,-0.871387,0.619253,0.0027389,4997,0,-4.38851,1.09056,-7.49369,4997,0
40293099,-0.0482353,-0.974936,-0.0799189,5005,0,0.669634,-2.18415,-5.46602,5005,0
40298103,1.12237,-0.352278,-0.00229595,5004,0,2.83689,-0.956285,-16.8436,5004,0
40303107,-0.585262,1.3446,0.0681447,5004,0,-2.94956,0.438779,-13.8631,5004,0
40308114,-0.858009,0.136522,-0.11145,5007,0,-3.42978,-1.73045,1.37493,5007,0
40313116,0.824359,-1.50359,-0.0746542,5002,0,2.93814,-1.80076,-8.8128,5002,0
40318129,0.443793,0.347592,0.0965259,5013,0,1.53135,1.94117,-24.8692,5013,0
40323125,-0.988837,1.44879,0.0768467,4996,0,-4.50397,1.33814,-8.06094,4996,0
40328130,-0.144475,-0.653167,-0.154549,5005,0,-1.90567,-3.48816,5.25677,5005,0
40333133,0.908601,-1.24852,0.00182454,5003,0,3.50195,-0.931436,-16.0931,5003,0
40338139,-0.478291,1.10796,0.185385,5006,0,-1.1795,1.52349,-29.7322,5006,0
40343142,-0.686743,0.981918,-0.0612909,5003,0,-4.07316,-1.20402,0.883547,5003,0
40348153,0.504339,-1.0016,-0.139102,5011,0,1.17992,-1.48375,5.22869,5011,0
40353150,0.495791,-0.624598,0.0685963,4997,0,1.99887,0.787552,-19.1851,4997,0
40358161,-1.05758,0.941491,0.130845,5011,0,-2.33056,-0.590278,-21.5115,5011,0
40363170,0.0710386,0.220724,-0.115387,5009,0,-1.23828,-1.69308,-1.53688,5009,0
40368163,0.843506,-0.54406,-0.0579646,4993,0,-0.0156615,0.455343,-7.13799,4993,0
40373167,-0.687976,-0.0464279,0.166206,5004,0,-1.76223,1.02276,-18.3606,5004,0
40378172,-0.490395,0.231499,0.0221333,5005,0,-0.793907,-2.11983,-6.64998,5005,0
40383176,0.740548,0.144859,-0.13477,5004,0,0.490194,-0.225328,-3.93175,5004,0
40388182,-0.37357,-0.0172456,0.0749221,5006,0,-0.344762,1.92023,-14.8235,5006,0
40393185,-0.718155,-0.239527,0.117047,5003,0,-0.53736,-1.8477,-14.9799,5003,0
40398193,0.724771,0.00978066,-0.0800971,5008,0,-0.533424,-1.93158,-7.72385,5008,0
40403193,0.220657,0.461142,-0.0328376,5000,0,-1.85168,2.84313,-6.12842,5000,0
40408199,-0.894879,-0.0856844,0.0602693,5006,0,-0.56399,-0.791114,-11.3403,5006,0
40413202,0.152182,-0.395624,-0.0233859,5003,0,1.28287,-3.1905,-15.5211,5003,0
40418206,0.538375,0.494771,0.0195031,5004,0,-1.31619,2.43876,-13.4203,5004,0
40423210,-0.583944,0.435676,0.0651356,5004,0,-3.42861,1.6671,-6.34426,5004,0
40428217,-0.212829,-0.622605,-0.108294,5007,0,1.12248,-4.80547,-5.30076,5007,0
40433245,0.515663,0.0201312,-0.0578443,5028,0,0.67838,-0.0433445,-15.1824,5028,0
40438225,-0.61403,1.05506,0.130063,4980,0,-4.36608,4.06296,-13.8904,4980,0
40443237,-0.448968,-0.415207,0.0121394,5012,0,0.822852,-2.18851,-0.880212,5012,0
40448232,0.85326,-0.740658,-0.124322,4995,0,3.24561,-2.63149,-13.1118,4995,0
40453236,-0.137477,1.09917,0.0539117,5004,0,-3.55577,3.04093,-17.6798,5004,0
40458251,-0.917354,0.462895,0.0803691,5015,0,-2.38825,-1.18247,1.60628,5015,0
40463247,0.444231,-1.15914,-0.114224,4996,0,3.30955,-3.94851,-8.16944,4996,0
40468249,0.268833,0.591248,0.0293444,5002,0,-2.03705,1.70469,-29.7651,5002,0
40473253,-0.648596,1.28606,0.0806042,5004,0,-4.10763,2.10931,-4.10162,5004,0
40478258,0.0718559,-0.584835,-0.100635,5005,0,2.891,-2.44298,6.1493,5005,0
40483262,0.652176,-0.589385,-0.0943862,5004,0,3.02847,-1.03719,-14.6833,5004,0
40488275,-0.866136,0.770628,0.0472281,5013,0,-3.63435,0.918341,-21.3628,5013,0
40493277,-0.309852,0.0110753,0.0670125,5002,0,-0.572409,-0.710596,-3.78046,5002,0
40498284,1.00769,-0.470166,-0.0647495,5007,0,1.40656,-0.210793,-11.4432,5007,0
40503281,-0.57281,0.654573,-0.0207338,4997,0,-4.14696,1.51468,-21.387,4997,0
40508284,-0.759649,0.18542,0.0378589,5003,0,-1.55554,-0.477883,-1.31693,5003,0
40513288,1.0117,-0.314758,-0.0272504,5004,0,2.73472,-1.63455,-5.43413,5004,0
40518293,-0.105513,0.372662,0.0678969,5005,0,0.208458,1.49089,-20.4819,5005,0
40523302,-1.16638,0.00183439,0.0347362,5009,0,-1.01755,0.004401,-8.70531,5009,0
40528310,0.848688,-0.299593,-0.0710389,5008,0,0.12118,-0.55459,-4.68295,5008,0
40533305,0.584013,0.456666,0.030483,4995,0,-1.73091,0.427354,-14.4084,4995,0
40538316,-1.11449,0.155769,0.0821877,5011,0,-1.00773,-1.1226,-8.1443,5011,0
40543314,0.163323,-0.270026,-0.0433332,4998,0,0.525609,-0.172829,-6.12888,4998,0
40548318,0.96787,0.35805,0.0202877,5004,0,-1.07935,2.7636,-13.1567,5004,0
40553323,-0.695597,-0.0166116,0.108507,5005,0,1.035,-1.14566,-8.64268,5005,0
40558327,-0.204112,-0.351682,-0.0744815,5004,0,1.58727,-3.45673,-8.28685,5004,0
40563334,0.878487,0.7377,-0.117198,5007,0,-3.9383,1.76085,-13.8966,5007,0
40568336,-0.493572,-0.00497707,0.206128,5002,0,-1.10548,2.3251,-3.59529,5002,0
40573340,-0.28315,-0.7678,0.0633284,5004,0,3.00996,-2.83846,-8.5218,5004,0
40578346,0.769054,0.918335,-0.194861,5006,0,-2.82763,0.238437,-18.9801,5006,0
40583348,-0.335764,0.522817,0.0685177,5002,0,-1.61094,2.45215,-1.42241,5002,0
40588353,-0.144459,-1.06662,0.0579656,5005,0,4.48702,-3.73433,-4.56014,5005,0
40593364,0.760367,0.492486,-0.120821,5011,0,-1.60639,-0.587927,-22.696,5011,0
40598364,-0.586188,0.969361,0.0133713,5000,0,-4.1882,4.04664,-5.20266,5000,0
40603366,-0.111173,-0.979148,0.0167191,5002,0,3.9309,-2.91993,0.910844,5002,0
40608370,0.929719,0.010766,-0.130149,5004,0,0.173475,-2.78649,-22.9972,5004,0
40613374,-0.629443,1.20618,0.0381312,5004,0,-4.7786,4.00266,-11.3761,5004,0
40618379,-0.278261,-0.649066,0.0566434,5005,0,2.72853,-1.24522,4.57719,5005,0
40623383,1.16635,-0.442215,-0.114473,5004,0,2.46088,-2.77853,-18.155,5004,0
40628387,-0.614735,1.0498,0.0464059,5004,0,-4.14478,2.84138,-19.8957,5004,0
40633409,-0.540849,-0.186219,0.0754375,5022,0,-0.260027,-0.655297,1.77145,5022,0
40638396,1.28657,-0.545873,-0.131401,4987,0,2.37389,-3.05704,-10.3534,4987,0
40643400,-0.273944,0.618462,0.0176528,5004,0,-3.06384,2.76146,-21.1208,5004,0
40648404,-0.967589,0.0350525,0.141586,5004,0,-0.753818,1.94567,-4.31709,5004,0
40653408,1.22322,-0.304445,-0.0890248,5004,0,2.53254,-4.46935,-10.1783,5004,0
40658413,0.196073,0.497898,-0.0688441,5005,0,-2.3245,-0.0800722,-19.1272,5005,0
40663417,-1.10355,-0.019641,0.133021,5004,0,-1.72647,2.47021,-3.82949,5004,0
40668422,0.9357,-0.249623,-0.0409515,5005,0,1.37533,-1.68183,-5.90294,5005,0
40673433,0.510019,0.4211,-0.0334061,5011,0,-0.615755,0.276253,-17.1613,5011,0
40678430,-1.19681,-0.134897,0.136154,4997,0,0.262862,1.23829,-9.47874,4997,0
40683434,0.827928,-0.21086,-0.130126,5004,0,-0.12032,-2.26699,-9.14243,5004,0
40688439,1.01256,0.430695,-0.0675111,5005,0,-2.84626,1.65424,-11.7838,5005,0
40693458,-1.16397,-0.183593,0.234362,5019,0,0.743641,0.837016,-7.53462,5019,0
40698447,0.219023,-0.00708401,-0.137685,4989,0,0.878413,-5.24588,-14.4398,4989,0
40703456,0.94798,0.736938,-0.153886,5009,0,-2.89101,1.95397,-12.2457,5009,0
40708460,-0.651979,-0.444885,0.256443,5004,0,0.898262,2.7448,-4.40401,5004,0
40713468,0.293771,-0.252398,0.0015223,5008,0,1.93036,-4.51884,-13.8684,5008,0
40718464,0.517975,1.01505,-0.22368,4996,0,-3.57838,0.743323,-15.2852,4996,0
40723469,-0.457072,-0.268863,0.103111,5005,0,-0.634706,1.81015,-2.7144,5005,0
40728477,0.553783,-0.730838,-0.0222978,5008,0,3.24512,-5.13192,-13.9534,5008,0
40733477,0.342508,1.05619,-0.173242,5000,0,-3.51425,0.75594,-19.4057,5000,0
40738482,-0.497196,0.351481,0.0839161,5005,0,-1.81705,4.60247,0.905909,5005,0
40743486,0.684519,-0.982991,-0.0274326,5004,0,4.59115,-4.84289,-7.51273,5004,0
40748493,0.337396,0.713965,-0.141092,5007,0,-2.65361,-2.11472,-27.95,5007,0
40753495,-0.642854,0.656536,0.136174,5002,0,-2.83853,4.91558,-1.70151,5002,0
40758499,0.821571,-0.777305,-0.0445934,5004,0,3.39944,-3.44994,0.0767618,5004,0
40763503,0.631158,0.226468,-0.12658,5004,0,-0.19559,-2.22036,-20.7552,5004,0
40768515,-1.09827,0.557846,0.171438,5012,0,-2.43018,3.95452,-9.28706,5012,0
40773512,0.640454,-0.504045,-0.0148336,4997,0,2.39111,-4.047,-4.01896,4997,0
40778516,1.08884,0.0566235,-0.147265,5004,0,0.504372,-2.53382,-17.7609,5004,0
40783520,-1.07414,0.466834,0.121285,5004,0,-3.28462,3.67554,-7.89822,5004,0
40788525,0.170786,-0.172337,-0.0228517,5005,0,1.2345,-3.38441,-0.216487,5005,0
40793529,1.19707,-0.0777196,-0.130138,5004,0,1.96005,-1.28569,-14.432,5004,0
40798533,-0.99055,0.0942147,0.218204,5004,0,-1.30881,3.79462,-15.3629,5004,0
40803538,0.19426,-0.0222514,0.0478694,5005,0,-0.190711,-2.88489,-5.20844,5005,0
40808542,1.34314,0.152023,-0.133258,5004,0,-0.211237,-1.2134,-8.3081,5004,0
40813546,-0.684203,-0.158882,0.144011,5004,0,0.0354188,1.51281,-11.6888,5004,0
40818550,-0.136038,-0.100974,-0.00526964,5004,0,0.36837,-4.08219,-12.7326,5004,0
40823565,1.10535,0.460403,-0.0815473,5015,0,-2.05837,1.87878,-11.9686,5015,0
40828559,-0.178293,-0.169529,0.207361,4994,0,0.0575453,3.31998,-6.68013,4994,0
40833574,-0.0558007,-0.234189,-0.0712983,5015,0,1.71056,-5.79837,-11.8562,5015,0
40838568,0.763837,0.679564,-0.178605,4994,0,-2.54763,1.3692,-12.9428,4994,0
40843582,-0.143685,-0.320373,0.219213,5014,0,-0.1908,2.50543,-3.12502,5014,0
40848584,0.246808,-0.521514,-0.0183285,5002,0,2.0978,-6.86214,-15.5081,5002,0
40853582,0.38182,1.05885,-0.220126,4998,0,-3.27696,1.82624,-17.6291,4998,0
40858585,-0.295655,-0.067978,0.0913084,5003,0,-0.639267,4.19428,1.56699,5003,0
40863591,0.668106,-0.880916,-0.000543083,5006,0,2.84326,-6.42204,-14.0356,5006,0
40868594,0.264959,0.977258,-0.0318427,5003,0,-3.19619,1.02785,-24.0967,5003,0
40873599,-0.413356,0.384455,0.0911589,5005,0,-1.60349,2.91081,2.01812,5005,0
40878602,0.796838,-0.690919,-0.10219,5003,0,2.92564,-6.59824,-5.52078,5003,0
40883608,0.101792,0.246428,0.0106937,5006,0,-0.688763,0.144546,-21.9299,5006,0
40888612,-0.495722,0.313961,0.12302,5004,0,-1.22115,1.43257,-6.47512,5004,0
40893616,0.807946,-0.100137,-0.0779507,5004,0,1.65957,-3.81385,-8.38042,5004,0
40898619,0.0700833,0.126264,0.0483047,5003,0,-1.57086,0.531333,-16.3041,5003,0
40903627,-0.398382,0.105541,0.0460489,5008,0,-2.44988,-1.43936,-6.66006,5008,0
40908628,0.617356,0.149345,-0.0494333,5001,0,0.305714,-0.789108,-7.77007,5001,0
40913633,0.279055,0.0873842,0.218814,5005,0,1.23805,1.29316,-9.9197,5005,0
40918637,-0.281235,-0.0635723,0.0504597,5004,0,0.548861,-4.9265,-11.811,5004,0
40923641,-0.025448,0.569478,-0.121302,5004,0,-2.18378,0.824152,-14.8792,5004,0
40928645,0.323292,-0.0525418,0.181569,5004,0,-0.432629,0.775052,-5.31523,5004,0
40933650,0.29616,-0.222014,0.0198767,5005,0,0.811421,-5.38622,-11.7141,5005,0
40938654,-0.31605,0.885978,-0.0303175,5004,0,-2.797,3.63203,-12.9483,5004,0
40943658,-0.134668,-0.07279,0.144889,5004,0,0.196581,-0.0353137,-0.59285,5004,0
40948662,0.662039,-0.393908,-0.0803937,5004,0,2.7706,-6.86908,-19.6014,5004,0
40953667,-0.493695,1.15346,0.00692587,5005,0,-2.80823,3.93284,-21.7482,5005,0
40958671,-0.347275,0.0016206,0.231053,5004,0,-0.905138,0.324073,4.00659,5004,0
40963676,1.12749,-0.430588,-0.0261736,5005,0,2.09881,-5.77788,-10.4333,5005,0
40968680,-0.555597,0.58027,0.00973471,5004,0,-2.4073,3.05176,-17.1507,5004,0
40973684,-0.86497,0.080264,0.11309,5004,0,0.0300603,0.135657,-4.10547,5004,0
40978689,1.14953,0.102571,-0.018827,5005,0,2.10556,-4.59017,-15.744,5005,0
40983693,-0.189033,0.317037,0.145279,5004,0,-1.56706,0.482848,-13.6,5004,0
40988697,-0.797093,-0.00551053,0.119114,5004,0,0.0675767,-1.34745,-3.42531,5004,0
40993701,0.793857,0.393233,-0.0337682,5004,0,0.347163,-1.15377,-8.71246,5004,0
40998706,-0.0515901,-0.0500598,0.151219,5005,0,0.843752,0.302967,-7.60451,5005,0
41003714,-0.83123,-0.0601655,0.0825389,5008,0,0.684337,-1.91449,-15.8431,5008,0
41008714,0.502866,0.923264,-0.0404197,5000,0,-3.29675,-0.296384,-16.2416,5000,0
41013719,0.241917,-0.186731,0.133925,5005,0,0.669199,-1.50095,-3.43546,5005,0
41018723,-0.549975,-0.00513647,0.0595279,5004,0,1.0679,-1.76586,-16.6013,5004,0
41023727,-0.120972,1.12718,-0.0067751,5004,0,-3.75935,2.04756,-11.3711,5004,0
41028731,0.0780882,-0.577992,0.0803644,5004,0,2.68147,-1.34987,-0.0688712,5004,0
41033736,-0.0510989,0.00247103,0.00993369,5005,0,1.94956,-2.38277,-26.4638,5005,0
41038743,-0.526642,1.36127,0.0179399,5007,0,-4.70512,0.560313,-10.7329,5007,0
41043744,-0.0831316,-0.652579,0.0574742,5001,0,1.52605,-1.90333,6.52435,5001,0
41048749,0.440455,-0.060122,-0.000426593,5005,0,3.2108,-1.96104,-21.6821,5005,0
41053753,-0.860998,1.10571,0.0793665,5004,0,-3.07652,1.67814,-11.6487,5004,0
41058760,-0.43307,-0.395448,0.0612281,5007,0,1.83406,-1.00384,1.56627,5007,0
41063770,0.772266,0.00433635,0.0292798,5010,0,2.17699,-3.15855,-19.825,5010,0
41068766,-0.632297,0.650228,0.104354,4996,0,-3.60045,-0.65206,-11.1613,4996,0
41073770,-0.659484,-0.106364,0.108767,5004,0,0.584769,1.64654,-3.0565,5004,0
41078776,0.617614,0.293986,0.035555,5006,0,2.17191,-2.57227,-14.3584,5006,0
41083779,-0.485301,0.211682,0.0182159,5003,0,-0.575489,-2.45945,-10.1964,5003,0
41088783,-0.692003,-0.0368444,0.0584165,5004,0,0.171597,2.86767,-11.8069,5004,0
41093787,0.419024,0.384212,0.116354,5004,0,-0.27168,-1.81429,-14.031,5004,0
41098795,-0.124387,0.0350353,0.056534,5008,0,0.277803,-2.72792,-8.42827,5008,0
41103805,-0.868552,0.360111,-0.0263304,5010,0,-1.29791,2.06778,-13.5649,5010,0
41108801,-0.156797,0.253328,0.0688186,4996,0,-0.786019,-1.89705,-5.9194,4996,0
41113805,0.156701,-0.426351,0.00756347,5004,0,3.51558,-3.29236,-9.158,5004,0
41118809,-0.581865,0.926206,-0.0727347,5004,0,-1.18599,3.54912,-19.7646,5004,0
41123813,-0.717666,0.319932,0.154052,5004,0,-1.37088,0.945519,2.74661,5004,0
41128817,0.423341,-1.05261,0.0276049,5004,0,4.5139,-6.00671,-3.58244,5004,0
41133825,-0.18569,1.04971,-0.0488372,5008,0,-2.01971,1.86316,-25.1986,5008,0
41138826,-1.16405,0.363639,0.208207,5001,0,-0.624633,2.92234,4.03413,5001,0
41143833,0.45216,-1.14668,-0.0414805,5007,0,5.62625,-5.12106,-5.91456,5007,0
41148835,0.134929,1.14063,-0.0922822,5002,0,-2.13023,1.62478,-27.814,5002,0
41153839,-1.37363,0.00616411,0.206563,5004,0,-0.83075,3.40394,2.54455,5004,0
41158843,0.54842,-1.10687,0.0146024,5004,0,4.37506,-4.87351,-11.8937,5004,0
41163848,0.342071,1.24722,-0.0573422,5005,0,-2.55531,1.74039,-25.5519,5005,0
41168857,-1.4366,-0.142299,0.209721,5009,0,-1.23087,3.02392,3.08393,5009,0
41173857,0.495687,-1.02128,-0.0515127,5000,0,3.82826,-5.07131,-14.9472,5000,0
41178861,0.353665,1.02648,-0.0585807,5004,0,-1.95068,2.07904,-23.0132,5004,0
41183865,-1.31096,-0.102284,0.250968,5004,0,-0.83638,2.13916,1.65503,5004,0
41188869,0.47434,-0.65884,-0.00789298,5004,0,3.53532,-5.01355,-15.3966,5004,0
41193874,0.142684,0.609633,-0.0383555,5005,0,-1.25023,2.73229,-18.9814,5005,0
41198885,-1.05686,-0.221049,0.134327,5011,0,-0.82297,1.75092,-2.01391,5011,0
41203889,0.490103,-0.37453,-0.009381,5004,0,3.29435,-3.17926,-13.7291,5004,0
41208886,0.0472106,0.35487,-0.026974,4997,0,-0.837226,2.00033,-14.0571,4997,0
41213897,-0.598311,-0.201197,0.112253,5011,0,-1.13015,-0.332162,-3.56854,5011,0
41218895,0.225008,-0.269606,0.0370765,4998,0,2.21449,-3.21351,-12.192,4998,0
41223899,-0.104405,0.180413,-0.0413599,5004,0,-0.256468,0.87891,-11.9783,5004,0
41228904,-0.308623,-0.0622256,0.0193866,5005,0,-0.132186,0.589441,-5.98403,5005,0
41233908,-0.0310115,-0.209032,0.103112,5004,0,1.45738,0.189698,-10.5362,5004,0
41238920,-0.0398742,-0.059857,-0.0247265,5012,0,0.165185,-1.01423,-10.1035,5012,0
41243917,0.0681891,-0.0107336,-0.0337687,4997,0,-0.0529941,-0.357007,-7.74254,4997,0
41248924,-0.291422,-0.112207,0.167118,5007,0,0.609023,1.2153,-10.01,5007,0
41253925,-0.248281,-0.147402,-0.0565043,5001,0,0.260532,-3.44517,-9.47684,5001,0
41258929,0.182146,0.035688,-0.168071,5004,0,-0.269027,1.48182,-10.2586,5004,0
41263934,-0.378132,-0.194908,0.213882,5005,0,0.975134,4.26739,-11.2866,5005,0
41268938,-0.134653,-0.21744,-0.00591251,5004,0,0.326018,-4.87384,-12.5799,5004,0
41273943,0.411281,0.18809,-0.173356,5005,0,-1.78581,1.37898,-11.8263,5005,0
41278953,-0.439635,-0.204698,0.214915,5010,0,0.0940698,3.07132,-9.16655,5010,0
41283951,-0.113768,-0.294693,-0.0567285,4998,0,0.921387,-6.76896,-12.5436,4998,0
41288958,0.224465,0.240885,-0.201939,5007,0,-1.19804,2.39709,-12.6349,5007,0
41293960,-0.519278,-0.304299,0.210665,5002,0,1.14884,3.60549,-8.44362,5002,0
41298964,0.165847,-0.383093,-0.0485356,5004,0,2.2387,-6.55077,-13.7544,5004,0
41303968,0.182484,0.299247,-0.183716,5004,0,-1.81368,3.99534,-12.9588,5004,0
41308974,-0.635658,-0.287626,0.18345,5006,0,-0.547628,2.36481,-5.7781,5006,0
41313977,0.460158,-0.560495,-0.115771,5003,0,2.60277,-7.87597,-11.9262,5003,0
41318983,0.108095,0.470677,-0.18544,5006,0,-1.4205,4.84386,-16.1515,5006,0
41323985,-0.867347,0.0131886,0.188886,5002,0,-0.828821,2.75455,-2.58281,5002,0
41329004,0.669288,-0.904097,-0.0974489,5019,0,3.82867,-8.11785,-5.68598,5019,0
41333995,0.281649,0.314428,-0.155333,4991,0,-0.830313,4.46217,-18.8281,4991,0
41338998,-0.981837,0.295355,0.197568,5003,0,-2.56617,3.73726,-2.57779,5003,0
41344003,0.614624,-0.888924,-0.0074722,5005,0,2.69386,-7.06039,-2.51646,5005,0
41349007,0.328745,0.418826,-0.17314,5004,0,-1.06802,1.1642,-22.7612,5004,0
41354011,-0.851419,0.570341,0.0598229,5004,0,-2.97406,2.76851,-3.98514,5004,0
41359016,0.452237,-1.00714,0.0537717,5005,0,3.90767,-4.04753,0.192711,5005,0
41364020,0.487416,0.0721424,-0.0140053,5004,0,1.10062,2.33086,-20.8634,5004,0
41369024,-0.613199,0.617933,0.0124763,5004,0,-3.9756,2.38922,-9.29001,5004,0
41374030,0.360259,-0.87838,0.0237626,5006,0,1.29401,-2.11111,-3.99263,5006,0
41379033,0.477342,0.129667,-0.00606878,5003,0,-0.609595,-0.109876,-22.7035,5003,0
41384037,-0.360645,0.635783,0.00516798,5004,0,-3.31998,-0.862781,-5.9657,5004,0
41389041,0.163426,-0.636536,0.079607,5004,0,2.52737,0.30675,-3.68286,5004,0
41394046,0.258027,0.084902,0.00940159,5005,0,1.83707,0.675595,-19.2439,5005,0
41399050,-0.206452,0.254597,-0.0835983,5004,0,-1.96769,-0.286435,-6.07731,5004,0
41404054,0.14742,-0.512312,0.1195,5004,0,0.663917,3.28634,-6.54447,5004,0
41409059,0.433456,0.120745,0.0980477,5005,0,0.624477,-2.88274,-16.3908,5005,0
41414063,-0.0825813,0.33928,-0.121059,5004,0,-2.26055,-3.23167,-8.72242,5004,0
41419068,-0.197012,-0.12162,0.0821078,5005,0,0.0806957,4.36293,-7.97676,5005,0
41424072,0.364169,-0.185409,0.0538255,5004,0,1.80142,-4.11084,-11.545,5004,0
41429076,0.171046,0.204035,-0.159798,5004,0,-0.417521,-0.41582,-13.7264,5004,0
41434080,-0.376354,0.300788,0.111754,5004,0,-1.07849,6.15845,-10.7029,5004,0
41439085,0.402294,-0.417651,0.0433719,5005,0,1.06272,-6.49351,-8.3934,5005,0
41444089,0.424233,0.106117,-0.127204,5004,0,-1.18047,-0.824903,-19.7179,5004,0
41449093,-0.468068,0.639221,0.0479201,5004,0,-3.32492,5.93314,-7.8224,5004,0
41454104,0.220075,-0.504698,0.067927,5011,0,2.06183,-4.67168,-0.525032,5011,0
41459104,0.571541,0.138351,-0.0594319,5000,0,1.34421,-0.755336,-19.2171,5000,0
41464106,-0.445509,0.750601,0.0296365,5002,0,-2.45744,4.91141,-6.8648,5002,0
41469113,-0.00951082,-0.706379,0.0911931,5007,0,2.77032,-4.02346,3.36352,5007,0
41474129,0.680858,-0.00901629,-0.0806301,5016,0,1.46225,-1.23616,-17.8835,5016,0
41479119,-0.247355,0.81942,0.013553,4990,0,-3.23544,3.87693,-10.045,4990,0
41484123,-0.268282,-0.618434,0.170124,5004,0,1.93232,-2.96691,-0.677091,5004,0
41489128,0.622674,0.00215912,-0.0363599,5005,0,0.918322,-2.59976,-19.5068,5005,0
41494136,-0.100068,0.759119,-0.0776376,5008,0,-2.70441,0.910025,-10.3519,5008,0
41499137,-0.43686,-0.373497,0.137806,5001,0,2.05021,-0.0942309,-5.2097,5001,0
41504141,0.465874,0.0160564,-0.00267288,5004,0,1.32381,-2.49791,-18.7853,5004,0
41509145,0.0641296,0.515678,-0.11271,5004,0,-2.87014,-0.650711,-11.3958,5004,0
41514149,-0.406691,-0.0519023,0.198282,5004,0,-0.402318,3.07929,-7.84532,5004,0
41519154,0.408116,0.0580929,0.0708199,5005,0,0.649025,-4.4704,-13.2738,5005,0
41524158,0.0854566,0.427396,-0.212635,5004,0,-1.02969,-2.56712,-11.4384,5004,0
41529162,-0.600892,0.24609,0.143771,5004,0,-0.203444,6.02422,-8.48486,5004,0
41534166,0.264169,-0.110922,0.0854628,5004,0,1.43937,-4.92902,-8.93303,5004,0
41539171,0.391964,0.11728,-0.170249,5005,0,-0.133623,-1.43841,-13.2652,5005,0
41544175,-0.712184,0.442852,0.124034,5004,0,-1.82061,5.7824,-10.7874,5004,0
41549187,0.118533,-0.144575,0.0562902,5012,0,1.93725,-6.02158,-7.15924,5012,0
41554184,0.435669,0.0562987,-0.150181,4997,0,0.824362,-0.96398,-17.7683,4997,0
41559188,-0.817673,0.646462,0.0876599,5004,0,-3.17506,5.41517,-10.1697,5004,0
41564192,0.0222962,-0.426401,0.0669605,5004,0,1.84919,-4.81325,-2.28369,5004,0
41569203,0.380969,0.140572,-0.0893383,5011,0,2.4183,-1.10715,-20.5352,5011,0
41574201,-0.73146,0.855623,0.0731796,4998,0,-1.93866,3.84205,-8.96585,4998,0
41579205,-0.260023,-0.74181,0.0949013,5004,0,2.75052,-3.78724,0.874137,5004,0
41584210,0.563989,-0.0252083,-0.0212639,5005,0,2.2113,0.0291126,-19.4756,5005,0
41589216,-0.422024,0.857451,-0.0456771,5006,0,-2.6268,2.3733,-8.20022,5006,0
41594223,-0.473734,-0.495954,0.025824,5007,0,2.44187,-1.05612,0.616005,5007,0
41599224,0.451119,-0.0567099,0.00425541,5001,0,1.89993,-0.923798,-16.4663,5001,0
41604239,-0.0971809,0.483124,-0.091656,5015,0,-2.41693,-1.26203,-8.81135,5015,0
41609234,-0.333568,-0.476313,0.0410638,4995,0,3.18182,0.523551,-4.51985,4995,0
41614238,0.185945,0.186954,0.0161118,5004,0,1.75746,-0.812057,-17.8317,5004,0
41619240,-0.178316,0.290567,-0.186913,5002,0,-2.26054,-0.734593,-5.62971,5002,0
41624247,-0.130395,-0.733962,0.0636972,5007,0,1.68623,2.87007,-5.55143,5007,0
41629251,0.272311,0.316279,0.0288734,5004,0,0.763898,-2.35495,-20.3978,5004,0
41634272,-0.282788,0.389691,-0.16763,5021,0,-0.804312,-1.14134,-4.80444,5021,0
41639259,-0.145702,-0.480394,0.0492746,4987,0,1.72094,2.1782,-5.36291,4987,0
41644270,0.27281,-0.0651212,-0.0294283,5011,0,0.402695,-2.59497,-14.189,5011,0
41649276,-0.339641,-0.0652682,-0.144332,5006,0,0.280548,0.625941,-7.9134,5006,0
41654279,-0.142596,-0.0662192,0.0233888,5003,0,0.880099,1.50805,-12.7021,5003,0
41659280,0.146489,-0.0458251,-0.048095,5001,0,-0.0762939,-3.4475,-13.1922,5001,0
41664284,-0.219914,-0.324246,-0.098899,5004,0,0.296413,-0.0183345,-9.12319,5004,0
41669290,-0.113446,0.190948,0.0271764,5006,0,-1.19265,2.06563,-12.0172,5006,0
41674289,-0.00015111,-0.0695602,-0.00772663,4999,0,0.881688,-1.75313,-4.53628,4999,0
41679292,-0.0588286,-0.367635,-0.117926,5003,0,2.51479,-0.367985,-8.45923,5003,0
41684301,-0.0754634,0.290763,-0.0366245,5009,0,-1.71734,2.18313,-13.9069,5009,0
41689300,-0.187122,-0.576796,0.0718579,4999,0,1.73196,-1.9569,-4.67225,4999,0
41694306,0.219671,-0.238287,-0.126105,5006,0,1.60897,-3.03976,-16.7813,5006,0
41699309,-0.193578,0.89074,-0.118201,5003,0,-4.56904,3.12834,-13.9505,5003,0
41704323,-0.479571,-0.950302,0.116639,5014,0,1.78177,0.233001,1.27291,5014,0
41709318,0.618494,-0.38637,-0.130381,4995,0,1.9598,-3.36365,-21.7603,4995,0
41714324,-0.26513,1.07746,-0.0935791,5006,0,-3.09749,4.89347,-12.3158,5006,0
41719326,-0.548653,-1.08946,0.0331702,5002,0,3.25632,-0.338194,3.23819,5002,0
41724340,0.889947,-0.202865,-0.218178,5014,0,1.00554,-5.53853,-24.4934,5014,0
41729335,-0.509594,1.07692,-0.0152325,4995,0,-5.01106,5.91059,-9.57247,4995,0
41734345,-0.498249,-1.07384,0.122828,5010,0,1.87039,-0.735096,5.68412,5010,0
41739348,1.00807,-0.211585,-0.170318,5003,0,3.48892,-5.27937,-19.6561,5003,0
41744357,-0.515446,0.91973,0.0209525,5009,0,-1.91742,7.69601,-11.2401,5009,0
41749352,-0.344745,-0.828286,0.0340507,4995,0,2.05189,-2.48676,1.55009,4995,0
41754359,1.05577,-0.393305,-0.243774,5007,0,1.2181,-3.32785,-17.3761,5007,0
41759361,-0.417984,0.576662,0.023887,5002,0,-4.06476,5.99044,-10.6338,5002,0
41764378,-0.318384,-0.480679,0.138353,5017,0,0.48747,-5.28145,-2.75178,5017,0
41769369,0.829836,-0.028604,-0.158432,4991,0,2.20982,-0.997062,-20.1826,4991,0
41774376,-0.216964,0.558936,-0.0304925,5007,0,-2.12857,4.16116,-10.7098,5007,0
41779389,-0.297845,-0.351919,0.0610581,5013,0,-0.547142,-1.4013,-4.73536,5013,0
41784382,0.7115,-0.0169901,-0.0181296,4993,0,1.37957,1.97144,-13.049,4993,0
41789387,0.223634,0.376513,-0.0756533,5005,0,-1.8429,-1.26606,-8.33271,5005,0
41794393,-0.234627,-0.0893108,0.0744802,5006,0,-0.505928,0.952637,-8.53672,5006,0
41799395,0.359595,-0.0725909,0.0550265,5002,0,1.37987,-1.63878,-12.4489,5002,0
41804406,0.227174,0.324369,-0.219219,5011,0,-2.14484,-2.82351,-11.9955,5011,0
41809404,-0.0319721,0.0933109,0.0577055,4998,0,-0.624569,6.53159,-7.57609,4998,0
41814408,0.16448,-0.129099,0.0248427,5004,0,1.93076,-3.32331,-7.59434,5004,0
41819419,0.340113,0.208511,-0.190671,5011,0,-1.03967,0.206691,-12.1461,5011,0
41824419,-0.0832856,-0.111005,0.172746,5000,0,0.131115,3.55387,-9.08365,5000,0
41829424,0.140928,-0.26823,-0.0767807,5005,0,1.72522,-8.36752,-13.6597,5005,0
41834425,0.251487,0.687294,-0.218623,5001,0,-2.20204,3.3869,-16.2276,5001,0
41839435,-0.350183,-0.0290789,0.151769,5010,0,-0.3126,2.21017,-2.49873,5010,0
41844436,0.406485,-0.42777,-0.0612012,5001,0,2.62174,-5.7048,-10.8198,5001,0
41849438,0.253445,0.678035,-0.091699,5002,0,-1.16679,5.3463,-15.2952,5002,0
41854443,-0.364342,-0.100957,0.0978499,5005,0,0.343754,-1.72989,-1.18198,5005,0
41859447,0.550631,-0.380039,-0.142423,5004,0,3.2612,-5.59263,-13.6309,5004,0
41864451,-0.078764,0.825466,-0.0396504,5004,0,-2.1336,4.82674,-18.1484,5004,0
41869455,-0.336033,-0.328387,0.0867551,5004,0,-0.921645,-4.03149,-0.451599,5004,0
41874460,0.582949,-0.339349,-0.140833,5005,0,1.73704,-1.90422,-17.6582,5005,0
41879467,-0.14571,0.793172,-0.0573443,5007,0,-1.18004,4.74437,-13.4207,5007,0
41884468,-0.311513,-0.256381,0.104761,5001,0,0.852662,-3.68115,-0.92716,5001,0
41889472,0.583224,-0.278732,-0.0103585,5004,0,2.70067,-0.240768,-15.0825,5004,0
41894477,-0.0404077,0.372814,-0.0525065,5005,0,-1.46941,0.231569,-10.9629,5005,0
41899481,-0.197169,-0.223795,0.0101802,5004,0,0.454838,-1.58297,-4.83487,5004,0
41904485,0.291992,-0.0764517,0.0249507,5004,0,2.3608,0.958212,-13.013,5004,0
41909490,-0.0763457,0.262584,-0.100743,5005,0,-1.43157,-3.54225,-9.2512,5005,0
41914504,0.00924927,-0.321132,0.0482429,5014,0,0.876273,2.12077,-7.7825,5014,0
41919499,-0.0142105,-0.150982,0.0899238,4995,0,2.81638,-1.10463,-13.2806,4995,0
41924503,0.140261,0.301165,-0.220916,5004,0,-0.633888,-3.81125,-10.0335,5004,0
41929507,-0.19608,-0.221198,0.054541,5004,0,0.270191,5.26161,-6.98181,5004,0
41934511,-0.114286,-0.418241,0.0909705,5004,0,1.62539,-4.32031,-11.8234,5004,0
41939541,0.287166,0.159074,-0.175829,5030,0,-0.771126,-1.28482,-14.0518,5030,0
41944520,-0.411966,-0.028644,0.166104,4979,0,0.243805,5.57574,-9.63657,4979,0
41949524,-0.0549377,-0.420084,0.0148354,5004,0,2.02531,-7.6688,-10.3384,5004,0
41954528,0.334428,0.100419,-0.218266,5004,0,-0.656928,1.63228,-14.0188,5004,0
41959533,-0.605822,-0.00120159,0.185131,5005,0,-1.43323,4.35299,-7.90715,5005,0
41964541,0.100832,-0.545932,0.00253467,5008,0,2.0649,-8.3173,-8.33349,5008,0
41969541,0.127326,0.231447,-0.183951,5000,0,-0.476805,2.16787,-16.1603,5000,0
41974546,-0.78902,0.0387519,0.120149,5005,0,-1.59514,1.78185,-3.56816,5005,0
41979559,0.225812,-0.790427,0.0141509,5013,0,3.28283,-5.76599,-5.79739,5013,0
41984555,-0.0779122,0.381016,-0.0990562,4996,0,-0.562795,2.83703,-19.9821,4996,0
41989559,-0.691796,0.0252043,0.0434179,5004,0,-2.55591,-0.0267024,-3.06464,5004,0
41994563,0.24486,-0.904407,0.032043,5004,0,2.63208,-3.77539,-8.71385,5004,0
41999568,-0.212479,0.533065,-0.0500781,5005,0,-1.55388,1.72423,-22.8157,5005,0
42004572,-0.552045,0.0864802,0.0254326,5004,0,-2.02591,-1.14541,-2.14949,5004,0
42009581,-0.144048,-0.996679,0.067644,5009,0,3.59842,-1.37144,-11.4018,5009,0
42014580,0.0943407,0.607816,-0.0748507,4999,0,-1.51789,0.460375,-20.9366,4999,0
42019595,-0.481522,0.0909847,-0.00792147,5015,0,-2.21222,0.22378,1.66063,5015,0
42024589,-0.372222,-0.754241,0.12085,4994,0,2.63655,-0.38687,-8.86382,4994,0
42029604,0.10308,0.385177,-0.136081,5015,0,-1.80947,-4.55497,-17.7228,5015,0
42034598,-0.51373,-0.0314804,-0.0337041,4994,0,-1.1129,3.35013,-5.94216,4994,0
42039608,-0.387134,-0.234204,0.132196,5010,0,2.75002,0.0946812,-13.576,5010,0
42044606,0.117415,0.11011,-0.201217,4998,0,-0.542586,-3.89777,-10.1881,4998,0
42049610,-0.323832,-0.172385,-0.0259751,5004,0,-1.40638,5.08626,-9.04049,5004,0
42054615,-0.423736,-0.222043,0.167105,5005,0,1.09087,-2.45953,-10.6818,5005,0
42059619,0.0986221,0.00863179,-0.194649,5004,0,0.00184314,-2.89478,-11.8679,5004,0
42064623,-0.357287,0.411966,-0.0856729,5004,0,-2.29593,2.80161,-11.7712,5004,0
42069628,-0.493479,-0.310646,0.0612584,5005,0,0.657629,-2.17691,-3.20679,5005,0
42074632,0.129908,-0.0544968,-0.143759,5004,0,1.57115,0.489896,-12.7722,5004,0
42079636,-0.391942,0.565114,-0.0113733,5004,0,-2.56449,3.65684,-12.0335,5004,0
42084647,-0.277952,-0.599606,0.0688674,5011,0,1.42642,-1.67812,-4.18241,5011,0
42089645,0.264372,0.305495,-0.211963,4998,0,0.214197,-1.80299,-21.7681,4998,0
42094649,-0.581268,0.664277,-0.0209151,5004,0,-3.37627,4.1215,-5.72918,5004,0
42099654,0.0113802,-0.90687,0.0136678,5005,0,2.70295,-2.41597,-2.19847,5005,0
42104658,0.055972,0.516208,-0.173818,5004,0,0.460759,0.101294,-21.1678,5004,0
42109662,-0.527303,0.501436,0.0342136,5004,0,-2.87846,5.30158,-2.87308,5004,0
42114666,0.113826,-0.858113,-0.0417861,5004,0,2.11323,-5.51375,-5.35965,5004,0
42119671,0.0241591,0.599324,-0.142802,5005,0,0.12526,2.02241,-22.9071,5005,0
42124675,-0.41068,0.390199,0.041059,5004,0,-1.80388,2.36352,-3.84529,5004,0
42129680,-0.00375433,-0.628987,-0.0596448,5005,0,2.33245,-4.98624,-7.021,5005,0
42134684,0.156369,0.483486,-0.0907384,5004,0,0.773896,5.20216,-16.6675,5004,0
42139698,-0.422865,0.0819171,0.0326683,5014,0,-1.88382,-0.690393,-3.04587,5014,0
42144692,0.0735602,-0.436082,-0.0565401,4994,0,1.8006,-2.76541,-11.5567,4994,0
42149697,0.116164,0.510532,-0.0831662,5005,0,-0.359085,3.9515,-17.4061,5005,0
42154716,-0.230921,-0.170841,0.011035,5019,0,-0.433149,-2.98463,-4.25246,5019,0
42159705,0.0175657,-0.193362,-0.0569595,4989,0,1.70574,0.501845,-14.4703,4989,0
42164709,-0.055294,0.467363,-0.0884551,5004,0,-0.613843,3.34269,-9.55845,5004,0
42169714,0.00409661,-0.434291,-0.00524226,5005,0,0.824393,-2.59385,-2.50482,5005,0
42174718,0.120735,0.0257004,-0.0881821,5004,0,1.00467,2.41253,-15.7581,5004,0
42179726,-0.213943,0.229083,-0.0575634,5008,0,-1.00219,1.25425,-6.62231,5008,0
42184738,0.426163,-0.607495,0.00828396,5012,0,1.70079,-2.62849,-8.44845,5012,0
42189731,0.0190777,0.415343,-0.134196,4993,0,0.00968912,2.45363,-19.74,4993,0
42194735,-0.38976,0.00291947,-0.0221021,5004,0,-0.571121,0.825967,-2.69158,5004,0
42199740,0.63837,-0.488231,-0.082379,5005,0,1.41065,-3.09433,-12.1489,5005,0
42204755,-0.0474468,0.418184,-0.0902861,5015,0,-0.557963,3.95484,-14.1742,5015,0
42209748,-0.345546,-0.390267,0.104894,4993,0,0.771162,0.760071,-3.21694,4993,0
42214753,0.754189,-0.157974,-0.157238,5005,0,1.20046,-3.18919,-17.4263,5005,0
42219757,-0.0164677,0.265712,-0.119991,5004,0,-0.828383,3.82505,-8.70339,5004,0
42224761,-0.211559,-0.407972,0.0975606,5004,0,0.00937579,-0.0898173,-6.4915,5004,0
42229766,0.663161,0.104821,-0.109014,5005,0,0.466347,-1.79469,-15.258,5005,0
42234772,0.0666628,-0.0219939,-0.0776755,5006,0,-0.780235,2.8495,-6.70365,5006,0
42239778,0.112034,-0.0740704,0.00915056,5006,0,-0.435368,-0.131398,-12.659,5006,0
42244778,0.45124,0.161701,-0.0828165,5000,0,0.0760786,0.87717,-10.9449,5000,0
42249783,0.199181,-0.165047,-0.154679,5005,0,-0.13306,0.711993,-7.27305,5005,0
42254787,0.384102,0.0543366,-0.0328437,5004,0,-0.413095,-0.138793,-12.8869,5004,0
42259791,0.220533,-0.0834504,-0.0262363,5004,0,0.149923,-0.657488,-7.40762,5004,0
42264796,0.232067,0.0394994,-0.176099,5005,0,-0.29363,-1.10224,-10.6372,5005,0
42269800,0.216635,0.125216,-0.0165274,5004,0,-1.04696,1.58315,-10.1772,5004,0
42274821,0.118295,-0.296307,-0.0531842,5021,0,0.743418,-0.582283,-7.52238,5021,0
42279809,0.29031,0.242188,-0.178027,4988,0,-0.697492,0.747127,-14.8446,4988,0
42284813,0.0883399,-0.0166941,0.0602607,5004,0,-0.105447,1.7602,-6.71344,5004,0
42289819,0.38938,-0.349848,-0.108829,5006,0,1.81201,-4.5186,-9.86195,5006,0
42294822,0.193328,0.561257,-0.19215,5003,0,-2.19453,1.79165,-14.6446,5003,0
42299826,-0.189988,-0.334976,0.0940304,5004,0,0.307795,1.04452,-2.85434,5004,0
42304830,0.649524,-0.249672,-0.153624,5004,0,1.62593,-5.48185,-16.4329,5004,0
42309838,0.0560726,0.822251,-0.138765,5008,0,-2.74301,5.37308,-14.8573,5008,0
42314839,-0.0986006,-0.602527,0.111392,5001,0,1.09183,-0.378405,-1.24327,5001,0
42319843,0.832342,0.024023,-0.203067,5004,0,1.34826,-5.23017,-18.9889,5004,0
42324847,-0.043894,0.751677,-0.045173,5004,0,-1.96331,6.52219,-7.66923,5004,0
42329858,-0.0231629,-0.765695,0.0336336,5011,0,1.04604,-4.36811,0.0210192,5011,0
42334856,0.793254,0.0831096,-0.251171,4998,0,1.99385,-1.37121,-18.9907,4998,0
42339860,-0.204899,0.491788,-0.0138962,5004,0,-1.52878,5.29181,-7.67421,5004,0
42344868,0.208311,-0.636969,-0.00998774,5008,0,1.37682,-6.32926,-5.0093,5008,0
42349869,0.632107,0.146325,-0.132981,5001,0,0.830707,2.18164,-19.7008,5001,0
42354873,-0.149623,0.17943,0.00491639,5004,0,-1.65215,1.56701,-6.11661,5004,0
42359878,0.469225,-0.486528,-0.137434,5005,0,1.42046,-4.58331,-8.22906,5005,0
42364882,0.281159,0.110204,-0.0822698,5004,0,1.0429,5.19767,-14.2687,5004,0
42369888,0.0152352,-0.109361,0.048545,5006,0,-0.978279,-1.47675,-6.49565,5006,0
42374891,0.578938,-0.365245,-0.070402,5003,0,1.64669,-2.71693,-11.8545,5003,0
42379895,-0.0687362,0.17296,-0.0436283,5004,0,0.893609,1.57206,-12.4035,5004,0
42384899,0.191339,0.0148383,-0.0638394,5004,0,-1.26283,-3.18989,-7.45905,5004,0
42389905,0.181507,-0.364739,0.0106306,5006,0,0.827316,1.34824,-10.4218,5006,0
42394908,-0.0340783,0.0194637,-0.0560886,5003,0,0.465176,-0.755123,-13.304,5003,0
42399912,0.230034,0.156248,-0.0273999,5004,0,-0.861873,0.0525763,-11.2789,5004,0
42404916,0.202198,-0.307326,0.0903952,5004,0,0.976117,-0.65911,-8.7772,5004,0
42409922,0.0234457,0.00101576,-0.177358,5006,0,-0.535098,-3.95953,-13.1176,5006,0
42414925,-0.062065,0.127889,0.0374508,5003,0,-1.19612,2.34889,-8.81979,5003,0
42419929,0.187045,-0.417279,0.0732545,5004,0,1.70995,-4.31261,-6.08386,5004,0
42424934,-0.0245717,0.177907,-0.159862,5005,0,-0.407744,0.0418625,-14.7594,5005,0
42429938,-0.249954,-0.133148,0.157918,5004,0,-0.472243,2.19339,-5.35321,5004,0
42434943,0.316833,-0.512618,-0.0479151,5005,0,1.05763,-7.0506,-11.3602,5005,0
42439947,-0.0654226,0.529176,-0.0585293,5004,0,-1.60607,3.28815,-17.0729,5004,0
42444951,-0.413695,-0.426666,0.191143,5004,0,-0.21483,-1.48655,-1.82888,5004,0
42449960,0.445233,-0.312045,-0.145199,5009,0,0.958549,-4.88186,-17.1617,5009,0
42454960,-0.309805,0.58584,0.0321339,5000,0,-1.66579,6.07352,-11.2389,5000,0
42459964,-0.400193,-0.644996,0.12802,5004,0,0.741285,-3.01692,-1.3188,5004,0
42464968,0.397237,0.00993592,-0.13134,5004,0,1.13783,-2.34408,-17.0535,5004,0
42469972,-0.372721,0.281439,0.0545344,5004,0,-1.62568,2.56581,-5.24685,5004,0
42474977,-0.227417,-0.549356,0.0456486,5005,0,0.72197,-4.19183,-7.94131,5005,0
42479981,0.192931,0.138783,-0.0498432,5004,0,1.08348,1.45623,-17.8466,5004,0
42484986,-0.1291,0.180085,-0.00351082,5005,0,-1.98071,0.94248,-7.91612,5005,0
42489990,-0.285007,-0.320649,0.0398712,5004,0,0.293488,-1.48794,-8.90994,5004,0
42494994,0.119008,-0.122698,0.029227,5004,0,1.43962,-0.506758,-11.4427,5004,0
42499998,-0.178468,0.168669,-0.0621853,5004,0,-1.28011,-1.83338,-11.045,5004,0
42505003,-0.418906,-0.244887,0.140841,5005,0,0.516643,0.795398,-8.08577,5005,0
42510007,-0.0700323,-0.271584,-0.0628586,5004,0,0.847569,-3.53493,-11.0402,5004,0
42515014,-0.271652,0.238273,-0.117449,5007,0,-1.83036,1.6167,-12.4233,5007,0
42520017,-0.333535,-0.321476,0.19557,5003,0,0.805375,0.799493,-6.11044,5003,0
42525020,-0.0657357,-0.103715,-0.103478,5003,0,1.18059,-3.65264,-13.0114,5003,0
42530024,-0.331944,0.187249,0.0236766,5004,0,-1.4093,3.43694,-9.4097,5004,0
42535029,-0.23374,-0.545455,0.0871126,5005,0,0.712533,-4.71098,-6.03689,5005,0
42540033,-0.317454,0.26013,-0.112293,5004,0,0.0553836,-1.20546,-17.3437,5004,0
42545037,-0.511677,0.266411,0.089379,5004,0,-2.02306,3.12745,-6.67067,5004,0
42550041,-0.099089,-0.591157,-0.0125402,5004,0,1.19028,-5.45648,-7.4037,5004,0
42555046,-0.356879,0.35405,-0.0912618,5005,0,-0.367226,3.77386,-19.9053,5005,0
42560050,-0.424321,0.180783,0.0622994,5004,0,-2.27461,0.776824,-5.23272,5004,0
42565054,-0.0697392,-0.528261,-0.03439,5004,0,1.43173,-4.44299,-9.267,5004,0
42570059,-0.234299,0.531096,-0.0160553,5005,0,-0.47409,3.53871,-16.3565,5005,0
42575063,-0.496298,0.0309409,-0.0042452,5004,0,-1.98744,-3.61178,-2.54629,5004,0
42580068,-0.194937,-0.410952,-0.0292984,5005,0,1.69248,-1.03365,-12.3437,5005,0
42585074,-0.147139,0.446315,-0.021605,5006,0,-0.569672,2.15104,-15.2105,5006,0
42590076,-0.597842,-0.0896275,0.0146783,5002,0,-1.00596,-1.16994,-5.69448,5002,0
42595080,-0.0840519,-0.152377,-0.00237673,5004,0,1.22707,0.32808,-14.0927,5004,0
42600085,-0.0780787,0.202115,-0.10924,5005,0,-0.879246,-0.276563,-9.68552,5005,0
42605089,-0.337768,-0.209329,0.0597174,5004,0,-0.0239888,0.764513,-8.23408,5004,0
42610093,-0.0833602,0.0207501,-0.0415067,5004,0,0.59661,-1.11188,-11.8694,5004,0
42615098,-0.354981,0.0150662,-0.129453,5005,0,0.113229,1.5329,-7.61524,5005,0
42620104,-0.0414514,-0.0306182,0.0550893,5006,0,-0.125541,1.17556,-12.2998,5006,0
42625113,-0.105636,-0.0733692,-0.067795,5009,0,-0.0371166,-1.28327,-8.50328,5009,0
42630110,-0.339316,-0.0360737,-0.0874802,4997,0,0.0514289,2.5505,-11.975,4997,0
42635115,0.0646666,0.201496,0.0242799,5005,0,-0.458693,-0.785828,-11.962,5005,0
42640119,-0.0655628,-0.148562,-0.0879849,5004,0,0.742235,-0.667827,-7.2741,5004,0
42645123,-0.353556,0.212792,-0.0735309,5004,0,-1.06311,2.24286,-13.5661,5004,0
42650128,-0.0615401,-0.129874,0.0289987,5005,0,-0.362902,-1.26872,-4.73897,5005,0
42655132,0.176094,-0.0602419,-0.148605,5004,0,1.27351,-1.16785,-11.8677,5004,0
