timestamp,timestamp_sample,xyz[0],xyz[1],xyz[2]
38900244,38899405,0.241499,0.0486847,0.0348828
38902749,38901907,0.169491,-0.0494684,-0.0591046
38925276,38924424,0.333588,0.176358,0.151037
38942787,38941937,-0.261762,-0.139266,-0.091326
38962793,38961955,-0.0272581,-0.0597986,-0.109637
38982811,38981972,0.237988,0.194333,0.147575
39000329,38999487,-0.197278,-0.117621,-0.0609012
39022845,39022006,-0.145779,-0.121944,-0.15473
39042862,39042023,0.055517,0.0748963,0.044421
39062880,39062041,0.0715114,0.0800232,0.127142
39080405,39079556,-0.204245,-0.107898,-0.142636
39102914,39102075,-0.15207,-0.0293434,-0.125126
39122931,39122092,0.0980704,0.0748855,0.0561694
39140446,39139614,0.018491,0.044401,0.0399861
39162966,39162127,0.0449319,0.0319844,0.0573214
39182992,39182144,-0.088611,-0.0711967,-0.0209539
39203001,39202161,-0.0829531,-0.00175643,-0.0312925
39220511,39219676,-0.180524,0.13623,0.0786789
39243036,39242195,0.0547373,0.0662381,0.0923089
39263057,39262214,0.256922,0.0664871,0.110845
39280560,39279728,0.17452,-0.0511787,0.0796943
39303098,39302249,0.345012,-0.156691,0.0736487
39323113,39322271,0.438876,-0.245187,0.0682524
39343121,39342282,0.452367,-0.274636,0.0278038
39360639,39359797,0.523079,-0.414495,-0.0162919
39383156,39382316,0.125103,-0.297001,0.0389232
39403174,39402334,0.0197283,-0.231855,0.0284866
39420688,39419848,0.0563519,-0.134872,-0.0330357
39443207,39442368,-0.0725521,-0.208484,-0.023526
39463234,39462385,-0.00311839,-0.278703,-0.0250878
39483245,39482402,0.302532,-0.354656,-0.0644472
39500749,39499917,0.332791,-0.327122,-0.0973973
39523289,39522438,0.285443,-0.235686,-0.0363548
39543308,39542463,0.00640877,-0.145159,0.0319131
39560803,39559968,0.00506585,-0.204125,0.000941337
39583358,39582488,-0.0918366,0.0460398,0.0843
39603346,39602505,-0.0195116,0.0351547,0.0659537
39623361,39622522,0.114573,0.0296068,0.0327425
39640869,39640037,0.0987077,-0.0745488,0.0260789
39663406,39662568,0.0189795,0.20061,0.0201944
39683413,39682574,-0.207798,0.335692,0.0310052
39700932,39700089,-0.0850443,0.186167,0.0584099
39720938,39720106,-0.290707,0.204313,0.107126
39743464,39742625,-0.370993,0.233086,0.129598
39763485,39762643,-0.0371756,0.140011,0.04325
39780990,39780158,0.0140303,0.00784366,0.0372961
39803516,39802677,-0.0210057,0.15003,-0.075989
39823533,39822694,-0.240631,0.187997,-0.0853716
39841054,39840209,-0.284365,0.307492,-0.0230413
39861068,39860226,-0.415064,0.28981,0.0188347
39883600,39882746,-0.122151,0.0420555,0.00782251
39903613,39902763,0.18813,-0.0192641,-0.0271057
39921114,39920282,0.191377,0.0740574,0.00811717
39943647,39942797,0.042098,0.0195535,-0.0737839
39963663,39962815,-0.154198,0.0511772,-0.0845559
39981169,39980337,-0.247622,0.255817,-0.0756817
40001189,40000354,-0.314699,0.149795,-0.00774662
40023708,40022866,0.221975,-0.298887,-0.00561973
40043722,40042883,0.326863,-0.342389,-0.0325717
40061233,40060399,0.346615,-0.218301,-0.0473263
40083769,40082918,0.041993,-0.161288,-0.0244342
40103774,40102935,-0.142669,-0.127973,-0.00158541
40121291,40120450,-0.151079,-0.0616567,-0.0186813
40141310,40140472,-0.0548312,-0.187844,-0.00433718
40163826,40162987,0.429469,-0.38568,-0.000318661
40183843,40183004,0.421931,-0.239872,0.00659554
40201366,40200519,0.367566,-0.359122,-0.00444818
40221369,40220536,0.137968,-0.202704,0.0269359
40243898,40243059,-0.144977,-0.00791127,0.0626141
40261426,40260584,-0.10044,-0.163934,0.0147742
40281420,40280588,0.047234,-0.247688,-0.0133414
40303947,40303107,0.279872,0.0282055,0.0150839
40323964,40323125,0.0335369,0.225269,0.0548258
40341472,40340639,-0.0138153,0.0945637,0.070386
40361490,40360657,-0.252077,0.0981295,0.0591481
40384015,40383176,-0.104911,0.0830626,0.0151003
40401524,40400691,0.0726592,-0.0432035,0.0203891
40421544,40420708,0.122627,0.123297,0.0254251
40444084,40443237,-0.318185,0.341763,0.0516824
40464091,40463247,-0.269451,0.0725827,0.0166511
40481595,40480760,-0.0716413,0.177138,-0.0110803
40501612,40500779,0.200036,-0.0775187,0.00826427
40524141,40523302,-0.221121,0.129211,0.0495435
40541647,40540814,-0.20381,0.15601,0.0465339
40561677,40560831,-0.111506,-0.0747739,0.00543737
40584188,40583348,0.166416,0.41077,-0.0271028
40604205,40603366,-0.164988,0.201294,0.00357336
40621714,40620880,-0.113059,0.0439012,0.0234571
40641731,40640898,0.323424,-0.124339,-0.0175685
40664268,40663417,-0.0331877,0.171593,0.00992425
40681773,40680932,-0.220643,0.0245527,0.0520755
40701789,40700956,-0.0448431,0.0472188,0.00208186
40724327,40723469,0.122066,0.312228,-0.0372576
40744336,40743486,0.0515227,0.0565493,0.00345854
40761859,40761026,0.276858,-0.0453468,0.00842403
40781853,40781020,0.474056,-0.0209656,-0.0287631
40804388,40803538,-0.147294,-0.00102662,0.0960748
40821885,40821053,-0.00926452,-0.0450243,0.0307699
40841909,40841070,0.322028,0.205039,-0.0486559
40861920,40861087,0.0625966,0.166858,-0.0169737
40884448,40883608,0.333108,-0.0843134,-0.0165316
40901954,40901122,0.191153,0.081322,0.0309009
40921974,40921142,0.036886,0.0681755,0.0936125
40944509,40943658,-0.0960417,0.341639,0.0551224
40962005,40961173,-0.147074,0.289804,0.105678
40982030,40981190,0.160243,0.158185,0.0472715
41002045,41001208,0.0594269,0.100495,0.0956066
41024575,41023727,-0.189427,0.357572,0.0587254
41042081,41041242,-0.258006,0.50836,0.036658
41062104,41061262,-0.357157,0.154575,0.0687149
41084618,41083779,-0.0340389,0.228169,0.0659282
41102133,41101294,-0.0866515,0.158086,0.080636
41122159,41121318,-0.309129,0.343993,-0.00279153
41142161,41141329,-0.510196,0.270433,0.0953787
41164687,41163848,0.0854902,-0.0739002,0.0342232
41182196,41181363,0.0343964,0.129391,0.0143421
41202217,41201380,-0.354925,-0.0200254,0.0654668
41224752,41223899,-0.0435043,-0.0871382,0.0406561
41242259,41241415,-0.0695704,-0.0951493,0.0316593
41262274,41261432,-0.0632282,-0.0565241,-0.0456657
41282309,41281449,-0.0979735,-0.088792,0.054001
41304808,41303968,0.0399095,-0.138828,-0.0354
41322322,41321483,0.0497154,-0.00152196,-0.0761341
41342337,41341501,-0.231594,0.044097,0.0416716
41364862,41364020,0.193521,-0.28268,0.0296374
41382377,41381535,0.231501,-0.0881183,0.0187232
41402385,41401552,0.00712781,0.0370526,-0.00315508
41422408,41421569,-0.0250479,0.056691,0.0329855
41444936,41444089,0.237238,-0.0977784,0.00672681
41462443,41461608,0.241479,0.049388,0.0116518
41482460,41481628,0.0727349,0.231599,0.016706
41502478,41501638,-0.118062,0.0649348,0.0486257
41519996,41519154,-0.0313196,0.099265,0.100463
41542505,41541673,0.123045,0.0962844,-0.0149418
41562523,41561690,-0.229663,0.272815,0.0178717
41585053,41584210,-0.0942383,-0.16603,0.0591528
41602561,41601725,-0.00399503,-0.0255108,0.00522228
41622578,41621745,-0.0873018,0.0821655,-0.0581352
41642591,41641759,-0.0998316,-0.0562577,-0.0165906
41660128,41659280,-0.0751486,-0.0618273,-0.022921
41682626,41681794,-0.0524303,-0.13754,-0.0438417
41700151,41699309,0.00940349,0.0462369,-0.0684782
41725179,41724340,-0.00426682,-0.379085,-0.0627603
41742678,41741846,0.203486,-0.227145,-0.0281738
41762695,41761863,0.0765923,0.000307084,-0.0434569
41782717,41781880,-0.0491227,0.0181131,0.0114108
41800239,41799395,0.0971185,0.0190894,0.0488628
41822747,41821915,0.201512,0.0738994,-0.051304
41842777,41841944,-0.0369266,0.137423,-0.00373229
41865306,41864451,0.179893,0.0907328,-0.0503356
41882817,41881966,0.0429224,0.199678,-0.0404249
41900340,41899481,0.0189122,0.0264262,-0.00119038
41922846,41922000,0.00109561,-0.114455,0.0389362
41940377,41939541,0.000213181,-0.173552,-0.00529852
41962875,41962035,-0.177855,-0.066267,0.0309027
41982892,41982052,-0.139247,-0.291176,0.0248005
42002902,42002070,-0.150573,-0.0310513,0.00553774
42020435,42019595,-0.153373,0.112137,-0.0112978
42042939,42042104,-0.337519,-0.070372,0.0302761
42062957,42062124,-0.160495,-0.0647282,-0.0341216
42080477,42079636,-0.175454,0.119464,-0.0570486
42102992,42102157,-0.142422,-0.121875,-0.0321421
42123006,42122173,-0.0520861,0.0999737,-0.0605761
42143029,42142194,-0.142897,0.0851827,-0.014925
42160555,42159705,-0.0687884,-0.0718693,-0.0198462
42183059,42182226,-0.0236543,0.013925,-0.0426008
42203090,42202242,0.170272,-0.133691,-0.0580742
42220602,42219757,0.267741,-0.0409759,-0.0750664
42243128,42242285,0.186384,-0.0198314,-0.0260532
42263134,42262300,0.278675,-0.0363559,-0.0495888
42283146,42282311,0.201671,0.0351787,-0.0866665
42300665,42299826,0.125562,0.100191,-0.064726
42323191,42322358,0.359663,-0.0148325,-0.0686661
42343196,42342363,0.17398,0.109961,-0.0730546
42360717,42359878,0.203978,-0.075534,-0.046565
42383236,42382401,0.182329,-0.0560335,-0.0273495
42400768,42399912,0.0898684,-0.0168801,-0.0270163
42423273,42422432,0.0717911,-0.138679,0.0198329
42440786,42439947,0.0744146,-0.0949851,-0.00764526
42463339,42462496,-0.196482,-0.151075,0.0522317
42483322,42482483,-0.0418921,-0.0654331,0.00817727
42500838,42499998,-0.062105,-0.061635,0.011906
42523372,42522530,-0.266693,-0.121857,0.046054
42543368,42542535,-0.295369,-0.014518,-0.00176909
42560889,42560050,-0.342543,0.114633,-0.00814233
42580913,42580068,-0.33618,-0.0315809,-0.00248352
42603420,42602587,-0.175299,0.0225371,-0.0299799
42623443,42622604,-0.161683,-0.014633,-0.0147522
42640964,42640119,-0.0656445,0.0333694,-0.0227486
42660984,42660137,-0.119064,0.109776,-0.056801
42683491,42682656,-0.0977358,-0.0881738,-0.0146515
42701012,42700171,-0.0382338,0.0176782,-0.0266826
42721035,42720191,0.00353244,0.178485,-0.0448653
42743545,42742710,0.128463,0.140672,-0.0681581
42761066,42760227,0.100183,0.201038,-0.0595634
42781089,42780243,0.148129,0.135888,-0.0201428
42801113,42800274,0.26209,0.182224,-0.0409391
42823619,42822777,0.144831,0.0683751,0.00543873
42841131,42840292,0.100036,-0.0379697,-0.0275881
42861149,42860309,0.0433153,0.160952,-0.0259845
42883662,42882828,0.15702,0.0637172,-0.0161741
42901187,42900344,0.0484645,0.179865,-0.0159437
42921209,42920367,0.0449955,0.108223,0.0172271
42941219,42940378,0.0455049,0.0834304,0.0176855
42963730,42962897,-0.0647141,-0.0422773,0.0425895
42981253,42980413,0.0105735,-0.00411336,0.019788
43001280,43000430,-0.0581216,0.026028,-0.00939105
43023792,43022949,-0.0697157,-0.12874,0.00384384
43041322,43040464,0.0245378,-0.0897598,-0.0170899
43061329,43060482,-0.130302,0.0327609,-0.00225568
43081344,43080499,0.0255293,-0.174249,-0.042049
43103855,43103020,-0.152037,-0.169495,-0.0103245
43121373,43120534,0.0442679,-0.084773,-0.014167
43141390,43140551,0.0158414,0.0400362,-0.0178348
43161407,43160568,0.0271637,-0.108555,-0.0436401
43183926,43183093,-0.00290307,-0.0657787,-0.0471645
43201445,43200606,0.0405464,-0.0621846,-0.0809385
43221461,43220620,0.0128297,0.0761584,-0.0791515
43243972,43243139,0.0187199,0.025135,-0.0575968
43261496,43260654,-0.00119668,0.0683524,-0.0754372
43281511,43280671,0.0415341,-0.00653094,-0.0347693
43301535,43300689,1.70677e-05,-0.022881,-0.0482213
43324048,43323216,0.0425158,0.00959288,-0.0328158
43341571,43340727,0.052454,-0.096098,-0.0355593
43361580,43360740,0.0299623,-0.0427227,-0.0388318
43384098,43383260,0.0379515,-0.178252,-0.0181415
43401617,43400775,0.0494467,-0.0712934,-0.023554
43421633,43420794,-0.029154,-0.129028,0.0394883
43441651,43440811,0.0910865,-0.153943,-0.0365142
43464161,43463329,0.0340026,-0.187852,0.00516125
43481684,43480844,0.0523145,-0.167002,-0.0180209
43501701,43500861,-0.0573804,0.00764408,-0.00156127
43524220,43523381,-0.0265911,-0.0198658,0.011683
43541752,43540902,-0.0125318,-0.0651486,-0.033821
43561753,43560913,-0.0059768,-0.101642,-0.00744307
43581771,43580932,-0.0242205,-0.124262,-0.0358632
43604305,43603450,-0.0330281,-0.113095,-0.0244686
43621805,43620965,0.0475784,-0.0866238,-0.0387948
43641822,43640982,-0.0559834,0.0199329,-0.0506518
43664347,43663502,0.0797359,-0.0645068,-0.0529872
43681865,43681023,0.1024,0.11332,-0.0359416
43701876,43701034,-0.0558421,-0.00234221,-0.0230057
43721890,43721051,0.0880974,0.103189,-0.0584716
43744417,43743582,0.0830387,-0.00765206,-0.0452215
43761925,43761086,0.0960948,0.0241468,-0.0246571
43781944,43781105,0.0543054,0.0251824,-0.0537036
43801960,43801120,-0.0110448,0.0161315,-0.0199828
43824473,43823640,-0.0175834,0.0866133,-0.0218487
43841994,43841155,-0.0459728,-0.0533891,0.0196293
43862011,43861172,0.125045,0.0262299,-0.0235525
43884530,43883693,0.111221,-0.019071,-0.0270876
43902048,43901207,0.00284164,0.0385548,0.00505302
43922068,43921226,-0.00806874,0.0873017,-0.0173615
43942089,43941241,-0.0312526,0.0363841,0.0211708
43964595,43963763,0.0351872,0.128319,-0.00755028
43982123,43981284,-0.0684408,0.159713,0.0408078
44002135,44001293,-0.106345,0.0369728,0.0134008
44024646,44023813,-0.167081,0.111477,0.0306383
44042170,44041328,-0.0150709,-0.0106955,-0.014535
44062184,44061345,-0.0344408,0.121192,-0.00336858
44082210,44081364,0.0430421,0.113935,0.000347122
44104723,44103883,0.00585694,0.0073448,-0.0276675
44122238,44121397,-0.0497813,0.0508173,0.00524487
44142255,44141414,-0.0197758,-0.0182182,-0.0147323
44164776,44163933,-0.208444,-0.0748668,0.0335817
44182316,44181458,-0.0845565,-0.135667,-0.00742533
44202311,44201466,-0.0915929,-0.0417865,-0.0207378
44222328,44221483,-0.107709,-0.201596,-0.0194972
44244835,44244003,-0.0667782,-0.0492603,-0.029549
44262357,44261518,-0.155201,-0.271446,0.00818018
44282374,44281535,0.11178,-0.111458,-0.0444369
44304906,44304057,0.10828,-0.208865,-0.00140139
44319901,44319067,0.110233,-0.119239,-0.0598458
44342428,44341587,0.180469,-0.0820524,-0.0100522
44362444,44361606,0.24908,-0.054623,-0.0242492
44384973,44384123,0.109026,-0.0908687,-0.0162779
44402478,44401639,0.123927,-0.0721279,0.00914092
44422495,44421656,0.164032,0.040134,-0.0750525
44442512,44441673,-0.0292708,0.0318867,-0.00277149
44460026,44459188,0.0391797,-0.0360934,0.0049989
44482549,44481708,-0.00162427,0.0821293,-0.0110112
44502564,44501725,-0.0413191,0.104421,-0.0254369
44525084,44524244,-0.00290801,0.0840911,-0.00214988
44542599,44541760,-0.0836966,-0.0189094,-0.0104367
44562616,44561777,0.0216041,0.175891,-0.048343
44582634,44581795,-0.0103416,-0.0949435,-0.0150468
44600159,44599317,0.0585743,-0.0387158,-0.0693703
44622668,44621829,0.0375858,-0.0334245,-0.0252547
44642692,44641853,-0.0133522,0.125018,-0.0364761
44665203,44664368,-0.0785683,0.015432,-0.0212475
44682720,44681881,0.0557905,0.219083,-0.0405473
44702739,44701898,-0.0018814,-0.013062,-0.00454506
44722757,44721915,0.0421857,0.185745,-0.0386144
44740270,44739430,-0.0487828,0.0719221,0.00390022
44762789,44761950,-0.00772289,0.0576668,-0.0110143
44782813,44781967,-0.135758,0.0279944,0.0233442
44805327,44804486,-0.222143,0.0579392,0.024572
44822844,44822002,-0.160076,-0.0478316,0.00289408
44842858,44842019,-0.0706455,0.0838841,-0.0106112
44862878,44862036,0.160205,0.0391961,-0.0484384
44880390,44879559,0.252201,0.0724228,-0.0389954
44902919,44902071,0.185654,-9.64773e-05,-0.0362758
44922928,44922088,0.0717778,-0.0961982,-0.0179387
44942945,44942105,0.0641247,-0.0809601,-0.0402606
44960451,44959620,-0.073989,-0.0391487,-0.0137825
44982979,44982140,-0.175172,-0.00256064,-0.00277659
45002997,45002157,-0.228184,-0.0729253,0.03536
45020503,45019672,-0.272909,-0.00137265,0.017369
45043042,45042192,-0.232134,-0.0680917,0.0441848
45063051,45062209,-0.170537,-0.0376738,0.0789063
45083101,45082236,-0.0665631,-0.0104734,0.0159853
45100572,45099741,-0.218086,-0.0911623,0.0697579
45123109,45122270,-0.0806541,-0.0800909,0.0433791
45143121,45142282,-0.00812136,-0.02147,0.0215608
45160625,45159793,0.0564861,-0.0801015,0.0347024
45183155,45182315,-0.0353342,-0.109505,0.0361671
45203170,45202330,0.0201273,-0.0295712,0.0701418
45223188,45222348,0.144323,-0.0217705,0.00788605
45240696,45239863,0.163839,0.0263417,0.0333166
45263224,45262382,0.215976,0.069939,0.0338208
45283241,45282400,0.194359,0.113066,-0.00427952
45300761,45299915,0.0341191,0.145842,0.0261752
45323291,45322434,0.205348,0.313211,-0.0522955
45343306,45342451,0.265816,0.299409,-0.0521592
45363314,45362468,0.135231,0.131233,-0.0128939
45380823,45379984,0.107031,0.138618,-0.0563885
45403354,45402503,-0.248554,-0.00831431,-0.0402619
45423360,45422521,-0.0814001,-0.0236461,-0.039518
45440873,45440035,-0.0242179,-0.114887,-0.0145703
45460891,45460053,0.0190501,-0.103669,-0.0371499
45483414,45482572,-0.174987,-0.106961,0.00188296
45503429,45502589,-0.173273,-0.071151,-0.0481448
45520944,45520114,-0.0487953,-0.0241301,-0.0129291
45543463,45542624,0.167787,0.000108524,-0.0477606
45563486,45562642,-0.0661038,0.0279859,-0.0117206
45580999,45580157,-0.030609,0.104949,-0.0392959
45601005,45600174,-0.160509,0.107847,-0.0623688
45623533,45622693,0.0193182,0.144491,-0.0653444
45643550,45642711,0.166598,0.107625,-0.0211631
45661073,45660236,0.110626,0.156809,-0.102516
45683601,45682745,-0.251184,0.152802,-0.049868
45703612,45702762,-0.29192,-0.0523038,0.00856257
45721112,45720282,-0.427637,-0.0368182,-0.0164283
45741135,45740295,-0.231212,-0.193201,-0.0315813
45763661,45762820,-0.00458292,-0.187997,-0.00808227
45783679,45782832,-0.0389275,-0.194325,0.00155434
45801178,45800347,-0.0910359,-0.115692,0.0091091
45823706,45822866,0.0123033,-0.0494822,-0.0439845
45843723,45842884,0.338555,-0.0841068,-0.0169908
45861236,45860399,0.313068,-0.0218534,-0.0544052
45881251,45880416,0.291035,-0.00250765,-0.0554969
45903775,45902936,0.0165308,-0.00169289,-0.0655564
45923792,45922953,0.0173953,-0.0436451,-0.030478
45941304,45940468,0.0673946,0.112885,-0.0397514
45963834,45962987,0.125288,-0.0570647,-0.0814394
45983844,45983005,-0.192239,0.0124837,-0.0123414
46001355,46000520,-0.114501,-0.0407445,0.0126905
46021370,46020537,-0.163429,0.0425637,-0.00989128
46043896,46043057,0.194408,0.0768947,-0.0410962
46063913,46063074,0.130942,0.0150491,-0.0143493
46081434,46080596,0.0467735,-0.0300005,-0.0101396
46101441,46100607,-0.18092,0.0381632,0.00553255
46123986,46123136,-0.0480356,0.0687465,-0.0423906
46141472,46140641,-0.111604,0.0521527,-0.0270315
46161490,46160658,-0.0473043,-0.0490976,0.00253633
46184025,46183178,-0.261019,-0.147722,0.0480438
46204046,46203195,-0.156339,-0.173401,0.0442839
46221542,46220710,-0.281266,-0.175784,-0.0129485
46241566,46240735,0.0550054,-0.348892,-0.0266039
46264091,46263247,0.111344,-0.396207,-0.0143335
46281605,46280770,0.129109,-0.466512,-0.0387026
46301611,46300779,-0.122735,-0.554569,0.0032183
46324139,46323299,0.0347399,-0.498301,-0.00436165
46344163,46343317,0.268833,-0.500632,-0.0404936
46361672,46360831,0.246413,-0.482358,-0.058397
46381680,46380849,0.11432,-0.514439,0.000908192
46404216,46403368,-0.0235664,-0.456758,0.0202679
46421715,46420883,-0.0296432,-0.313637,-0.0167047
46441732,46440901,0.128908,-0.257075,-0.0496384
46464291,46463420,0.135057,-0.212405,-0.0210806
46484285,46483438,-0.168029,-0.177057,0.0121633
46501784,46500953,-0.115589,-0.144504,0.0189179
46521801,46520970,-0.132179,-0.0562175,0.00294303
46544343,46543492,0.235696,-0.0553546,-0.0424908
46561833,46561002,0.255782,-0.114399,0.0405557
46581853,46581022,0.152999,-0.144984,0.00367254
46601870,46601039,0.0634889,-0.104363,0.00714988
46624408,46623569,0.220476,-0.0737122,0.00230075
46641914,46641074,0.0845298,-0.0799973,0.0041079
46661930,46661091,0.0627469,-0.113655,0.0419623
46684456,46683616,-0.31764,-0.0390203,0.0346579
46701957,46701126,-0.230194,0.00163188,-0.000738071
46721974,46721143,-0.183856,0.0604819,0.00108129
46741991,46741160,0.0638459,0.000248562,-0.00472982
46764520,46763680,-0.0963148,-0.0521109,0.0337075
46782032,46781195,-0.0409582,-0.049469,0.0155681
46802056,46801214,-0.121402,0.00416832,-0.00541337
46824572,46823732,0.196143,0.0179206,-0.0385598
46842087,46841249,0.175479,-0.0866659,0.0052798
46862111,46861272,0.207465,-0.0598058,0.0333324
46882113,46881282,-0.0249095,-0.0686019,0.0267877
46904643,46903801,0.050558,-0.0402696,-0.0136893
46922149,46921318,0.0685211,-0.0444698,0.0186673
46942172,46941341,0.151326,-0.0314277,0.0049579
46964696,46963853,-0.134435,0.0325796,0.0379198
46982203,46981372,-0.138273,0.0619071,0.0176031
47002219,47001386,-0.136514,0.101846,0.034403
47022237,47021404,0.115152,0.10004,0.00787666
47044768,47043923,0.0543384,0.108156,0.023388
47062283,47061437,-0.0134252,0.244603,-0.0224197
47082292,47081455,-0.20062,0.271124,0.00447621
47104832,47103974,0.0388427,0.260028,0.0280603
47122332,47121489,0.147832,0.339719,-0.00988319
47142340,47141507,0.0479215,0.328462,-0.00490852
47162355,47161524,-0.317454,0.391834,0.0601941
47184884,47184044,-0.409769,0.423675,0.0253998
47202390,47201559,-0.134611,0.486751,0.0275622
47222407,47221576,0.16743,0.518257,-0.0085331
47242424,47241593,-0.0316424,0.50343,0.0424767
47259951,47259109,-0.0803843,0.42305,-0.00501443
47282459,47281628,-0.173801,0.454459,0.0266509
47302479,47301645,0.0955242,0.519958,-0.0230576
47325009,47324170,0.255539,0.387599,-0.0351235
47342521,47341680,0.258383,0.320602,-0.000507972
47362528,47361697,0.0817949,0.245683,0.00408333
47382545,47381715,0.138887,0.0987367,0.0238928
47400069,47399230,0.162078,0.0635638,0.0175708
47422580,47421749,0.23468,-0.0436514,0.0244402
47442606,47441767,-0.0600027,0.000850015,0.0464708
47465126,47464286,-0.264789,0.0482923,-0.0152332
47482634,47481801,-0.293609,0.0403237,0.000339307
47502649,47501819,-0.117086,0.0804653,0.0184387
47522672,47521836,-0.0850889,0.136576,-0.0148278
47540195,47539351,-0.157401,0.18715,-0.0039138
47562716,47561871,-0.360505,0.269414,-0.0119468
47582730,47581888,-0.143118,0.23009,0.00556906
47605259,47604408,0.107982,0.169188,-0.0137956
47622764,47621923,0.150393,0.0598818,0.00320027
47642770,47641940,0.0532121,-0.112772,0.00416961
47662791,47661957,0.0607364,-0.0776711,0.0161268
47680319,47679472,0.0787306,-0.226818,-0.00651992
47702826,47701992,0.463026,-0.314881,-0.030368
47722840,47722009,0.415505,-0.344504,-0.0103543
47745383,47744529,0.0273939,-0.323495,0.0227616
47760382,47759542,0.0623591,-0.347218,0.0162685
47782899,47782061,-0.0471787,-0.226063,-0.00182477
47802909,47802079,0.273057,-0.178531,-0.0248538
47820437,47819594,0.319853,-0.0658616,-0.0672265
47842944,47842113,0.00752879,-0.0325116,0.00393203
47862962,47862130,-0.217748,0.000490653,0.0327387
47882979,47882148,-0.188173,0.0649916,-0.0348599
47900505,47899663,-0.0904625,0.0141426,0.00993965
47923017,47922183,0.0418404,0.0466191,-0.0249903
47943031,47942200,-0.258358,0.0118857,-0.0233669
47960571,47959715,-0.323236,0.00794086,0.045419
47983072,47982235,-0.366514,0.0432348,-0.0327418
48003107,48002259,-0.0733645,0.0509082,-0.0467884
48023109,48022275,-0.0433799,0.0390341,0.00374228
48040629,48039785,7.60623e-05,0.14249,0.00345802
48063138,48062306,-0.409122,0.172753,-0.00688344
48083153,48082321,0.0734399,0.142694,-0.00682402
48100676,48099836,0.247226,0.180724,-0.0258691
48123188,48122356,0.619214,0.0510821,-0.024111
48143205,48142373,0.398645,0.0426908,0.0276008
48163226,48162391,0.264323,0.0117253,0.0229331
48180745,48179906,0.192524,-0.039446,-0.0188598
48203259,48202425,0.493864,-0.0987401,-0.0540555
48223282,48222442,0.3298,-0.107727,-0.00298407
48240801,48239958,0.141041,-0.0921872,0.00143346
48263361,48262516,-0.284502,-0.0611065,-0.00162659
48283336,48282501,-0.138808,0.0111814,-0.0326239
48303350,48302512,0.0978317,0.0193252,-0.028767
48320883,48320034,0.1198,0.083726,-0.0496365
48343385,48342547,-0.271518,0.0392365,-0.00824731
48363398,48362564,-0.44529,0.00316835,0.0229709
48380918,48380079,-0.354693,0.0782792,-0.0205553
48400935,48400096,-0.172256,0.0847975,-0.0386747
48423454,48422616,-0.0727778,0.0724052,-0.0197399
48443468,48442633,-0.301472,0.169733,0.00588034
48460988,48460148,-0.474704,0.0851746,0.013751
48483505,48482674,-0.351406,0.101123,-0.0149687
48503532,48502695,-0.036069,0.00831639,0.0191783
48521040,48520200,0.088275,-0.0234746,-0.048321
48541059,48540220,0.181234,-0.141397,-0.028457
48563585,48562737,-0.137436,-0.258725,0.00591389
48583602,48582755,0.0340356,-0.190211,-0.0203194
48601118,48600279,0.0319294,-0.193056,-0.026402
48623642,48622789,0.411059,-0.151104,-0.057772
48643639,48642807,0.122367,-0.139361,0.00512691
48661162,48660322,-0.000253706,-0.085489,0.00902121
48681182,48680339,-0.219173,0.00153437,-0.00144836
48703708,48702862,0.147023,0.0483736,-0.0319343
48723707,48722876,0.293887,0.137664,-0.0405976
48741232,48740391,0.232952,0.133027,-0.00761515
48763756,48762911,-0.154112,0.222883,0.0093381
48783759,48782928,-0.158334,0.12359,0.0227145
48801293,48800443,-0.225005,0.166068,-0.00973492
48821306,48820461,-0.117138,0.0701193,-0.0788245
48843823,48842980,-0.032325,0.0504578,-0.091379
48863829,48862997,-0.268376,-0.0120426,-0.0816136
48881352,48880513,-0.180794,0.0286182,-0.122498
48903870,48903032,-0.10445,-0.0191196,-0.122576
48923880,48923049,0.105757,-0.0654183,-0.18892
48941413,48940565,0.258202,-0.115088,-0.240434
48961422,48960582,0.218093,-0.137282,-0.305709
48983932,48983101,0.0910057,-0.097886,-0.407167
49003953,49003122,0.163426,-0.0663674,-0.475872
49021473,49020634,0.257098,-0.101014,-0.575912
49041490,49040651,0.305574,-0.156301,-0.621694
49064002,49063171,0.120965,-0.174065,-0.675783
49081525,49080686,0.198408,-0.132913,-0.662377
49101546,49100704,0.00339727,-0.0825509,-0.62082
49124075,49123229,0.111718,-0.0922361,-0.544157
49144077,49143240,0.0331278,-0.0899872,-0.397441
49161595,49160755,0.0519372,-0.0536172,-0.376335
49181612,49180773,-0.15958,0.0290725,-0.33049
49204148,49203308,-0.215667,0.0131609,-0.295693
49221647,49220808,-0.22314,0.0778879,-0.270317
49241665,49240825,-0.0336366,0.115532,-0.271874
49264182,49263351,-0.169255,0.132394,-0.246096
49284204,49283362,-0.398169,0.0626898,-0.214216
49301720,49300877,-0.452065,0.0980609,-0.201417
49321734,49320894,-0.296651,0.0636916,-0.207255
49344247,49343414,0.0477486,0.0232807,-0.200077
49361769,49360929,0.0311457,0.0146344,-0.187223
49381786,49380946,-0.275952,0.0330924,-0.161005
49404313,49403466,-0.44115,0.0289151,-0.149302
49421834,49420981,-0.324128,-0.0115527,-0.125019
49441844,49440999,-0.139177,-0.0016363,-0.157815
49461863,49461021,-0.104588,-0.0192945,-0.122415
49484377,49483535,-0.619505,-0.0270943,-0.0517649
49501889,49501050,-0.635675,-0.0548345,-0.0793629
49521914,49521068,-0.474977,-0.0447017,-0.0674872
49541927,49541085,-0.0490954,-0.00617047,-0.099997
49564441,49563606,-0.203838,-0.0424299,-0.057571
49581963,49581120,-0.185447,-0.105379,-0.0172699
49601977,49601137,-0.470617,-0.0762778,0.0203478
49624488,49623657,-0.0505074,-0.0139357,-0.0399656
49642014,49641172,0.0252328,-0.00194374,-0.0483162
49662032,49661189,0.126467,0.0829907,-0.0457681
49682055,49681216,-0.103197,0.0885333,-0.0367512
49704558,49703726,-0.314872,0.0520758,-0.00736762
49722098,49721243,-0.422394,0.105868,0.0151616
49742107,49741261,-0.0386939,0.0580896,-0.017125
49764610,49763778,-0.0379619,0.0673434,0.0356916
49782133,49781294,-0.00821496,0.0615661,0.0119985
49802153,49801314,-0.210607,0.0485546,0.0213761
49822168,49821328,0.020035,0.0352007,0.0325637
49844679,49843848,0.443,0.0357353,0.00165377
49862203,49861363,0.623423,-0.0486324,0.00208387
49882221,49881380,0.463955,-0.055725,0.0424894
49904750,49903900,0.376938,-0.0111369,0.070577
49922267,49921415,0.534399,-0.0788827,0.0613806
49942282,49941432,0.762251,-0.033029,0.0611701
49962295,49961450,0.763085,-0.128992,0.0364795
49984816,49983969,0.322387,-0.12038,0.071844
50002329,50001484,0.163626,-0.0533563,0.0632012
50022344,50021502,0.30938,-0.0886242,0.0597581
50044864,50044021,0.38675,0.0442301,0.0291776
50059867,50059034,0.388005,0.0567907,0.0273864
50082393,50081554,-0.0742537,0.104395,0.0508314
50102418,50101571,-0.239649,0.064623,0.0453443
50124922,50124091,0.106086,0.102125,0.0553164
50142445,50141606,0.144096,0.0822487,0.040794
50162463,50161623,-0.00560118,0.068285,0.0579396
50182488,50181641,-0.272864,0.0182757,0.079656
50199995,50199156,-0.269275,-0.0226595,0.123922
50222517,50221675,-0.0459218,0.00326372,0.116329
50242535,50241693,0.271094,-0.0884141,0.0990441
50265049,50264216,0.0171676,-0.0342534,0.188045
50282566,50281727,-0.104724,-0.0505981,0.210232
50302605,50301748,-0.0643347,0.013812,0.27005
50322614,50321775,0.282883,-0.0754702,0.297067
50340115,50339282,0.330889,-0.0470744,0.337015
50362641,50361800,0.310126,-0.157853,0.414742
50382661,50381814,0.0387784,-0.0644567,0.532707
50405168,50404334,0.208062,-0.0391935,0.520568
50422688,50421849,0.144961,0.0295169,0.545745
50442705,50441866,0.207701,0.127876,0.627129
50462724,50461884,0.0369608,0.242374,0.679908
50480240,50479399,-0.216318,0.2546,0.711594
50502762,50501923,-0.337119,0.312065,0.742422
50522775,50521936,-0.0246809,0.384227,0.750016
50545303,50544455,-0.109602,0.305852,0.768104
50562821,50561970,-0.218405,0.279735,0.840481
50582830,50581988,-0.490049,0.186091,0.863724
50602844,50602005,-0.243725,0.134605,0.885485
50620358,50619520,-0.105333,0.0218734,0.880028
50642879,50642040,0.054053,-0.0144328,0.870947
50662897,50662057,-0.362199,-0.0600485,0.907423
50682914,50682075,-0.276279,-0.0705962,0.868847
50702934,50702092,-0.0248938,-0.147285,0.809609
50722952,50722109,0.0440902,-0.259447,0.720292
50742967,50742127,-0.121318,-0.283301,0.623495
50760485,50759642,-0.130656,-0.165733,0.54733
50783001,50782162,-0.085956,-0.0350462,0.474896
50803027,50802179,0.221235,-0.0486804,0.453254
50823036,50822196,0.386977,0.0428156,0.37196
50840554,50839722,0.321483,-0.0226252,0.321427
50863085,50862239,0.274585,-0.013877,0.323586
50883094,50882248,0.326944,0.0793084,0.274597
50900612,50899769,0.182493,-0.18396,0.265317
50923129,50922283,0.216758,-0.165474,0.26093
50943141,50942301,0.177219,-0.197801,0.145146
50963176,50962318,-0.1662,-0.391514,0.206432
50980665,50979833,-0.155107,-0.15522,0.137464
51003192,51002353,-0.244557,-0.209597,0.126702
51023220,51022370,-0.0292759,-0.121248,0.10889
51040721,51039885,0.0609961,0.0968529,0.071515
51063257,51062405,0.0645245,0.0709862,0.0557702
51083281,51082430,0.0251972,0.00744349,0.0725942
51103289,51102440,-0.038516,0.0938612,0.0526983
51120787,51119955,-0.0128835,0.0201003,0.0591741
51143320,51142474,0.203768,0.0365749,0.011744
51163346,51162492,0.193811,0.0438207,-0.00736077
51180845,51180007,0.0717894,0.0619849,0.0143331
51203381,51202527,-0.257258,-0.00216669,0.0269852
51223383,51222544,-0.0927233,0.00408832,-0.0134871
51243400,51242561,0.0553873,0.000427807,-0.0436787
51260911,51260076,0.17107,0.006609,-0.0338072
51283448,51282596,-0.121196,-0.0469181,0.00438796
51303452,51302613,-0.382543,0.0273851,-0.0108198
51320963,51320131,-0.335668,0.0758404,-0.0234177
51340978,51340146,-0.262504,0.0656477,-0.0595358
51363507,51362667,0.0324821,0.117413,-0.0449272
51383522,51382683,-0.206222,0.117624,-0.0450899
51401041,51400205,-0.24472,0.0847253,-0.0561462
51423567,51422717,-0.233967,0.099708,-0.0338777
51443584,51442735,0.101763,0.142851,-0.0741332
51461088,51460252,0.204604,0.0951069,-0.128464
51481114,51480276,0.278466,0.119375,-0.101775
51503636,51502787,-0.156445,0.095964,-0.0749428
51523646,51522804,-0.117583,0.0574855,-0.0652176
51541158,51540322,-0.0294455,0.0836438,-0.0847409
51563681,51562839,0.349981,0.0548823,-0.123375
51583696,51582856,-0.0208009,-0.0705405,-0.0712636
51601209,51600372,-0.151829,-0.0862535,-0.0270483
51621224,51620389,-0.671734,-0.109409,-0.0586154
51643748,51642909,-0.448732,-0.123727,-0.110337
51663772,51662926,-0.299877,-0.138317,-0.0632519
51681289,51680450,-0.282389,-0.118072,-0.119453
51703811,51702961,-1.0269,-0.120186,-0.0573071
51723823,51722978,-1.12064,-0.0597977,-0.0125008
51741355,51740503,-1.03628,0.106747,-0.0145208
51761343,51760511,-0.470037,0.096468,-0.105279
51783872,51783030,-0.0806413,-0.00952629,-0.112326
51803892,51803048,-0.272165,0.00155942,0.00229059
51821395,51820563,-0.238967,0.0928868,0.00210064
51841413,51840582,-0.310339,0.0217969,-0.0430779
51863943,51863103,0.346052,-0.0428776,-0.0713022
51881447,51880615,0.416645,-0.0443504,-0.0510369
51901467,51900635,0.27016,-0.0227368,-0.0633116
51923991,51923152,-0.374468,-0.0288216,-0.0280895
51944009,51943170,-0.275427,-0.0227562,-0.0662585
51961517,51960685,-0.0420719,0.0103786,-0.0295219
51981543,51980702,0.260305,0.0626769,-0.1051
52004063,52003223,0.0577634,0.0637882,-0.10582
52021570,52020737,0.090893,0.0326049,-0.0424853
52041587,52040754,-0.0184601,0.0512026,0.0535272
52064125,52063280,0.668389,0.101483,-0.0584319
52084130,52083291,0.9696,0.0478689,-0.0616723
52101659,52100808,1.01126,-0.0230542,-0.0659231
52121660,52120826,0.720687,-0.0159024,-0.00906073
52144194,52143343,0.383465,0.0202192,-0.0120955
52161691,52160858,0.384059,-0.0878988,-0.00717462
52181711,52180876,0.7927,-0.091673,-0.0484484
52204237,52203396,0.751219,-0.0983903,0.00204368
52224257,52223413,0.241648,-0.0328664,0.0229742
52241761,52240928,0.0943861,-0.120308,0.0135538
52261780,52260946,0.208644,-0.115624,-0.00683661
52284310,52283465,0.660748,-0.149523,-0.0558504
52301829,52300990,0.510001,-0.200587,-0.0174856
52321838,52320998,-0.021676,-0.322435,0.0107327
52344365,52343517,-0.230278,-0.285551,-0.000520099
52364393,52363534,0.134546,-0.26304,-0.0408634
52381891,52381053,0.111948,-0.363142,-0.0816177
52401899,52401067,0.0974728,-0.303375,-0.0257962
52424428,52423588,-0.422413,-0.176105,0.0213384
52441934,52441102,-0.387831,-0.238023,-0.00454807
52461952,52461119,-0.151359,-0.230338,0.0119073
52481969,52481137,0.274393,-0.165754,-0.0208419
52504500,52503656,-0.242663,-0.189774,0.0150638
52522008,52521174,-0.286468,-0.190946,0.0353943
52542023,52541189,-0.465245,-0.189102,0.041829
52564548,52563709,0.128935,-0.284552,-0.0327748
52582079,52581240,0.119047,-0.279514,-0.0239367
52602085,52601241,0.173811,-0.307156,-0.00235225
52622099,52621260,-0.151158,-0.282181,-0.00161028
52644628,52643778,-0.0697554,-0.239815,0.0291692
52662126,52661293,-0.107106,-0.18107,-0.0425223
52682144,52681311,0.140802,-0.202194,-0.0381117
52704670,52703830,0.0626641,-0.235928,-0.0227244
52722182,52721347,0.160971,-0.264449,0.0199661
52742200,52741364,0.155717,-0.146926,0.0448977
52762223,52761382,0.229008,-0.219827,-0.0563546
52784750,52783910,0.441942,-0.17634,-0.0434085
52802259,52801417,0.501026,-0.195516,0.00665868
52822286,52821434,0.229162,-0.0705271,0.0155124
52844803,52843952,-0.0303705,-0.0376312,0.0486881
52862316,52861467,-0.156798,-0.0480554,0.0243655
52882344,52881486,-0.0378222,0.0208182,-0.0139747
52902340,52901504,-0.185578,-0.00390859,-0.0142559
52924866,52924021,-0.466972,0.0447394,0.0126216
52942372,52941539,-0.423375,0.0862845,-0.00383411
52959891,52959052,-0.400201,0.0239152,0.00047343
52982410,52981573,-0.0817385,0.0844519,-0.00401995
52999926,52999087,-0.00245874,0.0114018,-0.046565
53022439,53021606,-0.282558,0.00614709,-0.0149491
53042456,53041624,-0.284805,-0.0983372,-0.0144671
53064983,53064143,0.108105,-0.0846636,-0.0348144
53082500,53081658,0.123504,-0.0804435,-0.0436924
53102508,53101676,0.124004,-0.0115253,-0.0210675
53122526,53121693,-0.10217,0.0473078,-0.00251751
53140049,53139208,-0.0557075,0.0913208,0.0255561
53162560,53161728,0.185368,0.213303,-0.0316961
53182578,53181746,0.36263,0.399948,-0.0308481
53205110,53204271,0.0283162,0.426147,0.00200846
53222613,53221780,0.00687627,0.585658,0.0119692
53242645,53241806,-0.0210501,0.577502,0.0227556
53262654,53261815,-0.0391867,0.647875,0.012126
53280170,53279330,-0.0262159,0.865026,-0.0224196
53302684,53301851,-0.421697,0.831213,0.00276095
53322699,53321867,-1.07016,0.67278,0.0591919
53345228,53344387,-1.11013,0.632716,0.0467358
53362734,53361902,-1.19585,0.561445,0.00258678
53382752,53381920,-1.09152,0.500424,0.0321148
53402769,53401937,-1.19218,0.308309,0.0400926
53420307,53419452,-1.21857,0.225495,0.0438739
53442816,53441984,-1.20384,0.167618,0.023257
53462821,53461989,-0.750927,0.0582838,-0.000721118
53485357,53484508,-0.469567,-0.0433922,0.010826
53502867,53502025,-0.283839,-0.0256229,0.0294463
53522873,53522041,-0.169729,-0.0604207,0.0329462
53542899,53542058,-0.00637128,-0.0888304,-0.0098386
53560421,53559581,0.0964962,-0.0810414,0.00571647
53582925,53582093,0.443814,-0.0826661,-0.0197617
53602946,53602111,0.427702,-0.0748845,0.0104668
53622964,53622128,0.17475,0.0481446,-0.00467124
53640497,53639658,0.042815,-0.158298,0.0121996
53662999,53662164,0.0535858,-0.141621,0.0383421
53683019,53682181,0.115528,-0.0293046,0.00349141
53700535,53699696,-0.00859554,-0.0663481,0.0125286
53723064,53722225,-0.227503,-0.109355,0.0376596
53743071,53742232,-0.0857448,-0.0186017,0.0327721
53763094,53762255,0.123266,0.118335,-0.00105552
53780604,53779765,0.3183,-0.00755507,0.0120041
53803118,53802285,0.645854,0.0743345,0.0151759
53823139,53822302,0.910672,0.200913,-0.000475134
53840659,53839817,0.991465,0.148344,-0.00262331
53863175,53862337,1.11041,0.167391,-0.0392108
53883188,53882355,1.33512,0.0569635,-0.0415518
53900709,53899869,1.20073,0.00902955,-0.0248232
53920727,53919887,1.10739,-0.0328587,-0.00906412
53943256,53942416,0.685371,-0.190757,0.0102513
53963274,53962430,0.559343,-0.138555,-0.00564593
53980787,53979939,0.499565,-0.119541,-0.00669505
54003311,54002459,0.368053,-0.117429,-0.0122775
54020843,54019974,0.146788,-0.0577182,-0.00164872
54043349,54042493,-0.277381,-0.123189,0.00804488
54060851,54060009,-0.287347,-0.184244,0.0300903
54083364,54082529,-0.169855,-0.114008,0.00943431
54100885,54100044,-0.25931,-0.232401,0.00635658
54120901,54120061,-0.173213,-0.306198,0.0224528
54140917,54140078,-0.115554,-0.191249,-0.0285529
54163430,54162598,-0.0643728,-0.215835,-0.0102097
54180953,54180113,-0.0419026,-0.32391,-0.00260893
54200972,54200131,0.154231,-0.277815,-0.018319
54223483,54222650,0.315054,-0.27566,-0.0398143
54241007,54240166,0.262127,-0.311161,-0.026374
54261032,54260188,0.186556,-0.354015,-0.0103722
54281043,54280200,0.102998,-0.251606,-0.00342143
54303573,54302722,0.153449,-0.212245,-0.0448452
54323580,54322737,0.0941169,-0.187221,-0.028537
54341099,54340253,0.0748001,-0.084445,-0.0291462
54363615,54362772,-0.263466,0.0322892,-0.030228
54381130,54380291,-0.273408,-0.0112546,0.018491
54401144,54400305,-0.0384594,0.167347,-0.0176515
54421169,54420330,-0.0316527,0.312616,-0.0635838
54443683,54442842,-0.168062,0.380904,0.00532616
54461214,54460371,-0.0574016,0.418394,0.00247768
54481216,54480375,-0.113742,0.595647,-0.0360347
54503728,54502896,0.0546201,0.678314,-0.0610057
54521261,54520409,0.0188592,0.520755,0.00254482
54541281,54540429,0.138115,0.481252,0.0141154
54561295,54560450,-0.0383582,0.48592,0.00138713
54583796,54582964,-0.0663936,0.389941,-0.00439457
54601323,54600479,-0.10322,0.146635,0.00539568
54621351,54620496,0.142532,0.138343,-0.000405444
54643855,54643019,0.0188811,0.0148359,-0.0249528
54663866,54663033,-0.108669,-0.0360326,-0.00958154
54681388,54680548,-0.150448,-0.0959228,0.00316473
54701405,54700566,-0.0511036,-0.118071,-0.0133466
54723927,54723094,0.170822,-0.125675,-0.0193979
54741453,54740601,0.222738,-0.175742,-0.0169418
54761457,54760618,-0.0312268,-0.174139,0.0181964
54781474,54780635,-0.294121,-0.199681,-0.0112765
54803987,54803155,0.152505,-0.243169,-0.0383631
54821510,54820670,0.306025,-0.229765,-0.0240144
54841529,54840688,0.111485,-0.270102,-0.0119052
54864054,54863222,-0.269866,-0.291439,0.0476795
54881568,54880726,-0.280581,-0.411816,0.0354111
54901580,54900740,0.0839801,-0.315462,0.0263056
54921605,54920758,0.222348,-0.166777,-0.0424378
54944114,54943281,0.036048,-0.0166157,0.00251233
54961633,54960792,-0.225907,0.0846886,0.0123727
54981649,54980810,-0.0804916,0.188319,0.038467
55004162,55003330,0.260157,0.309766,0.0323513
55021684,55020844,0.292574,0.4612,-0.0391255
55041715,55040876,0.0663262,0.492091,0.00372187
55061719,55060879,-0.241089,0.410987,0.054888
55084237,55083399,-0.264304,0.368997,0.016901
55101754,55100914,-0.0150359,0.19473,0.0627781
55121780,55120939,0.137844,0.154064,0.0124527
55144313,55143451,-0.149034,0.0467589,-0.000615421
55161820,55160969,-0.301319,-0.0244987,0.0547934
55181824,55180984,-0.381634,-0.0463663,0.0529003
55201842,55201001,-0.0596056,-0.134057,0.0195694
55224356,55223521,0.0840802,-0.151385,0.0536075
55241883,55241044,0.0668181,-0.110452,0.0263176
55261913,55261076,-0.189623,-0.164761,0.0724583
55281910,55281071,-0.193909,-0.0855329,0.0514584
55304430,55303592,0.264143,-0.0532944,-0.0173606
55321945,55321106,0.33849,-0.0143925,-0.0071392
55341962,55341123,0.23084,0.0452989,0.00191412
55364476,55363643,0.0660514,0.0949044,0.00961163
55381997,55381158,0.316907,0.00903893,0.0228721
55402018,55401176,0.686915,0.00518879,0.0515712
55422035,55421193,0.919908,-0.0552332,-0.0192568
55444548,55443713,0.56542,-0.0160888,-0.000536333
55462082,55461236,0.479344,-0.00877339,0.0652566
55482098,55481248,0.426965,0.0649229,0.0315136
55504607,55503766,0.840381,-0.034756,-0.0486192
55522121,55521281,0.726533,-0.0351514,0.0335328
55542137,55541298,0.446661,-0.0238819,0.0545955
55562165,55561326,0.0441293,-0.0525013,0.0455723
55584671,55583835,0.17464,0.01624,0.0601735
55602189,55601350,-0.086058,0.0390034,-0.0222097
55622209,55621367,-0.416184,0.00874796,0.0128871
55644721,55643887,-1.06429,-0.00734034,0.0704975
55662274,55661404,-1.10819,-0.0409202,0.0751352
55682269,55681420,-0.873282,0.0318012,-0.000858058
55702292,55701437,-0.480311,0.0627734,-0.029579
55724789,55723956,-0.610159,0.0243562,0.0342569
55742334,55741472,-0.527771,0.108392,0.0501085
55762343,55761489,-0.724307,0.160485,0.0146046
55784851,55784009,-0.035911,0.0574809,-0.0228802
55802372,55801524,0.0649141,-0.057418,0.00432863
55822391,55821541,0.230151,-0.129474,0.00684812
55842398,55841559,0.0469022,-0.131474,0.0238636
55864911,55864078,-0.00788215,-0.133269,-0.0114905
55882433,55881593,0.0803995,-0.0898368,-0.0192799
55902452,55901613,0.324774,-0.0625174,-0.081663
55922473,55921628,0.0718156,-0.0709033,-0.0138663
55939981,55939150,0.0616499,-0.0153695,-0.00168687
55962502,55961663,-0.312583,-0.0185282,-0.0215813
55982519,55981681,-0.0570374,0.194554,-0.0714955
56005037,56004200,0.213861,0.142324,-0.134486
56022555,56021715,0.0335396,0.105355,-0.138372
56042572,56041733,-0.224826,0.045274,-0.138237
56062589,56061750,-0.139248,0.0656716,-0.179445
56080109,56079278,-0.14025,0.0135146,-0.225855
56102624,56101785,0.207387,-0.000499781,-0.304425
56122642,56121803,0.0440803,-0.0546989,-0.316383
56145157,56144325,-0.294283,-0.132965,-0.309158
56162676,56161837,-0.13895,-0.18508,-0.317745
56182696,56181855,-0.100593,-0.125274,-0.304987
56202714,56201873,0.0349653,-0.18442,-0.280989
56220228,56219390,0.109476,-0.101046,-0.265143
56245261,56244411,-0.083305,-0.0169294,-0.187366
56262767,56261925,-0.158538,0.0894993,-0.166626
56285327,56284451,0.279434,0.0909928,-0.184669
56305301,56304463,0.309978,0.100728,-0.133038
56325325,56324480,0.122856,0.157759,-0.13405
56342833,56341994,-0.0655895,0.139583,-0.1472
56360341,56359509,-0.144654,0.139265,-0.107776
56382872,56382029,0.192618,0.120801,-0.158964
56405388,56404550,0.167035,0.101404,-0.133154
56422906,56422064,0.189428,0.11431,-0.134967
56440413,56439579,0.00742577,0.000658432,-0.108977
56462940,56462099,-0.21392,-0.062992,-0.0947673
56485458,56484620,0.127932,-0.180676,-0.121354
56500467,56499635,0.0813355,-0.0650844,-0.141583
56522991,56522151,0.0682682,-0.126551,-0.0918913
56545513,56544672,-0.245463,-0.127339,-0.0488391
56563032,56562186,-0.302959,-0.164682,-0.0865778
56580532,56579701,-0.202973,-0.158038,-0.0464382
56603079,56602223,0.0143756,-0.10975,-0.067778
56625597,56624753,-0.449989,-0.058246,-0.0446837
56640584,56639754,-0.524371,0.0314552,-0.0271407
56663119,56662279,-0.656875,0.0820794,-0.0177578
56683135,56682296,-0.495121,0.121127,-0.0428665
56705651,56704812,-0.477568,0.162817,0.000552295
56720670,56719826,-0.335875,0.234146,-0.0522532
56743184,56742343,-0.510093,0.320686,-0.0163339
56763207,56762361,-0.359949,0.220305,-0.0141604
56780710,56779876,-0.201853,0.109853,-0.0154661
56805736,56804899,-0.0586957,-0.0405534,0.00865334
56823255,56822413,0.0407152,-0.118621,-0.0135906
56845770,56844934,0.0150035,-0.199134,-0.0094898
56860776,56859945,-0.140253,-0.254099,-0.0227631
56885804,56884969,0.0847523,-0.273546,-0.0234574
56903328,56902482,-0.0657282,-0.277948,-0.0136472
56920831,56919998,-0.00283316,-0.168352,-0.0286055
56945856,56945021,-0.229925,-0.102921,0.00491027
56965882,56965038,-0.0971886,-0.0260361,-0.0145742
56983391,56982552,-0.136283,-0.0102951,-0.0317431
57000898,57000067,-0.00165434,0.134173,-0.0227085
57025929,57025090,0.00954805,0.168408,0.0162441
57045946,57045108,0.298502,0.230152,-0.0253521
57060951,57060120,0.362411,0.197067,-0.00713425
57080971,57080137,0.482263,0.181006,-0.00502014
57106002,57105160,0.75688,0.149921,-0.0234937
57126013,57125178,0.586115,0.134563,-0.00491787
57141023,57140189,0.746794,0.0443087,-0.0219883
57166050,57165215,0.517579,0.0120609,-0.00825301
57186065,57185230,0.536775,-0.0152889,-0.0357721
57201092,57200244,0.393299,-0.0313057,-0.0259
57221096,57220259,0.396051,-0.0480091,-0.00869488
57246122,57245283,-0.0833097,-0.103078,0.00377032
57266151,57265307,-0.137223,-0.0956376,0.0194737
57281144,57280313,-0.163195,-0.00757622,-0.00621117
57303682,57302838,0.167467,0.029067,-0.0451978
57326195,57325352,-0.116122,0.0107386,-0.0118859
57341195,57340364,0.0195751,-0.0339187,0.00107234
57361225,57360381,-0.341118,-0.00528778,0.0162155
57383743,57382901,-0.361662,0.0858794,-0.0352337
57406272,57405422,-0.222383,0.0428353,-0.0196278
57421272,57420433,-0.417116,0.00378672,-0.00175807
57443804,57442953,-0.851101,-0.0340294,0.0581122
57463817,57462978,-0.862388,0.0112598,0.0287342
57481323,57480486,-0.918914,0.0143055,0.00946707
57501346,57500503,-0.537146,-0.0127102,0.00742347
57523862,57523023,-0.52317,-0.0836959,0.0246326
57543879,57543040,-0.668041,-0.134108,0.0648776
57561386,57560555,-0.520469,-0.0601051,0.0508069
57581406,57580573,-0.46715,-0.0179406,0.0164845
57603932,57603093,0.0277058,0.0158974,0.000429776
57621441,57620608,0.0750529,-0.0417568,0.0281773
57641456,57640625,0.101212,-0.0567869,0.0432951
57666482,57665648,0.0345936,0.030741,0.0486366
57684002,57683162,0.0444345,0.112391,0.0171011
57701508,57700678,0.0641548,0.110536,0.0472042
57721533,57720702,0.132744,0.0761187,0.0466538
57746556,57745718,-0.185626,0.0175565,0.0893358
57761567,57760736,-0.120795,0.0889511,0.0367695
57781584,57780748,-0.18926,0.0485195,0.0495423
57806607,57805770,0.234033,0.0218037,0.00278861
57826621,57825788,0.282094,-0.017484,0.0249764
57841638,57840800,0.549021,-0.0121681,0.0403057
57861648,57860817,0.508152,0.0023271,0.0530309
57884180,57883337,0.750507,0.0414907,0.0323275
57901690,57900852,1.01473,-0.0332023,0.0562546
57921701,57920869,1.20163,-0.0476938,-0.00455615
57944231,57943389,1.14062,-0.0776069,-0.0080849
57964250,57963407,0.739153,-0.0855601,0.0176151
57981759,57980925,0.500067,-0.147548,0.0707489
58001771,58000939,0.360796,-0.105468,0.0364455
58024304,58023459,0.297436,-0.0161122,0.0286881
58041805,58040974,-0.036316,0.0275636,0.0466227
58061823,58060992,-0.265698,0.102422,0.0435134
58084362,58083511,-0.431648,0.14039,0.0169657
58106870,58106033,-0.254494,0.142152,-0.00617135
58121876,58121044,-0.290195,0.130081,0.0212104
58141905,58141070,-0.201541,0.116443,0.00671213
58164439,58163600,-0.381638,0.127594,0.0403468
58181935,58181098,-0.24497,0.0977515,0.0424602
58201996,58201137,-0.0986043,0.0885796,0.0277913
58221962,58221131,0.232132,0.0884787,0.0095274
58244495,58243656,0.236581,0.0345627,0.0378723
58261997,58261166,0.247548,0.100391,0.0100469
58282019,58281183,0.0762115,0.0752909,0.0141863
58304543,58303703,0.383704,0.0572271,0.014839
58322068,58321220,0.541881,-0.0362673,0.0227225
58342076,58341239,0.534898,-0.0636336,-0.0475573
58362093,58361253,0.249341,-0.0722146,0.0135777
58384612,58383773,-0.110431,-0.0238562,0.00606667
58402125,58401288,-0.133176,-0.0660816,0.0057258
58422141,58421306,0.0475284,-0.0725292,0.0113809
58444666,58443827,-0.0930625,-0.0544764,0.0585723
58462172,58461341,0.0295711,-0.00753513,0.0449762
58482189,58481358,-0.181715,0.0456346,0.054354
58502206,58501376,0.175913,-0.0415623,0.0281172
58524741,58523895,0.268364,-0.11277,-0.00743337
58542243,58541410,0.237052,-0.215293,0.0487584
58562273,58561428,-0.00923117,-0.282404,0.0633386
58584806,58583948,-0.196912,-0.29116,0.0198959
58602312,58601464,-0.153366,-0.373726,0.00909194
58622319,58621480,-0.179115,-0.433168,0.0102345
58642335,58641497,-0.272606,-0.49374,0.0218141
58664859,58664017,-0.511727,-0.418857,0.0317801
58682371,58681536,-0.57658,-0.368623,0.000361836
58702387,58701550,-0.243483,-0.270866,-0.00341852
58722398,58721567,0.0771762,-0.158169,-0.0326911
58739927,58739082,0.0738043,-0.0971617,-0.0323691
58762436,58761602,-0.149648,0.012804,0.0230041
58782450,58781620,-0.139954,-0.0270123,0.01079
58804991,58804139,0.259402,-0.0310764,-0.0331294
58822485,58821654,0.433379,-0.0755228,-0.0238441
58842506,58841672,0.17662,-0.0893432,0.00859671
58862520,58861689,-0.168422,-0.0312879,0.0013825
58880051,58879205,-0.152772,-0.0239217,0.0273386
58902555,58901724,0.213773,0.00633318,-0.013765
58922577,58921742,0.406771,0.157742,-0.0442322
58945110,58944269,0.0588504,0.329682,0.0321558
58962608,58961777,-0.0576261,0.540654,-0.00963096
58982637,58981794,-0.0507364,0.665204,0.00853483
59002642,59001811,0.260223,0.661636,-0.0328167
59020166,59019327,0.232486,0.661135,-0.0354223
59042677,59041846,0.0514699,0.485794,0.0186597
59062697,59061864,-0.198736,0.399334,0.00538353
59085225,59084384,-0.00542424,0.342072,-0.0612511
59102734,59101899,0.0764289,0.217233,-0.0315649
59122747,59121916,0.136228,0.133594,-0.014929
59142764,59141934,-0.0953515,-0.0169865,-0.00182022
59160294,59159449,-0.215988,-0.0349459,-0.0119819
59182800,59181969,-0.328541,-0.141661,-0.0394119
59202817,59201986,-0.0492872,-0.327273,-0.0157928
59225354,59224506,-0.260525,-0.455801,0.0378261
59242855,59242021,-0.212888,-0.320523,0.00687195
59262875,59262039,-0.301448,-0.323915,-0.0150358
59282896,59282062,-0.14134,-0.337386,-0.0348663
59300411,59299571,0.100452,-0.243803,-0.0482531
59322922,59322091,0.265987,-0.24177,-0.0505651
59342939,59342108,0.0833264,-0.2646,-0.0354159
59362956,59362126,0.034013,-0.276948,-0.0313711
59380481,59379641,0.0809828,-0.150637,-0.0910995
59402991,59402161,0.214534,-0.110696,-0.0801404
59423009,59422178,0.107986,-0.113454,-0.0437306
59440533,59439694,0.0710932,-0.0787801,-0.0537702
59463050,59462219,-0.200517,0.0633728,-0.0250644
59483062,59482230,-0.224755,0.137763,-0.0141258
59503084,59502248,-0.265107,0.22374,-0.00763575
59520616,59519763,-0.447049,0.241733,-0.0482448
59543115,59542283,-0.797302,0.277402,0.0146936
59563134,59562302,-0.931302,0.268683,-0.0179018
59580658,59579819,-1.08536,0.258851,-0.00891282
59603167,59602335,-0.792665,0.286402,-0.0172654
59623184,59622353,-0.773504,0.223404,-0.00512932
59643202,59642370,-0.745333,0.292128,-0.0340415
59660725,59659885,-0.660324,0.23774,-0.0442648
59683255,59682405,-0.436171,0.246052,-0.0358567
59703256,59702422,-0.137874,0.191475,-0.0365508
59720777,59719938,0.0372169,0.0720553,-0.034838
59743306,59742458,0.0536999,-0.0299284,-0.00330779
59763315,59762475,0.0218856,-0.0192186,-0.00887335
59783333,59782492,0.0844541,-0.130998,-0.0194292
59800850,59800008,0.278837,-0.0755981,0.00510334
59823359,59822527,0.336962,-0.134957,-0.0301188
59843385,59842545,0.30782,-0.119638,-0.0257608
59860906,59860060,0.222887,-0.183584,0.00377004
59880916,59880077,0.312994,-0.0688637,-0.030073
59903428,59902597,0.55809,-0.104104,-0.0447761
59923459,59922621,0.699877,-0.0899984,-0.0176322
59940969,59940130,0.822763,-0.0867827,-0.0231339
59963490,59962652,0.682291,-0.115045,0.00869154
59983508,59982667,0.725445,-0.0320793,-0.0170005
60001023,60000182,0.748585,-0.0287414,0.0145176
60021052,60020200,0.775735,0.0644788,-0.0369854
60043550,60042719,0.640969,0.0630269,-0.0163251
60063587,60062737,0.29785,0.0757257,-0.0273946
60081095,60080252,0.310775,0.0645937,-0.00110185
60103613,60102772,0.333268,-0.0218459,-0.0172652
60123636,60122789,0.243026,-0.155303,-0.0711052
60141144,60140305,0.111894,-0.410977,-0.000712027
60161171,60160324,-0.0731577,-0.47033,-0.0147201
60183675,60182842,-0.219806,-0.502867,-0.0159908
60203690,60202859,-0.106013,-0.521808,-0.0560626
60221219,60220375,-0.0625425,-0.463153,-5.59711e-05
60243731,60242894,-0.198662,-0.42507,0.00659151
60263746,60262911,-0.311489,-0.286283,0.00863893
60281278,60280427,-0.327687,-0.254203,0.024269
60301298,60300444,-0.0968466,-0.0934231,0.00232761
60323806,60322964,0.129439,-0.0931948,-0.00459725
60343812,60342981,-0.0265489,-0.0888033,0.0443343
60361349,60360497,-0.0606643,-0.0194256,0.0325786
60383850,60383016,-0.157703,0.0196807,0.0119247
60403865,60403034,0.164264,0.082762,0.0201002
60421388,60420549,0.0653031,0.122788,-0.00178788
60441408,60440566,0.0415421,0.176625,0.07131
60463920,60463086,-0.33292,0.286369,0.0781547
60483934,60483104,-0.0391492,0.253718,0.0849265
60501464,60500622,0.0763854,0.282943,0.0951821
60521477,60520638,0.277928,0.290926,0.0755527
60543996,60543156,0.201074,0.208057,0.117421
60561516,60560671,-0.0164725,0.283651,0.100298
60581528,60580689,0.137287,0.255706,0.0707922
60604043,60603208,0.235822,0.240247,0.0318975
60624059,60623226,0.226513,0.337999,0.0888831
60641586,60640744,0.0961804,0.367309,0.060186
60661598,60660759,-0.169299,0.323803,0.0651352
60684112,60683281,0.00146265,0.340486,0.0278724
60701632,60700794,0.112693,0.357964,0.0237775
60721651,60720811,0.280032,0.257047,0.0395895
60744164,60743331,-0.160398,0.18859,0.112812
60764179,60763348,-0.25003,0.165688,0.0855445
60781703,60780863,-0.281952,0.0732791,0.0701357
60801720,60800881,0.0209399,0.0392169,0.0912083
60824236,60823403,0.105381,0.00931254,0.0712594
60841756,60840916,-0.0383184,-0.0430579,0.0757788
60861773,60860933,-0.148351,-0.0567181,0.112091
60884308,60883453,0.14941,-0.109259,0.024272
60901827,60900968,0.288659,-0.270658,0.0153638
60921829,60920986,0.309841,-0.318773,0.0558737
60941846,60941003,-0.0939827,-0.449913,0.0942903
60964371,60963529,-0.203926,-0.476203,0.0711681
60981883,60981038,-0.247502,-0.501039,0.0150086
61001895,61001056,0.0448954,-0.578337,-0.0019527
61021913,61021073,0.0357557,-0.515752,0.0137153
61044444,61043595,-0.459891,-0.420307,0.0201909
61061948,61061108,-0.394432,-0.241434,0.0361791
61081969,61081126,-0.21856,-0.115624,-0.0204712
61104482,61103645,0.171845,-0.0150111,-0.0182392
61122018,61121180,0.215014,0.0258094,-0.0275929
61142026,61141178,0.000641801,0.0996225,-0.0172557
61162036,61161195,-0.115479,0.164947,0.0238236
61184553,61183715,0.432376,0.285355,-0.0307273
61202069,61201230,0.630684,0.165313,-0.0392285
61222099,61221249,0.558017,0.17266,-0.0492332
61244625,61243768,0.0282633,0.147736,-0.0140407
61262122,61261283,-0.0369517,0.0526777,0.0149586
61282140,61281300,0.118871,0.133001,-0.0152174
61302157,61301318,0.176225,0.112668,-0.0767519
61324674,61323837,-0.0698288,0.118945,0.0287711
61342196,61341353,-0.407074,0.137023,0.0274651
61362210,61361370,-0.545362,0.208793,-0.0219346
61384721,61383890,-0.214512,0.291797,-0.00814659
61402260,61401405,0.00915377,0.345027,-0.0229216
61422269,61421422,0.0360628,0.385756,-0.0283813
61442301,61441440,-0.214323,0.455237,-0.0191048
61464791,61463959,-0.00774839,0.445066,-0.0319701
61482320,61481475,0.150994,0.383449,0.0213981
61502337,61501492,0.313839,0.288891,-0.0191729
61524848,61524014,0.0647985,0.140453,-0.00097402
61542375,61541527,-0.0189253,0.143336,-0.0303788
61562392,61561545,-0.0982628,0.0187492,-0.0228522
61582401,61581562,0.10821,-0.0322716,-0.0133703
61604912,61604082,0.0665721,-0.213573,-0.0248111
61622436,61621597,0.0185842,-0.218459,-0.042462
61642456,61641615,-0.133968,-0.232095,-0.03611
61662471,61661632,-0.11241,-0.233278,-0.0213325
61679980,61679148,-0.167424,-0.211946,-0.029199
61702506,61701667,0.145236,-0.157066,-0.0387801
61722524,61721684,0.111203,-0.137389,-0.00979574
61745036,61744204,-0.252873,-0.113616,-0.00215985
61762558,61761719,-0.166777,-0.0509919,-0.0432475
61782576,61781737,-0.0423341,0.0221211,-0.049411
61802621,61801754,0.195341,0.0264251,-0.0337629
61820110,61819278,0.196278,0.0917715,-0.0788818
61842631,61841793,-0.220503,0.124439,-0.0220577
61862649,61861807,-0.373713,0.111064,-0.0266618
61885164,61884327,-0.0760173,0.109154,-0.0407538
61902681,61901842,-0.117479,0.0646183,-0.025544
61922707,61921868,-0.421729,0.10852,-0.0191472
61942716,61941877,-0.802727,0.105414,0.00760067
61960242,61959392,-0.810482,0.0721472,0.00673368
61982751,61981912,-0.606622,0.117517,0.0339715
62002768,62001929,-0.603099,0.0690857,-0.0621359
62025308,62024454,-0.804835,0.0554051,0.00330016
62042813,62041964,-0.952895,0.0294451,-0.00222386
62062821,62061981,-1.00048,-4.84745e-05,-0.00555826
62082838,62081999,-0.729778,0.0157697,-0.0204359
62100353,62099515,-0.734484,0.0217827,-0.0408129
62122876,62122034,-0.410481,-0.06144,-0.0222826
62142890,62142051,-0.530898,-0.0546445,0.0155881
62162908,62162069,-0.329438,-0.0454172,-0.0395092
62180425,62179584,-0.173564,-0.103986,-0.0425598
62202943,62202104,0.0299091,-0.096286,-0.0374279
62222972,62222121,-0.0467655,-0.134667,-0.0621794
62240475,62239637,-0.0879485,-0.111996,-0.0332835
62262999,62262160,-0.266385,-0.0973276,-0.0341142
62283013,62282174,0.00707122,-0.111205,-0.043383
62303038,62302191,0.108491,-0.13483,-0.0259053
62320541,62319707,-0.0130882,-0.10557,-0.0378766
62343068,62342229,-0.123603,-0.116741,-0.0321312
62363089,62362244,0.0298514,-0.130508,-0.00957217
62380600,62379759,0.222764,-0.0261197,-0.04169
62403121,62402281,0.575898,-0.0228699,-0.0650486
62423143,62422296,0.587535,-0.0576733,-0.049989
62443154,62442314,0.621166,-0.0247332,-0.0336956
62460661,62459829,0.935371,-0.00665048,-0.0198836
62483189,62482349,1.21032,-0.0456773,-0.0651135
62503206,62502366,1.29875,-0.0357823,-0.0473357
62520715,62519882,1.16194,0.0270321,-0.0535071
62543256,62542401,0.745815,0.0188254,-0.0284629
62563260,62562418,0.545187,0.0238626,-0.0155233
62583285,62582436,0.616388,0.0529706,0.00451493
62600783,62599951,0.393049,-0.0167464,-0.0386312
62623324,62622478,0.179043,-0.0471594,-0.00274816
62643343,62642488,-0.0343631,-0.0869524,0.000567879
62660836,62660003,-0.154055,-0.21251,0.00907388
62683372,62682523,-0.0142683,-0.24491,-0.00160876
62703382,62702543,0.135984,-0.288976,-0.0117743
62723402,62722558,0.0343766,-0.340898,-0.00901708
62740914,62740073,0.0174944,-0.381014,-0.00987116
62763433,62762593,-0.0964921,-0.340727,-0.00899945
62783454,62782611,0.112006,-0.285069,-0.0287038
62800961,62800126,0.279671,-0.317221,-0.031493
62820978,62820143,0.422704,-0.254268,-0.0140135
62843502,62842663,0.0327962,-0.256225,-0.00118748
62863519,62862680,-0.00628427,-0.183731,-0.00285464
62881050,62880196,0.0481691,-0.121356,-0.00275452
62903568,62902716,0.428067,-0.04894,-0.0575997
62923586,62922736,0.370083,-0.00762073,-0.0308813
62941085,62940248,0.230191,-0.0231024,-0.0155354
62961104,62960272,-0.0840058,0.00294911,-0.00193996
62983634,62982786,-0.0794344,0.0431989,-0.00973034
63003659,63002803,0.138666,0.149065,-0.0756065
63021153,63020321,-0.0207566,0.0740753,-0.0517905
63043681,63042838,-0.340321,0.116435,-0.0207984
63063694,63062855,-0.385299,0.253841,0.0168771
63081203,63080371,-0.308749,0.40688,-0.0554345
63101232,63100396,-0.200275,0.448273,-0.0679775
63123750,63122908,-0.0510314,0.490467,-0.0448529
63143764,63142925,-0.287012,0.466598,-0.0185944
