timestamp,q[0],q[1],q[2],q[3],delta_q_reset[0],delta_q_reset[1],delta_q_reset[2],delta_q_reset[3],quat_reset_counter
38896902,0.998929,0.0197984,-0.0316966,-0.0272727,0.999375,8.4547e-09,-5.36259e-09,0.0353527,3
38901907,0.998886,0.0198577,-0.032353,-0.0280452,0.999375,8.4547e-09,-5.36259e-09,0.0353527,3
38951946,0.998918,0.0206219,-0.0316175,-0.027164,0.999375,8.4547e-09,-5.36259e-09,0.0353527,3
38996985,0.998897,0.0184351,-0.0326998,-0.0282155,0.999375,8.4547e-09,-5.36259e-09,0.0353527,3
39052032,0.998915,0.0174189,-0.0326754,-0.0282596,0.999375,8.4547e-09,-5.36259e-09,0.0353527,3
39102075,0.998942,0.0161025,-0.0322378,-0.0285696,0.999375,8.4547e-09,-5.36259e-09,0.0353527,3
39147114,0.999023,0.0144237,-0.0309026,-0.0281145,0.999375,8.4547e-09,-5.36259e-09,0.0353527,3
39202161,0.999098,0.0119613,-0.0300396,-0.0275419,0.999375,8.4547e-09,-5.36259e-09,0.0353527,3
39252204,0.999226,0.00782826,-0.0282423,-0.0262571,0.999375,8.4547e-09,-5.36259e-09,0.0353527,3
39302249,0.999212,0.0111489,-0.0288752,-0.0248488,0.999375,8.4547e-09,-5.36259e-09,0.0353527,3
39347294,0.999285,0.0108275,-0.0270439,-0.0241215,0.999375,8.4547e-09,-5.36259e-09,0.0353527,3
39402334,0.999095,0.0168201,-0.0312383,-0.0234634,0.999375,8.4547e-09,-5.36259e-09,0.0353527,3
39452376,0.998985,0.0227895,-0.0306004,-0.023962,0.999375,8.4547e-09,-5.36259e-09,0.0353527,3
39497415,0.998778,0.0265893,-0.0334863,-0.0248047,0.999375,8.4547e-09,-5.36259e-09,0.0353527,3
39552468,0.998733,0.0281551,-0.0331611,-0.0253143,0.999375,8.4547e-09,-5.36259e-09,0.0353527,3
39602505,0.998807,0.0274156,-0.0320366,-0.0246185,0.999375,8.4547e-09,-5.36259e-09,0.0353527,3
39647544,0.998968,0.0222577,-0.0307892,-0.0248798,0.999375,8.4547e-09,-5.36259e-09,0.0353527,3
39697587,0.999081,0.0193892,-0.0297245,-0.024054,0.999375,8.4547e-09,-5.36259e-09,0.0353527,3
39752634,0.999195,0.0130069,-0.0299543,-0.0232886,0.999375,8.4547e-09,-5.36259e-09,0.0353527,3
39802677,0.99926,0.0100773,-0.0288537,-0.0233587,0.999375,8.4547e-09,-5.36259e-09,0.0353527,3
39847716,0.999212,0.0100966,-0.0308795,-0.0228159,0.999375,8.4547e-09,-5.36259e-09,0.0353527,3
39902763,0.999276,0.00922886,-0.0288701,-0.0229924,0.999375,8.4547e-09,-5.36259e-09,0.0353527,3
39952806,0.999316,0.00950627,-0.0279387,-0.0223024,0.999375,8.4547e-09,-5.36259e-09,0.0353527,3
39997862,0.999353,0.00697562,-0.0270528,-0.0226504,0.999375,8.4547e-09,-5.36259e-09,0.0353527,3
40047888,0.999357,0.00795223,-0.027145,-0.0220368,0.999375,8.4547e-09,-5.36259e-09,0.0353527,3
40102935,0.999261,0.0100994,-0.0299188,-0.0219396,0.999375,8.4547e-09,-5.36259e-09,0.0353527,3
40152978,0.999316,0.0116288,-0.027296,-0.022086,0.999375,8.4547e-09,-5.36259e-09,0.0353527,3
40198017,0.999179,0.0166781,-0.0297143,-0.0219009,0.999375,8.4547e-09,-5.36259e-09,0.0353527,3
40253064,0.999219,0.0164749,-0.0286278,-0.0216699,0.999375,8.4547e-09,-5.36259e-09,0.0353527,3
40303107,0.999253,0.0173339,-0.0273898,-0.0210549,0.999375,8.4547e-09,-5.36259e-09,0.0353527,3
40348153,0.999245,0.0161031,-0.0283058,-0.0211821,0.999375,8.4547e-09,-5.36259e-09,0.0353527,3
40398193,0.999288,0.0149153,-0.0280669,-0.020336,0.999375,8.4547e-09,-5.36259e-09,0.0353527,3
40453236,0.999405,0.0134158,-0.024757,-0.0198986,0.999375,8.4547e-09,-5.36259e-09,0.0353527,3
40498284,0.99944,0.0126504,-0.023913,-0.0197174,0.999375,8.4547e-09,-5.36259e-09,0.0353527,3
40548318,0.99953,0.0123091,-0.020633,-0.0190197,0.999375,8.4547e-09,-5.36259e-09,0.0353527,3
40603366,0.999577,0.0111838,-0.0194486,-0.0185267,0.999375,8.4547e-09,-5.36259e-09,0.0353527,3
40653408,0.999576,0.01443,-0.0174969,-0.0182629,0.999375,8.4547e-09,-5.36259e-09,0.0353527,3
40698447,0.999599,0.0150125,-0.0161278,-0.0178127,0.999375,8.4547e-09,-5.36259e-09,0.0353527,3
40748493,0.999546,0.0202256,-0.0132029,-0.0180331,0.999375,8.4547e-09,-5.36259e-09,0.0353527,3
40803538,0.999529,0.0225453,-0.0119658,-0.0170231,0.999375,8.4547e-09,-5.36259e-09,0.0353527,3
40848584,0.999389,0.0281595,-0.012587,-0.016416,0.999375,8.4547e-09,-5.36259e-09,0.0353527,3
40898619,0.999287,0.0328996,-0.00922783,-0.0160377,0.999375,8.4547e-09,-5.36259e-09,0.0353527,3
40953667,0.999301,0.0342536,-0.00389348,-0.0144418,0.999375,8.4547e-09,-5.36259e-09,0.0353527,3
40998706,0.999314,0.0349151,-0.00147166,-0.0122697,0.999375,8.4547e-09,-5.36259e-09,0.0353527,3
41048749,0.999403,0.0326852,0.00322286,-0.0107312,0.999375,8.4547e-09,-5.36259e-09,0.0353527,3
41098795,0.999548,0.0275245,0.00861364,-0.00846433,0.999375,8.4547e-09,-5.36259e-09,0.0353527,3
41153839,0.999731,0.0178325,0.0131856,-0.00682922,0.999375,8.4547e-09,-5.36259e-09,0.0353527,3
41198885,0.999809,0.0141832,0.0122948,-0.00544098,0.999375,8.4547e-09,-5.36259e-09,0.0353527,3
41248924,0.999855,0.0127856,0.0104076,-0.00430444,0.999375,8.4547e-09,-5.36259e-09,0.0353527,3
41303968,0.999897,0.0110611,0.0079967,-0.00452415,0.999375,8.4547e-09,-5.36259e-09,0.0353527,3
41349007,0.999916,0.0109629,0.00519593,-0.00460763,0.999375,8.4547e-09,-5.36259e-09,0.0353527,3
41399050,0.999917,0.0113423,0.00482505,-0.00386636,0.999375,8.4547e-09,-5.36259e-09,0.0353527,3
41449093,0.999888,0.0133567,0.00602226,-0.00308784,0.999375,8.4547e-09,-5.36259e-09,0.0353527,3
41499137,0.999866,0.0148021,0.00666717,-0.00203125,0.999375,8.4547e-09,-5.36259e-09,0.0353527,3
41549187,0.999832,0.0149753,0.0104746,-0.00111062,0.999375,8.4547e-09,-5.36259e-09,0.0353527,3
41599224,0.999839,0.0128188,0.0125236,-0.000523037,0.999375,8.4547e-09,-5.36259e-09,0.0353527,3
41654279,0.999872,0.01047,0.0120217,-0.00103943,0.999375,8.4547e-09,-5.36259e-09,0.0353527,3
41699309,0.999891,0.00922155,0.0114335,-0.00179573,0.999375,8.4547e-09,-5.36259e-09,0.0353527,3
41749352,0.999943,0.00756056,0.00729328,-0.00214432,0.999375,8.4547e-09,-5.36259e-09,0.0353527,3
41799395,0.9999,0.0117498,0.0075056,-0.00218968,0.999375,8.4547e-09,-5.36259e-09,0.0353527,3
41849438,0.999832,0.0150104,0.010104,-0.00289936,0.999375,8.4547e-09,-5.36259e-09,0.0353527,3
41899481,0.999821,0.0155813,0.0103413,-0.00284114,0.999375,8.4547e-09,-5.36259e-09,0.0353527,3
41949524,0.999849,0.0152003,0.00808164,-0.00248848,0.999375,8.4547e-09,-5.36259e-09,0.0353527,3
41999568,0.999911,0.0117952,0.00578251,-0.00246456,0.999375,8.4547e-09,-5.36259e-09,0.0353527,3
42049610,0.999975,0.00559877,0.00355332,-0.00237205,0.999375,8.4547e-09,-5.36259e-09,0.0353527,3
42099654,0.999991,0.000498678,0.00324756,-0.00282498,0.999375,8.4547e-09,-5.36259e-09,0.0353527,3
42149697,0.999973,-0.00160023,0.00618953,-0.0037497,0.999375,8.4547e-09,-5.36259e-09,0.0353527,3
42199740,0.99998,-0.000810603,0.00432249,-0.00462243,0.999375,8.4547e-09,-5.36259e-09,0.0353527,3
42249783,0.999972,0.00321308,0.00366675,-0.00567492,0.999375,8.4547e-09,-5.36259e-09,0.0353527,3
42299826,0.999938,0.00803128,0.00351707,-0.00685132,0.999375,8.4547e-09,-5.36259e-09,0.0353527,3
42349869,0.999845,0.0149944,0.00366634,-0.00846671,0.999375,8.4547e-09,-5.36259e-09,0.0353527,3
42399912,0.999772,0.0191808,0.00198059,-0.0091293,0.999375,8.4547e-09,-5.36259e-09,0.0353527,3
42449960,0.99976,0.020016,-0.00119373,-0.0088655,0.999375,8.4547e-09,-5.36259e-09,0.0353527,3
42499998,0.99982,0.0169885,-0.00183775,-0.00824549,0.999375,8.4547e-09,-5.36259e-09,0.0353527,3
42550041,0.999908,0.0102881,-0.00458443,-0.00756602,0.999375,8.4547e-09,-5.36259e-09,0.0353527,3
42600085,0.999959,0.00354935,-0.00309036,-0.00773804,0.999375,8.4547e-09,-5.36259e-09,0.0353527,3
42650128,0.999961,-0.000687013,-0.00347123,-0.0081345,0.999375,8.4547e-09,-5.36259e-09,0.0353527,3
42700171,0.999956,-0.00244449,-0.00177287,-0.00890958,0.999375,8.4547e-09,-5.36259e-09,0.0353527,3
42750219,0.999952,-0.000818014,0.000388505,-0.00978529,0.999375,8.4547e-09,-5.36259e-09,0.0353527,3
42800274,0.999921,0.003854,0.00512493,-0.0108029,0.999375,8.4547e-09,-5.36259e-09,0.0353527,3
42850301,0.999888,0.00671878,0.00745168,-0.0110817,0.999375,8.4547e-09,-5.36259e-09,0.0353527,3
42900344,0.999844,0.00808998,0.0109555,-0.0112049,0.999375,8.4547e-09,-5.36259e-09,0.0353527,3
42950390,0.999816,0.00943257,0.0129635,-0.0105515,0.999375,8.4547e-09,-5.36259e-09,0.0353527,3
43000430,0.999823,0.0086439,0.0132059,-0.0102111,0.999375,8.4547e-09,-5.36259e-09,0.0353527,3
43050473,0.999859,0.00759021,0.0110118,-0.0101364,0.999375,8.4547e-09,-5.36259e-09,0.0353527,3
43100516,0.999897,0.00484821,0.00895768,-0.0100837,0.999375,8.4547e-09,-5.36259e-09,0.0353527,3
43150559,0.999889,0.00539799,0.00862489,-0.0108717,0.999375,8.4547e-09,-5.36259e-09,0.0353527,3
43200606,0.999873,0.00617674,0.00784178,-0.0124025,0.999375,8.4547e-09,-5.36259e-09,0.0353527,3
43250646,0.999849,0.00640729,0.00822661,-0.013884,0.999375,8.4547e-09,-5.36259e-09,0.0353527,3
43300689,0.999827,0.0067368,0.00838265,-0.0152014,0.999375,8.4547e-09,-5.36259e-09,0.0353527,3
43350732,0.999815,0.00780587,0.00739592,-0.0159454,0.999375,8.4547e-09,-5.36259e-09,0.0353527,3
43400775,0.999823,0.00811849,0.00490114,-0.0162562,0.999375,8.4547e-09,-5.36259e-09,0.0353527,3
43450821,0.999825,0.00916,0.00113956,-0.0162455,0.999375,8.4547e-09,-5.36259e-09,0.0353527,3
43500861,0.999837,0.0085082,-0.000559894,-0.0158942,0.999375,8.4547e-09,-5.36259e-09,0.0353527,3
43550905,0.999839,0.00799046,-0.00269229,-0.0158512,0.999375,8.4547e-09,-5.36259e-09,0.0353527,3
43600955,0.999822,0.00720692,-0.00562732,-0.0165026,0.999375,8.4547e-09,-5.36259e-09,0.0353527,3
43650991,0.999798,0.00743478,-0.00602052,-0.0176587,0.999375,8.4547e-09,-5.36259e-09,0.0353527,3
43701034,0.999788,0.00742146,-0.00658979,-0.0180624,0.999375,8.4547e-09,-5.36259e-09,0.0353527,3
43751077,0.999769,0.00858299,-0.00448567,-0.0191999,0.999375,8.4547e-09,-5.36259e-09,0.0353527,3
43801120,0.999742,0.00964755,-0.00440276,-0.0200782,0.999375,8.4547e-09,-5.36259e-09,0.0353527,3
43851163,0.999736,0.00980413,-0.00484911,-0.0202162,0.999375,8.4547e-09,-5.36259e-09,0.0353527,3
43901207,0.999717,0.0112758,-0.00394628,-0.0205959,0.999375,8.4547e-09,-5.36259e-09,0.0353527,3
43951273,0.999726,0.0113422,-0.0017283,-0.0204166,0.999375,8.4547e-09,-5.36259e-09,0.0353527,3
44001293,0.999732,0.0110803,0.000894907,-0.0203209,0.999375,8.4547e-09,-5.36259e-09,0.0353527,3
44051337,0.999762,0.00853725,0.0030395,-0.0198381,0.999375,8.4547e-09,-5.36259e-09,0.0353527,3
44101380,0.999743,0.00903676,0.00564282,-0.0200021,0.999375,8.4547e-09,-5.36259e-09,0.0353527,3
44151423,0.999754,0.00775874,0.0057352,-0.0199528,0.999375,8.4547e-09,-5.36259e-09,0.0353527,3
44201466,0.99978,0.00487463,0.00413942,-0.0199928,0.999375,8.4547e-09,-5.36259e-09,0.0353527,3
44251509,0.999774,0.00370556,7.01447e-05,-0.0209217,0.999375,8.4547e-09,-5.36259e-09,0.0353527,3
44301552,0.999758,0.00389712,-0.00420068,-0.0212583,0.999375,8.4547e-09,-5.36259e-09,0.0353527,3
44351595,0.999713,0.00740611,-0.00568986,-0.0220461,0.999375,8.4547e-09,-5.36259e-09,0.0353527,3
44401639,0.999648,0.0118447,-0.00717846,-0.0226351,0.999375,8.4547e-09,-5.36259e-09,0.0353527,3
44451682,0.999623,0.0136899,-0.0056494,-0.0231218,0.999375,8.4547e-09,-5.36259e-09,0.0353527,3
44501725,0.999613,0.0138715,-0.0040424,-0.0237586,0.999375,8.4547e-09,-5.36259e-09,0.0353527,3
44551768,0.999631,0.012686,-0.00317189,-0.0237925,0.999375,8.4547e-09,-5.36259e-09,0.0353527,3
44596807,0.999596,0.0135121,-0.00241731,-0.0248739,0.999375,8.4547e-09,-5.36259e-09,0.0353527,3
44651855,0.999586,0.0128758,-0.00103002,-0.0257046,0.999375,8.4547e-09,-5.36259e-09,0.0353527,3
44701898,0.99958,0.01238,0.00123449,-0.0261748,0.999375,8.4547e-09,-5.36259e-09,0.0353527,3
44751941,0.999557,0.0127706,0.0035879,-0.0266409,0.999375,8.4547e-09,-5.36259e-09,0.0353527,3
44801985,0.999599,0.00950055,0.00460105,-0.0262756,0.999375,8.4547e-09,-5.36259e-09,0.0353527,3
44852028,0.999606,0.00752106,0.00504928,-0.0265773,0.999375,8.4547e-09,-5.36259e-09,0.0353527,3
44902071,0.999526,0.0127911,0.00546037,-0.027466,0.999375,8.4547e-09,-5.36259e-09,0.0353527,3
44947110,0.999523,0.0129354,0.00335724,-0.0278391,0.999375,8.4547e-09,-5.36259e-09,0.0353527,3
45002157,0.999569,0.00941359,0.00222874,-0.0277173,0.999375,8.4547e-09,-5.36259e-09,0.0353527,3
45052200,0.99964,0.00303342,0.000722047,-0.0266505,0.999375,8.4547e-09,-5.36259e-09,0.0353527,3
45097252,0.999674,0.000171101,-0.00104159,-0.0255171,0.999375,8.4547e-09,-5.36259e-09,0.0353527,3
45152287,0.999689,-0.00212377,-0.0024066,-0.0247118,0.999375,8.4547e-09,-5.36259e-09,0.0353527,3
45202330,0.999714,-0.00149907,-0.00419461,-0.0234996,0.999375,8.4547e-09,-5.36259e-09,0.0353527,3
45252374,0.99973,0.00179676,-0.00400769,-0.0228132,0.999375,8.4547e-09,-5.36259e-09,0.0353527,3
45297412,0.999731,0.00570711,-0.00181496,-0.0224051,0.999375,8.4547e-09,-5.36259e-09,0.0353527,3
45352460,0.999657,0.010414,0.00493859,-0.0235018,0.999375,8.4547e-09,-5.36259e-09,0.0353527,3
45402503,0.999617,0.0114333,0.00661464,-0.0243108,0.999375,8.4547e-09,-5.36259e-09,0.0353527,3
45447542,0.999652,0.00861966,0.00469698,-0.0245013,0.999375,8.4547e-09,-5.36259e-09,0.0353527,3
45502589,0.999648,0.00714036,0.00256011,-0.0254267,0.999375,8.4547e-09,-5.36259e-09,0.0353527,3
45552633,0.999631,0.00742185,0.0026325,-0.0260133,0.999375,8.4547e-09,-5.36259e-09,0.0353527,3
45597672,0.999622,0.00526196,0.00388562,-0.0266884,0.999375,8.4547e-09,-5.36259e-09,0.0353527,3
45647715,0.999556,0.006339,0.00859893,-0.0277996,0.999375,8.4547e-09,-5.36259e-09,0.0353527,3
45702762,0.999536,0.00338262,0.00996315,-0.028572,0.999375,8.4547e-09,-5.36259e-09,0.0353527,3
45752806,0.999539,-0.00145999,0.00886213,-0.029018,0.999375,8.4547e-09,-5.36259e-09,0.0353527,3
45797845,0.999553,-0.00252203,0.00539588,-0.029309,0.999375,8.4547e-09,-5.36259e-09,0.0353527,3
45852892,0.999559,0.0020209,0.00329263,-0.0294566,0.999375,8.4547e-09,-5.36259e-09,0.0353527,3
45902936,0.999499,0.00704415,0.00316863,-0.030704,0.999375,8.4547e-09,-5.36259e-09,0.0353527,3
45947974,0.999474,0.00902933,0.00296423,-0.0310098,0.999375,8.4547e-09,-5.36259e-09,0.0353527,3
45998018,0.999479,0.00826147,0.00162825,-0.0311538,0.999375,8.4547e-09,-5.36259e-09,0.0353527,3
46053066,0.999457,0.00857296,0.00296355,-0.0316892,0.999375,8.4547e-09,-5.36259e-09,0.0353527,3
46103109,0.999478,0.00605513,0.00339307,-0.0315431,0.999375,8.4547e-09,-5.36259e-09,0.0353527,3
46148156,0.999479,0.00380942,0.00370291,-0.0318284,0.999375,8.4547e-09,-5.36259e-09,0.0353527,3
46203195,0.999499,0.000215282,0.000997568,-0.0316341,0.999375,8.4547e-09,-5.36259e-09,0.0353527,3
46253242,0.999464,-0.000848243,-0.00593934,-0.0321725,0.999375,8.4547e-09,-5.36259e-09,0.0353527,3
46298282,0.999343,-0.000218669,-0.016334,-0.0323521,0.999375,8.4547e-09,-5.36259e-09,0.0353527,3
46348321,0.999084,-2.48782e-07,-0.02768,-0.0326386,0.999375,8.4547e-09,-5.36259e-09,0.0353527,3
46403368,0.998641,0.00326815,-0.0402887,-0.032896,0.999375,8.4547e-09,-5.36259e-09,0.0353527,3
46448407,0.998322,0.003947,-0.0474876,-0.0328889,0.999375,8.4547e-09,-5.36259e-09,0.0353527,3
46498450,0.998088,0.00544663,-0.0521708,-0.032683,0.999375,8.4547e-09,-5.36259e-09,0.0353527,3
46553498,0.997922,0.00744114,-0.0551701,-0.0324499,0.999375,8.4547e-09,-5.36259e-09,0.0353527,3
46603541,0.997747,0.00946177,-0.0582304,-0.0319395,0.999375,8.4547e-09,-5.36259e-09,0.0353527,3
46648580,0.997625,0.0102062,-0.0603919,-0.0315103,0.999375,8.4547e-09,-5.36259e-09,0.0353527,3
46698624,0.997611,0.00817813,-0.0608961,-0.0315649,0.999375,8.4547e-09,-5.36259e-09,0.0353527,3
46753671,0.997623,0.00744735,-0.0607572,-0.0316548,0.999375,8.4547e-09,-5.36259e-09,0.0353527,3
46798710,0.997606,0.00646955,-0.0611896,-0.0315502,0.999375,8.4547e-09,-5.36259e-09,0.0353527,3
46848754,0.997571,0.00860796,-0.0616958,-0.0311584,0.999375,8.4547e-09,-5.36259e-09,0.0353527,3
46903801,0.997443,0.0117814,-0.0635455,-0.0305136,0.999375,8.4547e-09,-5.36259e-09,0.0353527,3
46948840,0.997407,0.00991053,-0.0646359,-0.0300511,0.999375,8.4547e-09,-5.36259e-09,0.0353527,3
46998883,0.99749,0.00940587,-0.0636906,-0.0294716,0.999375,8.4547e-09,-5.36259e-09,0.0353527,3
47048927,0.997748,0.00943898,-0.0595496,-0.0293945,0.999375,8.4547e-09,-5.36259e-09,0.0353527,3
47103974,0.998145,0.0105511,-0.0526774,-0.0286392,0.999375,8.4547e-09,-5.36259e-09,0.0353527,3
47149014,0.998547,0.00777202,-0.0453458,-0.0280415,0.999375,8.4547e-09,-5.36259e-09,0.0353527,3
47199057,0.999029,0.00383765,-0.0343875,-0.0272578,0.999375,8.4547e-09,-5.36259e-09,0.0353527,3
47254104,0.99941,0.00306911,-0.0210308,-0.0269676,0.999375,8.4547e-09,-5.36259e-09,0.0353527,3
47299147,0.999587,0.00152496,-0.0103502,-0.0267592,0.999375,8.4547e-09,-5.36259e-09,0.0353527,3
47349187,0.999621,0.00590884,-0.00192972,-0.0268386,0.999375,8.4547e-09,-5.36259e-09,0.0353527,3
47399230,0.999581,0.011839,0.00111668,-0.0263758,0.999375,8.4547e-09,-5.36259e-09,0.0353527,3
47449280,0.99959,0.0120023,0.00181053,-0.0259339,0.999375,8.4547e-09,-5.36259e-09,0.0353527,3
47499317,0.999654,0.00670865,0.00253445,-0.0253173,0.999375,8.4547e-09,-5.36259e-09,0.0353527,3
47549369,0.999657,0.000524581,0.00685701,-0.0252843,0.999375,8.4547e-09,-5.36259e-09,0.0353527,3
47604408,0.999598,-0.00185264,0.0128666,-0.0251804,0.999375,8.4547e-09,-5.36259e-09,0.0353527,3
47649447,0.999585,0.000523339,0.0138605,-0.0252581,0.999375,8.4547e-09,-5.36259e-09,0.0353527,3
47699490,0.999614,0.00758489,0.00750086,-0.025649,0.999375,8.4547e-09,-5.36259e-09,0.0353527,3
47749533,0.999585,0.0126883,-0.00147335,-0.0258339,0.999375,8.4547e-09,-5.36259e-09,0.0353527,3
47799576,0.999526,0.0148086,-0.00764805,-0.0259046,0.999375,8.4547e-09,-5.36259e-09,0.0353527,3
47849650,0.999471,0.0175312,-0.00842979,-0.0260493,0.999375,8.4547e-09,-5.36259e-09,0.0353527,3
47899663,0.9995,0.0162673,-0.00765764,-0.0259942,0.999375,8.4547e-09,-5.36259e-09,0.0353527,3
47949706,0.999558,0.0119153,-0.00680513,-0.0263683,0.999375,8.4547e-09,-5.36259e-09,0.0353527,3
47999750,0.999614,0.00560363,-0.00568931,-0.0266213,0.999375,8.4547e-09,-5.36259e-09,0.0353527,3
48049796,0.999638,0.000790964,-0.00303733,-0.0267173,0.999375,8.4547e-09,-5.36259e-09,0.0353527,3
48099836,0.999633,0.00311196,0.000651011,-0.0269003,0.999375,8.4547e-09,-5.36259e-09,0.0353527,3
48149880,0.999549,0.0129306,0.00158466,-0.0270606,0.999375,8.4547e-09,-5.36259e-09,0.0353527,3
48199923,0.99936,0.0230512,0.000234467,-0.0273474,0.999375,8.4547e-09,-5.36259e-09,0.0353527,3
48249966,0.999297,0.0256229,-0.00214264,-0.0272896,0.999375,8.4547e-09,-5.36259e-09,0.0353527,3
48300010,0.999358,0.0228863,-0.00237577,-0.0274771,0.999375,8.4547e-09,-5.36259e-09,0.0353527,3
48350053,0.999443,0.0186619,-0.000870207,-0.0276446,0.999375,8.4547e-09,-5.36259e-09,0.0353527,3
48400096,0.999508,0.0142996,0.000580559,-0.0279017,0.999375,8.4547e-09,-5.36259e-09,0.0353527,3
48450140,0.999564,0.00763145,0.00402719,-0.0282434,0.999375,8.4547e-09,-5.36259e-09,0.0353527,3
48500183,0.999591,0.00175618,0.00628555,-0.0278603,0.999375,8.4547e-09,-5.36259e-09,0.0353527,3
48550230,0.999596,0.000202272,0.00432323,-0.0280867,0.999375,8.4547e-09,-5.36259e-09,0.0353527,3
48600279,0.999583,0.00320813,-0.000679023,-0.0286802,0.999375,8.4547e-09,-5.36259e-09,0.0353527,3
48650320,0.999555,0.00644318,-0.00429879,-0.0287987,0.999375,8.4547e-09,-5.36259e-09,0.0353527,3
48700357,0.999542,0.00677792,-0.00445683,-0.0291493,0.999375,8.4547e-09,-5.36259e-09,0.0353527,3
48750400,0.999547,0.00785969,-0.00218764,-0.0289546,0.999375,8.4547e-09,-5.36259e-09,0.0353527,3
48800443,0.99955,0.00756649,0.00208125,-0.0289425,0.999375,8.4547e-09,-5.36259e-09,0.0353527,3
48850487,0.999528,0.00390783,0.00323914,-0.0303037,0.999375,8.4547e-09,-5.36259e-09,0.0353527,3
48900537,0.99944,0.000858225,0.00350794,-0.0332541,0.999375,8.4547e-09,-5.36259e-09,0.0353527,3
48950573,0.999262,0.00234327,0.0010906,-0.0383333,0.999375,8.4547e-09,-5.36259e-09,0.0353527,3
49000617,0.998803,0.0066255,-0.00207049,-0.0484177,0.999375,8.4547e-09,-5.36259e-09,0.0353527,3
49050660,0.997893,0.0125181,-0.00522342,-0.0634471,0.999375,8.4547e-09,-5.36259e-09,0.0353527,3
49100704,0.996649,0.015743,-0.0077348,-0.0798937,0.999375,8.4547e-09,-5.36259e-09,0.0353527,3
49150747,0.995626,0.015806,-0.00991291,-0.0915462,0.999375,8.4547e-09,-5.36259e-09,0.0353527,3
49200790,0.99489,0.0132502,-0.00967818,-0.099623,0.999375,8.4547e-09,-5.36259e-09,0.0353527,3
49250834,0.994281,0.00913703,-0.00662406,-0.106197,0.999375,8.4547e-09,-5.36259e-09,0.0353527,3
49300877,0.993733,0.00445078,-0.0036798,-0.11163,0.999375,8.4547e-09,-5.36259e-09,0.0353527,3
49350920,0.9932,-0.000433638,-0.0019064,-0.116408,0.999375,8.4547e-09,-5.36259e-09,0.0353527,3
49400964,0.992713,-0.00585113,-0.000771142,-0.120356,0.999375,8.4547e-09,-5.36259e-09,0.0353527,3
49451023,0.992258,-0.0130985,-0.000159513,-0.1235,0.999375,8.4547e-09,-5.36259e-09,0.0353527,3
49501050,0.991794,-0.0218714,0.000308328,-0.125958,0.999375,8.4547e-09,-5.36259e-09,0.0353527,3
49551094,0.991432,-0.02889,0.000897338,-0.127388,0.999375,8.4547e-09,-5.36259e-09,0.0353527,3
49601137,0.991185,-0.0328858,4.63689e-05,-0.128338,0.999375,8.4547e-09,-5.36259e-09,0.0353527,3
49651181,0.990918,-0.0380058,0.000706751,-0.128983,0.999375,8.4547e-09,-5.36259e-09,0.0353527,3
49701226,0.990793,-0.0404603,0.0025549,-0.129175,0.999375,8.4547e-09,-5.36259e-09,0.0353527,3
49751273,0.990601,-0.0454768,0.00436334,-0.128929,0.999375,8.4547e-09,-5.36259e-09,0.0353527,3
49801314,0.990571,-0.0463629,0.00577659,-0.128785,0.999375,8.4547e-09,-5.36259e-09,0.0353527,3
49851354,0.990892,-0.0406291,0.00541001,-0.128271,0.999375,8.4547e-09,-5.36259e-09,0.0353527,3
49901398,0.991406,-0.0291661,0.00342255,-0.127479,0.999375,8.4547e-09,-5.36259e-09,0.0353527,3
49951444,0.991884,-0.0140301,-0.000629984,-0.126371,0.999375,8.4547e-09,-5.36259e-09,0.0353527,3
50001484,0.992126,-0.00213317,-0.00346307,-0.125179,0.999375,8.4547e-09,-5.36259e-09,0.0353527,3
50051528,0.992285,0.00474022,-0.00445612,-0.123804,0.999375,8.4547e-09,-5.36259e-09,0.0353527,3
50101571,0.99242,0.00626602,-0.00285078,-0.122699,0.999375,8.4547e-09,-5.36259e-09,0.0353527,3
50151615,0.992629,0.00529119,-0.000867457,-0.121072,0.999375,8.4547e-09,-5.36259e-09,0.0353527,3
50196654,0.992867,0.00247562,-0.000341247,-0.119204,0.999375,8.4547e-09,-5.36259e-09,0.0353527,3
50251701,0.993257,0.00227709,-0.00122053,-0.115909,0.999375,8.4547e-09,-5.36259e-09,0.0353527,3
50301748,0.993853,0.00485336,-0.00260593,-0.110574,0.999375,8.4547e-09,-5.36259e-09,0.0353527,3
50351788,0.994679,0.0105769,-0.00454741,-0.102382,0.999375,8.4547e-09,-5.36259e-09,0.0353527,3
50401835,0.99576,0.0159946,-0.0066904,-0.0903418,0.999375,8.4547e-09,-5.36259e-09,0.0353527,3
50451875,0.997047,0.0172068,-0.00478255,-0.0746919,0.999375,8.4547e-09,-5.36259e-09,0.0353527,3
50501923,0.998282,0.0142578,0.00170129,-0.0568024,0.999375,8.4547e-09,-5.36259e-09,0.0353527,3
50546957,0.999163,0.00829588,0.00816941,-0.0392054,0.999375,8.4547e-09,-5.36259e-09,0.0353527,3
50602005,0.999757,0.00659259,0.0134784,-0.0161364,0.999375,8.4547e-09,-5.36259e-09,0.0353527,3
50652049,0.999883,0.00368045,0.0133417,0.0065181,0.999375,8.4547e-09,-5.36259e-09,0.0353527,3
50702092,0.99956,0.00165901,0.0104381,0.0277197,0.999375,8.4547e-09,-5.36259e-09,0.0353527,3
50752135,0.999015,-0.00172514,0.00408995,0.0441565,0.999375,8.4547e-09,-5.36259e-09,0.0353527,3
50802179,0.998439,-0.000829804,0.00195985,0.0558191,0.999375,8.4547e-09,-5.36259e-09,0.0353527,3
50852224,0.9979,0.00626953,0.00414513,0.0643304,0.999375,8.4547e-09,-5.36259e-09,0.0353527,3
50897263,0.997407,0.0124415,0.00385821,0.0707829,0.999375,8.4547e-09,-5.36259e-09,0.0353527,3
50952310,0.996959,0.0176686,-0.000134346,0.0758991,0.999375,8.4547e-09,-5.36259e-09,0.0353527,3
51002353,0.996695,0.0135034,-0.00685437,0.0798132,0.999375,8.4547e-09,-5.36259e-09,0.0353527,3
51047392,0.996512,0.0120368,-0.0079609,0.0821913,0.999375,8.4547e-09,-5.36259e-09,0.0353527,3
51102440,0.996346,0.0141124,-0.00630399,0.0839967,0.999375,8.4547e-09,-5.36259e-09,0.0353527,3
51152499,0.996253,0.0153749,-0.00491011,0.0849723,0.999375,8.4547e-09,-5.36259e-09,0.0353527,3
51202527,0.996254,0.0154416,-0.00384568,0.0850012,0.999375,8.4547e-09,-5.36259e-09,0.0353527,3
51247565,0.996298,0.0138284,-0.0042083,0.0847424,0.999375,8.4547e-09,-5.36259e-09,0.0353527,3
51302613,0.996395,0.0115015,-0.00432882,0.0839429,0.999375,8.4547e-09,-5.36259e-09,0.0353527,3
51352657,0.996511,0.00728749,-0.00298566,0.083094,0.999375,8.4547e-09,-5.36259e-09,0.0353527,3
51397706,0.996616,0.00380959,-0.000955496,0.0821088,0.999375,8.4547e-09,-5.36259e-09,0.0353527,3
51452744,0.996763,-0.000538461,0.00244836,0.0803599,0.999375,8.4547e-09,-5.36259e-09,0.0353527,3
51502787,0.996907,0.000774468,0.00503915,0.0784248,0.999375,8.4547e-09,-5.36259e-09,0.0353527,3
51547826,0.996995,0.00366675,0.00625589,0.0771264,0.999375,8.4547e-09,-5.36259e-09,0.0353527,3
51597870,0.997153,0.00252545,0.00592581,0.0751321,0.999375,8.4547e-09,-5.36259e-09,0.0353527,3
51652917,0.997238,-0.0109589,0.00162533,0.0734374,0.999375,8.4547e-09,-5.36259e-09,0.0353527,3
51702961,0.996964,-0.029186,-0.00259227,0.0721412,0.999375,8.4547e-09,-5.36259e-09,0.0353527,3
51748000,0.996562,-0.0430724,-0.00339281,0.0706885,0.999375,8.4547e-09,-5.36259e-09,0.0353527,3
51803048,0.996097,-0.0544693,-0.00242795,0.0694099,0.999375,8.4547e-09,-5.36259e-09,0.0353527,3
51853091,0.996155,-0.0542093,-0.00252524,0.0687833,0.999375,8.4547e-09,-5.36259e-09,0.0353527,3
51898130,0.996487,-0.0494526,-0.00316792,0.0675114,0.999375,8.4547e-09,-5.36259e-09,0.0353527,3
51948176,0.996537,-0.0500346,-0.00411866,0.0662828,0.999375,8.4547e-09,-5.36259e-09,0.0353527,3
52003223,0.996442,-0.0536508,-0.00364085,0.0648917,0.999375,8.4547e-09,-5.36259e-09,0.0353527,3
52048261,0.996946,-0.0453389,-0.00239396,0.0635411,0.999375,8.4547e-09,-5.36259e-09,0.0353527,3
52098304,0.997574,-0.0302059,-0.000719383,0.062714,0.999375,8.4547e-09,-5.36259e-09,0.0353527,3
52153352,0.99793,-0.015354,-0.000216464,0.0624451,0.999375,8.4547e-09,-5.36259e-09,0.0353527,3
52203396,0.998067,-0.000185703,-0.00103137,0.0621356,0.999375,8.4547e-09,-5.36259e-09,0.0353527,3
52248434,0.998022,0.0129799,-0.0019746,0.061476,0.999375,8.4547e-09,-5.36259e-09,0.0353527,3
52298478,0.997884,0.021148,-0.00573664,0.0612213,0.999375,8.4547e-09,-5.36259e-09,0.0353527,3
52353526,0.997888,0.0185596,-0.0147988,0.0604596,0.999375,8.4547e-09,-5.36259e-09,0.0353527,3
52398565,0.997802,0.0191556,-0.0216476,0.059629,0.999375,8.4547e-09,-5.36259e-09,0.0353527,3
52448609,0.99769,0.0175296,-0.0283964,0.0591633,0.999375,8.4547e-09,-5.36259e-09,0.0353527,3
52503656,0.997652,0.0111653,-0.0330101,0.058951,0.999375,8.4547e-09,-5.36259e-09,0.0353527,3
52548703,0.99751,0.0100528,-0.0379185,0.0586021,0.999375,8.4547e-09,-5.36259e-09,0.0353527,3
52598742,0.997163,0.00907344,-0.0461911,0.0587411,0.999375,8.4547e-09,-5.36259e-09,0.0353527,3
52648786,0.996919,0.00791225,-0.0518234,0.0583484,0.999375,8.4547e-09,-5.36259e-09,0.0353527,3
52703830,0.996609,0.00821578,-0.0577029,0.0580883,0.999375,8.4547e-09,-5.36259e-09,0.0353527,3
52748869,0.995764,0.0158775,-0.0616056,0.0663909,0.99997,6.45753e-10,1.3281e-09,0.00772282,4
52798913,0.995174,0.0257247,-0.0667237,0.0671909,0.99997,6.45753e-10,1.3281e-09,0.00772282,4
52848956,0.995024,0.0267118,-0.0684046,0.0673438,0.99997,6.45753e-10,1.3281e-09,0.00772282,4
52899007,0.99507,0.0229776,-0.0692488,0.0671678,0.99997,6.45753e-10,1.3281e-09,0.00772282,4
52949043,0.995328,0.0152868,-0.0682817,0.0665325,0.99997,6.45753e-10,1.3281e-09,0.00772282,4
52999087,0.995461,0.00937706,-0.0679258,0.0660016,0.99997,6.45753e-10,1.3281e-09,0.00772282,4
53049131,0.995466,0.00591916,-0.0689597,0.0652453,0.99997,6.45753e-10,1.3281e-09,0.00772282,4
53099173,0.9954,0.00528666,-0.0707481,0.06438,0.99997,6.45753e-10,1.3281e-09,0.00772282,4
53149219,0.995543,0.00709677,-0.0687316,0.0641878,0.99997,6.45753e-10,1.3281e-09,0.00772282,4
53204271,0.996189,0.00877596,-0.0585813,0.0640265,0.99997,6.45753e-10,1.3281e-09,0.00772282,4
53249308,0.996831,0.012163,-0.045126,0.0643785,0.99997,6.45753e-10,1.3281e-09,0.00772282,4
53299348,0.99757,0.00478648,-0.0260001,0.0644651,0.99997,6.45753e-10,1.3281e-09,0.00772282,4
53349391,0.997635,-0.0204257,-0.0107422,0.0647449,0.99997,6.45753e-10,1.3281e-09,0.00772282,4
53399434,0.996499,-0.0523973,-0.00186985,0.0651292,0.99997,6.45753e-10,1.3281e-09,0.00772282,4
53449478,0.994536,-0.0815033,0.0011715,0.065224,0.99997,6.45753e-10,1.3281e-09,0.00772282,4
53499521,0.993292,-0.0950467,-0.000211815,0.0658536,0.99997,6.45753e-10,1.3281e-09,0.00772282,4
53549565,0.993365,-0.0942749,-0.00132736,0.0658584,0.99997,6.45753e-10,1.3281e-09,0.00772282,4
53599611,0.994078,-0.0861954,-0.00288698,0.0661218,0.99997,6.45753e-10,1.3281e-09,0.00772282,4
53649652,0.994467,-0.0812707,-0.00423029,0.0664333,0.99997,6.45753e-10,1.3281e-09,0.00772282,4
53699696,0.994473,-0.0811608,-0.00469022,0.0664398,0.99997,6.45753e-10,1.3281e-09,0.00772282,4
53749739,0.994331,-0.0826746,-0.00499671,0.0666723,0.99997,6.45753e-10,1.3281e-09,0.00772282,4
53799782,0.995028,-0.0735263,-0.00363399,0.0670808,0.99997,6.45753e-10,1.3281e-09,0.00772282,4
53849826,0.996569,-0.0496424,0.00206627,0.0662014,0.99997,6.45753e-10,1.3281e-09,0.00772282,4
53899869,0.99765,-0.0197261,0.00510602,0.0654111,0.99997,6.45753e-10,1.3281e-09,0.00772282,4
53949914,0.997842,0.00277286,0.00388364,0.0654833,0.99997,6.45753e-10,1.3281e-09,0.00772282,4
53999957,0.997759,0.014846,0.00169563,0.065223,0.99997,6.45753e-10,1.3281e-09,0.00772282,4
54050000,0.997748,0.013602,-0.00166434,0.0656625,0.99997,6.45753e-10,1.3281e-09,0.00772282,4
54100044,0.997796,0.00784593,-0.00542323,0.0656674,0.99997,6.45753e-10,1.3281e-09,0.00772282,4
54150087,0.997755,0.0039351,-0.0120107,0.0657691,0.99997,6.45753e-10,1.3281e-09,0.00772282,4
54200131,0.997614,0.00541064,-0.0200212,0.0658455,0.99997,6.45753e-10,1.3281e-09,0.00772282,4
54250174,0.997427,0.0110795,-0.0271298,0.0654295,0.99997,6.45753e-10,1.3281e-09,0.00772282,4
54300222,0.997202,0.0157089,-0.0332698,0.0650764,0.99997,6.45753e-10,1.3281e-09,0.00772282,4
54350270,0.997119,0.0153581,-0.0365187,0.0646855,0.99997,6.45753e-10,1.3281e-09,0.00772282,4
54400305,0.997195,0.0128598,-0.0357568,0.0644861,0.99997,6.45753e-10,1.3281e-09,0.00772282,4
54450348,0.997526,0.00941983,-0.0277108,0.0639167,0.99997,6.45753e-10,1.3281e-09,0.00772282,4
54500395,0.997865,0.00806357,-0.0134113,0.0634045,0.99997,6.45753e-10,1.3281e-09,0.00772282,4
54550435,0.997932,0.00727802,-0.00105338,0.0638545,0.99997,6.45753e-10,1.3281e-09,0.00772282,4
54600479,0.997934,0.00535661,0.00671323,0.0636687,0.99997,6.45753e-10,1.3281e-09,0.00772282,4
54650523,0.997939,0.00624539,0.00779584,0.0633956,0.99997,6.45753e-10,1.3281e-09,0.00772282,4
54700566,0.997975,0.00698087,0.00544627,0.0629949,0.99997,6.45753e-10,1.3281e-09,0.00772282,4
54750609,0.997985,0.00866537,0.00188459,0.062828,0.99997,6.45753e-10,1.3281e-09,0.00772282,4
54800653,0.997993,0.00906312,-0.00311761,0.0626008,0.99997,6.45753e-10,1.3281e-09,0.00772282,4
54850696,0.99795,0.0103705,-0.00975074,0.0623926,0.99997,6.45753e-10,1.3281e-09,0.00772282,4
54900740,0.997778,0.00974748,-0.0192696,0.063026,0.99997,6.45753e-10,1.3281e-09,0.00772282,4
54950785,0.997756,0.00980171,-0.0206877,0.0629218,0.99997,6.45753e-10,1.3281e-09,0.00772282,4
55000830,0.997787,0.0108639,-0.015326,0.0637802,0.99997,6.45753e-10,1.3281e-09,0.00772282,4
55050871,0.997872,0.011204,-0.0036211,0.0641254,0.99997,6.45753e-10,1.3281e-09,0.00772282,4
55100914,0.997801,0.00876693,0.00354878,0.0656097,0.99997,6.45753e-10,1.3281e-09,0.00772282,4
55150958,0.997741,0.00641256,0.00623441,0.0665748,0.99997,6.45753e-10,1.3281e-09,0.00772282,4
55201001,0.997711,0.00222827,0.00399742,0.0674672,0.99997,6.45753e-10,1.3281e-09,0.00772282,4
55251048,0.997657,0.0022595,0.00139046,0.0683603,0.99997,6.45753e-10,1.3281e-09,0.00772282,4
55301088,0.997607,0.00263983,-0.00152191,0.0690671,0.99997,6.45753e-10,1.3281e-09,0.00772282,4
55351132,0.997572,0.00680099,-0.00158398,0.0692885,0.99997,6.45753e-10,1.3281e-09,0.00772282,4
55401176,0.997381,0.0180283,-0.000636679,0.0700471,0.99997,6.45753e-10,1.3281e-09,0.00772282,4
55451221,0.996856,0.0362071,-1.09026e-05,0.0704761,0.99997,6.45753e-10,1.3281e-09,0.00772282,4
55501270,0.996177,0.0511245,0.000791523,0.0708277,0.99997,6.45753e-10,1.3281e-09,0.00772282,4
55551311,0.995463,0.0624598,0.00099647,0.071774,0.99997,6.45753e-10,1.3281e-09,0.00772282,4
55601350,0.995362,0.0631703,0.000908234,0.0725441,0.99997,6.45753e-10,1.3281e-09,0.00772282,4
55651393,0.996337,0.0436467,-0.000288641,0.0735321,0.99997,6.45753e-10,1.3281e-09,0.00772282,4
55701437,0.99695,0.0240198,-0.000923591,0.074244,0.99997,6.45753e-10,1.3281e-09,0.00772282,4
55751480,0.997146,0.0112281,0.000417241,0.0746573,0.99997,6.45753e-10,1.3281e-09,0.00772282,4
55801524,0.997159,0.00471566,0.000142358,0.0751849,0.99997,6.45753e-10,1.3281e-09,0.00772282,4
55851568,0.997141,0.00767549,-0.00242186,0.075135,0.99997,6.45753e-10,1.3281e-09,0.00772282,4
55901613,0.997115,0.0112421,-0.00455619,0.0749316,0.99997,6.45753e-10,1.3281e-09,0.00772282,4
55951654,0.997155,0.00903856,-0.00448918,0.0746955,0.99997,6.45753e-10,1.3281e-09,0.00772282,4
56001698,0.997297,0.00886481,-0.00135205,0.0729199,0.99997,6.45753e-10,1.3281e-09,0.00772282,4
56051742,0.997582,0.00581041,0.000764788,0.0692476,0.99997,6.45753e-10,1.3281e-09,0.00772282,4
56101785,0.997973,0.00707493,0.0014137,0.0632264,0.99997,6.45753e-10,1.3281e-09,0.00772282,4
56146824,0.998425,0.00507314,-0.00055512,0.0558702,0.99997,6.45753e-10,1.3281e-09,0.00772282,4
56201873,0.99884,0.00406118,-0.00525777,0.0476838,0.99997,6.45753e-10,1.3281e-09,0.00772282,4
56251916,0.999066,0.00448919,-0.00680444,0.0424278,0.99997,6.45753e-10,1.3281e-09,0.00772282,4
56301959,0.999205,0.0078442,-0.00505701,0.0387609,0.99997,6.45753e-10,1.3281e-09,0.00772282,4
56352004,0.999335,0.0113198,-0.000649795,0.0346519,0.99997,6.45753e-10,1.3281e-09,0.00772282,4
56402053,0.999416,0.0129514,0.00261494,0.0314993,0.99997,6.45753e-10,1.3281e-09,0.00772282,4
56452090,0.999486,0.0145377,0.00510096,0.0281242,0.99997,6.45753e-10,1.3281e-09,0.00772282,4
56497129,0.999559,0.0146124,0.00282312,0.0256961,0.99997,6.45753e-10,1.3281e-09,0.00772282,4
56552177,0.999625,0.0137382,-0.00200458,0.023592,0.99997,6.45753e-10,1.3281e-09,0.00772282,4
56602223,0.999688,0.00941921,-0.00648985,0.0222183,0.99997,6.45753e-10,1.3281e-09,0.00772282,4
56647262,0.99976,0.000870476,-0.00676491,0.0208274,0.99997,6.45753e-10,1.3281e-09,0.00772282,4
56702308,0.999683,-0.0146008,-0.00377697,0.0201633,0.99997,6.45753e-10,1.3281e-09,0.00772282,4
56752354,0.999516,-0.0242845,0.00193091,0.0193418,0.99997,6.45753e-10,1.3281e-09,0.00772282,4
56802395,0.999383,-0.0292117,0.00336635,0.0192172,0.99997,6.45753e-10,1.3281e-09,0.00772282,4
56847435,0.999461,-0.0268328,0.000329045,0.0188965,0.99997,6.45753e-10,1.3281e-09,0.00772282,4
56902482,0.999372,-0.0292581,-0.00720043,0.018646,0.99997,6.45753e-10,1.3281e-09,0.00772282,4
56952560,0.999249,-0.0325406,-0.0104476,0.0182374,0.99997,6.45753e-10,1.3281e-09,0.00772282,4
56997575,0.999142,-0.0359555,-0.010147,0.0178986,0.99997,6.45753e-10,1.3281e-09,0.00772282,4
57052613,0.999369,-0.0304091,-0.0057141,0.0174582,0.99997,6.45753e-10,1.3281e-09,0.00772282,4
57102659,0.999731,-0.0158267,-0.00116226,0.0168908,0.99997,6.45753e-10,1.3281e-09,0.00772282,4
57147696,0.999861,-0.00154094,0.00089082,0.0165974,0.99997,6.45753e-10,1.3281e-09,0.00772282,4
57197739,0.999815,0.00997259,0.000825848,0.0164046,0.99997,6.45753e-10,1.3281e-09,0.00772282,4
57252787,0.999761,0.0144383,-0.000528971,0.0163791,0.99997,6.45753e-10,1.3281e-09,0.00772282,4
57302838,0.999753,0.0151538,-0.00108216,0.0162228,0.99997,6.45753e-10,1.3281e-09,0.00772282,4
57347873,0.999809,0.0107415,-0.00120619,0.0162809,0.99997,6.45753e-10,1.3281e-09,0.00772282,4
57402918,0.999866,0.00128342,-0.00139095,0.0162482,0.99997,6.45753e-10,1.3281e-09,0.00772282,4
57452962,0.999716,-0.0169775,-0.00160049,0.0166713,0.99997,6.45753e-10,1.3281e-09,0.00772282,4
57498001,0.999319,-0.032711,-0.00202025,0.0169254,0.99997,6.45753e-10,1.3281e-09,0.00772282,4
57548045,0.998735,-0.04682,-0.00432152,0.0177955,0.99997,6.45753e-10,1.3281e-09,0.00772282,4
57603093,0.998372,-0.0535947,-0.00560212,0.0187218,0.99997,6.45753e-10,1.3281e-09,0.00772282,4
57648132,0.998267,-0.0553029,-0.00560593,0.0193336,0.99997,6.45753e-10,1.3281e-09,0.00772282,4
57698178,0.998312,-0.0543055,-0.00376903,0.0202523,0.99997,6.45753e-10,1.3281e-09,0.00772282,4
57753225,0.998301,-0.0541689,-0.00164984,0.0213867,0.99997,6.45753e-10,1.3281e-09,0.00772282,4
57803284,0.998289,-0.0541582,-0.000241837,0.0220265,0.99997,6.45753e-10,1.3281e-09,0.00772282,4
57848308,0.998605,-0.0475084,-0.000758001,0.0230208,0.99997,6.45753e-10,1.3281e-09,0.00772282,4
57898350,0.99935,-0.0264987,-0.00131633,0.0244194,0.99997,6.45753e-10,1.3281e-09,0.00772282,4
57953398,0.999676,0.00338327,-0.00284839,0.0250876,0.99997,6.45753e-10,1.3281e-09,0.00772282,4
57998437,0.999536,0.0152664,-0.00494766,0.0258897,0.99997,6.45753e-10,1.3281e-09,0.00772282,4
58048482,0.999499,0.0156685,-0.00526712,0.0269794,0.99997,6.45753e-10,1.3281e-09,0.00772282,4
58103529,0.99959,0.00702355,-0.00291142,0.027617,0.99997,6.45753e-10,1.3281e-09,0.00772282,4
58148568,0.999599,-0.00255001,-0.000945967,0.0281862,0.99997,6.45753e-10,1.3281e-09,0.00772282,4
58198612,0.999563,-0.00554477,0.00135698,0.029009,0.99997,6.45753e-10,1.3281e-09,0.00772282,4
58248655,0.999555,-0.00171689,0.00393085,0.0295177,0.99997,6.45753e-10,1.3281e-09,0.00772282,4
58303703,0.999503,0.00836377,0.00593503,0.0297941,0.99997,6.45753e-10,1.3281e-09,0.00772282,4
58348742,0.999426,0.0140214,0.0052324,0.0304054,0.99997,6.45753e-10,1.3281e-09,0.00772282,4
58398786,0.999362,0.0173147,0.00346573,0.0310571,0.99997,6.45753e-10,1.3281e-09,0.00772282,4
58453834,0.999363,0.0160639,0.00238336,0.0317878,0.99997,6.45753e-10,1.3281e-09,0.00772282,4
58498873,0.999316,0.0172789,0.0019878,0.0326404,0.99997,6.45753e-10,1.3281e-09,0.00772282,4
58548917,0.999233,0.0202903,-0.00159462,0.0334414,0.99997,6.45753e-10,1.3281e-09,0.00772282,4
58598961,0.999205,0.0183551,-0.010114,0.0339225,0.99997,6.45753e-10,1.3281e-09,0.00772282,4
58654008,0.999086,0.0107458,-0.0234907,0.0340486,0.99997,6.45753e-10,1.3281e-09,0.00772282,4
58699048,0.998919,0.00299053,-0.0316214,0.0339299,0.99997,6.45753e-10,1.3281e-09,0.00772282,4
58749091,0.99883,0.00024331,-0.0347107,0.0336726,0.99997,6.45753e-10,1.3281e-09,0.00772282,4
58804139,0.998821,0.0017355,-0.0350941,0.0334992,0.99997,6.45753e-10,1.3281e-09,0.00772282,4
58849178,0.998772,0.00519278,-0.036506,0.0330843,0.99997,6.45753e-10,1.3281e-09,0.00772282,4
58899224,0.998735,0.00769884,-0.0370577,0.033093,0.99997,6.45753e-10,1.3281e-09,0.00772282,4
58949272,0.998955,0.0100344,-0.0304191,0.0325983,0.99997,6.45753e-10,1.3281e-09,0.00772282,4
58999310,0.999257,0.0129545,-0.0156271,0.0327647,0.99997,6.45753e-10,1.3281e-09,0.00772282,4
59049353,0.999368,0.0138163,-0.000911364,0.0327387,0.99997,6.45753e-10,1.3281e-09,0.00772282,4
59099399,0.99937,0.012292,0.00701685,0.032558,0.99997,6.45753e-10,1.3281e-09,0.00772282,4
59154445,0.999392,0.00989294,0.00871813,0.0322876,0.99997,6.45753e-10,1.3281e-09,0.00772282,4
59199484,0.999459,0.00683178,0.00456088,0.0318512,0.99997,6.45753e-10,1.3281e-09,0.00772282,4
59249528,0.999506,0.00178431,-0.00341304,0.0311968,0.99997,6.45753e-10,1.3281e-09,0.00772282,4
59299571,0.999458,0.000354375,-0.0119705,0.0306511,0.99997,6.45753e-10,1.3281e-09,0.00772282,4
59349615,0.999378,0.00361946,-0.018356,0.0298843,0.99997,6.45753e-10,1.3281e-09,0.00772282,4
59399658,0.999312,0.00765784,-0.0226411,0.0283641,0.99997,6.45753e-10,1.3281e-09,0.00772282,4
59449704,0.999275,0.00840995,-0.0252687,0.0271944,0.99997,6.45753e-10,1.3281e-09,0.00772282,4
59499746,0.999396,0.00234136,-0.0222365,0.0266086,0.99997,6.45753e-10,1.3281e-09,0.00772282,4
59549789,0.999441,-0.0135577,-0.0161188,0.0259579,0.99997,6.45753e-10,1.3281e-09,0.00772282,4
59599836,0.998975,-0.0364971,-0.00975379,0.0249274,0.99997,6.45753e-10,1.3281e-09,0.00772282,4
59649877,0.998179,-0.0555626,-0.00191546,0.023426,0.99997,6.45753e-10,1.3281e-09,0.00772282,4
59699923,0.997585,-0.0656523,0.00356706,0.0223805,0.99997,6.45753e-10,1.3281e-09,0.00772282,4
59749968,0.997589,-0.065837,0.00453029,0.0214947,0.99997,6.45753e-10,1.3281e-09,0.00772282,4
59800008,0.997852,-0.0617331,0.00150478,0.0218913,0.99997,6.45753e-10,1.3281e-09,0.00772282,4
59850051,0.998226,-0.0554335,-0.0021141,0.0216127,0.99997,6.45753e-10,1.3281e-09,0.00772282,4
59900095,0.998732,-0.0454889,-0.00471284,0.0210493,0.99997,6.45753e-10,1.3281e-09,0.00772282,4
59950139,0.999335,-0.0289594,-0.00674932,0.021091,0.99997,6.45753e-10,1.3281e-09,0.00772282,4
60000182,0.999714,-0.00909563,-0.00738725,0.0208605,0.99997,6.45753e-10,1.3281e-09,0.00772282,4
60050237,0.999767,0.00604492,-0.00533648,0.0200498,0.99997,6.45753e-10,1.3281e-09,0.00772282,4
60100277,0.999679,0.015397,-0.0040109,0.0197337,0.99997,6.45753e-10,1.3281e-09,0.00772282,4
60150313,0.999613,0.0166595,-0.0108574,0.019458,0.99997,6.45753e-10,1.3281e-09,0.00772282,4
60200357,0.999463,0.0131393,-0.0236242,0.0185117,0.99997,6.45753e-10,1.3281e-09,0.00772282,4
60250405,0.999206,0.00953269,-0.0341389,0.0181917,0.99997,6.45753e-10,1.3281e-09,0.00772282,4
60300444,0.999032,0.00625521,-0.0395845,0.01812,0.99997,6.45753e-10,1.3281e-09,0.00772282,4
60350488,0.998938,0.00565917,-0.0418479,0.0184437,0.99997,6.45753e-10,1.3281e-09,0.00772282,4
60400531,0.998959,0.00531448,-0.0410318,0.0192086,0.99997,6.45753e-10,1.3281e-09,0.00772282,4
60450575,0.9991,0.00271558,-0.0371766,0.0202261,0.99997,6.45753e-10,1.3281e-09,0.00772282,4
60500622,0.999256,0.00273428,-0.0311449,0.0225622,0.99997,6.45753e-10,1.3281e-09,0.00772282,4
60550662,0.999383,0.0061246,-0.0246064,0.0242871,0.99997,6.45753e-10,1.3281e-09,0.00772282,4
60600706,0.999421,0.0111621,-0.0183105,0.0264266,0.99997,6.45753e-10,1.3281e-09,0.00772282,4
60650750,0.999475,0.013537,-0.00910339,0.0279804,0.99997,6.45753e-10,1.3281e-09,0.00772282,4
60700794,0.999477,0.0135699,-0.000593744,0.0293488,0.99997,6.45753e-10,1.3281e-09,0.00772282,4
60750837,0.999406,0.0137818,0.00546395,0.0311207,0.99997,6.45753e-10,1.3281e-09,0.00772282,4
60800881,0.999347,0.0125964,0.00755034,0.0330283,0.99997,6.45753e-10,1.3281e-09,0.00772282,4
60850925,0.999309,0.0109303,0.00794996,0.0346301,0.99997,6.45753e-10,1.3281e-09,0.00772282,4
60900968,0.999261,0.0129849,0.00392626,0.0359683,0.99997,6.45753e-10,1.3281e-09,0.00772282,4
60951012,0.999201,0.0133127,-0.00467487,0.0373974,0.99997,6.45753e-10,1.3281e-09,0.00772282,4
61001056,0.999048,0.010597,-0.0179834,0.0383098,0.99997,6.45753e-10,1.3281e-09,0.00772282,4
61051099,0.998802,0.00589536,-0.0294817,0.0386098,0.99997,6.45753e-10,1.3281e-09,0.00772282,4
61101151,0.998708,0.00353711,-0.0329553,0.0385236,0.99997,6.45753e-10,1.3281e-09,0.00772282,4
61151187,0.998776,0.00490887,-0.0308229,0.0383593,0.99997,6.45753e-10,1.3281e-09,0.00772282,4
61201230,0.998879,0.0109959,-0.0258928,0.0380666,0.99997,6.45753e-10,1.3281e-09,0.00772282,4
61251280,0.998868,0.0196465,-0.0217769,0.0374613,0.99997,6.45753e-10,1.3281e-09,0.00772282,4
61301318,0.998871,0.022679,-0.0192558,0.0370414,0.99997,6.45753e-10,1.3281e-09,0.00772282,4
61351362,0.999045,0.0169962,-0.0154234,0.0371726,0.99997,6.45753e-10,1.3281e-09,0.00772282,4
61401405,0.999227,0.00950512,-0.0084246,0.0372152,0.99997,6.45753e-10,1.3281e-09,0.00772282,4
61451449,0.999303,0.00711498,0.00161334,0.0366223,0.99997,6.45753e-10,1.3281e-09,0.00772282,4
61501492,0.99924,0.00942771,0.0104524,0.0363601,0.99997,6.45753e-10,1.3281e-09,0.00772282,4
61551536,0.999187,0.011487,0.0154214,0.0354401,0.99997,6.45753e-10,1.3281e-09,0.00772282,4
61601580,0.999233,0.0121521,0.0131886,0.0348054,0.99997,6.45753e-10,1.3281e-09,0.00772282,4
61651623,0.999316,0.0122876,0.00807218,0.0339321,0.99997,6.45753e-10,1.3281e-09,0.00772282,4
61701667,0.999367,0.0124443,0.00331255,0.0331625,0.99997,6.45753e-10,1.3281e-09,0.00772282,4
61746708,0.999401,0.0125571,0.00118322,0.0322153,0.99997,6.45753e-10,1.3281e-09,0.00772282,4
61801754,0.999451,0.0110571,0.000379283,0.0312188,0.99997,6.45753e-10,1.3281e-09,0.00772282,4
61851801,0.999488,0.00988371,0.00254367,0.0303213,0.99997,6.45753e-10,1.3281e-09,0.00772282,4
61901842,0.999536,0.00321535,0.0038972,0.0300547,0.99997,6.45753e-10,1.3281e-09,0.00772282,4
61951886,0.999476,-0.0117842,0.00648802,0.0294587,0.99997,6.45753e-10,1.3281e-09,0.00772282,4
62001929,0.999089,-0.0297256,0.00824004,0.0295059,0.99997,6.45753e-10,1.3281e-09,0.00772282,4
62051973,0.998263,-0.0503835,0.00933902,0.0290651,0.99997,6.45753e-10,1.3281e-09,0.00772282,4
62097015,0.997169,-0.0688386,0.00908286,0.0288581,0.99997,6.45753e-10,1.3281e-09,0.00772282,4
62152060,0.996447,-0.0788713,0.00716496,0.0286558,0.99997,6.45753e-10,1.3281e-09,0.00772282,4
62202104,0.996233,-0.0820086,0.00531379,0.0276815,0.99997,6.45753e-10,1.3281e-09,0.00772282,4
62247143,0.99602,-0.0849697,0.00222435,0.0268274,0.99997,6.45753e-10,1.3281e-09,0.00772282,4
62302191,0.995941,-0.0860736,-0.00123393,0.0263102,0.99997,6.45753e-10,1.3281e-09,0.00772282,4
62352237,0.995923,-0.0864086,-0.00365556,0.0256399,0.99997,6.45753e-10,1.3281e-09,0.00772282,4
62402281,0.996535,-0.0790322,-0.00546353,0.0253501,0.99997,6.45753e-10,1.3281e-09,0.00772282,4
62447328,0.997645,-0.0638813,-0.00518568,0.0244427,0.99997,6.45753e-10,1.3281e-09,0.00772282,4
62502366,0.99915,-0.0333005,-0.00560456,0.0236435,0.99997,6.45753e-10,1.3281e-09,0.00772282,4
62552410,0.999683,-0.00932012,-0.00535064,0.0227809,0.99997,6.45753e-10,1.3281e-09,0.00772282,4
62597452,0.999733,0.00215863,-0.004797,0.0225115,0.99997,6.45753e-10,1.3281e-09,0.00772282,4
62652497,0.999704,0.00604322,-0.00661298,0.0226098,0.99997,6.45753e-10,1.3281e-09,0.00772282,4
62702543,0.99965,0.00540703,-0.0130705,0.0223571,0.99997,6.45753e-10,1.3281e-09,0.00772282,4
62747580,0.999532,0.00526356,-0.0206836,0.0218961,0.99997,6.45753e-10,1.3281e-09,0.00772282,4
62797624,0.999318,0.00851176,-0.0286437,0.0217041,0.99997,6.45753e-10,1.3281e-09,0.00772282,4
62852672,0.999057,0.0138931,-0.0350576,0.0215281,0.99997,6.45753e-10,1.3281e-09,0.00772282,4
62902716,0.998874,0.0193782,-0.0377705,0.0211743,0.99997,6.45753e-10,1.3281e-09,0.00772282,4
62947755,0.998827,0.0215098,-0.0380188,0.0208831,0.99997,6.45753e-10,1.3281e-09,0.00772282,4
63002803,0.998884,0.0226314,-0.0362959,0.0200555,0.99997,6.45753e-10,1.3281e-09,0.00772282,4
63052856,0.999136,0.0177681,-0.0325785,0.0187153,0.99997,6.45753e-10,1.3281e-09,0.00772282,4
63097886,0.999469,0.0125156,-0.0242099,0.0178668,0.99997,6.45753e-10,1.3281e-09,0.00772282,4
63147930,0.999718,0.00885218,-0.0134473,0.0174323,0.99997,6.45753e-10,1.3281e-09,0.00772282,4
63202977,0.999821,0.00850151,-0.00156635,0.016841,0.99997,6.45753e-10,1.3281e-09,0.00772282,4
63253021,0.999824,0.0086334,0.00375927,0.0162048,0.99997,6.45753e-10,1.3281e-09,0.00772282,4
63298060,0.999811,0.0105229,0.0044364,0.0157519,0.99997,6.45753e-10,1.3281e-09,0.00772282,4
63353108,0.999788,0.0130251,0.00101941,0.0159306,0.99997,6.45753e-10,1.3281e-09,0.00772282,4
63403152,0.999734,0.0165337,-0.00211706,0.0159679,0.99997,6.45753e-10,1.3281e-09,0.00772282,4
63448191,0.99971,0.0177252,-0.0037998,0.015858,0.99997,6.45753e-10,1.3281e-09,0.00772282,4
63498238,0.999613,0.0224523,-0.00370314,0.0159931,0.99997,6.45753e-10,1.3281e-09,0.00772282,4
63553283,0.999313,0.0331606,-0.00149954,0.0164824,0.99997,6.45753e-10,1.3281e-09,0.00772282,4
63598332,0.99901,0.0412104,-5.52073e-05,0.0167564,0.99997,6.45753e-10,1.3281e-09,0.00772282,4
63648366,0.999001,0.0411369,0.00154083,0.01741,0.99997,6.45753e-10,1.3281e-09,0.00772282,4
63703414,0.999343,0.0311287,0.000132499,0.0185405,0.99997,6.45753e-10,1.3281e-09,0.00772282,4
63753458,0.999623,0.0192544,-0.000535435,0.0195429,0.99997,6.45753e-10,1.3281e-09,0.00772282,4
63798497,0.999723,0.0125799,0.000231143,0.0198799,0.99997,6.45753e-10,1.3281e-09,0.00772282,4
63848541,0.999735,0.00992499,0.00175782,0.0207095,0.99997,6.45753e-10,1.3281e-09,0.00772282,4
63903590,0.999721,0.00842615,0.00179752,0.021983,0.99997,6.45753e-10,1.3281e-09,0.00772282,4
63948630,0.999709,0.00828876,0.00118824,0.0226262,0.99997,6.45753e-10,1.3281e-09,0.00772282,4
63998672,0.999709,0.00528563,0.000393442,0.0235477,0.99997,6.45753e-10,1.3281e-09,0.00772282,4
64053720,0.999693,-0.000702374,-0.00110789,0.0247312,0.99997,6.45753e-10,1.3281e-09,0.00772282,4
64098759,0.999678,-0.00224255,-0.0018998,0.0252001,0.99997,6.45753e-10,1.3281e-09,0.00772282,4
64148803,0.999655,-0.00294194,-0.00248141,0.025978,0.99997,6.45753e-10,1.3281e-09,0.00772282,4
64198863,0.999627,-0.00412329,-0.000594289,0.027007,0.99997,6.45753e-10,1.3281e-09,0.00772282,4
64253895,0.999596,-0.00320369,0.000943537,0.0282247,0.99997,6.45753e-10,1.3281e-09,0.00772282,4
64298934,0.999587,-0.000945037,0.000567151,0.0287234,0.99997,6.45753e-10,1.3281e-09,0.00772282,4
64348977,0.999581,0.00315484,0.000219781,0.0287639,0.99997,6.45753e-10,1.3281e-09,0.00772282,4
64404028,0.999569,0.00392391,-0.000298963,0.0290861,0.99997,6.45753e-10,1.3281e-09,0.00772282,4
64449065,0.999562,0.00508562,-0.000881423,0.0291255,0.99997,6.45753e-10,1.3281e-09,0.00772282,4
64499109,0.999554,0.00619264,-0.00167085,0.0291815,0.99997,6.45753e-10,1.3281e-09,0.00772282,4
64549152,0.999543,0.00792434,-0.00243516,0.0290664,0.99997,6.45753e-10,1.3281e-09,0.00772282,4
64599197,0.999527,0.00964995,-0.00238555,0.0290948,0.99997,6.45753e-10,1.3281e-09,0.00772282,4
64649240,0.999536,0.00756191,-0.00275567,0.029386,0.99997,6.45753e-10,1.3281e-09,0.00772282,4
64699287,0.99954,0.00722196,-0.00302027,0.0292921,0.99997,6.45753e-10,1.3281e-09,0.00772282,4
64754332,0.999449,0.00835634,-0.012323,0.0296815,0.99997,6.45753e-10,1.3281e-09,0.00772282,4
64799371,0.999225,0.0109738,-0.023266,0.0297851,0.99997,6.45753e-10,1.3281e-09,0.00772282,4
64849417,0.998727,0.0162256,-0.0373416,0.029769,0.99997,6.45753e-10,1.3281e-09,0.00772282,4
64899458,0.99815,0.0196663,-0.0492174,0.0297845,0.99997,6.45753e-10,1.3281e-09,0.00772282,4
64949505,0.997756,0.0203877,-0.0564855,0.0296071,0.99997,6.45753e-10,1.3281e-09,0.00772282,4
64999545,0.997693,0.0213178,-0.0573441,0.0294369,0.99997,6.45753e-10,1.3281e-09,0.00772282,4
65049589,0.99795,0.0211373,-0.052613,0.0296892,0.99997,6.45753e-10,1.3281e-09,0.00772282,4
65099633,0.998757,0.0194932,-0.0349446,0.0297126,0.99997,6.45753e-10,1.3281e-09,0.00772282,4
65149683,0.99928,0.0183694,-0.0134044,0.0303755,0.99997,6.45753e-10,1.3281e-09,0.00772282,4
65199720,0.999453,0.0104453,0.00336513,0.0311898,0.99997,6.45753e-10,1.3281e-09,0.00772282,4
65249764,0.999437,-0.00116402,0.0103545,0.031888,0.99997,6.45753e-10,1.3281e-09,0.00772282,4
65299807,0.999319,-0.0141504,0.00814951,0.0330803,0.99997,6.45753e-10,1.3281e-09,0.00772282,4
65349851,0.999127,-0.024767,0.00337061,0.0334665,0.99997,6.45753e-10,1.3281e-09,0.00772282,4
65399895,0.998902,-0.0321474,-0.000634743,0.0340613,0.99997,6.45753e-10,1.3281e-09,0.00772282,4
65449940,0.998762,-0.0359731,-0.00200499,0.0343038,0.99997,6.45753e-10,1.3281e-09,0.00772282,4
65499982,0.998929,-0.0307163,-0.00107474,0.0345866,0.99997,6.45753e-10,1.3281e-09,0.00772282,4
65550026,0.999263,-0.017081,0.00024827,0.0343615,0.99997,6.45753e-10,1.3281e-09,0.00772282,4
65600070,0.999424,-0.00147815,0.00231944,0.0338375,0.99997,6.45753e-10,1.3281e-09,0.00772282,4
65650113,0.999397,0.00878383,0.00202589,0.0335446,0.99997,6.45753e-10,1.3281e-09,0.00772282,4
65700157,0.999434,0.011638,0.00141842,0.0315395,0.99997,6.45753e-10,1.3281e-09,0.00772282,4
65750201,0.999622,0.00683013,0.000433897,0.0266239,0.99997,6.45753e-10,1.3281e-09,0.00772282,4
65800244,0.999767,0.00272101,0.000804012,0.0214167,0.99997,6.45753e-10,1.3281e-09,0.00772282,4
65850288,0.999844,0.00179793,0.00124673,0.0175142,0.99997,6.45753e-10,1.3281e-09,0.00772282,4
65900332,0.999882,0.00519863,0.00221562,0.0142778,0.99997,6.45753e-10,1.3281e-09,0.00772282,4
65950375,0.999911,0.00615623,0.00131947,0.0117688,0.99997,6.45753e-10,1.3281e-09,0.00772282,4
66000419,0.999929,0.00752572,0.00083688,0.0091818,0.99997,6.45753e-10,1.3281e-09,0.00772282,4
66050463,0.999939,0.00813449,0.00135475,0.00732056,0.99997,6.45753e-10,1.3281e-09,0.00772282,4
66100506,0.999948,0.00829133,0.0024566,0.00548991,0.99997,6.45753e-10,1.3281e-09,0.00772282,4
66150550,0.999949,0.00884726,0.00270086,0.00405691,0.99997,6.45753e-10,1.3281e-09,0.00772282,4
66200594,0.999988,0.00259127,0.00288169,0.00312194,0.99997,6.45753e-10,1.3281e-09,0.00772282,4
66250637,0.999945,-0.0100577,0.00174807,0.00226628,0.99997,6.45753e-10,1.3281e-09,0.00772282,4
66300681,0.999665,-0.0257858,-0.000173283,0.00209452,0.99997,6.45753e-10,1.3281e-09,0.00772282,4
66350725,0.999369,-0.0354658,0.000719561,0.00157368,0.99997,6.45753e-10,1.3281e-09,0.00772282,4
66400768,0.999476,-0.0323041,0.000957759,0.00163138,0.99997,6.45753e-10,1.3281e-09,0.00772282,4
66450812,0.999885,-0.0145855,0.00387187,0.00163782,0.99997,6.45753e-10,1.3281e-09,0.00772282,4
66500865,0.999977,0.00516282,0.00413227,0.00184241,0.99997,6.45753e-10,1.3281e-09,0.00772282,4
66550903,0.999817,0.0189731,-0.000102639,0.00261308,0.99997,6.45753e-10,1.3281e-09,0.00772282,4
66600943,0.999788,0.0199027,-0.0041164,0.00336126,0.99997,6.45753e-10,1.3281e-09,0.00772282,4
66650987,0.99985,0.0146877,-0.00793578,0.0046998,0.99997,6.45753e-10,1.3281e-09,0.00772282,4
66701031,0.999931,0.00576639,-0.00841414,0.00581167,0.99997,6.45753e-10,1.3281e-09,0.00772282,4
66751074,0.999891,-0.00860782,-0.00929437,0.00761836,0.99997,6.45753e-10,1.3281e-09,0.00772282,4
66801118,0.999585,-0.0257298,-0.00944438,0.00885119,0.99997,6.45753e-10,1.3281e-09,0.00772282,4
66851168,0.998616,-0.0505366,-0.0101787,0.0103774,0.99997,6.45753e-10,1.3281e-09,0.00772282,4
66901205,0.997734,-0.0657906,-0.00786048,0.0116474,0.99997,6.45753e-10,1.3281e-09,0.00772282,4
66951270,0.997386,-0.0711354,-0.00278701,0.0123578,0.99997,6.45753e-10,1.3281e-09,0.00772282,4
67001293,0.997682,-0.066656,0.000229169,0.0136856,0.99997,6.45753e-10,1.3281e-09,0.00772282,4
67051340,0.998335,-0.0557604,0.00188703,0.0146578,0.99997,6.45753e-10,1.3281e-09,0.00772282,4
67101380,0.998596,-0.0504703,0.00146122,0.0160039,0.99997,6.45753e-10,1.3281e-09,0.00772282,4
67151424,0.999063,-0.0397067,0.00478871,0.0165294,0.99997,6.45753e-10,1.3281e-09,0.00772282,4
67201469,0.999409,-0.0294003,0.00550491,0.0169312,0.99997,6.45753e-10,1.3281e-09,0.00772282,4
67251511,0.999676,-0.018158,0.00362269,0.0174426,0.99997,6.45753e-10,1.3281e-09,0.00772282,4
67301555,0.999779,-0.0113949,-0.000229498,0.0176777,0.99997,6.45753e-10,1.3281e-09,0.00772282,4
67346594,0.999812,-0.00513896,-0.00571149,0.0178038,0.99997,6.45753e-10,1.3281e-09,0.00772282,4
67401642,0.999777,-0.00543583,-0.00893329,0.0183691,0.99997,6.45753e-10,1.3281e-09,0.00772282,4
67451687,0.999788,-0.00636144,-0.00764055,0.018006,0.99997,6.45753e-10,1.3281e-09,0.00772282,4
67501729,0.999838,0.000893559,-0.00410544,0.0175144,0.99997,6.45753e-10,1.3281e-09,0.00772282,4
67551780,0.9998,0.0104447,-0.00227814,0.016882,0.99997,6.45753e-10,1.3281e-09,0.00772282,4
67601817,0.999755,0.0141275,-0.00370406,0.0166195,0.99997,6.45753e-10,1.3281e-09,0.00772282,4
67651861,0.999853,0.00376337,-0.00512512,0.0158972,0.99997,6.45753e-10,1.3281e-09,0.00772282,4
67696900,0.999862,-0.00284798,-0.006144,0.0151915,0.99997,6.45753e-10,1.3281e-09,0.00772282,4
67751948,0.999868,-0.00559386,-0.00609996,0.0139787,0.99997,6.45753e-10,1.3281e-09,0.00772282,4
67801992,0.999888,-0.00609346,-0.0048902,0.0127601,0.99997,6.45753e-10,1.3281e-09,0.00772282,4
67847031,0.999913,-0.00288995,-0.00449253,0.0120996,0.99997,6.45753e-10,1.3281e-09,0.00772282,4
67902079,0.999931,0.000946544,-0.00263847,0.0113758,0.99997,6.45753e-10,1.3281e-09,0.00772282,4
67952123,0.999938,-0.000470238,-0.0015228,0.0110237,0.99997,6.45753e-10,1.3281e-09,0.00772282,4
68002166,0.999947,-0.000589441,6.73434e-05,0.0102945,0.99997,6.45753e-10,1.3281e-09,0.00772282,4
68047206,0.999951,0.000178081,0.001456,0.00975146,0.99997,6.45753e-10,1.3281e-09,0.00772282,4
68102254,0.999954,0.00114564,0.00331413,0.00891747,0.99997,6.45753e-10,1.3281e-09,0.00772282,4
68152298,0.999945,0.00505642,0.00317947,0.00857288,0.99997,6.45753e-10,1.3281e-09,0.00772282,4
68197337,0.999909,0.0100909,0.00482682,0.00757347,0.99997,6.45753e-10,1.3281e-09,0.00772282,4
68252393,0.99991,0.0109348,0.0032134,0.00708043,0.99997,6.45753e-10,1.3281e-09,0.00772282,4
68302429,0.999966,0.00453684,-0.000201545,0.00696165,0.99997,6.45753e-10,1.3281e-09,0.00772282,4
68352472,0.999892,-0.0119034,-0.00493784,0.00709473,0.99997,6.45753e-10,1.3281e-09,0.00772282,4
68397512,0.999505,-0.029805,-0.00700665,0.00725546,0.99997,6.45753e-10,1.3281e-09,0.00772282,4
68452560,0.998702,-0.0501835,-0.00538202,0.0068425,0.99997,6.45753e-10,1.3281e-09,0.00772282,4
68502604,0.998129,-0.0606398,-0.00384727,0.00681543,0.99997,6.45753e-10,1.3281e-09,0.00772282,4
68547643,0.998025,-0.0624487,-0.0019622,0.00647968,0.99997,6.45753e-10,1.3281e-09,0.00772282,4
68602698,0.99803,-0.0623984,-0.000411498,0.00655495,0.99997,6.45753e-10,1.3281e-09,0.00772282,4
68652735,0.998481,-0.0546822,-0.000208509,0.0067988,0.99997,6.45753e-10,1.3281e-09,0.00772282,4
68697774,0.999284,-0.0372494,0.000842738,0.00655954,0.99997,6.45753e-10,1.3281e-09,0.00772282,4
68747818,0.999862,-0.0151401,0.000578618,0.00678673,0.99997,6.45753e-10,1.3281e-09,0.00772282,4
68802866,0.999966,0.00416176,0.000306513,0.00716831,0.99997,6.45753e-10,1.3281e-09,0.00772282,4
68852910,0.999885,0.0124471,-0.00328466,0.00803383,0.99997,6.45753e-10,1.3281e-09,0.00772282,4
68897949,0.999845,0.0146249,-0.00513474,0.00832975,0.99997,6.45753e-10,1.3281e-09,0.00772282,4
68952997,0.99989,0.00959185,-0.00596649,0.00964901,0.99997,6.45753e-10,1.3281e-09,0.00772282,4
69003041,0.999921,0.00370686,-0.00576196,0.0105818,0.99997,6.45753e-10,1.3281e-09,0.00772282,4
69048080,0.999904,0.00312595,-0.00774241,0.011071,0.99997,6.45753e-10,1.3281e-09,0.00772282,4
69098124,0.999764,0.00171755,-0.0184137,0.0113938,0.99997,6.45753e-10,1.3281e-09,0.00772282,4
69153172,0.999204,0.000534634,-0.0378875,0.0125116,0.99997,6.45753e-10,1.3281e-09,0.00772282,4
69198220,0.998717,0.00362507,-0.0487816,0.0130711,0.99997,6.45753e-10,1.3281e-09,0.00772282,4
69248255,0.998376,0.00868368,-0.0545187,0.0140646,0.99997,6.45753e-10,1.3281e-09,0.00772282,4
69303303,0.998709,0.012645,-0.046857,0.015021,0.99997,6.45753e-10,1.3281e-09,0.00772282,4
69353357,0.999375,0.0131864,-0.0289323,0.0154576,0.99997,6.45753e-10,1.3281e-09,0.00772282,4
69398388,0.999699,0.0119119,-0.014046,0.0161918,0.99997,6.45753e-10,1.3281e-09,0.00772282,4
69448433,0.999815,0.00757822,-0.00337418,0.0173506,0.99997,6.45753e-10,1.3281e-09,0.00772282,4
69503478,0.99983,-0.00046449,0.000432163,0.0184405,0.99997,6.45753e-10,1.3281e-09,0.00772282,4
69548517,0.999817,-0.00394719,-0.000461895,0.0187178,0.99997,6.45753e-10,1.3281e-09,0.00772282,4
69598561,0.999802,-0.00434831,-0.000968192,0.0193705,0.99997,6.45753e-10,1.3281e-09,0.00772282,4
69653611,0.999798,0.00190456,0.00073249,0.0199853,0.99997,6.45753e-10,1.3281e-09,0.00772282,4
69698648,0.999763,0.00808781,0.00277969,0.0200283,0.99997,6.45753e-10,1.3281e-09,0.00772282,4
69748692,0.999756,0.00848581,0.00412646,0.0199529,0.99997,6.45753e-10,1.3281e-09,0.00772282,4
69798736,0.999755,0.00541692,0.00618246,0.0205511,0.99997,6.45753e-10,1.3281e-09,0.00772282,4
69853784,0.999772,0.00213997,0.00616726,0.0203443,0.99997,6.45753e-10,1.3281e-09,0.00772282,4
69898823,0.999788,-0.000833923,0.00253612,0.020414,0.99997,6.45753e-10,1.3281e-09,0.00772282,4
69948867,0.999766,0.00491181,-0.00652525,0.0200138,0.99997,6.45753e-10,1.3281e-09,0.00772282,4
70003915,0.999523,0.0178964,-0.0158783,0.0195476,0.99997,6.45753e-10,1.3281e-09,0.00772282,4
70048955,0.999352,0.0235752,-0.018713,0.0197563,0.99997,6.45753e-10,1.3281e-09,0.00772282,4
