timestamp,timestamp_sample,baro_device_id,baro_alt_meter,baro_temp_celcius,baro_pressure_pa,rho
23511678,23488996,3997730,269.1863,22.369999,98133.24,1.1659852
23561989,23541865,3997730,269.42148,22.369999,98130.5,1.1659527
23722929,23702741,3997730,269.24973,22.369999,98132.49,1.1659763
23934044,23916376,3997730,269.27087,22.369999,98132.25,1.1659734
24155292,24132541,3997730,269.35806,22.369999,98131.25,1.1659616
24316057,24293397,3997730,269.4849,22.38,98129.75,1.1659437
24527359,24507151,3997730,269.5483,22.38,98129.0,1.1659348
24738322,24720586,3997730,269.2735,22.38,98132.24,1.1659734
24919135,24896493,3997730,269.40033,22.38,98130.75,1.1659557
25130265,25110086,3997730,269.6355,22.38,98128.0,1.165923
25341360,25323668,3997730,269.44263,22.38,98130.25,1.1659497
25562461,25539828,3997730,269.59323,22.39,98128.5,1.165929
25723364,25700703,3997730,269.3792,22.39,98131.0,1.1659586
25934476,25914360,3997730,269.44263,22.39,98130.25,1.1659497
26145569,26127941,3997730,269.52716,22.39,98129.25,1.1659378
26306671,26288865,3997730,269.40033,22.39,98130.75,1.1659557
26527685,26505020,3997730,269.24973,22.39,98132.5,1.1659764
26738856,26718707,3997730,269.40033,22.4,98130.75,1.1659557
26949963,26932350,3997730,269.292,22.4,98132.0,1.1659704
27110921,27093173,3997730,269.40033,22.4,98130.75,1.1659557
27332142,27309462,3997730,269.44263,22.41,98130.25,1.1659497
27543243,27523124,3997730,269.31577,22.41,98131.75,1.1659675
27754437,27736761,3997730,269.6989,22.41,98127.25,1.165914
27915439,27897748,3997730,269.40033,22.41,98130.75,1.1659557
28136516,28113860,3997730,269.3369,22.41,98131.49,1.1659645
28347739,28327591,3997730,269.6355,22.41,98128.0,1.165923
28558755,28541136,3997730,269.5483,22.42,98129.0,1.1659348
28719610,28701943,3997730,269.65665,22.42,98127.75,1.16592
28940886,28918153,3997730,269.5483,22.42,98129.0,1.1659348
29152084,29131905,3997730,269.59323,22.42,98128.5,1.165929
29313146,29292888,3997730,269.40033,22.42,98130.75,1.1659557
29524084,29506450,3997730,269.8046,22.42,98126.0,1.1658992
29755381,29735244,3997730,269.52716,22.42,98129.25,1.1659378
29916291,29896098,3997730,269.24973,22.43,98132.5,1.1659764
30147394,30117112,3997730,269.3792,22.43,98130.99,1.1659585
30358479,30338295,3997730,269.52716,22.43,98129.25,1.1659378
30519116,30498991,3997730,269.52716,22.439999,98129.25,1.1659378
30730226,30712608,3997730,269.24973,22.439999,98132.5,1.1659764
30951576,30928893,3997730,269.46375,22.43,98130.0,1.1659467
31162707,31142544,3997730,269.74118,22.439999,98126.75,1.1659081
31323584,31303420,3997730,269.4849,22.439999,98129.75,1.1659437
31534747,31517099,3997730,269.1863,22.439999,98133.24,1.1659852
31756036,31733216,3997730,269.57208,22.439999,98128.75,1.1659318
31916711,31894076,3997730,269.46375,22.439999,98130.0,1.1659467
32128066,32107684,3997730,269.6355,22.439999,98128.0,1.165923
32339014,32321345,3997730,269.61435,22.449999,98128.25,1.165926
32560013,32537361,3997730,269.7861,22.449999,98126.24,1.1659021
32721017,32698311,3997730,269.72003,22.449999,98127.0,1.1659111
32932189,32912060,3997730,270.27493,22.449999,98120.49,1.1658337
33143416,33125769,3997730,270.23267,22.449999,98121.0,1.1658398
33304118,33286475,3997730,270.61844,22.46,98116.5,1.1657864
33525374,33502674,3997730,270.703,22.46,98115.5,1.1657745
33736857,33716485,3997730,271.13107,22.46,98110.5,1.1657151
33947769,33930051,3997730,270.93817,22.46,98112.74,1.1657417
34109108,34091064,3997730,271.06763,22.46,98111.24,1.1657238
34329883,34307209,3997730,271.17334,22.46,98110.0,1.1657091
34541350,34520883,3997730,271.27902,22.46,98108.75,1.1656942
34752256,34734591,3997730,271.30014,22.46,98108.5,1.1656913
34913056,34895382,3997730,270.91702,22.47,98112.99,1.1657447
35134307,35111658,3997730,271.74936,22.46,98103.25,1.1656289
35345701,35325281,3997730,271.5565,22.47,98105.5,1.1656556
35556535,35538837,3997730,271.04385,22.47,98111.5,1.1657269
35717518,35699846,3997730,271.25787,22.47,98109.0,1.1656972
35938717,35916072,3997730,271.10992,22.47,98110.75,1.165718
36149893,36129692,3997730,271.32394,22.48,98108.24,1.1656882
36361028,36343399,3997730,271.27902,22.47,98108.75,1.1656942
36521871,36504212,3997730,271.2156,22.47,98109.5,1.1657032
36742995,36720356,3997730,271.23676,22.47,98109.25,1.1657002
36954083,36933897,3997730,271.23676,22.48,98109.25,1.1657002
37115046,37094871,3997730,270.98044,22.48,98112.24,1.1657357
37326271,37308441,3997730,271.13107,22.48,98110.49,1.165715
37547244,37524516,3997730,271.06763,22.48,98111.24,1.1657238
37758936,37738179,3997730,271.53534,22.48,98105.75,1.1656586
37929410,37911649,3997730,271.0016,22.48,98112.0,1.1657329
38150438,38127698,3997730,271.23676,22.48,98109.25,1.1657002
38361572,38341386,3997730,271.0227,22.48,98111.74,1.1657298
38522270,38502121,3997730,271.0016,22.48,98112.0,1.1657329
38733344,38715701,3997730,271.08612,22.49,98111.0,1.1657209
38954513,38931855,3997730,271.2156,22.49,98109.5,1.1657032
39115417,39092781,3997730,271.5142,22.49,98106.0,1.1656616
39326474,39306282,3997730,271.38736,22.48,98107.49,1.1656793
39537540,39519916,3997730,271.08878,22.49,98110.99,1.1657209
39758778,39736117,3997730,271.27902,22.49,98108.75,1.1656942
39919586,39896897,3997730,271.38736,22.49,98107.49,1.1656793
40130913,40110768,3997730,271.2156,22.49,98109.5,1.1657032
40342194,40324573,3997730,271.28168,22.49,98108.74,1.1656941
40503018,40485355,3997730,271.23938,22.49,98109.24,1.1657001
40724183,40701501,3997730,271.28168,22.49,98108.74,1.1656941
40935157,40914983,3997730,271.30014,22.49,98108.5,1.1656913
41146165,41128544,3997730,271.23676,22.5,98109.25,1.1657002
41307100,41289354,3997730,271.3662,22.5,98107.75,1.1656823
41528173,41505452,3997730,271.40848,22.5,98107.25,1.1656765
41739249,41719078,3997730,271.0227,22.5,98111.74,1.1657298
41950464,41932735,3997730,271.45078,22.5,98106.75,1.1656705
42111309,42093645,3997730,271.40848,22.5,98107.24,1.1656764
42332751,42309915,3997730,271.23676,22.5,98109.25,1.1657002
42543731,42523564,3997730,271.19446,22.5,98109.74,1.165706
42754801,42737158,3997730,271.5142,22.5,98106.0,1.1656616
42915683,42898069,3997730,271.25787,22.51,98109.0,1.1656972
43136735,43114107,3997730,271.7282,22.51,98103.5,1.1656319
43348027,43327730,3997730,271.83655,22.51,98102.25,1.165617
43559142,43541377,3997730,271.64365,22.51,98104.5,1.1656437
43720047,43702396,3997730,271.49304,22.51,98106.25,1.1656646
43941301,43918530,3997730,271.49304,22.51,98106.25,1.1656646
44152308,44132082,3997730,271.5776,22.51,98105.25,1.1656526
44363137,44345488,3997730,271.49304,22.51,98106.25,1.1656646
44524139,44506488,3997730,271.6648,22.51,98104.25,1.1656408
44745339,44722683,3997730,271.6648,22.51,98104.25,1.1656408
44956552,44936314,3997730,271.94226,22.519999,98101.0,1.1656022
45117895,45097472,3997730,271.79428,22.519999,98102.75,1.165623
45328807,45311201,3997730,271.98453,22.51,98100.5,1.1655962
45550133,45527340,3997730,272.00565,22.519999,98100.25,1.1655933
45761175,45740958,3997730,271.79428,22.519999,98102.75,1.165623
45922001,45901871,3997730,271.9211,22.519999,98101.25,1.1656052
46133015,46115335,3997730,271.89996,22.519999,98101.5,1.165608
46354089,46331465,3997730,271.9211,22.529999,98101.25,1.1656052
46515099,46492350,3997730,272.11398,22.529999,98099.0,1.1655784
46727249,46706239,3997730,272.13513,22.519999,98098.75,1.1655754
46957623,46934983,3997730,272.21967,22.529999,98097.75,1.1655636
47118434,47095815,3997730,271.98715,22.529999,98100.49,1.1655961
47329713,47309550,3997730,272.5209,22.529999,98094.24,1.1655219
47540783,47523131,3997730,272.51828,22.529999,98094.25,1.165522
47761783,47739151,3997730,272.49976,22.529999,98094.49,1.1655248
47923103,47899898,3997730,272.66888,22.529999,98092.49,1.1655011
48133840,48113639,3997730,272.66888,22.529999,98092.5,1.1655011
48345548,48327418,3997730,272.66888,22.529999,98092.5,1.1655011
48505815,48488167,3997730,272.15628,22.529999,98098.5,1.1655724
48727023,48704203,3997730,272.32538,22.529999,98096.5,1.1655487
48948141,48930464,3997730,272.43372,22.539999,98095.24,1.1655338
49108946,49091328,3997730,272.62662,22.529999,98093.0,1.1655071
49330229,49307435,3997730,272.21967,22.539999,98097.75,1.1655636
49541426,49521193,3997730,272.30426,22.539999,98096.75,1.1655517
49752356,49734710,3997730,272.66888,22.539999,98092.49,1.1655011
49913034,49895416,3997730,272.8618,22.539999,98090.25,1.1654744
50134184,50111559,3997730,272.99124,22.539999,98088.74,1.1654565
50345597,50325303,3997730,272.77457,22.539999,98091.25,1.1654863
50556725,50538917,3997730,272.60547,22.539999,98093.25,1.16551
50717379,50699757,3997730,272.8195,22.539999,98090.75,1.1654804
50938492,50915799,3997730,272.77457,22.539999,98091.25,1.1654863
51149682,51129482,3997730,273.05466,22.55,98087.99,1.1654476
51361107,51343348,3997730,273.03354,22.55,98088.24,1.1654506
51521792,51504176,3997730,273.03354,22.55,98088.24,1.1654506
51743077,51720416,3997730,272.92517,22.55,98089.49,1.1654655
51954251,51934105,3997730,273.11807,22.55,98087.25,1.1654388
52115135,52094967,3997730,272.83798,22.55,98090.5,1.1654774
52326209,52308583,3997730,272.69003,22.55,98092.25,1.1654983
52547404,52524778,3997730,273.05466,22.55,98088.0,1.1654477
52758429,52738297,3997730,272.8195,22.55,98090.75,1.1654804
52919265,52899098,3997730,273.0758,22.55,98087.74,1.1654446
53130681,53113005,3997730,273.07315,22.56,98087.76,1.1654449
53351864,53329221,3997730,273.1815,22.56,98086.5,1.1654298
53563107,53542831,3997730,273.05466,22.56,98088.0,1.1654477
53723985,53703824,3997730,273.28983,22.56,98085.25,1.165415
53935080,53917403,3997730,273.0124,22.55,98088.49,1.1654536
54156262,54133582,3997730,273.2449,22.56,98085.76,1.165421
54317286,54294524,3997730,273.0758,22.56,98087.74,1.1654446
54528222,54508046,3997730,273.09692,22.56,98087.49,1.1654416
54739309,54721625,3997730,273.20264,22.56,98086.24,1.1654269
54920239,54889996,3997730,273.05466,22.56,98088.0,1.1654477
55131337,55111135,3997730,272.90405,22.56,98089.75,1.1654685
55342664,55324987,3997730,273.28983,22.56,98085.24,1.1654149
55503498,55485837,3997730,273.26605,22.56,98085.5,1.165418
55724646,55701932,3997730,272.96747,22.57,98089.0,1.1654596
55935594,55915422,3997730,273.16034,22.56,98086.74,1.1654328
56096724,56076211,3997730,273.05466,22.57,98088.0,1.1654477
56327556,56304911,3997730,273.13922,22.57,98087.0,1.1654358
56538788,56518634,3997730,273.05466,22.57,98087.99,1.1654476
56750108,56732414,3997730,272.94632,22.57,98089.24,1.1654625
56910974,56893297,3997730,273.28983,22.57,98085.24,1.1654149
57132126,57109500,3997730,272.71115,22.57,98091.99,1.1654952
57343520,57323339,3997730,273.24756,22.57,98085.74,1.1654209
57554668,57537005,3997730,273.60956,22.57,98081.5,1.1653705
57715527,57697859,3997730,273.54614,22.57,98082.25,1.1653794
57936864,57914126,3997730,273.4378,22.57,98083.5,1.1653942
58148016,58127825,3997730,273.2238,22.58,98086.0,1.165424
58359260,58341516,3997730,273.39554,22.58,98084.0,1.1654001
58520243,58502512,3997730,273.05466,22.58,98088.0,1.1654477
58741431,58718659,3997730,272.71115,22.58,98092.0,1.1654953
58952461,58932288,3997730,272.90405,22.58,98089.75,1.1654685
59163660,59145916,3997730,273.20264,22.58,98086.24,1.1654269
59344488,59314216,3997730,273.15506,22.58,98086.8,1.1654334
59555505,59535277,3997730,272.94632,22.58,98089.24,1.1654625
59716695,59696232,3997730,272.8195,22.58,98090.75,1.1654804
59927650,59909979,3997730,272.69003,22.58,98092.24,1.1654981
60148931,60126188,3997730,272.8829,22.59,98090.0,1.1654714
60359918,60339790,3997730,273.0124,22.58,98088.49,1.1654536
60520752,60500587,3997730,272.8618,22.59,98090.25,1.1654744
60731711,60714100,3997730,273.1815,22.59,98086.5,1.1654298
60952738,60930101,3997730,273.2238,22.59,98086.0,1.165424
61113540,61090875,3997730,273.03354,22.59,98088.24,1.1654506
61324724,61304445,3997730,273.11807,22.59,98087.25,1.1654388
61535597,61517958,3997730,273.16034,22.59,98086.76,1.1654329
61757224,61734176,3997730,273.41666,22.59,98083.74,1.1653972
61927941,61907614,3997730,273.6941,22.59,98080.5,1.1653585
62138970,62121292,3997730,273.35324,22.59,98084.5,1.1654061
62360139,62337463,3997730,272.83798,22.59,98090.5,1.1654774
62520893,62498236,3997730,273.20264,22.59,98086.24,1.1654269
62732024,62711881,3997730,273.28983,22.6,98085.24,1.1654149
62943937,62925747,3997730,273.3321,22.6,98084.75,1.1654091
63104207,63086554,3997730,273.39554,22.6,98084.0,1.1654001
63325411,63302776,3997730,273.09692,22.59,98087.49,1.1654416
63536737,63516579,3997730,273.24756,22.6,98085.74,1.1654209
63747696,63730033,3997730,273.26605,22.6,98085.5,1.165418
63908537,63890840,3997730,273.73636,22.6,98080.0,1.1653527
64129685,64106986,3997730,273.2238,22.6,98086.0,1.165424
64350836,64333189,3997730,273.3321,22.6,98084.74,1.165409
64511908,64494217,3997730,273.26605,22.6,98085.5,1.165418
64732937,64710310,3997730,273.1815,22.6,98086.5,1.1654298
64943982,64923862,3997730,273.35324,22.6,98084.5,1.1654061
65155131,65137458,3997730,273.48007,22.6,98082.99,1.1653882
65315916,65298258,3997730,273.5884,22.6,98081.75,1.1653734
65537116,65514401,3997730,273.48007,22.6,98083.0,1.1653883
65748223,65728100,3997730,273.82358,22.609999,98078.99,1.1653407
65959364,65941692,3997730,274.61362,22.609999,98069.74,1.1652308
66120248,66102518,3997730,274.33618,22.609999,98073.0,1.1652695
66341392,66318704,3997730,274.01645,22.609999,98076.74,1.165314
66552553,66532413,3997730,273.9081,22.609999,98078.0,1.1653289
66713319,66693073,3997730,273.99268,22.609999,98077.0,1.165317
66924616,66906904,3997730,274.18558,22.609999,98074.75,1.1652902
67145694,67123028,3997730,274.463,22.609999,98071.5,1.1652516
67356856,67336692,3997730,274.27014,22.609999,98073.75,1.1652784
67517899,67497705,3997730,274.1433,22.609999,98075.25,1.1652962
67729034,67711356,3997730,273.97156,22.609999,98077.25,1.1653199
67950178,67927479,3997730,273.28983,22.609999,98085.25,1.165415
68161427,68141238,3997730,273.20264,22.609999,98086.24,1.1654269
68322311,68302134,3997730,272.90405,22.609999,98089.75,1.1654685
68533365,68515678,3997730,273.1815,22.619999,98086.5,1.1654298
68754814,68731881,3997730,273.03354,22.619999,98088.24,1.1654506
68925573,68905308,3997730,273.05466,22.609999,98088.0,1.1654477
69136771,69119130,3997730,273.525,22.609999,98082.49,1.1653823
69358001,69335273,3997730,273.16034,22.619999,98086.75,1.1654328
69518928,69496204,3997730,273.71524,22.619999,98080.25,1.1653556
69730101,69709882,3997730,273.86584,22.619999,98078.5,1.1653348
69961403,69938650,3997730,273.65182,22.619999,98081.0,1.1653645
70122224,70099488,3997730,273.60956,22.619999,98081.49,1.1653703
70333189,70312934,3997730,273.84473,22.619999,98078.75,1.1653378
70544102,70526479,3997730,273.9081,22.619999,98078.0,1.1653289
70705168,70687423,3997730,273.6941,22.619999,98080.5,1.1653585
70926184,70903536,3997730,273.77866,22.619999,98079.5,1.1653467
71137958,71117006,3997730,273.887,22.63,98078.25,1.1653318
71308260,71290608,3997730,273.84473,22.63,98078.75,1.1653378
71529366,71506713,3997730,273.5884,22.63,98081.75,1.1653734
71740540,71720350,3997730,273.71524,22.619999,98080.25,1.1653556
71951732,71934080,3997730,273.71524,22.63,98080.25,1.1653556
72112524,72094882,3997730,273.73636,22.63,98080.0,1.1653527
72333699,72310990,3997730,274.249,22.63,98074.0,1.1652814
72544725,72524603,3997730,273.92926,22.63,98077.75,1.1653259
72755905,72738284,3997730,274.22784,22.63,98074.25,1.1652843
72916767,72899140,3997730,273.9081,22.63,98078.0,1.1653289
73138830,73115212,3997730,274.07986,22.63,98076.0,1.1653051
73359076,73341455,3997730,274.12216,22.63,98075.5,1.1652992
73519942,73502223,3997730,273.84473,22.63,98078.75,1.1653378
73741137,73718451,3997730,273.5884,22.63,98081.75,1.1653734
73952293,73932077,3997730,273.80243,22.63,98079.25,1.1653438
74113061,74092888,3997730,273.60956,22.63,98081.49,1.1653703
74324115,74306432,3997730,273.97156,22.64,98077.25,1.1653199
74545291,74522586,3997730,274.12216,22.64,98075.5,1.1652992
74756556,74736226,3997730,274.01645,22.63,98076.75,1.1653141
74917253,74897136,3997730,273.86584,22.64,98078.5,1.1653348
75128597,75110889,3997730,273.92926,22.64,98077.75,1.1653259
75359749,75339504,3997730,274.249,22.64,98074.0,1.1652814
75520486,75500351,3997730,274.01645,22.64,98076.74,1.165314
75731568,75713917,3997730,274.03497,22.64,98076.5,1.1653111
75952766,75930115,3997730,273.887,22.64,98078.25,1.1653318
76163980,76143763,3997730,273.97156,22.64,98077.25,1.1653199
76324776,76304619,3997730,274.12216,22.64,98075.5,1.1652992
76536077,76518454,3997730,273.97156,22.65,98077.25,1.1653199
76757395,76734689,3997730,273.86584,22.65,98078.5,1.1653348
76918189,76895504,3997730,274.07986,22.65,98076.0,1.1653051
77129380,77109231,3997730,273.92926,22.65,98077.75,1.1653259
77340492,77322857,3997730,274.31506,22.65,98073.25,1.1652725
77561671,77538976,3997730,274.33618,22.65,98073.0,1.1652695
77732541,77712378,3997730,274.48682,22.64,98071.25,1.1652486
77943721,77925996,3997730,274.33618,22.65,98073.0,1.1652695
78104662,78086913,3997730,274.07986,22.65,98076.0,1.1653051
78325836,78303151,3997730,274.2939,22.65,98073.5,1.1652755
78536933,78516763,3997730,274.101,22.65,98075.75,1.1653022
78748056,78730451,3997730,274.101,22.65,98075.75,1.1653022
78929191,78906539,3997730,274.42075,22.65,98072.0,1.1652576
79140303,79120145,3997730,274.22784,22.66,98074.25,1.1652843
79351520,79333793,3997730,274.37848,22.65,98072.5,1.1652635
79512245,79494469,3997730,274.9122,22.66,98066.25,1.1651893
79733374,79710637,3997730,274.61362,22.66,98069.74,1.1652308
79944425,79924265,3997730,274.1433,22.66,98075.25,1.1652962
80115212,80091053,3997730,274.07986,22.66,98075.99,1.165305
80336431,80313585,3997730,273.86584,22.66,98078.5,1.1653348
80547401,80527199,3997730,274.22784,22.66,98074.25,1.1652843
80758521,80740883,3997730,274.35733,22.66,98072.75,1.1652665
80919554,80901680,3997730,274.16443,22.66,98075.0,1.1652932
81140446,81117739,3997730,274.101,22.66,98075.75,1.1653022
81351512,81331178,3997730,274.35733,22.66,98072.75,1.1652665
81562523,81544823,3997730,274.61362,22.66,98069.74,1.1652308
81723499,81705816,3997730,274.67703,22.66,98068.99,1.1652218
81944675,81922028,3997730,274.48682,22.66,98071.25,1.1652486
82106118,82082946,3997730,274.27014,22.66,98073.75,1.1652784
82326824,82309152,3997730,274.48682,22.66,98071.25,1.1652486
82548010,82525360,3997730,274.67703,22.66,98068.99,1.1652218
82759107,82738922,3997730,274.52908,22.66,98070.75,1.1652428
82920662,82899755,3997730,274.5925,22.66,98069.99,1.1652337
83151237,83128603,3997730,274.249,22.66,98074.0,1.1652814
83362414,83342279,3997730,274.22784,22.66,98074.25,1.1652843
83523265,83503050,3997730,274.27014,22.67,98073.75,1.1652784
83734437,83716785,3997730,274.48682,22.67,98071.25,1.1652486
83955541,83932923,3997730,274.57135,22.67,98070.24,1.1652367
84117099,84093914,3997730,274.22784,22.67,98074.25,1.1652843
84337780,84320166,3997730,274.50528,22.67,98071.0,1.1652458
84559078,84536263,3997730,274.35733,22.67,98072.75,1.1652665
84719885,84697225,3997730,274.42075,22.67,98072.0,1.1652576
84931146,84910927,3997730,274.2939,22.67,98073.5,1.1652755
85142108,85124468,3997730,274.16443,22.67,98075.0,1.1652932
85303248,85285404,3997730,274.463,22.67,98071.5,1.1652516
85524217,85501552,3997730,274.05875,22.67,98076.25,1.1653081
85736092,85715206,3997730,273.92926,22.67,98077.75,1.1653259
85906452,85888805,3997730,274.01645,22.67,98076.74,1.165314
86127678,86104875,3997730,274.35733,22.67,98072.75,1.1652665
86338706,86318547,3997730,274.16443,22.68,98075.0,1.1652932
86550350,86532176,3997730,274.16443,22.67,98075.0,1.1652932
86710722,86693031,3997730,274.33618,22.68,98073.0,1.1652695
86932101,86909289,3997730,274.50528,22.67,98071.0,1.1652458
87143213,87122925,3997730,274.463,22.67,98071.5,1.1652516
87354290,87336639,3997730,274.57135,22.68,98070.24,1.1652367
87515224,87497485,3997730,274.20673,22.68,98074.5,1.1652873
87736424,87713711,3997730,274.101,22.68,98075.74,1.165302
87957573,87939943,3997730,274.07986,22.68,98076.0,1.1653051
88118333,88100688,3997730,274.69818,22.68,98068.74,1.1652188
88339633,88316893,3997730,274.18558,22.68,98074.75,1.1652902
88550832,88530602,3997730,274.2939,22.68,98073.5,1.1652755
88761954,88744278,3997730,274.52908,22.68,98070.74,1.1652427
88922877,88905259,3997730,274.52908,22.68,98070.74,1.1652427
89144062,89121324,3997730,275.12625,22.68,98063.74,1.1651595
89355233,89334937,3997730,275.4248,22.68,98060.25,1.165118
89515967,89495766,3997730,275.12625,22.689999,98063.74,1.1651595
89727103,89709481,3997730,274.7616,22.689999,98068.0,1.1652101
89958424,89938215,3997730,274.61362,22.68,98069.74,1.1652308
90119091,90098965,3997730,274.63477,22.689999,98069.5,1.1652279
90330468,90312788,3997730,275.12625,22.689999,98063.74,1.1651595
90551748,90528938,3997730,274.57135,22.689999,98070.24,1.1652367
90762638,90742484,3997730,274.89108,22.689999,98066.5,1.1651922
90923435,90903290,3997730,274.9122,22.689999,98066.25,1.1651893
91134595,91116931,3997730,275.27686,22.689999,98062.0,1.1651387
91355622,91333001,3997730,275.1474,22.689999,98063.5,1.1651566
91516625,91493894,3997730,275.38254,22.689999,98060.74,1.1651238
91727704,91707550,3997730,275.31912,22.689999,98061.5,1.1651329
91958903,91936236,3997730,274.936,22.689999,98065.99,1.1651862
92119904,92097169,3997730,275.16852,22.689999,98063.24,1.1651535
92330996,92310853,3997730,275.38254,22.689999,98060.74,1.1651238
92542182,92524532,3997730,275.34027,22.689999,98061.26,1.16513
92763428,92740739,3997730,275.51202,22.689999,98059.25,1.165106
92924138,92901425,3997730,275.44595,22.689999,98060.0,1.165115
93135406,93115182,3997730,275.38254,22.689999,98060.74,1.1651238
93346531,93328879,3997730,274.61362,22.699999,98069.74,1.1652308
93507524,93489812,3997730,274.33618,22.699999,98073.0,1.1652695
93728657,93705984,3997730,274.6559,22.699999,98069.25,1.1652249
93949742,93925520,3997730,274.57663,22.699999,98070.195,1.1652361
94110549,94092921,3997730,274.35733,22.699999,98072.75,1.1652665
94331861,94309101,3997730,274.463,22.699999,98071.5,1.1652516
94542839,94522669,3997730,274.61362,22.699999,98069.74,1.1652308
94704654,94683475,3997730,274.52908,22.699999,98070.74,1.1652427
94934920,94912280,3997730,274.67703,22.699999,98068.99,1.1652218
95146440,95126195,3997730,274.63477,22.699999,98069.5,1.1652279
95357799,95340090,3997730,274.6559,22.699999,98069.24,1.1652248
95518526,95500787,3997730,274.72195,22.699999,98068.49,1.165216
95739657,95716922,3997730,274.5925,22.699999,98069.99,1.1652337
95951024,95930635,3997730,274.52908,22.699999,98070.74,1.1652427
96161940,96144267,3997730,274.63477,22.699999,98069.5,1.1652279
96323072,96305073,3997730,274.6559,22.699999,98069.24,1.1652248
96543776,96521080,3997730,274.55023,22.699999,98070.5,1.1652398
96755119,96734813,3997730,274.50528,22.699999,98071.0,1.1652458
96915872,96895717,3997730,274.52908,22.699999,98070.74,1.1652427
97127491,97109347,3997730,274.55023,22.699999,98070.5,1.1652398
97348181,97325507,3997730,274.52908,22.71,98070.74,1.1652427
97559443,97539225,3997730,274.67703,22.699999,98068.99,1.1652218
97720285,97700107,3997730,274.7431,22.699999,98068.24,1.165213
97931380,97913737,3997730,275.12625,22.71,98063.75,1.1651596
98152410,98129736,3997730,274.69818,22.71,98068.74,1.1652188
98363519,98343373,3997730,275.02054,22.71,98065.0,1.1651744
98524467,98504191,3997730,274.9545,22.71,98065.75,1.1651833
98735420,98717815,3997730,274.93335,22.71,98066.0,1.1651863
98956743,98934074,3997730,275.1051,22.71,98063.99,1.1651624
99117571,99094797,3997730,274.80652,22.71,98067.49,1.165204
99328611,99308377,3997730,274.93335,22.71,98066.0,1.1651863
99540216,99521902,3997730,274.82764,22.71,98067.25,1.1652012
99760593,99737949,3997730,274.86993,22.71,98066.74,1.1651951
99921468,99898822,3997730,275.06284,22.71,98064.49,1.1651684
100132944,100112587,3997730,275.12625,22.71,98063.74,1.1651595
100343956,100326307,3997730,274.9545,22.71,98065.75,1.1651833
100504827,100487205,3997730,274.6559,22.71,98069.24,1.1652248
100726156,100703405,3997730,274.82764,22.71,98067.25,1.1652012
100937273,100917034,3997730,274.37848,22.71,98072.5,1.1652635
101148450,101130735,3997730,274.82764,22.71,98067.25,1.1652012
101309225,101291595,3997730,274.80652,22.72,98067.5,1.1652042
101530679,101507898,3997730,274.69818,22.72,98068.75,1.165219
101741702,101721463,3997730,274.55023,22.72,98070.49,1.1652397
101952992,101935182,3997730,274.7431,22.72,98068.24,1.165213
102113566,102095951,3997730,274.67703,22.72,98068.99,1.1652218
102334771,102312028,3997730,274.5925,22.72,98069.99,1.1652337
102545897,102525745,3997730,274.67703,22.72,98068.99,1.1652218
102757164,102739471,3997730,274.9122,22.72,98066.25,1.1651893
102917958,102900296,3997730,274.67703,22.72,98069.0,1.1652219
103139110,103116386,3997730,274.37848,22.72,98072.5,1.1652635
103360544,103342662,3997730,274.82764,22.72,98067.25,1.1652012
103521255,103503628,3997730,274.89108,22.72,98066.5,1.1651922
103752477,103732347,3997730,275.23193,22.73,98062.5,1.1651447
103963717,103945991,3997730,275.27686,22.72,98061.99,1.1651387
104124498,104106824,3997730,275.51202,22.72,98059.25,1.165106
104345672,104323013,3997730,274.93335,22.72,98066.0,1.1651863
104516675,104496495,3997730,275.02054,22.72,98065.0,1.1651744
104727652,104710035,3997730,275.53314,22.73,98059.0,1.1651031
104949036,104926285,3997730,275.06284,22.72,98064.5,1.1651685
105160423,105140106,3997730,275.23193,22.73,98062.5,1.1651447
105321221,105301014,3997730,275.08395,22.73,98064.24,1.1651654
105532349,105514729,3997730,275.51202,22.73,98059.25,1.165106
105753572,105730903,3997730,275.34027,22.73,98061.25,1.1651299
105914608,105891966,3997730,275.65997,22.73,98057.49,1.1650852
106125748,106105539,3997730,275.7049,22.73,98056.99,1.1650792
106336805,106319197,3997730,275.46976,22.73,98059.75,1.165112
106517793,106495130,3997730,275.23193,22.73,98062.5,1.1651447
106728900,106708672,3997730,275.1474,22.73,98063.5,1.1651566
106940044,106922410,3997730,275.38254,22.73,98060.74,1.1651238
107161072,107138437,3997730,275.23193,22.73,98062.5,1.1651447
107322023,107299265,3997730,275.25308,22.73,98062.25,1.1651417
107533101,107512864,3997730,275.34027,22.74,98061.24,1.1651298
107703952,107679750,3997730,275.549,22.74,98058.805,1.1651008
107925172,107902415,3997730,275.5543,22.74,98058.75,1.1651002
108136293,108116045,3997730,275.68112,22.74,98057.25,1.1650823
108347373,108329663,3997730,275.57544,22.74,98058.5,1.1650972
108508259,108490616,3997730,275.16852,22.73,98063.24,1.1651535
108729733,108707005,3997730,275.16852,22.74,98063.24,1.1651535
108940919,108920664,3997730,275.16852,22.74,98063.25,1.1651536
109151955,109134301,3997730,275.27686,22.74,98061.99,1.1651387
109312665,109295042,3997730,275.29535,22.74,98061.76,1.1651359
109533939,109511219,3997730,275.21344,22.74,98062.74,1.1651475
109744967,109724772,3997730,275.46976,22.74,98059.75,1.165112
109956172,109938442,3997730,275.25308,22.74,98062.25,1.1651417
110137244,110106827,3997730,276.23337,22.74,98050.8,1.1650057
110348243,110328021,3997730,276.02463,22.74,98053.25,1.1650348
110559376,110541596,3997730,276.3232,22.74,98049.75,1.1649933
110720008,110702367,3997730,275.89517,22.74,98054.75,1.1650527
110941141,110918510,3997730,275.7683,22.74,98056.25,1.1650704
111152207,111132070,3997730,275.8106,22.75,98055.75,1.1650646
111363433,111345829,3997730,276.21753,22.74,98051.0,1.1650081
111524342,111506669,3997730,275.89517,22.74,98054.75,1.1650527
111745503,111722831,3997730,276.00348,22.74,98053.5,1.1650378
111956608,111936489,3997730,275.1474,22.74,98063.5,1.1651566
112117974,112097429,3997730,274.80652,22.74,98067.5,1.1652042
112348901,112326243,3997730,274.93335,22.74,98066.0,1.1651863
112560858,112539975,3997730,274.44186,22.75,98071.75,1.1652546
112731255,112713606,3997730,275.08395,22.74,98064.24,1.1651654
112952310,112929659,3997730,274.50528,22.75,98071.0,1.1652458
113113107,113090411,3997730,274.63477,22.74,98069.49,1.1652278
113325513,113304111,3997730,274.82764,22.75,98067.24,1.1652011
113555409,113532702,3997730,274.16443,22.75,98075.0,1.1652932
113716480,113693599,3997730,274.20673,22.75,98074.5,1.1652873
113937446,113919798,3997730,274.01645,22.74,98076.74,1.165314
114158886,114135898,3997730,273.80243,22.75,98079.25,1.1653438
114329533,114309322,3997730,273.63068,22.75,98081.25,1.1653675
114540526,114522863,3997730,273.65182,22.75,98081.0,1.1653645
114761624,114738910,3997730,273.65182,22.75,98080.99,1.1653644
114922309,114899658,3997730,273.4378,22.75,98083.5,1.1653942
115133501,115113352,3997730,273.0758,22.75,98087.74,1.1654446
115344557,115326918,3997730,273.3744,22.75,98084.25,1.1654031
115505514,115487888,3997730,273.11545,22.75,98087.26,1.1654389
115726672,115704001,3997730,273.20264,22.75,98086.26,1.165427
115937711,115917575,3997730,273.3744,22.75,98084.24,1.165403
116148717,116131108,3997730,273.77866,22.75,98079.5,1.1653467
116309446,116291771,3997730,273.35324,22.75,98084.5,1.1654061
116530587,116507910,3997730,273.35324,22.75,98084.5,1.1654061
116741696,116721507,3997730,273.54614,22.76,98082.25,1.1653794
116952950,116935159,3997730,274.101,22.75,98075.74,1.165302
117113667,117095982,3997730,274.27014,22.75,98073.75,1.1652784
117334672,117312046,3997730,274.12216,22.75,98075.5,1.1652992
117545650,117525522,3997730,273.5884,22.75,98081.75,1.1653734
117757034,117739321,3997730,272.90405,22.75,98089.75,1.1654685
117938207,117907714,3997730,272.8142,22.76,98090.805,1.165481
118149193,118128980,3997730,272.94632,22.75,98089.25,1.1654626
118360245,118342564,3997730,272.66888,22.75,98092.5,1.1655011
118521155,118503510,3997730,272.8195,22.75,98090.75,1.1654804
118742512,118719852,3997730,272.71115,22.76,98092.0,1.1654953
118953616,118933408,3997730,272.77722,22.76,98091.24,1.1654862
119115444,119094284,3997730,273.0758,22.75,98087.74,1.1654446
119345458,119322773,3997730,273.3744,22.75,98084.24,1.165403
119557355,119536557,3997730,273.3744,22.76,98084.24,1.165403
119727761,119710126,3997730,273.63068,22.76,98081.25,1.1653675
119948905,119926211,3997730,273.99268,22.76,98077.0,1.165317
120160050,120139918,3997730,273.6941,22.76,98080.51,1.1653587
120321064,120300876,3997730,273.28983,22.76,98085.25,1.165415
120532207,120514506,3997730,273.52234,22.75,98082.5,1.1653824
120753634,120730887,3997730,273.11807,22.76,98087.25,1.1654388
120914563,120891934,3997730,273.3744,22.75,98084.24,1.165403
121135755,121111591,3997730,273.29248,22.76,98085.195,1.1654143
121357052,121334351,3997730,273.4378,22.76,98083.5,1.1653942
121518025,121495268,3997730,273.73904,22.76,98079.99,1.1653526
121739087,121721444,3997730,274.2939,22.76,98073.5,1.1652755
121960497,121937710,3997730,274.20673,22.76,98074.5,1.1652873
122121433,122098755,3997730,274.22784,22.76,98074.25,1.1652843
122332633,122312397,3997730,273.77866,22.76,98079.5,1.1653467
122543849,122526145,3997730,273.99533,22.76,98076.99,1.1653169
122705537,122686941,3997730,273.7575,22.76,98079.75,1.1653497
122925749,122903089,3997730,273.67297,22.76,98080.75,1.1653615
123136762,123116619,3997730,273.71524,22.76,98080.25,1.1653556
123347831,123330190,3997730,273.7575,22.769999,98079.75,1.1653497
123509973,123491143,3997730,273.887,22.769999,98078.25,1.1653318
123729925,123707277,3997730,273.50122,22.76,98082.75,1.1653854
123941133,123920844,3997730,272.69003,22.76,98092.24,1.1654981
124152076,124134460,3997730,272.84064,22.76,98090.49,1.1654773
124313071,124295362,3997730,273.13922,22.76,98087.0,1.1654358
124533984,124511310,3997730,273.71524,22.76,98080.25,1.1653556
124745633,124724899,3997730,273.50122,22.769999,98082.75,1.1653854
124916106,124898331,3997730,273.13922,22.769999,98087.0,1.1654358
125137660,125114520,3997730,273.71524,22.76,98080.25,1.1653556
125348247,125328079,3997730,273.26605,22.769999,98085.5,1.165418
125559458,125541767,3997730,273.0124,22.769999,98088.5,1.1654537
125720588,125702737,3997730,273.86584,22.76,98078.5,1.1653348
125941600,125918937,3997730,273.92926,22.769999,98077.75,1.1653259
126152992,126132802,3997730,274.01645,22.769999,98076.74,1.165314
126363961,126346328,3997730,273.30832,22.769999,98085.0,1.1654121
126524952,126507103,3997730,272.84064,22.769999,98090.49,1.1654773
126746502,126723502,3997730,272.1774,22.769999,98098.24,1.1655694
126917152,126896964,3997730,272.32538,22.769999,98096.5,1.1655487
127128336,127110533,3997730,272.11398,22.769999,98099.0,1.1655784
127349468,127326683,3997730,272.1774,22.769999,98098.25,1.1655695
127560681,127540484,3997730,272.56055,22.769999,98093.75,1.165516
127721641,127701391,3997730,272.39142,22.769999,98095.74,1.1655397
127932718,127914992,3997730,272.21967,22.769999,98097.75,1.1655636
128153907,128131256,3997730,272.32538,22.769999,98096.5,1.1655487
128314760,128292089,3997730,272.56317,22.769999,98093.74,1.1655159
128556090,128533320,3997730,272.83798,22.779999,98090.5,1.1654774
128716746,128694110,3997730,272.77457,22.779999,98091.25,1.1654863
128927908,128907710,3997730,272.79572,22.779999,98091.0,1.1654834
129139031,129121404,3997730,272.62662,22.779999,98092.99,1.165507
129360325,129337623,3997730,272.69003,22.779999,98092.25,1.1654983
129521183,129498560,3997730,272.8618,22.779999,98090.25,1.1654744
129732443,129712296,3997730,272.71115,22.769999,98091.99,1.1654952
129943752,129925981,3997730,272.69003,22.779999,98092.24,1.1654981
130104397,130086771,3997730,272.92517,22.779999,98089.5,1.1654655
130325525,130302901,3997730,272.66888,22.779999,98092.49,1.1655011
130536588,130516442,3997730,272.73492,22.779999,98091.74,1.1654922
130747553,130729918,3997730,272.7323,22.779999,98091.75,1.1654923
130908417,130890672,3997730,272.77457,22.779999,98091.25,1.1654863
131129660,131106965,3997730,273.05466,22.779999,98088.0,1.1654477
131340781,131320585,3997730,272.8618,22.779999,98090.25,1.1654744
131551860,131534189,3997730,272.99124,22.779999,98088.74,1.1654565
131712815,131695123,3997730,273.20264,22.779999,98086.26,1.165427
131934153,131911326,3997730,273.0758,22.779999,98087.74,1.1654446
132145098,132124949,3997730,273.09692,22.779999,98087.5,1.1654418
132356267,132338570,3997730,273.11807,22.789999,98087.24,1.1654387
132517085,132499408,3997730,273.35324,22.789999,98084.5,1.1654061
132738362,132715567,3997730,273.20264,22.789999,98086.24,1.1654269
132949434,132929273,3997730,273.1815,22.789999,98086.5,1.1654298
133160603,133142988,3997730,273.30832,22.789999,98085.0,1.1654121
133321438,133303691,3997730,273.24756,22.789999,98085.74,1.1654209
133542729,133519920,3997730,273.0758,22.789999,98087.74,1.1654446
133753899,133733703,3997730,273.1815,22.789999,98086.5,1.1654298
133914816,133894575,3997730,273.2238,22.789999,98086.0,1.165424
134126191,134108184,3997730,273.3321,22.789999,98084.74,1.165409
134347137,134324330,3997730,273.26605,22.789999,98085.5,1.165418
134558235,134538042,3997730,272.99124,22.789999,98088.74,1.1654565
134719060,134698935,3997730,273.11807,22.789999,98087.24,1.1654387
134930636,134912593,3997730,273.11807,22.789999,98087.24,1.1654387
135151557,135128838,3997730,273.20264,22.789999,98086.26,1.165427
135362784,135342627,3997730,272.96747,22.789999,98089.0,1.1654596
135523537,135503412,3997730,273.11807,22.789999,98087.24,1.1654387
135734899,135717148,3997730,273.05466,22.789999,98088.0,1.1654477
135956105,135933420,3997730,273.4378,22.789999,98083.5,1.1653942
136116851,136094224,3997730,272.96747,22.789999,98089.0,1.1654596
136327972,136307851,3997730,273.11807,22.789999,98087.24,1.1654387
136539571,136521401,3997730,273.50122,22.789999,98082.75,1.1653854
136760508,136737728,3997730,273.0758,22.8,98087.75,1.1654447
136921515,136898766,3997730,273.11807,22.789999,98087.24,1.1654387
137132713,137112484,3997730,273.09692,22.8,98087.5,1.1654418
137363940,137341285,3997730,273.13922,22.8,98087.0,1.1654358
137524830,137502116,3997730,273.2449,22.8,98085.76,1.165421
137746074,137721860,3997730,273.15506,22.8,98086.8,1.1654334
137906903,137889268,3997730,273.2238,22.8,98086.0,1.165424
138128188,138105452,3997730,273.39554,22.8,98084.0,1.1654001
138339234,138318916,3997730,273.28983,22.8,98085.24,1.1654149
138550237,138532576,3997730,272.92517,22.8,98089.49,1.1654655
138711077,138693341,3997730,273.09692,22.8,98087.5,1.1654418
138932336,138909662,3997730,273.11807,22.8,98087.24,1.1654387
139143758,139123406,3997730,273.03354,22.8,98088.24,1.1654506
139354848,139337126,3997730,273.03354,22.8,98088.24,1.1654506
139515765,139498034,3997730,273.09692,22.8,98087.49,1.1654416
139737099,139714130,3997730,273.11545,22.8,98087.26,1.1654389
139958250,139940457,3997730,272.90405,22.8,98089.75,1.1654685
140118981,140101346,3997730,273.2449,22.8,98085.76,1.165421
140340363,140317514,3997730,273.1815,22.8,98086.5,1.1654298
140551470,140531242,3997730,273.13922,22.8,98087.0,1.1654358
140762715,140745084,3997730,273.35324,22.8,98084.5,1.1654061
140923499,140905841,3997730,273.13922,22.8,98087.0,1.1654358
141144776,141122028,3997730,272.79572,22.8,98091.0,1.1654834
141355871,141335728,3997730,273.13922,22.8,98087.0,1.1654358
141516776,141496658,3997730,272.99124,22.8,98088.74,1.1654565
141748069,141717840,3997730,272.79572,22.81,98091.0,1.1654834
141959201,141938887,3997730,272.8618,22.8,98090.25,1.1654744
142120075,142099846,3997730,272.96747,22.8,98088.99,1.1654595
142331243,142313573,3997730,273.09692,22.8,98087.49,1.1654416
142552553,142529673,3997730,272.66888,22.8,98092.5,1.1655011
142713235,142690566,3997730,273.05466,22.81,98088.0,1.1654477
142934681,142910297,3997730,273.3268,22.81,98084.8,1.1654097
143155639,143133014,3997730,273.09692,22.81,98087.5,1.1654418
143317763,143293903,3997730,273.52234,22.8,98082.5,1.1653824
143537872,143520207,3997730,273.4378,22.81,98083.5,1.1653942
143759247,143736467,3997730,273.28983,22.81,98085.25,1.165415
143919992,143897355,3997730,273.24756,22.81,98085.74,1.1654209
144131091,144110951,3997730,273.2238,22.81,98086.0,1.165424
144342187,144324546,3997730,273.26868,22.81,98085.49,1.1654179
144563403,144540708,3997730,273.09692,22.81,98087.49,1.1654416
144724401,144701654,3997730,273.20264,22.81,98086.24,1.1654269
144935450,144915257,3997730,273.30832,22.81,98085.0,1.1654121
145146505,145128879,3997730,272.96747,22.81,98088.99,1.1654595
145308757,145289713,3997730,272.77457,22.81,98091.25,1.1654863
145528488,145505784,3997730,273.0124,22.81,98088.49,1.1654536
145739918,145719236,3997730,272.8829,22.81,98090.0,1.1654714
145910395,145892731,3997730,273.3321,22.81,98084.75,1.1654091
146131674,146108907,3997730,273.16034,22.81,98086.74,1.1654328
146342589,146322462,3997730,273.11545,22.81,98087.26,1.1654389
146554287,146536129,3997730,273.1815,22.81,98086.5,1.1654298
146714605,146696974,3997730,273.1815,22.81,98086.49,1.1654298
146935955,146913128,3997730,273.0124,22.81,98088.49,1.1654536
147157016,147139232,3997730,273.3321,22.81,98084.75,1.1654091
147317804,147300166,3997730,273.45895,22.81,98083.25,1.1653912
147549195,147528895,3997730,273.26605,22.81,98085.5,1.165418
147760278,147742540,3997730,273.03354,22.82,98088.24,1.1654506
147921105,147903376,3997730,273.03354,22.82,98088.24,1.1654506
148141998,148119375,3997730,273.20264,22.82,98086.24,1.1654269
148353033,148332905,3997730,273.5884,22.82,98081.75,1.1653734
148564272,148546514,3997730,273.48007,22.82,98082.99,1.1653882
148725194,148707511,3997730,273.4378,22.82,98083.5,1.1653942
148946380,148923663,3997730,273.80243,22.82,98079.25,1.1653438
149157505,149137340,3997730,273.65182,22.82,98080.99,1.1653644
149318407,149298187,3997730,274.12216,22.82,98075.5,1.1652992
149529714,149512010,3997730,274.16443,22.82,98075.0,1.1652932
149750825,149728149,3997730,274.27014,22.82,98073.75,1.1652784
149961970,149941833,3997730,274.101,22.82,98075.75,1.1653022
150123026,150102825,3997730,273.84473,22.82,98078.75,1.1653378
150334250,150316517,3997730,274.12216,22.82,98075.5,1.1652992
150555207,150532571,3997730,273.86584,22.82,98078.5,1.1653348
150716151,150693470,3997730,274.61362,22.82,98069.74,1.1652308
150927202,150907033,3997730,275.16852,22.83,98063.24,1.1651535
151158460,151135742,3997730,274.48682,22.82,98071.25,1.1652486
151319248,151296553,3997730,274.463,22.82,98071.5,1.1652516
151530351,151510045,3997730,273.82358,22.83,98079.0,1.1653408
151741593,151723830,3997730,273.41666,22.83,98083.75,1.1653972
151962841,151940120,3997730,273.0124,22.83,98088.5,1.1654537
152123670,152100921,3997730,273.09692,22.83,98087.5,1.1654418
152344918,152320645,3997730,273.08902,22.83,98087.59,1.1654428
152505553,152487940,3997730,273.3321,22.82,98084.75,1.1654091
152727024,152704151,3997730,273.3744,22.83,98084.25,1.1654031
152938022,152917827,3997730,273.09692,22.83,98087.5,1.1654418
153109722,153084766,3997730,273.24225,22.83,98085.79,1.1654215
153330102,153307459,3997730,273.11545,22.83,98087.26,1.1654389
153542326,153521226,3997730,273.13922,22.83,98086.99,1.1654357
153712474,153694785,3997730,273.54614,22.83,98082.25,1.1653794
153933795,153911050,3997730,273.28983,22.83,98085.24,1.1654149
154144943,154124720,3997730,273.50122,22.83,98082.75,1.1653854
154315749,154291588,3997730,273.25812,22.83,98085.59,1.1654191
154536950,154514271,3997730,273.2238,22.83,98086.0,1.165424
154758159,154733980,3997730,273.39554,22.83,98084.0,1.1654001
154918984,154901307,3997730,273.77866,22.83,98079.5,1.1653467
155140391,155117687,3997730,273.6941,22.83,98080.5,1.1653585
155351330,155331178,3997730,273.60956,22.84,98081.5,1.1653705
155562410,155544710,3997730,273.60956,22.83,98081.5,1.1653705
155723410,155705760,3997730,273.7575,22.83,98079.75,1.1653497
155944694,155921952,3997730,273.86584,22.83,98078.5,1.1653348
156155736,156135483,3997730,274.01645,22.84,98076.74,1.165314
156316694,156296379,3997730,274.249,22.83,98074.0,1.1652814
156527647,156509978,3997730,273.86584,22.83,98078.5,1.1653348
156748688,156726019,3997730,273.86584,22.83,98078.5,1.1653348
156959827,156939672,3997730,273.97156,22.84,98077.25,1.1653199
157120755,157100602,3997730,274.12216,22.84,98075.5,1.1652992
157331939,157314290,3997730,274.31506,22.83,98073.25,1.1652725
157553219,157530558,3997730,273.97156,22.84,98077.25,1.1653199
157714146,157691524,3997730,274.20673,22.84,98074.5,1.1652873
157926170,157905164,3997730,273.99268,22.84,98077.0,1.165317
158156560,158133912,3997730,274.01645,22.84,98076.75,1.1653141
158317654,158294805,3997730,274.22784,22.84,98074.25,1.1652843
158528716,158508594,3997730,274.249,22.84,98074.0,1.1652814
158739770,158722070,3997730,274.33618,22.84,98073.0,1.1652695
158960956,158938298,3997730,274.101,22.84,98075.74,1.165302
159121906,159099104,3997730,274.35733,22.84,98072.75,1.1652665
159332850,159312733,3997730,274.2939,22.84,98073.5,1.1652755
159543987,159526348,3997730,274.50528,22.84,98071.0,1.1652458
159704822,159687088,3997730,274.1433,22.84,98075.25,1.1652962
159926146,159903342,3997730,274.20673,22.84,98074.5,1.1652873
160137122,160116941,3997730,274.33618,22.84,98073.0,1.1652695
160348663,160330393,3997730,274.5925,22.84,98069.99,1.1652337
160508911,160491298,3997730,274.55023,22.84,98070.49,1.1652397
160730244,160707434,3997730,274.3996,22.84,98072.25,1.1652606
160941466,160921138,3997730,274.76425,22.84,98067.99,1.16521
161152379,161134645,3997730,275.31912,22.84,98061.5,1.1651329
161313043,161295431,3997730,275.49088,22.84,98059.5,1.165109
161534104,161511467,3997730,276.21753,22.85,98051.0,1.1650081
161745289,161725068,3997730,275.1923,22.84,98062.99,1.1651505
161956491,161938860,3997730,275.2557,22.84,98062.24,1.1651417
162117406,162099750,3997730,274.9545,22.85,98065.75,1.1651833
162338541,162315899,3997730,275.2346,22.84,98062.49,1.1651447
162549677,162529556,3997730,275.1051,22.84,98063.99,1.1651624
162760881,162743251,3997730,275.36142,22.85,98061.0,1.1651269
162921733,162904057,3997730,275.7049,22.85,98056.99,1.1650792
163142883,163120227,3997730,275.16852,22.85,98063.24,1.1651535
163353844,163333727,3997730,275.5543,22.85,98058.74,1.1651001
163514769,163494467,3997730,276.06693,22.85,98052.75,1.1650289
163725828,163708111,3997730,275.298,22.85,98061.74,1.1651357
163947173,163924496,3997730,275.31912,22.85,98061.5,1.1651329
164158454,164138263,3997730,275.59656,22.85,98058.25,1.1650943
164319494,164299209,3997730,275.51202,22.84,98059.25,1.165106
164530645,164512967,3997730,275.46976,22.84,98059.75,1.165112
164751755,164729076,3997730,275.2557,22.85,98062.24,1.1651417
164912594,164889891,3997730,275.2108,22.85,98062.75,1.1651477
165123790,165103629,3997730,275.27686,22.85,98062.0,1.1651387
165355073,165332408,3997730,275.6177,22.85,98058.0,1.1650913
165516071,165493331,3997730,275.6177,22.85,98057.99,1.1650912
165727427,165707227,3997730,275.72342,22.85,98056.75,1.1650764
165938698,165921038,3997730,276.04578,22.85,98053.0,1.1650318
166119662,166096928,3997730,275.5543,22.85,98058.75,1.1651002
166330762,166310626,3997730,275.4037,22.85,98060.5,1.165121
166561878,166539220,3997730,275.65997,22.85,98057.5,1.1650853
166722738,166700017,3997730,276.06693,22.85,98052.75,1.1650289
166933963,166913612,3997730,275.59656,22.85,98058.25,1.1650943
167144967,167127282,3997730,275.0417,22.85,98064.75,1.1651715
167305777,167288142,3997730,275.59656,22.85,98058.25,1.1650943
167527059,167504324,3997730,275.87402,22.85,98054.99,1.1650555
167738224,167717910,3997730,275.65997,22.85,98057.49,1.1650852
167949303,167931561,3997730,275.57544,22.85,98058.5,1.1650972
168130325,168100012,3997730,275.6177,22.85,98057.99,1.1650912
168341522,168321319,3997730,275.83173,22.85,98055.5,1.1650616
168552532,168534888,3997730,276.08804,22.85,98052.5,1.165026
168713409,168695747,3997730,276.15146,22.85,98051.75,1.165017
168934621,168911870,3997730,274.97565,22.85,98065.5,1.1651803
169145681,169125514,3997730,274.63477,22.85,98069.49,1.1652278
169317433,169292491,3997730,274.3177,22.85,98073.2,1.1652719
169538010,169515222,3997730,274.37848,22.85,98072.5,1.1652635
169749621,169728999,3997730,274.101,22.85,98075.75,1.1653022
169920078,169902458,3997730,274.05875,22.85,98076.24,1.165308
170141282,170118558,3997730,274.27014,22.85,98073.75,1.1652784
170352634,170332382,3997730,274.37848,22.85,98072.5,1.1652635
170523943,170499170,3997730,274.7114,22.85,98068.59,1.1652172
170744761,170721946,3997730,274.52908,22.85,98070.74,1.1652427
170906365,170882868,3997730,274.7431,22.85,98068.24,1.165213
171126595,171108918,3997730,274.31506,22.85,98073.25,1.1652725
171347695,171325068,3997730,274.31506,22.85,98073.25,1.1652725
171558932,171538691,3997730,274.69818,22.85,98068.74,1.1652188
171719814,171699494,3997730,274.50528,22.85,98071.0,1.1652458
171930819,171913146,3997730,274.6559,22.85,98069.24,1.1652248
172151987,172129354,3997730,274.78275,22.85,98067.75,1.1652071
172363431,172343098,3997730,274.52908,22.85,98070.74,1.1652427
172524036,172503923,3997730,274.55023,22.85,98070.49,1.1652397
172735301,172717565,3997730,274.78275,22.85,98067.75,1.1652071
172956590,172933841,3997730,274.50528,22.85,98071.0,1.1652458
173117506,173094786,3997730,274.57135,22.85,98070.24,1.1652367
173328695,173308550,3997730,274.37848,22.85,98072.5,1.1652635
173539853,173522205,3997730,274.67703,22.85,98068.99,1.1652218
173761245,173738457,3997730,274.80652,22.85,98067.5,1.1652042
173922107,173899425,3997730,274.61362,22.85,98069.75,1.1652309
174133208,174113058,3997730,274.82764,22.85,98067.25,1.1652012
174344628,174326900,3997730,274.89108,22.85,98066.49,1.1651921
174505415,174487768,3997730,274.72195,22.85,98068.49,1.165216
174726776,174704029,3997730,274.78275,22.85,98067.75,1.1652071
174938008,174917747,3997730,275.08395,22.85,98064.24,1.1651654
175149069,175131351,3997730,275.31912,22.85,98061.5,1.1651329
175310072,175292268,3997730,275.51202,22.84,98059.25,1.165106
175531265,175508626,3997730,275.78946,22.85,98056.0,1.1650674
175752617,175728457,3997730,276.1303,22.85,98052.0,1.16502
175913493,175895853,3997730,276.1726,22.85,98051.5,1.165014
176134826,176112085,3997730,275.78946,22.85,98056.0,1.1650674
176345808,176325606,3997730,275.49088,22.84,98059.5,1.165109
176557084,176539441,3997730,275.57544,22.85,98058.5,1.1650972
176717771,176700160,3997730,275.51202,22.85,98059.24,1.165106
176938956,176916297,3997730,275.4248,22.85,98060.25,1.165118
177150240,177130009,3997730,275.6177,22.85,98058.0,1.1650913
177361533,177343877,3997730,275.4037,22.85,98060.5,1.165121
177522360,177504679,3997730,275.63885,22.85,98057.74,1.1650882
177743600,177720845,3997730,275.57544,22.85,98058.5,1.1650972
177954662,177934474,3997730,275.87402,22.85,98055.0,1.1650556
178115764,178095520,3997730,275.46976,22.85,98059.75,1.165112
178327221,178309501,3997730,276.04578,22.85,98053.0,1.1650318
178508771,178477865,3997730,275.72076,22.85,98056.8,1.165077
178729142,178711502,3997730,275.85287,22.85,98055.25,1.1650586
178950394,178927684,3997730,275.9612,22.85,98054.0,1.1650437
179161387,179141215,3997730,275.7049,22.85,98056.99,1.1650792
179322253,179302135,3997730,275.89517,22.85,98054.75,1.1650527
179533468,179515799,3997730,275.8106,22.85,98055.75,1.1650646
179754667,179731797,3997730,276.40775,22.85,98048.75,1.1649814
179915454,179892763,3997730,277.00757,22.85,98041.75,1.1648982
180126629,180106491,3997730,276.66672,22.85,98045.74,1.1649456
180337789,180320169,3997730,277.80026,22.85,98032.49,1.1647881
180559104,180536426,3997730,277.20047,22.85,98039.49,1.1648713
180719871,180697207,3997730,276.79355,22.85,98044.24,1.1649278
180931493,180910835,3997730,276.2598,22.85,98050.5,1.1650021
181162097,181139458,3997730,275.8106,22.85,98055.75,1.1650646
181322978,181300280,3997730,275.7472,22.85,98056.5,1.1650734
181534175,181514020,3997730,276.02463,22.85,98053.25,1.1650348
181746411,181727670,3997730,276.08804,22.85,98052.5,1.165026
181906348,181888667,3997730,275.9612,22.85,98054.0,1.1650437
182127681,182104818,3997730,276.2598,22.85,98050.5,1.1650021
182348701,182331084,3997730,276.23865,22.85,98050.75,1.1650051
182509662,182491884,3997730,276.1303,22.85,98051.99,1.1650199
182730594,182707962,3997730,275.9797,22.85,98053.75,1.1650407
182941675,182921534,3997730,276.15146,22.85,98051.74,1.1650169
183152828,183135114,3997730,276.53723,22.859999,98047.25,1.1649635
183313651,183295962,3997730,276.19638,22.859999,98051.25,1.165011
183534856,183512102,3997730,276.55838,22.85,98047.0,1.1649605
183745936,183725645,3997730,276.51608,22.85,98047.5,1.1649665
183957160,183939416,3997730,276.21753,22.859999,98051.0,1.1650081
184117866,184100206,3997730,276.51608,22.859999,98047.5,1.1649665
184339242,184316484,3997730,276.38663,22.85,98049.0,1.1649843
184550286,184529996,3997730,276.70898,22.85,98045.24,1.1649396
184761359,184743702,3997730,276.68784,22.85,98045.49,1.1649426
184922252,184904570,3997730,276.75125,22.859999,98044.74,1.1649337
190109615,190091952,3997730,275.89517,22.859999,98054.75,1.1650527
190330752,190308102,3997730,275.9189,22.859999,98054.49,1.1650496
190541939,190521776,3997730,275.63885,22.859999,98057.74,1.1650882
190753159,190735447,3997730,275.72342,22.859999,98056.75,1.1650764
190913917,190896201,3997730,275.53314,22.859999,98059.0,1.1651031
191136265,191112331,3997730,275.34027,22.859999,98061.24,1.1651298
191356311,191338639,3997730,275.31912,22.859999,98061.5,1.1651329
191516949,191499281,3997730,275.59656,22.859999,98058.25,1.1650943
191748168,191727884,3997730,275.44595,22.859999,98060.0,1.165115
191959702,191941663,3997730,275.68112,22.859999,98057.25,1.1650823
192140241,192117531,3997730,275.6177,22.859999,98057.99,1.1650912
192351503,192331326,3997730,275.70227,22.859999,98057.0,1.1650794
192562716,192544991,3997730,275.7683,22.859999,98056.25,1.1650704
192723662,192705908,3997730,275.70227,22.859999,98057.0,1.1650794
192944757,192922055,3997730,275.68112,22.859999,98057.25,1.1650823
193156333,193135582,3997730,275.7472,22.859999,98056.5,1.1650734
193326836,193309070,3997730,274.8488,22.859999,98067.0,1.1651982
193548135,193525297,3997730,275.08395,22.859999,98064.25,1.1651655
193719092,193698865,3997730,274.80652,22.859999,98067.49,1.165204
193930020,193912414,3997730,274.78275,22.859999,98067.75,1.1652071
194161397,194141095,3997730,274.72195,22.859999,98068.49,1.165216
194322166,194301950,3997730,274.69818,22.859999,98068.74,1.1652188
194533308,194515649,3997730,274.44186,22.859999,98071.75,1.1652546
194754749,194731933,3997730,274.6559,22.859999,98069.24,1.1652248
194915452,194892814,3997730,274.6559,22.859999,98069.24,1.1652248
195126686,195106410,3997730,274.18558,22.859999,98074.75,1.1652902
195337916,195320151,3997730,274.20673,22.859999,98074.5,1.1652873
195558954,195536256,3997730,274.18558,22.859999,98074.75,1.1652902
195719826,195697154,3997730,274.18558,22.859999,98074.75,1.1652902
195931031,195910816,3997730,274.22784,22.859999,98074.25,1.1652843
196162464,196139779,3997730,274.18558,22.859999,98074.75,1.1652902
196323210,196300570,3997730,274.18558,22.859999,98074.75,1.1652902
196534315,196514158,3997730,274.44186,22.859999,98071.75,1.1652546
196745456,196727744,3997730,274.16443,22.85,98075.0,1.1652932
196906124,196888496,3997730,274.1433,22.859999,98075.24,1.1652961
197127170,197104486,3997730,273.7575,22.85,98079.75,1.1653497
197348431,197324223,3997730,274.11157,22.859999,98075.6,1.1653004
197509247,197491610,3997730,273.9081,22.859999,98078.0,1.1653289
197730391,197707686,3997730,273.5673,22.859999,98081.99,1.1653763
197941593,197921336,3997730,273.84473,22.859999,98078.75,1.1653378
198152594,198134946,3997730,273.63068,22.859999,98081.25,1.1653675
198313501,198295785,3997730,273.65182,22.859999,98081.0,1.1653645
198534592,198511865,3997730,273.48007,22.859999,98082.99,1.1653882
198745728,198725529,3997730,273.7998,22.859999,98079.26,1.1653439
198956951,198939228,3997730,273.67297,22.859999,98080.75,1.1653615
199117671,199100017,3997730,273.5884,22.859999,98081.75,1.1653734
199339377,199316029,3997730,273.50122,22.859999,98082.75,1.1653854
199559922,199542238,3997730,273.77866,22.859999,98079.5,1.1653467
199720695,199703081,3997730,273.39554,22.859999,98084.0,1.1654001
199941989,199919298,3997730,273.41666,22.859999,98083.75,1.1653972
200153277,200133006,3997730,273.48007,22.859999,98082.99,1.1653882
200364099,200346485,3997730,274.1433,22.859999,98075.25,1.1652962
200526620,200507295,3997730,274.1433,22.859999,98075.25,1.1652962
200746216,200723515,3997730,274.249,22.859999,98074.0,1.1652814
200958367,200937423,3997730,273.50122,22.859999,98082.75,1.1653854
201128501,201110887,3997730,272.8195,22.859999,98090.75,1.1654804
201349873,201326905,3997730,272.62662,22.859999,98092.99,1.165507
201560889,201540749,3997730,272.64777,22.859999,98092.74,1.1655041
201721888,201701547,3997730,272.79572,22.859999,98091.0,1.1654834
201952805,201930133,3997730,272.7323,22.859999,98091.75,1.1654923
202164103,202143881,3997730,273.26605,22.859999,98085.5,1.165418
202324976,202304828,3997730,273.1815,22.859999,98086.5,1.1654298
202537717,202518413,3997730,272.75345,22.859999,98091.49,1.1654892
202757289,202734529,3997730,273.03354,22.859999,98088.24,1.1654506
202918061,202895353,3997730,272.96747,22.859999,98089.0,1.1654596
203128970,203108794,3997730,272.79572,22.859999,98091.0,1.1654834
203340032,203322312,3997730,272.77457,22.859999,98091.25,1.1654863
203561282,203538505,3997730,273.3744,22.859999,98084.24,1.165403
203722047,203699386,3997730,273.50122,22.859999,98082.75,1.1653854
203943433,203925642,3997730,274.3996,22.859999,98072.25,1.1652606
204104113,204086490,3997730,273.73636,22.859999,98080.0,1.1653527
204325223,204302548,3997730,273.5673,22.85,98082.0,1.1653764
204536418,204516234,3997730,273.525,22.859999,98082.49,1.1653823
204747563,204729956,3997730,273.80243,22.859999,98079.25,1.1653438
204908583,204890905,3997730,273.71524,22.859999,98080.25,1.1653556
205129765,205107086,3997730,273.525,22.859999,98082.49,1.1653823
205340863,205320732,3997730,273.6941,22.859999,98080.5,1.1653585
205552034,205534400,3997730,273.67297,22.859999,98080.75,1.1653615
205712799,205695169,3997730,273.65182,22.859999,98081.0,1.1653645
205943997,205923859,3997730,273.77866,22.859999,98079.5,1.1653467
206155078,206137452,3997730,273.71524,22.859999,98080.25,1.1653556
206336514,206313471,3997730,273.84473,22.859999,98078.75,1.1653378
206557440,206539822,3997730,274.249,22.859999,98074.0,1.1652814
206718519,206700830,3997730,273.97156,22.859999,98077.25,1.1653199
206939593,206916894,3997730,274.07986,22.859999,98076.0,1.1653051
207150750,207130521,3997730,274.42075,22.859999,98072.0,1.1652576
207361809,207344158,3997730,274.22784,22.859999,98074.25,1.1652843
207522739,207505100,3997730,274.16443,22.859999,98075.0,1.1652932
207743770,207721136,3997730,274.3996,22.859999,98072.25,1.1652606
207954994,207934836,3997730,274.61362,22.859999,98069.74,1.1652308
208115916,208095718,3997730,274.42075,22.859999,98072.0,1.1652576
208347010,208324364,3997730,274.71933,22.859999,98068.5,1.165216
208558029,208537884,3997730,274.48682,22.859999,98071.25,1.1652486
208728945,208704684,3997730,274.88315,22.859999,98066.6,1.1651934
208950318,208927586,3997730,275.1923,22.859999,98062.99,1.1651505
209161527,209141378,3997730,274.97565,22.859999,98065.5,1.1651803
209322270,209302103,3997730,274.76425,22.869999,98067.99,1.16521
209533513,209515572,3997730,274.6559,22.859999,98069.24,1.1652248
209754439,209731668,3997730,274.72195,22.859999,98068.49,1.165216
209915035,209892412,3997730,274.9545,22.859999,98065.75,1.1651833
210126143,210105974,3997730,275.27686,22.859999,98062.0,1.1651387
210338186,210319761,3997730,275.1051,22.859999,98063.99,1.1651624
210558438,210535815,3997730,275.1923,22.869999,98062.99,1.1651505
210720495,210696666,3997730,275.16852,22.859999,98063.25,1.1651536
210940527,210922808,3997730,275.1923,22.859999,98062.99,1.1651505
211161615,211138920,3997730,275.16852,22.859999,98063.24,1.1651535
211322608,211299856,3997730,275.44595,22.859999,98060.0,1.165115
211533781,211513667,3997730,275.34027,22.859999,98061.26,1.16513
211744795,211727156,3997730,275.53314,22.859999,98059.0,1.1651031
211905942,211888127,3997730,275.298,22.869999,98061.74,1.1651357
212127043,212104377,3997730,275.21344,22.869999,98062.74,1.1651475
212338343,212318039,3997730,275.16852,22.859999,98063.24,1.1651535
212549274,212531603,3997730,275.23193,22.859999,98062.5,1.1651447
212710307,212692452,3997730,275.34027,22.859999,98061.24,1.1651298
212931459,212908809,3997730,275.27686,22.869999,98062.0,1.1651387
213142769,213122566,3997730,275.1051,22.859999,98064.0,1.1651626
213353801,213336100,3997730,275.27686,22.859999,98062.0,1.1651387
213514593,213496808,3997730,275.08395,22.859999,98064.24,1.1651654
213735727,213712962,3997730,274.89108,22.859999,98066.5,1.1651922
213947223,213926786,3997730,275.31912,22.859999,98061.5,1.1651329
214158312,214140504,3997730,274.86993,22.859999,98066.75,1.1651952
214320571,214301533,3997730,275.27686,22.859999,98062.0,1.1651387
214540418,214517783,3997730,275.08395,22.859999,98064.24,1.1651654
214751582,214731398,3997730,274.9994,22.859999,98065.25,1.1651773
214962705,214945056,3997730,274.67703,22.859999,98069.0,1.1652219
215123753,215105850,3997730,274.76425,22.859999,98067.99,1.16521
215344670,215322004,3997730,274.55023,22.859999,98070.49,1.1652397
215556038,215535658,3997730,274.69818,22.859999,98068.74,1.1652188
215716553,215696432,3997730,274.67703,22.859999,98068.99,1.1652218
215927868,215910115,3997730,274.8488,22.859999,98066.99,1.1651981
216148947,216126183,3997730,274.63477,22.859999,98069.49,1.1652278
216360503,216340007,3997730,274.6559,22.859999,98069.24,1.1652248
216531033,216513312,3997730,274.76425,22.859999,98067.99,1.16521
216752182,216729362,3997730,274.7616,22.859999,98068.0,1.1652101
216912917,216890289,3997730,274.9122,22.859999,98066.25,1.1651893
217124217,217104034,3997730,274.93335,22.859999,98066.0,1.1651863
217335472,217317756,3997730,274.6559,22.869999,98069.24,1.1652248
217556723,217533920,3997730,274.9545,22.859999,98065.75,1.1651833
217717472,217694800,3997730,275.06284,22.869999,98064.49,1.1651684
217928830,217908593,3997730,274.80652,22.869999,98067.49,1.165204
218139699,218122090,3997730,274.67703,22.869999,98068.99,1.1652218
218361171,218338282,3997730,275.1474,22.869999,98063.49,1.1651565
218521950,218499201,3997730,274.7431,22.869999,98068.24,1.165213
218733079,218712922,3997730,274.8488,22.869999,98067.0,1.1651982
218944180,218926552,3997730,274.9994,22.869999,98065.25,1.1651773
219104953,219087316,3997730,274.37848,22.869999,98072.5,1.1652635
