timestamp,roll,pitch,yaw,thrust_body[0],thrust_body[1],thrust_body[2]
23561760,-0.6781378,-0.12682705,0.0012918678,0.0,0.0,-0.0
23566730,-0.6776757,-0.12511057,0.0013042549,0.0,0.0,-0.0
23581715,-0.6769637,-0.12577228,0.00023417271,0.0,0.0,-0.0
23601498,-0.67706347,-0.12492206,0.00011170411,0.0,0.0,-0.0
23621376,-0.67739385,-0.12699468,0.0011409314,0.0,0.0,-0.0
23641222,-0.6769351,-0.12770528,0.0009902915,0.0,0.0,-0.0
23660987,-0.6776728,-0.12477284,0.00029729132,0.0,0.0,-0.0
23680819,-0.6765525,-0.124394186,0.0006848521,0.0,0.0,-0.0
23700684,-0.680032,-0.12239386,0.0012429139,0.0,0.0,-0.0
23720609,-0.6748023,-0.12728873,0.0007342383,0.0,0.0,-0.0
23740532,-0.68183196,-0.124599814,0.0005310309,0.0,0.0,-0.0
23760563,-0.67344844,-0.12647194,0.0011737819,0.0,0.0,-0.0
23780234,-0.68211854,-0.12383681,0.0010406378,0.0,0.0,-0.0
23800099,-0.67851996,-0.1252332,0.001203875,0.0,0.0,-0.0
23824975,-0.67559034,-0.124853596,0.00020623764,0.0,0.0,-0.0
23839881,-0.67930937,-0.12618428,0.0013100569,0.0,0.0,-0.0
23859783,-0.68132377,-0.12687193,0.0009354013,0.0,0.0,-0.0
23884458,-0.6787228,-0.124935955,0.00030201836,0.0,0.0,-0.0
23899313,-0.6769888,-0.12428793,0.0008046364,0.0,0.0,-0.0
23919166,-0.6817515,-0.12650086,0.0016724174,0.0,0.0,-0.0
23944106,-0.6813301,-0.12589826,0.0007421893,0.0,0.0,-0.0
23963907,-0.6756064,-0.12454205,0.0003533002,0.0,0.0,-0.0
23978798,-0.6792642,-0.12716824,0.0013017902,0.0,0.0,-0.0
24003665,-0.6809937,-0.12697029,0.0011260342,0.0,0.0,-0.0
24023552,-0.6789577,-0.12367624,-0.00017244334,0.0,0.0,-0.0
24038615,-0.67683154,-0.1270591,0.0014271927,0.0,0.0,-0.0
24063362,-0.678526,-0.12913379,0.00166456,0.0,0.0,-0.0
24083193,-0.6798735,-0.12670733,0.00013398369,0.0,0.0,-0.0
24103035,-0.67680365,-0.122581705,-5.732398e-05,0.0,0.0,-0.0
24122831,-0.67637634,-0.12615432,0.0019467967,0.0,0.0,-0.0
24142646,-0.67950404,-0.12977564,0.0019300622,0.0,0.0,-0.0
24162520,-0.678121,-0.12532052,-0.000999494,0.0,0.0,-0.0
24182400,-0.6764314,-0.12188841,-0.00025765583,0.0,0.0,-0.0
24202260,-0.67820394,-0.12678908,0.0026527112,0.0,0.0,-0.0
24222154,-0.6787902,-0.13016172,0.0020522852,0.0,0.0,-0.0
24241993,-0.6772928,-0.1250444,-0.0014868351,0.0,0.0,-0.0
24261878,-0.67603654,-0.12170467,-0.00083840836,0.0,0.0,-0.0
24281781,-0.6792647,-0.12561809,0.0031704444,0.0,0.0,-0.0
24301722,-0.67956614,-0.12912706,0.002439234,0.0,0.0,-0.0
24321533,-0.67639923,-0.12613794,-0.001593956,0.0,0.0,-0.0
24341521,-0.67529964,-0.12273531,-0.001149748,0.0,0.0,-0.0
24361164,-0.6793789,-0.1255843,0.0034926627,0.0,0.0,-0.0
24381039,-0.6803116,-0.1286174,0.0029421297,0.0,0.0,-0.0
24400865,-0.6770393,-0.12740888,-0.0016146975,0.0,0.0,-0.0
24420797,-0.6743183,-0.124043286,-0.001777252,0.0,0.0,-0.0
24440597,-0.67874175,-0.12452477,0.0030175974,0.0,0.0,-0.0
24460541,-0.68029916,-0.12776631,0.0033284146,0.0,0.0,-0.0
24480332,-0.67786306,-0.12825891,-0.0009177889,0.0,0.0,-0.0
24500192,-0.67446524,-0.12523396,-0.0017992413,0.0,0.0,-0.0
24525091,-0.67512554,-0.1252409,-0.0010792821,0.0,0.0,-0.0
24539975,-0.6803194,-0.12612587,0.003122345,0.0,0.0,-0.0
24559894,-0.6782272,-0.12940088,7.69682e-06,0.0,0.0,-0.0
24584831,-0.6776926,-0.12912439,-0.00029890673,0.0,0.0,-0.0
24599518,-0.67628855,-0.123843305,0.0011574351,0.0,0.0,-0.0
24619368,-0.6801321,-0.12441921,0.0024659412,0.0,0.0,-0.0
24644266,-0.67969453,-0.124794714,0.002181335,0.0,0.0,-0.0
24664135,-0.67835295,-0.12847456,0.0002574511,0.0,0.0,-0.0
24678977,-0.6764865,-0.12485476,0.00069972535,0.0,0.0,-0.0
24703777,-0.6768958,-0.12456305,0.00091346307,0.0,0.0,-0.0
24723625,-0.67872,-0.12508005,0.0014087567,0.0,0.0,-0.0
24738545,-0.67721635,-0.12866633,0.0003979306,0.0,0.0,-0.0
24763436,-0.6771128,-0.12787752,0.0007789259,0.0,0.0,-0.0
24783282,-0.67664987,-0.1247563,0.00095175405,0.0,0.0,-0.0
24803141,-0.6773544,-0.12536556,0.00077277,0.0,0.0,-0.0
24817988,-0.67794603,-0.12866132,0.0008157827,0.0,0.0,-0.0
24842872,-0.6779064,-0.12770203,0.0012795571,0.0,0.0,-0.0
24862683,-0.6768259,-0.12361936,0.0013904539,0.0,0.0,-0.0
24877678,-0.67737377,-0.12740579,-1.0732555e-05,0.0,0.0,-0.0
24902452,-0.67762077,-0.12884398,-0.0003170116,0.0,0.0,-0.0
24922418,-0.67801994,-0.12762636,0.0012924757,0.0,0.0,-0.0
24942240,-0.6772771,-0.124069884,0.0016474333,0.0,0.0,-0.0
24962047,-0.6764776,-0.12636483,0.0012697981,0.0,0.0,-0.0
24981886,-0.67669225,-0.12999138,-0.0005724148,0.0,0.0,-0.0
25001939,-0.67809814,-0.12676378,0.00036490554,0.0,0.0,-0.0
25021665,-0.6777592,-0.121797144,0.0015729987,0.0,0.0,-0.0
25041498,-0.6770185,-0.1257646,0.0019530731,0.0,0.0,-0.0
25061261,-0.6765455,-0.13230073,-0.00016868461,0.0,0.0,-0.0
25081117,-0.677031,-0.12805209,-0.00036169463,0.0,0.0,-0.0
25101068,-0.6781024,-0.12046356,0.0012310708,0.0,0.0,-0.0
25121042,-0.6776062,-0.12337842,0.002318622,0.0,0.0,-0.0
25140793,-0.6764304,-0.13177383,0.0005052948,0.0,0.0,-0.0
25160762,-0.6763707,-0.12865146,-0.00070033746,0.0,0.0,-0.0
25180701,-0.67758864,-0.1202279,0.0008022962,0.0,0.0,-0.0
25200391,-0.67789704,-0.12286365,0.0026327881,0.0,0.0,-0.0
25225415,-0.6779885,-0.124664016,0.0027986534,0.0,0.0,-0.0
25240152,-0.67617124,-0.12962049,-0.00094766926,0.0,0.0,-0.0012071006
25259986,-0.67679876,-0.12013763,-7.742019e-05,0.0,0.0,-0.006035503
25284738,-0.67671734,-0.11876934,0.0005667228,0.0,0.0,-0.013278106
25299577,-0.6777279,-0.13187328,0.001853801,0.0,0.0,-0.016899409
25319447,-0.676016,-0.13098314,-0.00088924635,0.0,0.0,-0.018106509
25344303,-0.675709,-0.12869503,-0.0011580066,0.0,0.0,-0.026556212
25364300,-0.6759421,-0.11785113,-0.000516905,0.0,0.0,-0.03862722
25379260,-0.6779655,-0.13112624,0.0029312402,0.0,0.0,-0.03862722
25404066,-0.6779444,-0.1326827,0.002790598,0.0,0.0,-0.039834317
25423781,-0.6757659,-0.13259739,-0.0012844143,0.0,0.0,-0.04104142
25438702,-0.6765385,-0.113352425,0.0012310744,0.0,0.0,-0.04466272
25458564,-0.67798644,-0.12358582,0.004239593,0.0,0.0,-0.07001183
25483402,-0.67755586,-0.12487691,0.0045988723,0.0,0.0,-0.07484023
25503276,-0.6762765,-0.13871446,0.00217524,0.0,0.0,-0.08087574
25518164,-0.6748353,-0.11909718,-0.0025485985,0.0,0.0,-0.08087574
25542938,-0.67490697,-0.121029645,-0.0031311088,0.0,0.0,-0.088118345
25562808,-0.67585814,-0.10895246,0.00029335023,0.0,0.0,-0.088118345
25577715,-0.6782942,-0.12511708,0.004303486,0.0,0.0,-0.08932544
25602587,-0.68001074,-0.11462609,0.00452834,0.0,0.0,-0.08932544
25622457,-0.6797562,-0.124009416,0.0031066525,0.0,0.0,-0.09053254
25642419,-0.67815226,-0.12888098,0.00010270954,0.0,0.0,-0.16040236
25662363,-0.6766849,-0.12818469,0.00045357968,0.0,0.0,-0.17261538
25681983,-0.674496,-0.12570132,-0.011276075,0.0,0.0,-0.20416568
25701910,-0.6775813,-0.1237694,-0.005938504,0.0,0.0,-0.20620118
25721763,-0.67893374,-0.1269679,-0.0012487716,0.0,0.0,-0.20620118
25741670,-0.674368,-0.13138208,-0.003419308,0.0,0.0,-0.20620118
25761615,-0.66521907,-0.12901235,-0.004663103,0.0,0.0,-0.20721895
25781286,-0.6683382,-0.12904747,-0.0040273773,0.0,0.0,-0.20721895
25801143,-0.666821,-0.13579702,-0.003954035,0.0,0.0,-0.20721895
25821102,-0.6592255,-0.13678317,-0.004813466,0.0,0.0,-0.20721895
25840949,-0.66448194,-0.13144091,-0.006376534,0.0,0.0,-0.20925443
25860692,-0.6667769,-0.1305721,-0.008524794,0.0,0.0,-0.21434319
25880618,-0.6599286,-0.13116845,-0.008234927,0.0,0.0,-0.21739644
25900515,-0.6690963,-0.13137199,-0.009110816,0.0,0.0,-0.21739644
25920479,-0.66016364,-0.13347398,-0.013255649,0.0,0.0,-0.21739644
25940307,-0.6654856,-0.12769334,-0.012536138,0.0,0.0,-0.21739644
25960157,-0.6578869,-0.13334018,-0.012800948,0.0,0.0,-0.2204497
25985121,-0.65466094,-0.1365898,-0.011757732,0.0,0.0,-0.2204497
25999846,-0.6555905,-0.13652363,-0.011762232,0.0,0.0,-0.2204497
26019732,-0.6555052,-0.13277581,-0.010535505,0.0,0.0,-0.2204497
26039557,-0.6558299,-0.13844258,-0.01318743,0.0,0.0,-0.2204497
26064448,-0.6536473,-0.13482136,-0.015513947,0.0,0.0,-0.2204497
26079303,-0.65243715,-0.13629396,-0.015758848,0.0,0.0,-0.2204497
26099083,-0.6504804,-0.13157223,-0.017218608,0.0,0.0,-0.2204497
26123865,-0.6429832,-0.1396605,-0.015775058,0.0,0.0,-0.2204497
26138770,-0.64947987,-0.13379997,-0.015995083,0.0,0.0,-0.2204497
26158641,-0.6499867,-0.13581318,-0.016108558,0.0,0.0,-0.2204497
26183640,-0.65430003,-0.14109924,-0.015406311,0.0,0.0,-0.2204497
26203448,-0.6419903,-0.15050387,-0.017906142,0.0,0.0,-0.2204497
26218401,-0.6376785,-0.14935972,-0.017149806,0.0,0.0,-0.2204497
26243193,-0.64210135,-0.15435441,-0.020506706,0.0,0.0,-0.2204497
26263066,-0.645931,-0.14401726,-0.018318364,0.0,0.0,-0.2204497
26278033,-0.64753395,-0.14593403,-0.019360695,0.0,0.0,-0.2204497
26302753,-0.64485055,-0.1467961,-0.014946954,0.0,0.0,-0.2204497
26322634,-0.64447224,-0.15105319,-0.017498508,0.0,0.0,-0.2204497
26342595,-0.6451801,-0.14944147,-0.016665291,0.0,0.0,-0.2204497
26362216,-0.6346943,-0.15187299,-0.017754618,0.0,0.0,-0.21943195
26382068,-0.628047,-0.14955968,-0.018876316,0.0,0.0,-0.21943195
26401935,-0.6098916,-0.15103793,-0.020588007,0.0,0.0,-0.21943195
26421873,-0.60934734,-0.14615133,-0.020614792,0.0,0.0,-0.21943195
26441804,-0.6075624,-0.14758253,-0.021606185,0.0,0.0,-0.21943195
26461788,-0.6095847,-0.14611334,-0.020478744,0.0,0.0,-0.21943195
26481492,-0.56353337,-0.14991307,-0.020417433,0.0,0.0,-0.21943195
26501359,-0.5630927,-0.14633924,-0.017761111,0.0,0.0,-0.21943195
26521349,-0.5209478,-0.15334661,-0.01850281,0.0,0.0,-0.21943195
26541149,-0.51469004,-0.15331806,-0.01792064,0.0,0.0,-0.21943195
26560907,-0.5031983,-0.15632798,-0.019962784,0.0,0.0,-0.21943195
26580777,-0.46135312,-0.1482288,-0.019240793,0.0,0.0,-0.21943195
26600580,-0.44383842,-0.15339175,-0.022178985,0.0,0.0,-0.21943195
26620430,-0.43267646,-0.14601867,-0.021422116,0.0,0.0,-0.21943195
26640285,-0.42209738,-0.14989729,-0.020768829,0.0,0.0,-0.21943195
26660232,-0.41597396,-0.15248886,-0.019561615,0.0,0.0,-0.21943195
26680106,-0.4218732,-0.1500315,-0.019290294,0.0,0.0,-0.21943195
26700020,-0.41603124,-0.15157512,-0.019183705,0.0,0.0,-0.21943195
26719898,-0.42249367,-0.14731713,-0.023005685,0.0,0.0,-0.21943195
26739889,-0.41321167,-0.15046066,-0.02625516,0.0,0.0,-0.21943195
26764544,-0.3782,-0.14232777,-0.027542206,0.0,0.0,-0.21943195
26779442,-0.31485456,-0.15077616,-0.033889886,0.0,0.0,-0.21943195
26799358,-0.27545276,-0.14741953,-0.034015115,0.0,0.0,-0.21943195
26824172,-0.27400076,-0.14971513,-0.032553885,0.0,0.0,-0.21943195
26838982,-0.24414502,-0.15189742,-0.03191206,0.0,0.0,-0.21943195
26858824,-0.25286052,-0.14956167,-0.033024598,0.0,0.0,-0.21943195
26883710,-0.22524594,-0.13905157,-0.033449117,0.0,0.0,-0.21943195
26903588,-0.22583178,-0.13816054,-0.03458035,0.0,0.0,-0.21943195
26918393,-0.17764008,-0.14331666,-0.033984866,0.0,0.0,-0.21943195
26943214,-0.0818178,-0.14521879,-0.04183893,0.0,0.0,-0.21943195
26963061,0.12749259,-0.15005277,-0.048242915,0.0,0.0,-0.21943195
26977974,0.20203573,-0.15207373,-0.059760407,0.0,0.0,-0.21943195
27002988,0.19529344,-0.14938213,-0.05526341,0.0,0.0,-0.21943195
27022716,0.17574169,-0.1387489,-0.03731483,0.0,0.0,-0.21943195
27042597,0.1809873,-0.13863128,-0.037888616,0.0,0.0,-0.2204497
27062534,0.18167667,-0.14028369,-0.031776313,0.0,0.0,-0.22146747
27082369,0.17899679,-0.14167753,-0.030969115,0.0,0.0,-0.22146747
27102341,0.14034764,-0.14287305,-0.056393806,0.0,0.0,-0.22655621
27122048,0.13768214,-0.14824149,-0.05418828,0.0,0.0,-0.22655621
27141786,0.12684238,-0.14206433,-0.05349426,0.0,0.0,-0.22757396
27161665,0.090081275,-0.14226852,-0.05424632,0.0,0.0,-0.22757396
27181599,-0.010836049,-0.13583854,-0.049630534,0.0,0.0,-0.22859171
27201466,-0.06972787,-0.12424155,-0.04863328,0.0,0.0,-0.22859171
27221295,-0.13162325,-0.12706655,-0.044635255,0.0,0.0,-0.22859171
27241241,-0.11865864,-0.13191602,-0.039439134,0.0,0.0,-0.22960947
27261155,-0.118469544,-0.13111535,-0.039130744,0.0,0.0,-0.22960947
27280938,-0.13049044,-0.13053598,-0.04070122,0.0,0.0,-0.22960947
27300862,-0.13151027,-0.13499308,-0.040911872,0.0,0.0,-0.22960947
27320716,-0.13049313,-0.1276712,-0.03720299,0.0,0.0,-0.23062722
27340593,-0.13992852,-0.13791625,-0.03381427,0.0,0.0,-0.23062722
27360347,-0.13128564,-0.13040255,-0.033182144,0.0,0.0,-0.23062722
27380181,-0.13650447,-0.13271448,-0.033338223,0.0,0.0,-0.23062722
27400008,-0.13885733,-0.13796696,-0.034921955,0.0,0.0,-0.23062722
27419942,-0.15164112,-0.13749866,-0.03393066,0.0,0.0,-0.23062722
27439786,-0.16281408,-0.13545364,-0.033743612,0.0,0.0,-0.23062722
27464611,-0.1665229,-0.13427618,-0.031428996,0.0,0.0,-0.23164497
27479525,-0.170159,-0.13784108,-0.03223339,0.0,0.0,-0.23164497
27499368,-0.18970355,-0.13842696,-0.032467276,0.0,0.0,-0.23164497
27524328,-0.21402983,-0.1301155,-0.031647008,0.0,0.0,-0.23164497
27539303,-0.22680272,-0.13011779,-0.029526068,0.0,0.0,-0.23164497
27559049,-0.23649986,-0.1366406,-0.033588525,0.0,0.0,-0.23266272
27583888,-0.22273335,-0.13583504,-0.03228612,0.0,0.0,-0.23469824
27603655,-0.21745427,-0.13726233,-0.056815784,0.0,0.0,-0.24691124
27618525,-0.2205202,-0.13101104,-0.033048123,0.0,0.0,-0.256071
27643336,-0.22755799,-0.12623945,-0.03392663,0.0,0.0,-0.256071
27663256,-0.2249318,-0.12536229,-0.03130473,0.0,0.0,-0.25505325
27678125,-0.23269987,-0.124343105,-0.031342722,0.0,0.0,-0.25505325
27702942,-0.24193734,-0.1361813,-0.030871633,0.0,0.0,-0.25505325
27722808,-0.2570779,-0.13656977,-0.033337772,0.0,0.0,-0.25505325
27742674,-0.3246787,-0.13535799,-0.034515,0.0,0.0,-0.25505325
27762705,-0.36589807,-0.12783559,-0.032150038,0.0,0.0,-0.25505325
27782595,-0.37233484,-0.13309625,-0.032987736,0.0,0.0,-0.25505325
27802329,-0.381855,-0.11577394,-0.030711722,0.0,0.0,-0.25505325
27822193,-0.40360472,-0.11938795,-0.03299404,0.0,0.0,-0.25505325
27842075,-0.41687196,-0.124287456,-0.03316108,0.0,0.0,-0.25505325
27861926,-0.406333,-0.13564768,-0.033845335,0.0,0.0,-0.25505325
27881757,-0.4068276,-0.13702342,-0.033280317,0.0,0.0,-0.25505325
27901649,-0.39457288,-0.14126754,-0.035153903,0.0,0.0,-0.256071
27921493,-0.39412192,-0.13037305,-0.033560462,0.0,0.0,-0.256071
27941437,-0.40009773,-0.13660707,-0.0353368,0.0,0.0,-0.25708875
27961107,-0.39128634,-0.13264082,-0.033661034,0.0,0.0,-0.25708875
27980971,-0.39449316,-0.13741751,-0.034050208,0.0,0.0,-0.2581065
28000914,-0.3867806,-0.13655308,-0.032003794,0.0,0.0,-0.2581065
28020795,-0.37430644,-0.14075664,-0.033554014,0.0,0.0,-0.26217753
28040735,-0.3779726,-0.1348249,-0.03314255,0.0,0.0,-0.26217753
28060578,-0.36728087,-0.13564324,-0.03315216,0.0,0.0,-0.26319528
28080461,-0.3870238,-0.13309258,-0.03275236,0.0,0.0,-0.26523077
28100317,-0.38759592,-0.13708276,-0.032387663,0.0,0.0,-0.26523077
28120166,-0.36668518,-0.14013332,-0.032150984,0.0,0.0,-0.26726627
28139986,-0.35457516,-0.13662013,-0.032270536,0.0,0.0,-0.26930177
28164833,-0.34027612,-0.1403065,-0.029284041,0.0,0.0,-0.27337277
28179658,-0.32731575,-0.13555773,-0.030538246,0.0,0.0,-0.2815148
28199573,-0.29447773,-0.13740553,-0.031955402,0.0,0.0,-0.28863907
28224290,-0.28556284,-0.12647514,-0.032603763,0.0,0.0,-0.29067457
28239248,-0.2807438,-0.11887792,-0.032664135,0.0,0.0,-0.29067457
28259086,-0.27057523,-0.119750455,-0.031663537,0.0,0.0,-0.29271007
28283954,-0.21799213,-0.12512289,-0.028956154,0.0,0.0,-0.29474556
28303886,-0.18566813,-0.12849806,-0.029237611,0.0,0.0,-0.2957633
28318820,-0.13618946,-0.1309199,-0.027647747,0.0,0.0,-0.2977988
28343649,-0.11756074,-0.12242463,-0.028898498,0.0,0.0,-0.29881656
28363462,-0.11024188,-0.11411251,-0.03037837,0.0,0.0,-0.29881656
28378438,-0.10044811,-0.11243902,-0.029167987,0.0,0.0,-0.29983434
28403230,-0.09558311,-0.101842105,-0.03108022,0.0,0.0,-0.30390534
28422946,-0.08258374,-0.09711808,-0.028914327,0.0,0.0,-0.30594084
28442757,-0.06945853,-0.10527513,-0.029903771,0.0,0.0,-0.30899408
28462643,-0.050675973,-0.10692238,-0.02747835,0.0,0.0,-0.30899408
28482552,-0.016324665,-0.11180917,-0.027482666,0.0,0.0,-0.31001183
28502407,0.0064538135,-0.10240462,-0.028625507,0.0,0.0,-0.31001183
28522326,0.049759,-0.1014757,-0.028675772,0.0,0.0,-0.31001183
28542134,0.14898738,-0.096601,-0.027877852,0.0,0.0,-0.30899408
28562061,0.21063173,-0.08532109,-0.028742721,0.0,0.0,-0.30899408
28582087,0.30979213,-0.08417588,-0.027072042,0.0,0.0,-0.30899408
28601875,0.49871287,-0.08140489,-0.025975352,0.0,0.0,-0.30899408
28621630,0.5304909,-0.091237366,-0.027216215,0.0,0.0,-0.30899408
28641564,0.5363618,-0.09629172,-0.02574391,0.0,0.0,-0.30899408
28661428,0.55979955,-0.09266747,-0.025715023,0.0,0.0,-0.30899408
28681299,0.5287243,-0.095474936,-0.025412925,0.0,0.0,-0.30899408
28701113,0.4808727,-0.091896616,-0.02529745,0.0,0.0,-0.30899408
28720826,0.43262655,-0.09090598,-0.025785614,0.0,0.0,-0.30899408
28740697,0.39282236,-0.087145984,-0.026039906,0.0,0.0,-0.30899408
28760637,0.35571873,-0.08821356,-0.028590066,0.0,0.0,-0.30899408
28780575,0.28667116,-0.09407636,-0.026907058,0.0,0.0,-0.30899408
28800376,0.18953896,-0.1108325,-0.02783957,0.0,0.0,-0.30899408
28820302,0.15241672,-0.11611961,-0.027388642,0.0,0.0,-0.30899408
28840177,0.16563755,-0.11186187,-0.025522802,0.0,0.0,-0.30899408
28865151,0.18974213,-0.096341364,-0.021591775,0.0,0.0,-0.30899408
28879933,0.18608275,-0.09688217,-0.018461347,0.0,0.0,-0.30899408
28899752,0.16255882,-0.09602692,-0.017950103,0.0,0.0,-0.31102958
28924641,0.17484878,-0.10384508,-0.033986684,0.0,0.0,-0.31611836
28939402,0.18471654,-0.10046528,-0.028340273,0.0,0.0,-0.3252781
28959225,0.1827725,-0.11222449,-0.028591843,0.0,0.0,-0.32934913
28984007,0.19139199,-0.1088598,-0.028524201,0.0,0.0,-0.33443788
29003986,0.21165621,-0.10960868,-0.029548815,0.0,0.0,-0.33545563
29018879,0.21065414,-0.10698559,-0.029496638,0.0,0.0,-0.33545563
29043699,0.22425856,-0.10188898,-0.030284734,0.0,0.0,-0.34156212
29063516,0.21911174,-0.09215985,-0.027784657,0.0,0.0,-0.34156212
29078399,0.22991315,-0.096522324,-0.025401065,0.0,0.0,-0.34359762
29103407,0.23185907,-0.091944784,-0.02641219,0.0,0.0,-0.3446154
29123272,0.2377171,-0.10029706,-0.029203082,0.0,0.0,-0.34766865
29143010,0.23078902,-0.09148411,-0.028003467,0.0,0.0,-0.34970415
29162925,0.2339578,-0.10043955,-0.028854676,0.0,0.0,-0.3547929
29182825,0.22108379,-0.08750923,-0.020355701,0.0,0.0,-0.3547929
29202690,0.21759327,-0.09665723,-0.022674253,0.0,0.0,-0.35581064
29222569,0.22227444,-0.08819504,-0.021040661,0.0,0.0,-0.3568284
29242308,0.23353255,-0.089342825,-0.02090288,0.0,0.0,-0.3568284
29262097,0.2275303,-0.088314034,-0.020420594,0.0,0.0,-0.35886392
29281940,0.23258024,-0.09589758,-0.01998083,0.0,0.0,-0.35988164
29301858,0.23312561,-0.08569683,-0.018382605,0.0,0.0,-0.35988164
29321714,0.24772732,-0.08187177,-0.018208008,0.0,0.0,-0.36293492
29341532,0.24660885,-0.088347465,-0.01664612,0.0,0.0,-0.36598817
29361553,0.23764522,-0.09439306,-0.0151433535,0.0,0.0,-0.3720947
29381427,0.24678862,-0.10198538,-0.014932315,0.0,0.0,-0.3731124
29401394,0.254097,-0.09477247,-0.013006217,0.0,0.0,-0.37514794
29421079,0.25008053,-0.09561274,-0.014205348,0.0,0.0,-0.37514794
29440950,0.24686144,-0.092500575,-0.0126817785,0.0,0.0,-0.38227218
29460962,0.23331565,-0.079670645,-0.0115035605,0.0,0.0,-0.38532543
29480702,0.23535585,-0.073593795,-0.007871699,0.0,0.0,-0.38634318
29500517,0.23123077,-0.07511713,-0.005452484,0.0,0.0,-0.38736096
29520346,0.22763613,-0.076271184,-0.0023754593,0.0,0.0,-0.38939646
29540202,0.23227955,-0.09505527,-0.00040840614,0.0,0.0,-0.38939646
29564992,0.23326838,-0.09593855,0.0021351415,0.0,0.0,-0.3904142
29579864,0.23256345,-0.091031715,0.0020486875,0.0,0.0,-0.39753848
29599829,0.22590947,-0.08303411,0.002530875,0.0,0.0,-0.39753848
29624746,0.2338802,-0.07616706,0.0030832416,0.0,0.0,-0.40160945
29639699,0.23302534,-0.07767477,0.0045301556,0.0,0.0,-0.40160945
29659572,0.23121727,-0.07907579,0.008980097,0.0,0.0,-0.40160945
29684395,0.22180538,-0.08305137,0.012456746,0.0,0.0,-0.40262723
29704161,0.23332882,-0.08445549,0.012616573,0.0,0.0,-0.40262723
29719111,0.23233895,-0.078658044,0.014267055,0.0,0.0,-0.40262723
29743851,0.23394375,-0.077322915,0.014824188,0.0,0.0,-0.40262723
29763640,0.22207573,-0.07317292,0.015890753,0.0,0.0,-0.40262723
29778492,0.22680089,-0.07515708,0.0149885025,0.0,0.0,-0.40262723
29803330,0.22316685,-0.08145754,0.015185513,0.0,0.0,-0.40262723
29823264,0.22109297,-0.079557225,0.01688352,0.0,0.0,-0.40262723
29843143,0.22368902,-0.08340867,0.017339898,0.0,0.0,-0.40262723
29858046,0.2216402,-0.08156405,0.019124128,0.0,0.0,-0.40262723
29882815,0.22149365,-0.07841876,0.021642743,0.0,0.0,-0.40262723
29902690,0.21872905,-0.07863757,0.022835936,0.0,0.0,-0.40364498
29917645,0.22190788,-0.07580766,0.023414318,0.0,0.0,-0.40466273
29942550,0.23738165,-0.07564513,0.024850726,0.0,0.0,-0.40466273
29962385,0.21787815,-0.07064082,0.025890462,0.0,0.0,-0.40466273
29982207,0.20822516,-0.07823069,0.025441786,0.0,0.0,-0.40568048
30002011,0.21013081,-0.07053307,0.02578746,0.0,0.0,-0.40568048
30021843,0.20948645,-0.07453653,0.027098302,0.0,0.0,-0.40771598
30041730,0.2121364,-0.070750624,0.028201886,0.0,0.0,-0.40771598
30061684,0.20884033,-0.072083704,0.02887972,0.0,0.0,-0.40975147
30081489,0.18544756,-0.072975375,0.029855968,0.0,0.0,-0.415858
30101353,0.18029541,-0.07959519,0.024108633,0.0,0.0,-0.43315977
30121231,0.1991241,-0.079020895,0.01831438,0.0,0.0,-0.43824852
30141029,0.18714017,-0.072251536,0.016498167,0.0,0.0,-0.44130176
30160974,0.17274812,-0.06741569,0.0154760545,0.0,0.0,-0.44231954
30180878,0.1715289,-0.068337254,0.015932228,0.0,0.0,-0.44231954
30200820,0.18771274,-0.0656682,0.015640147,0.0,0.0,-0.4433373
30220582,0.19222954,-0.059441134,0.017614376,0.0,0.0,-0.4433373
30240354,0.19061475,-0.056301318,0.018269265,0.0,0.0,-0.4433373
30265260,0.19824971,-0.05823024,0.01771153,0.0,0.0,-0.4433373
30280141,0.19816388,-0.060341787,0.025056625,0.0,0.0,-0.4433373
30300111,0.18230623,-0.066822916,0.025807958,0.0,0.0,-0.44435504
30324832,0.18645535,-0.07148819,0.028043536,0.0,0.0,-0.4453728
30339683,0.19624509,-0.07102799,0.028355936,0.0,0.0,-0.44639054
30359516,0.19810958,-0.0664249,0.02789728,0.0,0.0,-0.44639054
30384352,0.18318635,-0.06419626,0.025291203,0.0,0.0,-0.44639054
30404269,0.17738129,-0.06627368,0.024131684,0.0,0.0,-0.44639054
30419171,0.1814081,-0.06681773,0.024045976,0.0,0.0,-0.44639054
30439000,0.18717442,-0.06585107,0.02461071,0.0,0.0,-0.44639054
30463933,0.1979782,-0.058899194,0.024519203,0.0,0.0,-0.44639054
30479036,0.19875017,-0.057554282,0.031021055,0.0,0.0,-0.44639054
30498554,0.20410895,-0.054071672,0.031240523,0.0,0.0,-0.44842604
30523491,0.21951,-0.053505138,0.032441285,0.0,0.0,-0.45046154
30543332,0.2392068,-0.050221223,0.03259132,0.0,0.0,-0.4514793
30558244,0.24380405,-0.049676664,0.031921595,0.0,0.0,-0.4514793
30582989,0.24837552,-0.044173222,0.03281175,0.0,0.0,-0.4514793
30602831,0.23625076,-0.04185475,0.03580541,0.0,0.0,-0.45249707
30617731,0.23934698,-0.053731997,0.036438014,0.0,0.0,-0.45249707
30642604,0.22990948,-0.053748395,0.036592063,0.0,0.0,-0.45249707
30662413,0.23212385,-0.050046183,0.036501613,0.0,0.0,-0.45249707
30682274,0.2327082,-0.054005645,0.03731409,0.0,0.0,-0.45453253
30702111,0.24400055,-0.05659226,0.03937431,0.0,0.0,-0.45656803
30722015,0.24440712,-0.057847988,0.041677196,0.0,0.0,-0.45656803
30742018,0.23765418,-0.049831785,0.0454093,0.0,0.0,-0.46471006
30761808,0.23276564,-0.040638816,0.04713112,0.0,0.0,-0.46471006
30781816,0.22085784,-0.035917774,0.050184816,0.0,0.0,-0.46674556
30801607,0.20097087,-0.03063519,0.05133047,0.0,0.0,-0.46878108
30821409,0.18756527,-0.03284999,0.051710375,0.0,0.0,-0.47183433
30841309,0.18135422,-0.023843857,0.05498828,0.0,0.0,-0.47488758
30861266,0.17680639,-0.015663713,0.05759535,0.0,0.0,-0.47692308
30881212,0.1436365,-0.012824252,0.06156245,0.0,0.0,-0.48099408
30900743,0.14155996,-0.010007731,0.063761756,0.0,0.0,-0.48608282
30920609,0.13669159,-0.008387868,0.06560978,0.0,0.0,-0.48608282
30940456,0.13998908,0.0050021447,0.0696546,0.0,0.0,-0.48608282
30965275,0.08522255,0.012133163,0.07403784,0.0,0.0,-0.49015385
30980297,0.08655145,0.010705974,0.07525186,0.0,0.0,-0.49015385
31000224,0.09354649,0.016678855,0.07818224,0.0,0.0,-0.4911716
31024994,0.0748508,0.025361111,0.08160745,0.0,0.0,-0.4911716
31039918,0.06462134,0.031052176,0.08545169,0.0,0.0,-0.4911716
31059805,0.0656657,0.0358428,0.08919068,0.0,0.0,-0.4911716
31079585,-0.02347422,0.11061086,0.09354087,0.0,0.0,-0.4911716
31104331,-0.09569013,0.18013304,0.10083859,0.0,0.0,-0.4911716
31119307,-0.08378313,0.19656804,0.104042426,0.0,0.0,-0.4911716
31139107,-0.06101791,0.19947667,0.113453254,0.0,0.0,-0.4911716
31163884,-0.16708355,0.29640517,0.124054626,0.0,0.0,-0.4911716
31178782,-0.1407711,0.2973291,0.13216855,0.0,0.0,-0.4911716
31198640,-0.07129831,0.34300816,0.14345664,0.0,0.0,-0.4911716
31223567,-0.0217988,0.3470689,0.15277623,0.0,0.0,-0.4911716
31243416,0.018327352,0.3302335,0.16684204,0.0,0.0,-0.4911716
31258383,0.06371667,0.35699323,0.1594218,0.0,0.0,-0.4911716
31283357,0.12380701,0.34753796,0.17112833,0.0,0.0,-0.4911716
31303011,0.1620488,0.3783159,0.1806222,0.0,0.0,-0.4911716
31318033,0.18283996,0.37014037,0.18854971,0.0,0.0,-0.4911716
31342787,0.23011123,0.3698335,0.20750213,0.0,0.0,-0.4911716
31362733,0.2419269,0.35247353,0.2136099,0.0,0.0,-0.4911716
31382439,0.23750392,0.33826646,0.21595643,0.0,0.0,-0.4911716
31402225,0.24666324,0.3311665,0.21704702,0.0,0.0,-0.4911716
31422098,0.28044492,0.346062,0.21789688,0.0,0.0,-0.4911716
31441950,0.3287346,0.4018271,0.21821727,0.0,0.0,-0.4911716
31461948,0.51638925,0.51428163,0.21836239,0.0,0.0,-0.4911716
31481760,0.6468808,0.55624527,0.21500254,0.0,0.0,-0.4911716
31501616,0.6443892,0.52628225,0.21575046,0.0,0.0,-0.4911716
31521546,0.5565126,0.38916683,0.21696895,0.0,0.0,-0.4911716
31541472,0.51446956,0.3647592,0.2138923,0.0,0.0,-0.4911716
31561296,0.41008934,0.29344717,0.20922992,0.0,0.0,-0.4911716
31581145,0.34205624,0.26530927,0.2055676,0.0,0.0,-0.49218935
31601025,0.29134646,0.24444091,0.19938953,0.0,0.0,-0.5064379
31620815,0.22084717,0.20883232,0.19107391,0.0,0.0,-0.5128994
31640702,0.18583338,0.19383256,0.18657994,0.0,0.0,-0.5152189
31660538,0.18279018,0.1903375,0.18261577,0.0,0.0,-0.5186982
31680347,0.17465627,0.18252769,0.17377232,0.0,0.0,-0.5186982
31700208,0.16691956,0.18576294,0.16051482,0.0,0.0,-0.5186982
31720075,0.18379769,0.18417278,0.14983585,0.0,0.0,-0.5186982
31739929,0.20646934,0.18102062,0.14008358,0.0,0.0,-0.519858
31759859,0.19293088,0.17237072,0.12992258,0.0,0.0,-0.5210178
31779691,0.19222385,0.16474065,0.12072859,0.0,0.0,-0.5210178
31804627,0.19239166,0.15693554,0.10906944,0.0,0.0,-0.5210178
31819629,0.18085971,0.15158556,0.10343669,0.0,0.0,-0.5221775
31839249,0.16339982,0.14122415,0.095861435,0.0,0.0,-0.52449703
31864213,0.1713537,0.15325986,0.085699946,0.0,0.0,-0.5453728
31879035,0.18346642,0.16392162,0.08082427,0.0,0.0,-0.5546509
31898955,0.19736776,0.16373205,0.07377784,0.0,0.0,-0.5546509
31923684,0.18635654,0.17830418,0.064696275,0.0,0.0,-0.5755266
31943651,0.1862581,0.17549162,0.058637038,0.0,0.0,-0.5755266
31958463,0.17139332,0.16830847,0.05420699,0.0,0.0,-0.5813255
31983359,0.16019098,0.14625299,0.047018964,0.0,0.0,-0.5824852
32003189,0.15138665,0.13214388,0.041543752,0.0,0.0,-0.583645
32018104,0.13245997,0.12526983,0.03836686,0.0,0.0,-0.58596444
32042987,0.11280011,0.10934079,0.030419126,0.0,0.0,-0.5871242
32062772,0.117859654,0.11635366,0.0253697,0.0,0.0,-0.59060353
32082636,0.11521979,0.13974032,0.019340273,0.0,0.0,-0.59408283
32102479,0.12627277,0.15178947,0.014855813,0.0,0.0,-0.5952426
32122389,0.1374571,0.1583211,0.010057565,0.0,0.0,-0.5952426
32142189,0.14005572,0.1613523,0.005570923,0.0,0.0,-0.5964024
32162080,0.14666115,0.16408832,0.0019281578,0.0,0.0,-0.5975621
32181886,0.14876077,0.16307071,-0.0029316968,0.0,0.0,-0.59872186
32201756,0.14181581,0.14261365,-0.0063200835,0.0,0.0,-0.59988165
32221720,0.14126346,0.13216087,-0.010263547,0.0,0.0,-0.59988165
32241485,0.12747909,0.09308902,-0.013513062,0.0,0.0,-0.59988165
32261375,0.08355153,0.030207574,-0.016689032,0.0,0.0,-0.59988165
32281201,0.053338423,-0.0091904765,-0.020490186,0.0,0.0,-0.59988165
32300998,0.06123097,0.0055739232,-0.02416213,0.0,0.0,-0.59988165
32320844,-0.05068645,-0.07347269,-0.027851379,0.0,0.0,-0.5964024
32340858,-0.12135443,-0.1416954,-0.031878933,0.0,0.0,-0.5929231
32360797,-0.17959982,-0.2246256,-0.03485442,0.0,0.0,-0.5917633
32380555,-0.16111954,-0.21011196,-0.03967572,0.0,0.0,-0.59060353
32400464,-0.17999871,-0.15630147,-0.04397525,0.0,0.0,-0.5894438
32420260,-0.16591619,-0.09550105,-0.048415728,0.0,0.0,-0.5848047
32440130,-0.10793129,-0.04007685,-0.05277449,0.0,0.0,-0.5824852
32460030,-0.060636062,0.0031437685,-0.0743956,0.0,0.0,-0.5813255
32480021,-0.014612538,0.033129856,-0.077364616,0.0,0.0,-0.5813255
32504680,-0.09930084,0.061294854,-0.084489204,0.0,0.0,-0.5801657
32519471,-0.07518945,0.06405858,-0.08648955,0.0,0.0,-0.5801657
32539333,-0.099900566,0.07700371,-0.086836204,0.0,0.0,-0.5801657
32564165,-0.082672015,0.08877079,-0.08795669,0.0,0.0,-0.5801657
32579140,-0.05581974,0.09651248,-0.08841529,0.0,0.0,-0.5801657
32599029,-0.034881424,0.093235075,-0.07650613,0.0,0.0,-0.5801657
32623978,0.006908936,0.10099865,-0.06837121,0.0,0.0,-0.5801657
32643706,0.031355634,0.0907083,-0.06127693,0.0,0.0,-0.5790059
32658666,0.047604572,0.101878524,-0.061339125,0.0,0.0,-0.5790059
32683527,0.088099,0.109007664,-0.059964325,0.0,0.0,-0.5801657
32703409,0.101279825,0.11390517,-0.0587624,0.0,0.0,-0.5801657
32718260,0.13206103,0.095755324,-0.056680482,0.0,0.0,-0.5790059
32743072,0.16701117,0.101480715,-0.056684896,0.0,0.0,-0.5790059
32762794,0.19483809,0.10395934,-0.054979544,0.0,0.0,-0.5790059
32782654,0.21864715,0.08267695,-0.05295728,0.0,0.0,-0.5790059
32802529,0.19393393,0.069893576,-0.04907029,0.0,0.0,-0.5790059
32822371,0.15550405,0.06597554,-0.045319874,0.0,0.0,-0.5790059
32842236,0.1161537,0.06545134,-0.04046109,0.0,0.0,-0.5790059
32862263,0.089991465,0.025917318,-0.034880534,0.0,0.0,-0.5755266
32882251,0.06631301,0.032161746,-0.030053893,0.0,0.0,-0.5755266
32901969,0.05728041,0.02672073,-0.02500904,0.0,0.0,-0.56972784
32921834,0.05832936,0.02309023,-0.019990359,0.0,0.0,-0.56508875
32941638,0.046654094,-0.018053953,-0.014704321,0.0,0.0,-0.56276923
32961517,0.03733613,-0.02521237,-0.009663646,0.0,0.0,-0.5581302
32981315,0.031009514,-0.038195137,-0.005295233,0.0,0.0,-0.5476923
33001219,0.022148121,-0.022261525,-0.0009992886,0.0,0.0,-0.5465326
33021028,0.013226414,-0.008439323,0.002846176,0.0,0.0,-0.5465326
33040915,0.00205358,-0.036849283,0.005715532,0.0,0.0,-0.5418935
33060782,-0.016919123,-0.023710964,0.007954012,0.0,0.0,-0.5418935
33080575,-0.03290935,-0.020596886,0.010512652,0.0,0.0,-0.5407337
33100549,-0.03830026,-0.008313027,0.011508088,0.0,0.0,-0.5407337
33120441,-0.035333708,0.00588962,0.010937592,0.0,0.0,-0.5384142
33140363,-0.028888302,0.007190473,0.01021256,0.0,0.0,-0.5349349
33160374,-0.024822386,0.017162556,0.0086859455,0.0,0.0,-0.53377515
33179988,-0.021624299,0.024118112,0.0068176603,0.0,0.0,-0.5326154
33204929,-0.021573378,0.038330656,0.0025801118,0.0,0.0,-0.5326154
33219771,-0.020908982,0.026413316,0.0008963943,0.0,0.0,-0.52913606
33239690,-0.021775227,0.03616139,-0.0015487332,0.0,0.0,-0.52681655
33264401,-0.02271095,0.04365705,-0.004226935,0.0,0.0,-0.52681655
33279279,-0.020193957,0.040285815,-0.0060364027,0.0,0.0,-0.52681655
33299064,-0.009929152,0.04659387,-0.008946499,0.0,0.0,-0.52681655
33323888,-0.002967449,0.060266726,-0.0101103615,0.0,0.0,-0.52681655
33343857,0.1020139,0.08912726,-0.013732604,0.0,0.0,-0.52681655
33358738,0.2218779,0.14749898,-0.017701132,0.0,0.0,-0.52681655
33383575,0.3163957,0.20521012,-0.020652007,0.0,0.0,-0.52565676
33403454,0.3103268,0.2471081,-0.022251323,0.0,0.0,-0.52449703
33418422,0.39450395,0.3155713,-0.022944197,0.0,0.0,-0.52449703
33443241,0.41186565,0.3882487,-0.024625076,0.0,0.0,-0.52449703
33463134,0.37324268,0.36666143,-0.02329855,0.0,0.0,-0.52449703
33482884,0.3760912,0.33509985,-0.022395577,0.0,0.0,-0.52449703
33502748,0.31967807,0.2991313,-0.020332932,0.0,0.0,-0.52449703
33522544,0.31095922,0.2598313,-0.025129056,0.0,0.0,-0.52449703
33542414,0.27034986,0.22123201,-0.023134077,0.0,0.0,-0.52449703
33562416,0.25669423,0.1894889,-0.021774137,0.0,0.0,-0.52333724
33582192,0.24459107,0.16489437,-0.020634912,0.0,0.0,-0.52333724
33602044,0.20081507,0.14802973,-0.019524068,0.0,0.0,-0.5221775
33621918,0.13123675,0.13707823,-0.018750995,0.0,0.0,-0.5163787
33641845,0.11217332,0.12692845,-0.017218674,0.0,0.0,-0.5140591
33661611,0.09450582,0.11559433,-0.03943935,0.0,0.0,-0.5117396
33681576,0.079640225,0.10710204,-0.038052954,0.0,0.0,-0.5117396
33701533,0.01426926,0.09861474,-0.030732319,0.0,0.0,-0.5105798
33721308,-0.12054382,0.08790734,-0.03585234,0.0,0.0,-0.5105798
33741096,-0.13427623,0.080340005,-0.029690308,0.0,0.0,-0.5105798
33760905,-0.09413256,0.06929852,-0.030385777,0.0,0.0,-0.5105798
33780788,-0.07122534,0.060511526,-0.029398285,0.0,0.0,-0.5105798
33800635,-0.03415359,0.05489752,-0.029173294,0.0,0.0,-0.5105798
33820633,-0.05883675,0.051716555,-0.030592432,0.0,0.0,-0.5105798
33840415,-0.10873412,0.052547958,-0.030352866,0.0,0.0,-0.5105798
33860273,-0.08931055,0.058320813,-0.029770806,0.0,0.0,-0.5105798
33880085,-0.07537816,0.06793481,-0.028301159,0.0,0.0,-0.5105798
33904919,-0.107975796,0.0702237,-0.01678383,0.0,0.0,-0.5105798
33919742,-0.20205194,0.06796923,-0.0016478513,0.0,0.0,-0.5105798
33939675,-0.11450317,0.06369532,-0.00014648103,0.0,0.0,-0.5105798
33964613,0.18125708,-0.09580782,0.0043771164,0.0,0.0,-0.5105798
33979486,0.48506796,-0.28750747,0.006097246,0.0,0.0,-0.5105798
33999271,0.5345963,-0.32506445,0.007916283,0.0,0.0,-0.5105798
34024096,0.50280833,-0.28463286,0.010540926,0.0,0.0,-0.5105798
34044087,0.37441432,-0.2216432,0.012913598,0.0,0.0,-0.5105798
34058987,0.3197896,-0.19276553,0.015039716,0.0,0.0,-0.5105798
34083747,0.066994414,-0.0053121313,0.017844021,0.0,0.0,-0.5105798
34103569,-0.0017180846,0.090749614,0.019232046,0.0,0.0,-0.50949115
34118430,-0.012370926,0.13253766,0.018029885,0.0,0.0,-0.5105798
34143273,-0.105266795,0.19243762,0.022329139,0.0,0.0,-0.50949115
34163055,-0.19741648,0.2500833,0.025763135,0.0,0.0,-0.5105798
34182985,-0.36007798,0.21751696,0.029923081,0.0,0.0,-0.5105798
34202840,-0.36286914,0.17703353,0.03313425,0.0,0.0,-0.5105798
34222820,-0.36512148,0.13098195,0.03582017,0.0,0.0,-0.5105798
34242702,-0.36816213,0.085496604,0.037926435,0.0,0.0,-0.5105798
34262510,-0.3198169,0.049594708,0.040024206,0.0,0.0,-0.5105798
34282453,-0.29688653,0.024758566,0.04073336,0.0,0.0,-0.5105798
34302359,-0.24387355,0.01131154,0.041479442,0.0,0.0,-0.5105798
34322239,-0.19115278,0.0043352507,0.04202583,0.0,0.0,-0.5105798
34341951,-0.14530598,0.010409462,0.04378966,0.0,0.0,-0.5105798
34361875,-0.11274106,0.018562697,0.04440644,0.0,0.0,-0.5105798
34381657,-0.11693717,0.017945504,0.045055337,0.0,0.0,-0.5105798
34401420,-0.122298054,0.015330557,0.04531437,0.0,0.0,-0.5105798
34421270,-0.13522168,0.011922976,0.04499951,0.0,0.0,-0.5105798
34441134,-0.12754324,0.009157967,0.044832375,0.0,0.0,-0.5105798
34461084,-0.17206492,0.00413424,0.04531294,0.0,0.0,-0.5105798
34481054,-0.17359689,0.00317265,0.0463951,0.0,0.0,-0.5105798
34500989,-0.17852989,0.00045031647,0.046490334,0.0,0.0,-0.5105798
34520724,-0.16104908,0.0044158585,0.046828747,0.0,0.0,-0.5105798
34540642,-0.13038145,-0.00020754669,0.046378274,0.0,0.0,-0.5105798
34560477,-0.095425844,-0.008477047,0.04704418,0.0,0.0,-0.5105798
34580337,-0.078194655,-0.01565487,0.047253598,0.0,0.0,-0.5105798
34605080,-0.05063212,-0.023849126,0.04642821,0.0,0.0,-0.5105798
34619976,-0.051431302,-0.024751462,0.046873607,0.0,0.0,-0.5105798
34639823,-0.044097077,-0.026564,0.04600343,0.0,0.0,-0.5105798
34664638,-0.04445476,-0.023643352,0.04734221,0.0,0.0,-0.5105798
34679531,-0.044862095,-0.01633028,0.04737776,0.0,0.0,-0.5105798
34699340,-0.036158103,-0.018737292,0.04831694,0.0,0.0,-0.5105798
34724183,0.1576998,-0.017690646,0.7273801,0.0,0.0,-0.5063055
34744136,0.2188356,0.0015425069,-0.056383766,0.0,0.0,-0.50920796
34759133,0.22339441,0.0044978536,-0.057932872,0.0,0.0,-0.50920796
34779018,0.35864824,0.090110525,-0.055309035,0.0,0.0,-0.5188635
34803808,0.42277396,0.21451232,-0.050550196,0.0,0.0,-0.52816164
34818622,0.39103943,0.20837153,-0.046929423,0.0,0.0,-0.52816164
34843436,0.29828885,0.29532433,-0.03821259,0.0,0.0,-0.5332333
34863234,0.25633362,0.33294395,-0.031965367,0.0,0.0,-0.53630114
34883326,0.20507291,0.3644126,-0.026459476,0.0,0.0,-0.53877836
34897993,0.16398808,0.34172314,-0.021396104,0.0,0.0,-0.53877836
34922806,0.20445769,0.42191008,-0.01408134,0.0,0.0,-0.5424505
34942635,0.18856119,0.44330314,-0.008332397,0.0,0.0,-0.54509234
34957525,0.1770274,0.4087114,-0.0030758525,0.0,0.0,-0.54509234
34982524,0.123514935,0.2533164,0.008951781,0.0,0.0,-0.54656243
35002307,0.11410416,0.1517125,0.016991742,0.0,0.0,-0.5461685
35022213,0.08192532,0.065406874,0.024404127,0.0,0.0,-0.5478527
35042181,0.059460405,-0.017727382,0.03153158,0.0,0.0,-0.54734474
35061969,0.087904535,-0.07082332,0.03620109,0.0,0.0,-0.5486419
35081775,0.042714123,-0.11167522,0.039411265,0.0,0.0,-0.5480231
35101680,0.013829507,-0.1719041,0.04378719,0.0,0.0,-0.5501109
35121526,-0.05995067,-0.24070086,0.047362998,0.0,0.0,-0.5482237
35141346,-0.08860801,-0.28997898,0.04994624,0.0,0.0,-0.5446312
35161206,-0.11067526,-0.30769435,0.05126663,0.0,0.0,-0.53889537
35181022,-0.14293924,-0.31552595,0.051593028,0.0,0.0,-0.5345274
35200891,-0.1076199,-0.29357496,0.052369654,0.0,0.0,-0.5292053
35220745,-0.056099817,-0.2236968,0.051274274,0.0,0.0,-0.53187275
35240617,-0.025177117,-0.22502895,0.050892983,0.0,0.0,-0.5336627
35260499,0.025282558,-0.19773522,0.051128853,0.0,0.0,-0.5328146
35280418,0.016207976,-0.1405689,0.049306616,0.0,0.0,-0.5335682
35305390,0.012023185,-0.096573316,0.048629735,0.0,0.0,-0.53391904
35320363,0.008077197,-0.09912918,0.047312632,0.0,0.0,-0.5348621
35339936,0.020298883,-0.106476784,0.047205098,0.0,0.0,-0.5345236
35364790,0.00889282,-0.06646912,0.04653699,0.0,0.0,-0.534401
35379667,0.023051763,-0.05929411,0.04531628,0.0,0.0,-0.53521556
35399517,0.023337089,-0.039081004,0.043744285,0.0,0.0,-0.53504086
35424392,0.0066598887,-0.061888836,0.043532234,0.0,0.0,-0.53552485
35444293,0.0039003536,-0.07141264,0.04308998,0.0,0.0,-0.53540057
35459162,0.0038875225,-0.0559083,0.04349676,0.0,0.0,-0.5362576
35479010,0.018519644,-0.04358672,0.042414766,0.0,0.0,-0.53656024
35503903,0.005819178,-0.054569803,0.04081225,0.0,0.0,-0.53787833
35518798,0.014449446,-0.062589005,0.041312315,0.0,0.0,-0.53866774
35538649,0.015881889,-0.04312117,0.04102569,0.0,0.0,-0.53941464
35563564,0.013612393,-0.04514646,0.03875659,0.0,0.0,-0.5404447
35583404,0.033423487,-0.040986918,0.03987698,0.0,0.0,-0.54053724
35598189,0.038331345,-0.008007199,0.04112701,0.0,0.0,-0.5417852
35623030,0.0038306233,-0.025848107,0.042044975,0.0,0.0,-0.54202765
35642932,0.012981209,-0.036701635,0.044615313,0.0,0.0,-0.54276156
35657795,-0.0141103,-0.030245572,0.04758919,0.0,0.0,-0.54344946
35682578,-0.032770753,-0.024989497,0.05029817,0.0,0.0,-0.5441225
35702463,-0.012696954,-0.022602953,0.053028934,0.0,0.0,-0.54510206
35722286,-0.01440518,-0.04397981,0.057445068,0.0,0.0,-0.545536
35742254,0.016377043,-0.014439913,0.060896624,0.0,0.0,-0.54538715
35762053,0.01863696,-0.02366714,0.06473648,0.0,0.0,-0.54574144
35781914,-0.0195964,-0.02355274,0.06895939,0.0,0.0,-0.5462088
35801676,-0.008828449,-0.0098685855,0.072605856,0.0,0.0,-0.54680526
35821590,-0.04925278,-0.04330992,0.077480555,0.0,0.0,-0.54727286
35841543,-0.007258143,-0.037212428,0.082558684,0.0,0.0,-0.5468044
35861537,-0.028703822,-0.023832267,0.08621487,0.0,0.0,-0.5473755
35881241,-0.013943177,-0.02683867,0.09219759,0.0,0.0,-0.54927707
35901144,-0.005226506,-0.02083691,0.096379906,0.0,0.0,-0.5484264
35920991,-0.0081772925,-0.035012368,0.10066618,0.0,0.0,-0.5497935
35940776,-0.028655238,-0.021182757,0.105038874,0.0,0.0,-0.5479145
35960646,-0.021224234,-0.047980893,0.11059454,0.0,0.0,-0.5507296
35980604,-0.022540193,-0.03943482,0.11547958,0.0,0.0,-0.54666555
36005372,-0.053787988,-0.034740195,0.11922805,0.0,0.0,-0.5505905
36020236,-0.06849377,-0.026459536,0.12332489,0.0,0.0,-0.5469802
36040031,-0.09908788,0.0060169366,0.12612158,0.0,0.0,-0.5506218
36064858,-0.05966578,-0.008497193,0.12877443,0.0,0.0,-0.549356
36079747,-0.06560096,0.05355809,0.12925656,0.0,0.0,-0.5497986
36099829,-0.049844548,0.0047676,0.1326215,0.0,0.0,-0.55277246
36119691,-0.08409384,0.07697989,0.13225526,0.0,0.0,-0.55107903
36144487,-0.0445835,-0.03901378,0.13760486,0.0,0.0,-0.5521136
36159308,-0.049335744,-0.039539088,0.13800015,0.0,0.0,-0.5521136
36179215,-0.041590296,0.015209866,0.13715965,0.0,0.0,-0.5492926
36204060,-0.034075208,0.014903486,0.13827999,0.0,0.0,-0.55169827
36218945,-0.027382601,0.014124435,0.13766328,0.0,0.0,-0.55169827
36238772,-0.032149244,0.041917667,0.13723812,0.0,0.0,-0.5498422
36263486,-0.038216233,0.034668494,0.13353363,0.0,0.0,-0.5485565
36283324,-0.04239072,0.011216191,0.13208374,0.0,0.0,-0.5525933
36298230,-0.041881885,0.0146021545,0.13120994,0.0,0.0,-0.5525933
36323113,-0.017754445,0.017892893,0.12651584,0.0,0.0,-0.5504803
36342965,0.024972655,-0.0059116324,0.12401873,0.0,0.0,-0.5484251
36357878,0.027461886,0.0020312653,0.12250851,0.0,0.0,-0.5484251
36382854,0.015421279,0.002006204,0.1184869,0.0,0.0,-0.5482009
36402693,-0.0059025446,0.05138939,0.114889875,0.0,0.0,-0.54580414
36422517,0.0061997334,-0.0016548551,0.11141007,0.0,0.0,-0.5475046
36442332,0.043623254,0.055259544,0.10702518,0.0,0.0,-0.54457074
36462226,0.037205033,0.045232136,0.102740645,0.0,0.0,-0.5470646
36482022,0.04810025,0.04662591,0.0993927,0.0,0.0,-0.54498124
36501989,0.06604124,0.050993435,0.09657929,0.0,0.0,-0.547306
36521722,0.028658565,0.08280844,0.09257813,0.0,0.0,-0.5463944
36541575,0.07056636,0.06657059,0.088851176,0.0,0.0,-0.54808986
36561410,0.028486043,0.066944264,0.08584764,0.0,0.0,-0.547645
36581325,0.07193896,0.03619074,0.08285457,0.0,0.0,-0.54805696
36601118,0.04011982,0.07936796,0.07938161,0.0,0.0,-0.5487603
36621141,0.053808976,0.057460003,0.077477574,0.0,0.0,-0.54952765
36641056,0.033553794,0.050439544,0.07512843,0.0,0.0,-0.55005276
36661053,0.026421387,0.030577786,0.074955024,0.0,0.0,-0.55030614
36680720,0.009110227,0.051971104,0.07365072,0.0,0.0,-0.5509008
36700563,-0.002153397,0.033116292,0.073801704,0.0,0.0,-0.55118245
36720472,-0.0009784659,0.005420706,0.074947305,0.0,0.0,-0.5512173
36740324,0.008441987,0.052339543,0.07384619,0.0,0.0,-0.55129004
36760126,0.0010981471,0.027237393,0.07500595,0.0,0.0,-0.5514535
36779922,-0.03837358,0.0410615,0.07566248,0.0,0.0,-0.5516433
36799745,-0.035860904,0.056723345,0.076714404,0.0,0.0,-0.55166215
36819619,-0.075875655,0.022940556,0.07902402,0.0,0.0,-0.55240214
36844548,-0.039896645,0.025606656,0.08113727,0.0,0.0,-0.5514503
36859501,-0.02341733,0.003018459,0.08135301,0.0,0.0,-0.55230904
36879288,-0.037106894,-0.003986066,0.083828226,0.0,0.0,-0.5508711
36904182,-0.040898543,-0.033068962,0.08762579,0.0,0.0,-0.5506244
36919077,-0.052592978,-0.028165132,0.000116120704,0.0,0.0,-0.5498998
36938922,-0.106196925,-0.17899194,0.04678321,0.0,0.0,-0.5403505
36963770,-0.13047919,-0.10615889,0.10320936,0.0,0.0,-0.5471926
36983669,-0.038094096,-0.0021111367,0.13597527,0.0,0.0,-0.5482494
36998494,-0.02673318,0.006989268,0.1385431,0.0,0.0,-0.5482494
37023256,0.027381564,0.012929279,0.18417464,0.0,0.0,-0.5480785
37043057,0.014386506,-0.011856695,0.19760753,0.0,0.0,-0.5452582
37057954,0.030840278,-0.011934089,0.19971429,0.0,0.0,-0.5452582
37082912,0.052356273,-0.042107698,0.20491765,0.0,0.0,-0.54479146
37102734,0.030579593,-0.07908084,0.20590083,0.0,0.0,-0.54588145
37122599,0.04727801,-0.045822095,0.20675705,0.0,0.0,-0.5459436
37142438,0.01717582,-0.083215944,0.20806415,0.0,0.0,-0.5452408
37162358,0.04546239,-0.028072989,0.20502855,0.0,0.0,-0.54578555
37182228,0.028488174,-0.049433578,0.20324093,0.0,0.0,-0.545291
37202201,0.04456217,-0.040138964,0.19963583,0.0,0.0,-0.546952
37221876,0.048720747,-0.041606776,0.19721961,0.0,0.0,-0.546952
37241748,0.06076504,-0.05255128,0.18712683,0.0,0.0,-0.54879534
37261677,0.04645229,-0.065135896,0.18510734,0.0,0.0,-0.54974055
37281530,0.07367027,-0.061910845,0.1849248,0.0,0.0,-0.55096424
37301348,0.04568277,-0.0661317,0.18362209,0.0,0.0,-0.5505798
37321181,0.052628122,-0.04897629,0.18452282,0.0,0.0,-0.5516796
37341084,0.050568845,-0.0495439,0.18380314,0.0,0.0,-0.5518572
37360895,0.03547142,-0.07668234,0.18413176,0.0,0.0,-0.5512163
37380821,0.0505777,-0.0654814,0.18203959,0.0,0.0,-0.55179197
37400690,0.040782835,-0.049129363,0.17973544,0.0,0.0,-0.55140096
37420612,0.012489543,-0.032317225,0.17840593,0.0,0.0,-0.5514419
37440454,-0.012897439,0.011225442,0.1782949,0.0,0.0,-0.5533457
37460311,0.008953261,-0.025218613,0.18385646,0.0,0.0,-0.5520053
37480129,0.005960343,0.049911164,0.18595634,0.0,0.0,-0.5522478
37499976,0.009102999,0.018040234,0.1890965,0.0,0.0,-0.5530291
37519808,-0.010032398,0.052086964,0.18991725,0.0,0.0,-0.55220354
37544726,-0.025502207,0.0108874,0.19342074,0.0,0.0,-0.55169904
37559655,-0.0025961823,0.039631143,0.19499071,0.0,0.0,-0.5506087
37579463,-0.06438262,0.020883169,0.19627005,0.0,0.0,-0.5477287
37604252,-0.044815812,0.03142577,0.19675903,0.0,0.0,-0.54653716
37619118,-0.05272853,0.012938589,0.20173597,0.0,0.0,-0.544926
37638982,-0.052405655,0.011951968,0.19613852,0.0,0.0,-0.544926
37663750,-0.045023706,0.0336911,0.23313704,0.0,0.0,-0.5423789
37683668,-0.029878201,0.0842499,0.23974697,0.0,0.0,-0.5428686
37698603,-0.027014064,0.07968615,0.23459885,0.0,0.0,-0.5428686
37723485,-0.003520983,0.034352273,0.2586237,0.0,0.0,-0.53989774
37743431,-0.01736357,0.057107806,0.26416072,0.0,0.0,-0.5391683
37758222,-0.025178418,0.06543099,0.25997338,0.0,0.0,-0.5391683
37783054,-0.05353083,0.011668094,0.28328228,0.0,0.0,-0.5353841
37802937,-0.006519231,0.034995157,0.3023344,0.0,0.0,-0.53480244
37822931,-0.014589996,0.02894298,0.36004364,0.0,0.0,-0.5302229
37842639,-0.052106485,0.060870785,0.41020375,0.0,0.0,-0.5391648
37862567,-0.036817502,0.04043397,0.4509306,0.0,0.0,-0.54863316
37882398,-0.04741845,0.07175746,0.47696638,0.0,0.0,-0.55907714
37902120,-0.09042881,0.094876,0.4818699,0.0,0.0,-0.5717726
37922018,-0.100779004,0.098769434,0.46820474,0.0,0.0,-0.5821148
37941811,-0.067413926,0.06367357,0.37309203,0.0,0.0,-0.5759762
37961742,-0.051975716,0.038937166,0.29854137,0.0,0.0,-0.5675173
37981673,-0.068577744,0.015037958,0.24260956,0.0,0.0,-0.5589128
38001683,-0.040812753,0.03031397,0.19450301,0.0,0.0,-0.5503523
38021431,-0.025145436,0.058689397,0.15440215,0.0,0.0,-0.5431011
38041299,-0.03520962,0.085363075,0.120048,0.0,0.0,-0.543995
38061170,-0.025242295,0.04621512,0.09596734,0.0,0.0,-0.543906
38080966,-0.04280323,0.05574833,0.07740525,0.0,0.0,-0.5420189
38100889,-0.070092954,0.0122148935,0.063086465,0.0,0.0,-0.54117125
38120656,-0.0652703,0.028334478,0.05106667,0.0,0.0,-0.5398221
38140618,-0.046148807,0.017979404,0.0409304,0.0,0.0,-0.5410118
38160408,-0.048364613,0.0393385,0.033571415,0.0,0.0,-0.54022884
38180231,-0.040919844,0.057086878,0.027174883,0.0,0.0,-0.5406148
38200027,-0.045013998,0.036319867,0.022420403,0.0,0.0,-0.5415717
38219887,0.011810245,0.049487915,0.017267482,0.0,0.0,-0.5409674
38244775,-0.0011058089,0.023960588,0.013785539,0.0,0.0,-0.5417347
38259817,0.010387565,0.033712365,0.0114605995,0.0,0.0,-0.54249525
38279799,-0.021567881,0.03444131,0.008886608,0.0,0.0,-0.542567
38304473,-0.009327167,-0.002077266,0.00747432,0.0,0.0,-0.5430938
38319313,0.025617655,0.020035021,0.0060257097,0.0,0.0,-0.54281586
38339173,-0.010188955,0.03693983,0.00389834,0.0,0.0,-0.5423198
38363921,0.009118024,0.0501631,0.0037709824,0.0,0.0,-0.5450556
38383846,-0.0035051978,0.009631553,0.0048007094,0.0,0.0,-0.5417959
38398707,0.05059443,-0.010457029,0.0014695773,0.0,0.0,-0.54627514
38423515,0.014292558,-0.02563161,0.0032195281,0.0,0.0,-0.5418348
38443345,0.0029462466,-0.04443414,0.0034918268,0.0,0.0,-0.541557
38458244,-0.0034430458,-0.04245877,0.0011878698,0.0,0.0,-0.541857
38483201,-0.00663183,-0.095928416,0.0041805706,0.0,0.0,-0.53909236
38503080,-0.010284069,-0.063552834,0.0062309257,0.0,0.0,-0.54072005
38522929,-0.02012813,-0.07902169,0.008678789,0.0,0.0,-0.54007405
38542890,-0.0143873915,-0.08904162,0.012222786,0.0,0.0,-0.5404335
38562723,-0.04199551,-0.035354085,0.014385136,0.0,0.0,-0.5435512
38582535,-0.0044232444,-0.06126349,0.018480996,0.0,0.0,-0.5444595
38602425,0.0059843017,-0.059657115,0.021818338,0.0,0.0,-0.54336923
38622127,-0.0036460771,-0.048539,0.024226226,0.0,0.0,-0.5449794
38642001,-0.0145490905,-0.038887884,0.02790496,0.0,0.0,-0.54488415
38661844,-0.0056306305,-0.046030693,0.031973388,0.0,0.0,-0.5454375
38681747,-0.018903824,-0.061371356,0.035801154,0.0,0.0,-0.54476655
38701589,-0.016798507,-0.054299206,0.0406325,0.0,0.0,-0.5445263
38721505,-0.023557646,-0.052686863,0.045764674,0.0,0.0,-0.5455945
38741321,-0.024643004,-0.040727064,0.049174413,0.0,0.0,-0.5446921
38761234,-0.03061635,-0.017845927,0.05163085,0.0,0.0,-0.5456656
38781127,-0.015065594,0.002150231,0.055680208,0.0,0.0,-0.5463427
38801033,-0.03878286,0.011383857,0.058031198,0.0,0.0,-0.5479805
38820998,-0.016247407,0.0018208416,0.06146033,0.0,0.0,-0.5478508
38840741,0.0012191155,-0.013326443,0.06518303,0.0,0.0,-0.54868436
38860580,-0.02602967,-0.018286737,0.0688523,0.0,0.0,-0.5488031
38880373,-0.0149945645,-0.035739537,0.07291893,0.0,0.0,-0.54862696
38900214,0.025385175,-0.052280042,0.078793734,0.0,0.0,-0.5481414
38920125,-0.033418626,-0.06195941,0.08027179,0.0,0.0,-0.5481253
38944916,-0.010258497,-0.016726358,0.083777815,0.0,0.0,-0.5487888
38959872,-0.023152001,-0.0060114022,0.08603883,0.0,0.0,-0.549624
38979710,0.0141675705,0.035148766,0.08718841,0.0,0.0,-0.5506711
39004547,0.016073937,0.011300638,0.0930657,0.0,0.0,-0.55124015
39019509,-0.02161121,0.026244616,0.09179493,0.0,0.0,-0.55166507
39039398,0.0058571002,-0.04026764,0.095234744,0.0,0.0,-0.55035275
39064288,0.025582055,-0.05029461,0.09836715,0.0,0.0,-0.5498173
39084246,0.0076062772,-0.05873876,0.10042402,0.0,0.0,-0.54971063
39098854,0.002868151,-0.06009918,0.10421504,0.0,0.0,-0.54971063
39123676,-0.022342196,-0.020425927,0.103979014,0.0,0.0,-0.55132365
39143586,-0.028434338,-0.022666387,0.10580739,0.0,0.0,-0.551054
39158496,-0.028229067,-0.019126955,0.10473072,0.0,0.0,-0.551054
39183323,-0.018821273,0.0050184443,0.10573711,0.0,0.0,-0.5525121
39203110,0.02059583,-0.020899236,0.10592367,0.0,0.0,-0.552382
39222976,0.026594186,-0.01542199,0.10537475,0.0,0.0,-0.55292195
39242850,0.05065917,-0.054047123,0.10587274,0.0,0.0,-0.5514906
39262843,0.043686636,-0.07795923,0.10654744,0.0,0.0,-0.5593153
39282617,0.021220794,-0.07536685,0.10684103,0.0,0.0,-0.5680323
39297583,0.024228167,-0.08124954,0.10511382,0.0,0.0,-0.5680323
39322310,0.045695916,-0.064440876,0.106741756,0.0,0.0,-0.58781874
39342282,0.054936342,-0.058555093,0.10412349,0.0,0.0,-0.59609145
39362031,0.07813615,-0.049696244,0.10244153,0.0,0.0,-0.59149224
39381932,0.04342686,-0.08176614,0.10001256,0.0,0.0,-0.5828437
39401820,0.09188763,-0.10246031,0.097986326,0.0,0.0,-0.57796663
39421746,0.11737641,-0.118600115,0.09751315,0.0,0.0,-0.56640714
39441499,0.08336327,-0.13129136,0.09487481,0.0,0.0,-0.5550469
39461369,0.07993494,-0.14334553,0.09303676,0.0,0.0,-0.54776585
39481194,0.06068257,-0.10709872,0.089380726,0.0,0.0,-0.54640764
39501107,0.06756322,-0.13854723,0.08625333,0.0,0.0,-0.5454072
39521013,0.119471945,-0.13267636,0.083140396,0.0,0.0,-0.5433974
39540770,0.10851133,-0.1257168,0.078641266,0.0,0.0,-0.5446112
39560585,0.09172117,-0.12975614,0.0752169,0.0,0.0,-0.5434895
39580461,0.079301596,-0.1383847,0.0702246,0.0,0.0,-0.5527538
39600529,0.10106837,-0.13343155,0.06621231,0.0,0.0,-0.55131066
39620379,0.10437923,-0.14229919,0.061846882,0.0,0.0,-0.5443908
39645174,0.1110867,-0.16405994,0.056379016,0.0,0.0,-0.5439308
39660086,0.10190733,-0.16633944,0.053475138,0.0,0.0,-0.54312897
39679867,0.10136351,-0.16642268,0.04855724,0.0,0.0,-0.5428111
39704718,0.0889366,-0.13799107,0.041528583,0.0,0.0,-0.543566
39719568,0.07185542,-0.15059441,0.037989456,0.0,0.0,-0.54337347
39739489,0.07519202,-0.12927504,0.03252854,0.0,0.0,-0.5435288
39764280,0.08479293,-0.11624212,0.02646159,0.0,0.0,-0.54331493
39784029,0.077302285,-0.1016247,0.02017037,0.0,0.0,-0.5388744
39799057,0.076980926,-0.094329804,0.016429478,0.0,0.0,-0.5388744
39823819,0.07152187,-0.060745645,0.00817852,0.0,0.0,-0.5439545
39843664,0.04848197,-0.07285976,0.002926355,0.0,0.0,-0.54373944
39858632,0.051082972,-0.067976035,0.0013240305,0.0,0.0,-0.54373944
39878633,0.07288213,-0.046871975,-0.004607646,0.0,0.0,-0.54457885
39903367,0.061323535,-0.05027845,-0.0124624865,0.0,0.0,-0.5453733
39923265,0.06458423,-0.05611568,-0.017905703,0.0,0.0,-0.5451598
39938133,0.059321046,-0.05028972,-0.021308307,0.0,0.0,-0.5451598
39962911,0.02839886,-0.029594157,-0.030584529,0.0,0.0,-0.54597723
39982696,0.042679828,-0.00016553386,-0.037487887,0.0,0.0,-0.5469233
39997549,0.038488902,0.0069984435,-0.040120184,0.0,0.0,-0.5469233
40022441,0.03292073,-0.026947701,-0.04812883,0.0,0.0,-0.54703534
40042297,0.04438813,-0.010091717,-0.05436001,0.0,0.0,-0.54680264
40062182,0.027611487,-7.699675e-05,-0.060499366,0.0,0.0,-0.54758024
40081975,0.010786027,0.0045925165,-0.06647521,0.0,0.0,-0.5474857
40101834,-0.0030964473,0.028739747,-0.073185876,0.0,0.0,-0.53962106
40121740,-0.0086501315,0.025364367,-0.07896684,0.0,0.0,-0.54779553
40141768,0.013038271,0.005595861,-0.084196255,0.0,0.0,-0.5568781
40161756,0.02514277,0.0264903,-0.091150016,0.0,0.0,-0.5487295
40181607,0.026798066,0.027020225,-0.09813753,0.0,0.0,-0.5487295
40201251,0.016486323,0.05309562,-0.10573019,0.0,0.0,-0.54982144
40221109,-0.007956162,0.038172893,-0.112428464,0.0,0.0,-0.55026007
40240974,-0.008466239,0.031709924,-0.11902827,0.0,0.0,-0.5499017
40260849,-0.000401883,0.029327951,-0.12535632,0.0,0.0,-0.54954356
40280636,0.008184612,0.05018087,-0.13251095,0.0,0.0,-0.54941386
40300497,0.0046486463,0.05706791,-0.13920742,0.0,0.0,-0.5408488
40320320,-0.004756077,0.0688537,-0.14622463,0.0,0.0,-0.5489472
40345140,-0.008814584,0.055178504,-0.15357506,0.0,0.0,-0.55778664
40360209,-0.0121817095,0.04706918,-0.1582252,0.0,0.0,-0.54999685
40379986,-0.010317838,0.034944605,-0.16401052,0.0,0.0,-0.5498864
40404924,-0.0011494083,0.031462286,-0.17126858,0.0,0.0,-0.5582992
40419840,-0.0008845716,0.04025596,-0.17550954,0.0,0.0,-0.5506968
40439611,0.0007583827,0.057969898,-0.18163532,0.0,0.0,-0.54267824
40464500,-0.0052030035,0.052109662,-0.18930502,0.0,0.0,-0.55075425
40484362,-0.012731152,0.04985184,-0.19387268,0.0,0.0,-0.5514338
40499181,-0.019746505,0.056085914,-0.19740237,0.0,0.0,-0.5514589
40519020,-0.018791055,0.052854806,-0.20216334,0.0,0.0,-0.5514589
40543752,-0.0051845396,0.06995939,-0.20631933,0.0,0.0,-0.551393
40558665,0.0019415026,0.06403874,-0.21072552,0.0,0.0,-0.551393
40578566,0.02148002,0.051721543,-0.21374682,0.0,0.0,-0.5507284
40603450,0.021941805,0.05730817,-0.21756954,0.0,0.0,-0.5505266
40623300,0.013078248,0.05497281,-0.2213713,0.0,0.0,-0.55075145
40638263,0.0074462174,0.05735477,-0.22315428,0.0,0.0,-0.55075145
40663077,-0.010823121,0.07027048,-0.22765924,0.0,0.0,-0.5508075
40683077,-0.10988965,0.18803869,-0.2314267,0.0,0.0,-0.5501075
40697962,-0.11136121,0.1860823,-0.2325016,0.0,0.0,-0.5501075
40722579,-0.3328412,-0.011115883,-0.23190224,0.0,0.0,-0.5503817
40742454,-0.3248892,-0.15593787,-0.23218079,0.0,0.0,-0.5502081
40762419,-0.28757593,-0.27397346,-0.23244625,0.0,0.0,-0.54966253
40782229,-0.22650501,-0.37216094,-0.23309495,0.0,0.0,-0.55003786
40802050,-0.18710932,-0.42001718,-0.23525721,0.0,0.0,-0.5516569
40821953,-0.19379383,-0.48575696,-0.23809266,0.0,0.0,-0.5536822
40841745,-0.19648457,-0.54823864,-0.23972094,0.0,0.0,-0.55545145
40861607,-0.19690132,-0.5674833,-0.24066235,0.0,0.0,-0.55636674
40881535,-0.184041,-0.408443,-0.24200706,0.0,0.0,-0.5555131
40901372,-0.1496268,-0.23690604,-0.24212739,0.0,0.0,-0.5543198
40921255,-0.010340446,-0.14892858,-0.24169633,0.0,0.0,-0.55354756
40941209,0.13463585,-0.020048589,-0.24182539,0.0,0.0,-0.5526744
40961113,0.2708467,0.097539194,-0.24179563,0.0,0.0,-0.5516459
40980838,0.34995028,0.19840233,-0.24100459,0.0,0.0,-0.550941
41000662,0.33937296,0.20236188,-0.23776743,0.0,0.0,-0.55069625
41020542,0.29026288,0.29518577,-0.23559132,0.0,0.0,-0.54987615
41045433,0.18420807,0.37184012,-0.23117657,0.0,0.0,-0.5491868
41060387,0.11225488,0.42600963,-0.2295963,0.0,0.0,-0.548488
41080164,0.09347129,0.39037615,-0.2263064,0.0,0.0,-0.54775614
41099992,0.1106273,0.3414751,-0.22233163,0.0,0.0,-0.5474965
41119816,0.12120682,0.30109897,-0.2181705,0.0,0.0,-0.54641753
41139689,0.13993478,0.3806254,-0.21682379,0.0,0.0,-0.5463536
41159548,0.15009837,0.42191488,-0.21453547,0.0,0.0,-0.54538745
41184376,0.11865884,0.21412472,-0.2069937,0.0,0.0,-0.54584616
41199285,0.10059225,0.14982164,-0.20350501,0.0,0.0,-0.54604447
41219248,0.057998385,0.118612975,-0.19932853,0.0,0.0,-0.5470313
41243976,0.038603123,0.19954337,-0.194033,0.0,0.0,-0.5477936
41258872,0.03936867,0.2844795,-0.1948997,0.0,0.0,-0.54854256
41278788,0.028214937,0.1654736,-0.18800926,0.0,0.0,-0.54899013
41303681,0.024882304,0.052593157,-0.17880313,0.0,0.0,-0.5489525
41323559,0.028865185,0.01046562,-0.17356612,0.0,0.0,-0.5490521
41338467,0.039359234,-0.0056153936,-0.16916151,0.0,0.0,-0.5490334
41363225,0.043918647,-0.02974663,-0.1633743,0.0,0.0,-0.548847
41382996,0.0512787,-0.03569303,-0.15760165,0.0,0.0,-0.5484236
41398001,0.049593855,-0.13968235,-0.15128563,0.0,0.0,-0.548562
41422724,0.03808982,-0.250723,-0.14213735,0.0,0.0,-0.54888445
41442630,0.018634874,-0.35453698,-0.13455182,0.0,0.0,-0.5502227
41462435,0.0074764797,-0.44852212,-0.12760474,0.0,0.0,-0.5505493
41482313,0.009260001,-0.50871426,-0.12143509,0.0,0.0,-0.551794
41502324,-0.0035788368,-0.56731856,-0.11612972,0.0,0.0,-0.55242383
41522160,-0.0040626,-0.64240026,-0.1097249,0.0,0.0,-0.55383503
41541987,0.031770326,-0.6737121,-0.10257293,0.0,0.0,-0.55526936
41561794,0.009179924,-0.68535614,-0.09717484,0.0,0.0,-0.55659825
41581677,0.008272423,-0.7038882,-0.09074285,0.0,0.0,-0.55797637
41601534,-0.005367837,-0.5094659,-0.08791356,0.0,0.0,-0.5560784
41621431,0.023454342,-0.37896675,-0.083204634,0.0,0.0,-0.5548906
41641271,0.020950671,-0.2447845,-0.0799191,0.0,0.0,-0.5544869
41661073,0.028679196,-0.17816627,-0.07534974,0.0,0.0,-0.55311894
41680922,0.03998553,-0.08857508,-0.07109873,0.0,0.0,-0.5517663
41700784,0.053626657,0.014249295,-0.06766914,0.0,0.0,-0.54919326
41720612,0.043402508,0.15011543,-0.06518281,0.0,0.0,-0.54809844
41740517,0.04667496,0.25320223,-0.061951004,0.0,0.0,-0.546556
41760518,0.03853794,0.36061564,-0.058744185,0.0,0.0,-0.5451354
41780489,0.05177994,0.44078225,-0.055706102,0.0,0.0,-0.54492986
41800239,0.032663357,0.521824,-0.052103337,0.0,0.0,-0.5442374
41820010,0.026375994,0.5839811,-0.048459012,0.0,0.0,-0.54435784
41839976,0.04229206,0.63484013,-0.045906,0.0,0.0,-0.5436574
41859689,0.04928655,0.6744468,-0.042817537,0.0,0.0,-0.54343504
41884551,0.049417548,0.6584081,-0.038493812,0.0,0.0,-0.54326755
41899402,0.06237577,0.7144514,-0.036695406,0.0,0.0,-0.5435863
41919262,0.041928492,0.73932236,-0.033235498,0.0,0.0,-0.5447466
41944055,0.06575237,0.71333385,-0.030810528,0.0,0.0,-0.5452016
41958951,0.047485244,0.7429164,-0.028048553,0.0,0.0,-0.54666406
41978922,0.04588774,0.54292697,-0.022689749,0.0,0.0,-0.54640853
42003727,0.024463952,0.40041873,-0.017933587,0.0,0.0,-0.5454513
42023705,0.032200202,0.35549662,-0.016049067,0.0,0.0,-0.5472745
42038625,0.03149118,0.2617076,-0.012767735,0.0,0.0,-0.54570943
42063295,0.025897056,0.36948583,-0.014866614,0.0,0.0,-0.5504038
42083186,0.030046582,0.37414914,-0.014624841,0.0,0.0,-0.5501599
42098136,0.035694003,0.34418416,-0.0150651205,0.0,0.0,-0.5501599
42122829,0.044796478,0.38318363,-0.0145364525,0.0,0.0,-0.55080795
42142692,0.045423258,0.39307758,-0.015793359,0.0,0.0,-0.5519653
42162631,0.0607594,0.4162489,-0.016695205,0.0,0.0,-0.5518171
42182475,0.07078687,0.4677299,-0.01777042,0.0,0.0,-0.55309683
42202338,0.061569124,0.51296777,-0.019176444,0.0,0.0,-0.5551217
42222210,0.06458744,0.37203753,-0.016636282,0.0,0.0,-0.5532919
42242016,0.058448438,0.1823549,-0.012847676,0.0,0.0,-0.5524025
42261895,0.069104716,0.03474536,-0.010367391,0.0,0.0,-0.55099094
42281884,0.054649934,0.00012959693,-0.010554263,0.0,0.0,-0.5521519
42301758,0.03978652,-0.13575725,-0.009293459,0.0,0.0,-0.5499451
42321576,0.023030978,-0.23422664,-0.008062592,0.0,0.0,-0.54985327
42341423,0.04071857,-0.30317757,-0.0077233138,0.0,0.0,-0.5482598
42361361,0.04811439,-0.39595327,-0.007050404,0.0,0.0,-0.54865044
