timestamp,timestamp_sample,control[0],control[1],control[2],control[3],control[4],control[5],control[6],control[7]
948837546,948836672,-0.0664797,0.0816404,0.00727503,0.0351515,0.0,0.0,0.0,-1.0
948840031,948839172,-0.0511305,0.0409883,0.00416497,0.0351515,0.0,0.0,0.0,-1.0
948937647,948936787,-0.216439,0.183011,-0.00153423,0.108509,0.0,0.0,0.0,-1.0
949037778,949036911,0.0966166,0.0979108,-0.000595037,0.108509,0.0,0.0,0.0,-1.0
949137880,949137025,0.00607429,0.0111695,0.0094605,0.108509,0.0,0.0,0.0,-1.0
949240500,949239644,-0.0220631,-0.0493694,0.00342498,0.108509,0.0,0.0,0.0,-1.0
949338125,949337261,-0.382617,-0.36291,0.00753705,0.108509,0.0,0.0,0.0,-1.0
949438247,949437377,-0.348899,0.343364,0.0122046,0.108509,0.0,0.0,0.0,-1.0
949535849,949534992,-0.191033,0.10211,0.00416609,0.108509,0.0,0.0,0.0,-1.0
949638468,949637613,0.152752,-0.165097,0.00391598,0.108509,0.0,0.0,0.0,-1.0
949736103,949735237,0.333844,-0.470385,-0.00184297,0.108509,0.0,0.0,0.0,-1.0
949841220,949840355,-0.104868,0.0422876,-0.010234,0.108509,0.0,0.0,0.0,-1.0
949938821,949937967,-0.274122,0.104348,0.0154949,0.108509,0.0,0.0,0.0,-1.0
950036453,950035584,-0.252555,-0.0158511,0.0193843,0.107491,0.0,0.0,0.0,-1.0
950139058,950138203,0.109614,-0.394581,0.0166405,0.108509,0.0,0.0,0.0,-1.0
950236677,950235818,0.122052,-0.479338,0.00398697,0.108509,0.0,0.0,0.0,-1.0
950339308,950338439,-0.361545,0.00534523,0.0130702,0.131927,0.0,0.0,0.0,-1.0
950439412,950438557,0.154027,-0.265551,0.0110016,0.166545,0.0,0.0,0.0,-1.0
950537029,950536172,-0.290029,0.32914,0.000684196,0.215418,0.0,0.0,0.0,-1.0
950639645,950638792,-0.318866,0.172187,0.0121822,0.213382,0.0,0.0,0.0,-1.0
950737278,950736408,-0.149186,0.0560407,0.0140491,0.212364,0.0,0.0,0.0,-1.0
950839887,950839028,0.157456,0.0597479,-0.00739014,0.212364,0.0,0.0,0.0,-1.0
950937525,950936663,-0.0348204,0.14732,-0.00534552,0.210327,0.0,0.0,0.0,-1.0
951037618,951036761,-0.0133929,0.115344,-0.00113199,0.209309,0.0,0.0,0.0,-1.0
951137749,951136879,0.0550308,0.0299802,0.00715408,0.2144,0.0,0.0,0.0,-1.0
951237854,951236997,0.179028,0.106652,-0.00199344,0.237818,0.0,0.0,0.0,-1.0
951340475,951339619,0.00159517,-0.239495,0.0115626,0.2368,0.0,0.0,0.0,-1.0
951438107,951437233,0.0641989,-0.0231081,0.0069305,0.243927,0.0,0.0,0.0,-1.0
951538208,951537351,0.0340414,-0.0264607,-0.013312,0.260218,0.0,0.0,0.0,-1.0
951638336,951637469,0.00853349,0.0604675,-0.0350696,0.268364,0.0,0.0,0.0,-1.0
951738444,951737587,-0.0373354,0.00391977,-0.0204832,0.294836,0.0,0.0,0.0,-1.0
951836075,951835205,-0.0313633,0.049124,-0.00623898,0.301964,0.0,0.0,0.0,-1.0
951938679,951937823,0.0222466,0.0887268,-0.00953517,0.301964,0.0,0.0,0.0,-1.0
952038800,952037941,0.0382996,-0.0358575,-0.0020348,0.304,0.0,0.0,0.0,-1.0
952136414,952135556,0.041334,-0.0327409,-0.00908838,0.304,0.0,0.0,0.0,-1.0
952239033,952238177,0.00665597,0.028998,-0.00863472,0.323345,0.0,0.0,0.0,-1.0
952336646,952335792,-0.0840372,-0.0477427,0.00494038,0.341673,0.0,0.0,0.0,-1.0
952439283,952438412,-0.0140201,0.0479572,0.00252817,0.380364,0.0,0.0,0.0,-1.0
952536902,952536030,-0.158634,0.0433231,0.00270329,0.380364,0.0,0.0,0.0,-1.0
952637006,952636146,-0.110873,0.0128793,-0.00806154,0.383418,0.0,0.0,0.0,-1.0
952739634,952738766,-0.297922,0.078794,-0.0300849,0.3824,0.0,0.0,0.0,-1.0
952837236,952836381,-0.208448,0.00238122,-0.0478826,0.383418,0.0,0.0,0.0,-1.0
952939859,952939002,-0.266255,0.0690189,-0.0553516,0.381382,0.0,0.0,0.0,-1.0
953037479,953036623,-0.089593,0.101241,-0.0573319,0.381382,0.0,0.0,0.0,-1.0
953137597,953136737,0.0965795,0.0526513,-0.0534289,0.383418,0.0,0.0,0.0,-1.0
953237714,953236853,0.168317,-0.00873102,-0.073811,0.384436,0.0,0.0,0.0,-1.0
953337823,953336971,0.158569,0.120986,-0.049952,0.385455,0.0,0.0,0.0,-1.0
953440448,953439591,0.232473,0.00641747,-0.0224297,0.386473,0.0,0.0,0.0,-1.0
953538079,953537221,-0.114972,0.0414155,-0.011654,0.385455,0.0,0.0,0.0,-1.0
953638180,953637324,-0.0249099,0.00103068,-0.0189946,0.385455,0.0,0.0,0.0,-1.0
953738316,953737442,-0.0169699,-0.000309389,-0.0205983,0.386473,0.0,0.0,0.0,-1.0
953838416,953837560,-0.0724656,-0.0115483,-0.0213444,0.386473,0.0,0.0,0.0,-1.0
953941047,953940183,-0.192913,0.0915912,-0.0207699,0.387491,0.0,0.0,0.0,-1.0
954038649,954037796,-0.0524698,0.0498252,-0.0212526,0.384436,0.0,0.0,0.0,-1.0
954138775,954137914,0.0786927,0.0536797,-0.0168913,0.408873,0.0,0.0,0.0,-1.0
954236389,954235529,0.0803666,0.0471905,-0.0254253,0.411927,0.0,0.0,0.0,-1.0
954339006,954338153,-0.0221236,-0.0730435,-0.00723879,0.432291,0.0,0.0,0.0,-1.0
954436625,954435764,-0.0597646,0.0631389,-0.00816937,0.433309,0.0,0.0,0.0,-1.0
954539242,954538385,-0.0871581,-0.0470774,0.00765134,0.432291,0.0,0.0,0.0,-1.0
954639373,954638503,-0.206013,0.012613,-0.00606327,0.433309,0.0,0.0,0.0,-1.0
954736975,954736118,-0.0851452,0.0529764,-0.0293718,0.433309,0.0,0.0,0.0,-1.0
954839595,954838739,-0.376968,0.0368798,-0.0273644,0.433309,0.0,0.0,0.0,-1.0
954937215,954936356,0.328169,-0.0129,-0.022907,0.434327,0.0,0.0,0.0,-1.0
955039835,955038975,0.0340274,0.0250465,-0.0256013,0.435345,0.0,0.0,0.0,-1.0
955137447,955136590,0.355173,0.0715542,-0.0183502,0.433309,0.0,0.0,0.0,-1.0
955237567,955236708,0.442152,-0.00118048,-0.0189175,0.433309,0.0,0.0,0.0,-1.0
955337683,955336825,0.223192,-0.0411421,-0.0178819,0.433309,0.0,0.0,0.0,-1.0
955437801,955436944,0.0901536,-0.0395555,-0.00671316,0.433309,0.0,0.0,0.0,-1.0
955540420,955539564,0.297826,0.0028432,-0.0217201,0.434327,0.0,0.0,0.0,-1.0
955638038,955637179,-0.18648,0.0252931,-0.0120543,0.434327,0.0,0.0,0.0,-1.0
955738163,955737297,-0.359362,0.026249,-0.00641644,0.433309,0.0,0.0,0.0,-1.0
955838287,955837415,-0.445554,0.068391,-0.00935317,0.433309,0.0,0.0,0.0,-1.0
955938392,955937533,-0.255171,-0.0190475,-0.0124794,0.433309,0.0,0.0,0.0,-1.0
956041010,956040154,0.122104,-0.0280178,-0.00939851,0.432291,0.0,0.0,0.0,-1.0
956138625,956137769,0.012213,0.0860653,0.00460398,0.433309,0.0,0.0,0.0,-1.0
956238743,956237887,0.24262,0.0129197,-0.0196295,0.433309,0.0,0.0,0.0,-1.0
956336364,956335502,0.217046,0.0380625,-0.0297763,0.448582,0.0,0.0,0.0,-1.0
956438979,956438122,0.205812,0.100899,-0.0215256,0.448582,0.0,0.0,0.0,-1.0
956536600,956535738,-0.397696,0.0732177,0.00515833,0.443491,0.0,0.0,0.0,-1.0
956639231,956638359,-0.282141,0.0615442,0.0058823,0.442473,0.0,0.0,0.0,-1.0
956739344,956738476,-0.312513,0.13407,0.000185912,0.442473,0.0,0.0,0.0,-1.0
956836952,956836091,-0.07248,0.0778925,-0.00437914,0.443491,0.0,0.0,0.0,-1.0
956939569,956938712,-0.331093,0.103239,-0.0213917,0.441455,0.0,0.0,0.0,-1.0
957037197,957036333,0.177308,0.0654478,-0.0264934,0.440436,0.0,0.0,0.0,-1.0
957139805,957138948,0.212573,0.0241113,-0.0551187,0.440436,0.0,0.0,0.0,-1.0
957237422,957236563,0.456226,0.0917392,-0.0495957,0.441455,0.0,0.0,0.0,-1.0
957337541,957336681,0.461261,-0.0105057,-0.062612,0.440436,0.0,0.0,0.0,-1.0
957437658,957436804,0.365688,0.0507614,-0.0778511,0.441455,0.0,0.0,0.0,-1.0
957537777,957536917,0.132684,0.0579503,-0.0465908,0.440436,0.0,0.0,0.0,-1.0
957640408,957639538,0.195517,0.109352,-0.0555185,0.441455,0.0,0.0,0.0,-1.0
957738022,957737165,-0.284634,-0.0142004,-0.0375407,0.440436,0.0,0.0,0.0,-1.0
957838132,957837278,-0.286825,0.0846579,-0.0310724,0.440436,0.0,0.0,0.0,-1.0
957938259,957937388,-0.33959,0.0667383,-0.0316266,0.441455,0.0,0.0,0.0,-1.0
958038364,958037506,0.127049,0.0324514,-0.0508948,0.440436,0.0,0.0,0.0,-1.0
958140986,958140126,0.116425,0.00793362,-0.051934,0.442473,0.0,0.0,0.0,-1.0
958238596,958237742,0.174754,0.0751598,-0.0459989,0.454691,0.0,0.0,0.0,-1.0
958338727,958337863,0.162168,0.0855975,-0.0317063,0.466909,0.0,0.0,0.0,-1.0
958436344,958435474,-0.29666,0.0607147,-0.021574,0.466909,0.0,0.0,0.0,-1.0
958538949,958538095,-0.286057,-0.00593361,-0.0134221,0.467927,0.0,0.0,0.0,-1.0
958636572,958635713,-0.447015,-0.0168522,-0.0188573,0.467927,0.0,0.0,0.0,-1.0
958739186,958738331,-0.311163,-0.0242004,-0.0178625,0.467927,0.0,0.0,0.0,-1.0
958839326,958838451,-0.318801,0.0381115,-0.0105231,0.467927,0.0,0.0,0.0,-1.0
958936920,958936063,0.491773,-0.0210744,-0.0363682,0.467927,0.0,0.0,0.0,-1.0
959037038,959036181,0.406451,0.109626,-0.0342917,0.462836,0.0,0.0,0.0,-1.0
959137168,959136307,0.594833,0.0345464,-0.0264984,0.463855,0.0,0.0,0.0,-1.0
959239773,959238919,0.575755,0.00569057,-0.024718,0.463855,0.0,0.0,0.0,-1.0
959337397,959336534,0.359116,0.09577,-0.0344584,0.454691,0.0,0.0,0.0,-1.0
959437513,959436652,-0.0447736,0.123674,-0.022418,0.453673,0.0,0.0,0.0,-1.0
959537627,959536770,0.0787394,0.0535839,-0.0236062,0.455709,0.0,0.0,0.0,-1.0
959637745,959636888,-0.145374,-0.0801855,-0.033967,0.451636,0.0,0.0,0.0,-1.0
959740379,959739509,0.176347,0.0233249,-0.0456876,0.453673,0.0,0.0,0.0,-1.0
959837993,959837123,-0.318294,0.00993001,-0.0320277,0.454691,0.0,0.0,0.0,-1.0
959938107,959937241,-0.21572,-0.0292722,-0.0319514,0.453673,0.0,0.0,0.0,-1.0
960038234,960037359,0.0803885,0.0419436,-0.0435715,0.454691,0.0,0.0,0.0,-1.0
960138352,960137484,0.333918,0.0527126,-0.0331554,0.453673,0.0,0.0,0.0,-1.0
960240955,960240100,0.394216,0.0739345,-0.0280825,0.454691,0.0,0.0,0.0,-1.0
960338568,960337712,0.427583,0.00874585,-0.0173931,0.453673,0.0,0.0,0.0,-1.0
960438686,960437829,-0.0687296,0.00546067,0.0122244,0.453673,0.0,0.0,0.0,-1.0
960538821,960537947,-0.550642,0.101232,-0.00437094,0.451636,0.0,0.0,0.0,-1.0
960638927,960638065,-0.566969,0.0346213,-0.0171066,0.454691,0.0,0.0,0.0,-1.0
960736533,960735680,0.0126369,-0.0205985,-0.0139633,0.454691,0.0,0.0,0.0,-1.0
960839167,960838307,0.0128041,-0.0498648,-0.0190656,0.454691,0.0,0.0,0.0,-1.0
960939286,960938418,0.509248,-0.0654596,-0.0267554,0.454691,0.0,0.0,0.0,-1.0
961036891,961036033,0.408765,-0.0316007,-0.0307599,0.454691,0.0,0.0,0.0,-1.0
961139510,961138653,0.514453,0.0573788,-0.0454213,0.456727,0.0,0.0,0.0,-1.0
961237140,961236269,-0.273055,0.100668,-0.0336136,0.454691,0.0,0.0,0.0,-1.0
961339751,961338888,0.193611,0.11513,-0.0472604,0.452655,0.0,0.0,0.0,-1.0
961437361,961436503,-0.318536,0.0182984,-0.0362251,0.453673,0.0,0.0,0.0,-1.0
961537482,961536628,-0.493884,0.051698,-0.0589087,0.454691,0.0,0.0,0.0,-1.0
961640108,961639241,-0.516414,0.154724,-0.0511845,0.454691,0.0,0.0,0.0,-1.0
961737713,961736856,-0.260236,-0.00106445,-0.0419464,0.454691,0.0,0.0,0.0,-1.0
961840339,961839477,-0.171506,-0.0234065,-0.0491337,0.454691,0.0,0.0,0.0,-1.0
961937953,961937091,0.35933,-0.0102987,-0.048436,0.454691,0.0,0.0,0.0,-1.0
962038067,962037209,0.47944,-0.0186074,-0.0320414,0.451636,0.0,0.0,0.0,-1.0
962138181,962137328,0.208065,0.105956,-0.0398469,0.451636,0.0,0.0,0.0,-1.0
962238305,962237444,0.101528,-0.0544562,-0.0282935,0.458764,0.0,0.0,0.0,-1.0
962340921,962340065,0.132668,0.153422,-0.0378539,0.458764,0.0,0.0,0.0,-1.0
962438546,962437682,-0.372064,0.0924497,-0.00771174,0.458764,0.0,0.0,0.0,-1.0
962538658,962537797,-0.141213,-0.0529853,0.0139073,0.458764,0.0,0.0,0.0,-1.0
962638777,962637914,-0.189806,-0.014744,-0.0055763,0.458764,0.0,0.0,0.0,-1.0
962738885,962738032,-0.104087,0.0715375,-0.0162417,0.459782,0.0,0.0,0.0,-1.0
962836504,962835647,0.234344,-0.00955648,-0.0114088,0.4608,0.0,0.0,0.0,-1.0
962939129,962938276,0.399036,-0.00231859,-0.0264425,0.461818,0.0,0.0,0.0,-1.0
963039240,963038385,0.524756,0.060091,-0.0453541,0.461818,0.0,0.0,0.0,-1.0
963136857,963136000,0.267238,0.0794526,-0.0352211,0.461818,0.0,0.0,0.0,-1.0
963239473,963238620,0.400511,0.00162032,-0.0353142,0.461818,0.0,0.0,0.0,-1.0
963337105,963336245,-0.201797,0.0868015,-0.0349983,0.461818,0.0,0.0,0.0,-1.0
963439708,963438855,0.125063,0.0161059,-0.038797,0.4608,0.0,0.0,0.0,-1.0
963537340,963536470,-0.329918,0.087176,-0.0413047,0.456727,0.0,0.0,0.0,-1.0
963637456,963636591,-0.513431,0.00456606,-0.0310357,0.458764,0.0,0.0,0.0,-1.0
963737565,963736705,-0.299583,-0.07131,-0.0333815,0.458764,0.0,0.0,0.0,-1.0
963837680,963836823,-0.263975,0.016187,-0.0351605,0.458764,0.0,0.0,0.0,-1.0
963940304,963939443,-0.144037,0.0547717,-0.0450501,0.457745,0.0,0.0,0.0,-1.0
964037919,964037058,0.300555,-0.0237394,-0.043845,0.458764,0.0,0.0,0.0,-1.0
964138036,964137176,0.26461,0.038494,-0.0469322,0.458764,0.0,0.0,0.0,-1.0
964238150,964237293,0.21517,-0.012198,-0.0349507,0.458764,0.0,0.0,0.0,-1.0
964338281,964337410,-0.0866094,0.0243848,-0.0201071,0.458764,0.0,0.0,0.0,-1.0
964440884,964440031,0.0188129,-0.0213111,-0.030559,0.458764,0.0,0.0,0.0,-1.0
964538503,964537646,-0.616446,-0.0909703,-0.0300866,0.458764,0.0,0.0,0.0,-1.0
964638623,964637766,-0.240049,0.0715093,-0.0377133,0.467927,0.0,0.0,0.0,-1.0
964738755,964737881,0.374724,0.0428094,-0.0462376,0.486255,0.0,0.0,0.0,-1.0
964838857,964838000,0.610851,-0.0132081,-0.0337426,0.4832,0.0,0.0,0.0,-1.0
964936479,964935613,-0.132786,0.102762,-0.0201513,0.4832,0.0,0.0,0.0,-1.0
965039107,965038240,0.0151865,0.116876,-0.028385,0.4832,0.0,0.0,0.0,-1.0
965139217,965138353,-0.553147,0.0527648,0.00346591,0.482182,0.0,0.0,0.0,-1.0
965239338,965238468,-0.651068,0.030612,-0.00255673,0.4832,0.0,0.0,0.0,-1.0
965339461,965338586,-0.40005,0.0268963,0.00103652,0.4832,0.0,0.0,0.0,-1.0
965437072,965436200,0.20776,0.115753,-0.0253213,0.4832,0.0,0.0,0.0,-1.0
965539681,965538821,0.0818453,-0.0250461,-0.0296831,0.482182,0.0,0.0,0.0,-1.0
965637309,965636437,0.385449,-0.0483272,-0.0250464,0.4832,0.0,0.0,0.0,-1.0
965737409,965736553,0.510255,0.0431564,-0.0204837,0.482182,0.0,0.0,0.0,-1.0
965837527,965836670,0.346767,0.09812,-0.0185892,0.4832,0.0,0.0,0.0,-1.0
965937647,965936791,0.125693,0.109954,-0.0302672,0.4832,0.0,0.0,0.0,-1.0
966040289,966039415,0.235665,-0.0416675,-0.0186634,0.4832,0.0,0.0,0.0,-1.0
966137888,966137023,-0.123379,-0.0181761,-0.0159032,0.481164,0.0,0.0,0.0,-1.0
966238001,966237142,-0.493964,0.0560461,-0.00849826,0.481164,0.0,0.0,0.0,-1.0
966338118,966337260,-0.41401,-0.0396696,-0.0242363,0.481164,0.0,0.0,0.0,-1.0
966438248,966437377,-0.0851416,0.0254268,-0.0271392,0.481164,0.0,0.0,0.0,-1.0
966540867,966539995,0.10217,0.0251295,-0.0237313,0.477091,0.0,0.0,0.0,-1.0
966638462,966637610,0.545218,-0.0392479,-0.0551947,0.484218,0.0,0.0,0.0,-1.0
966738579,966737727,0.359807,-0.00938398,-0.0464212,0.485236,0.0,0.0,0.0,-1.0
966838707,966837846,-0.0981924,0.0327916,-0.0450425,0.4832,0.0,0.0,0.0,-1.0
966938814,966937962,-0.575863,-0.0338746,-0.0399258,0.4832,0.0,0.0,0.0,-1.0
967036456,967035576,-0.0667969,0.0362262,-0.0587199,0.481164,0.0,0.0,0.0,-1.0
967139065,967138197,-0.407234,0.0104935,-0.0513972,0.481164,0.0,0.0,0.0,-1.0
967239181,967238325,0.0183789,0.0405136,-0.042104,0.482182,0.0,0.0,0.0,-1.0
967339321,967338439,0.127996,0.0840586,-0.0441169,0.482182,0.0,0.0,0.0,-1.0
967439403,967438550,0.269376,-0.0120139,-0.028073,0.482182,0.0,0.0,0.0,-1.0
967537022,967536163,0.123461,0.086247,-0.0193179,0.4832,0.0,0.0,0.0,-1.0
967639636,967638784,0.466148,0.0714798,-0.0441818,0.4832,0.0,0.0,0.0,-1.0
967737280,967736408,-0.19895,0.0911129,-0.0201212,0.4832,0.0,0.0,0.0,-1.0
967837377,967836516,-0.389377,-0.00579248,-0.0102057,0.482182,0.0,0.0,0.0,-1.0
967937501,967936636,-0.32236,-0.037997,-0.00321444,0.481164,0.0,0.0,0.0,-1.0
968037612,968036750,-0.608475,0.095364,-0.0259566,0.481164,0.0,0.0,0.0,-1.0
968140229,968139371,-0.355419,0.0207556,-0.000405899,0.4832,0.0,0.0,0.0,-1.0
968237841,968236985,-0.0448127,-0.113867,-0.0271095,0.4832,0.0,0.0,0.0,-1.0
968337959,968337102,0.226645,0.0252638,-0.0204381,0.481164,0.0,0.0,0.0,-1.0
968438081,968437222,0.410477,0.0216876,-0.0242935,0.482182,0.0,0.0,0.0,-1.0
968538204,968537337,0.374906,-0.00650527,-0.0287183,0.4832,0.0,0.0,0.0,-1.0
968640820,968639957,0.25825,0.0766571,-0.0455938,0.4832,0.0,0.0,0.0,-1.0
968738431,968737572,0.0163939,-0.035229,-0.0372724,0.4832,0.0,0.0,0.0,-1.0
968838546,968837689,-0.408904,0.0805372,-0.0365057,0.4832,0.0,0.0,0.0,-1.0
968938664,968937807,-0.658332,0.146279,-0.0534613,0.4832,0.0,0.0,0.0,-1.0
969038780,969037924,-0.3683,-0.0108738,-0.0477662,0.484218,0.0,0.0,0.0,-1.0
969136394,969135538,0.175592,0.0243384,-0.0417393,0.484218,0.0,0.0,0.0,-1.0
969239021,969238158,0.495159,-0.0764584,-0.0526905,0.484218,0.0,0.0,0.0,-1.0
969339149,969338286,0.595301,-0.0253094,-0.0503998,0.485236,0.0,0.0,0.0,-1.0
969439268,969438393,0.51208,0.00683297,-0.0506754,0.475055,0.0,0.0,0.0,-1.0
969539373,969538517,0.0596446,0.107686,-0.0365064,0.484218,0.0,0.0,0.0,-1.0
969636979,969636125,-0.283588,-0.042954,-0.0402519,0.4832,0.0,0.0,0.0,-1.0
969739602,969738745,0.00682208,0.0154789,-0.0422133,0.4832,0.0,0.0,0.0,-1.0
969837218,969836362,-0.459074,0.0497278,-0.0189563,0.476073,0.0,0.0,0.0,-1.0
969939843,969938980,-0.529248,0.0313026,-0.0283568,0.481164,0.0,0.0,0.0,-1.0
970039954,970039097,-0.568039,-0.110072,-0.025966,0.481164,0.0,0.0,0.0,-1.0
970137566,970136712,0.089807,0.0108019,-0.0436536,0.481164,0.0,0.0,0.0,-1.0
970240189,970239332,0.146443,0.0615625,-0.0421062,0.481164,0.0,0.0,0.0,-1.0
970337814,970336958,0.213387,-0.0548976,-0.0360793,0.480145,0.0,0.0,0.0,-1.0
970437918,970437064,-0.019445,0.035385,-0.0210468,0.480145,0.0,0.0,0.0,-1.0
970538035,970537181,-0.329396,0.0947729,-0.0265528,0.480145,0.0,0.0,0.0,-1.0
970638155,970637301,-0.406602,0.0318836,-0.0244636,0.480145,0.0,0.0,0.0,-1.0
970740776,970739919,-0.43439,0.0109251,-0.0177779,0.481164,0.0,0.0,0.0,-1.0
970838390,970837533,0.212113,-0.012645,-0.0429143,0.481164,0.0,0.0,0.0,-1.0
970938521,970937664,0.341042,0.0973063,-0.0389512,0.481164,0.0,0.0,0.0,-1.0
971038623,971037768,0.445195,0.0698079,-0.0421554,0.481164,0.0,0.0,0.0,-1.0
971138742,971137885,0.0952323,-0.0471928,-0.0313998,0.484218,0.0,0.0,0.0,-1.0
971236369,971235500,-0.366656,-0.100262,-0.0219591,0.485236,0.0,0.0,0.0,-1.0
971338974,971338120,-0.438851,0.127015,-0.0332287,0.485236,0.0,0.0,0.0,-1.0
971439105,971438237,-0.468033,0.023364,-0.0258804,0.485236,0.0,0.0,0.0,-1.0
971539207,971538355,-0.183238,-0.0695634,-0.0317193,0.487273,0.0,0.0,0.0,-1.0
971639343,971638479,-0.172364,0.0355337,-0.03571,0.487273,0.0,0.0,0.0,-1.0
971736946,971736087,0.306437,0.0643188,-0.0332097,0.487273,0.0,0.0,0.0,-1.0
971839560,971838707,0.242929,0.0167733,-0.0464372,0.487273,0.0,0.0,0.0,-1.0
971937180,971936324,0.483285,-0.0596824,-0.0559595,0.475055,0.0,0.0,0.0,-1.0
972039808,972038941,0.319662,0.0373138,-0.0496811,0.474036,0.0,0.0,0.0,-1.0
972137412,972136556,0.12422,0.037671,-0.0435353,0.475055,0.0,0.0,0.0,-1.0
972237533,972236673,-0.245886,0.0650566,-0.0270421,0.475055,0.0,0.0,0.0,-1.0
972340152,972339295,-0.0181838,-0.0534001,-0.0261782,0.475055,0.0,0.0,0.0,-1.0
972437764,972436908,-0.589527,0.0402605,-0.0246899,0.475055,0.0,0.0,0.0,-1.0
972537884,972537025,-0.405828,0.107626,-0.0271271,0.475055,0.0,0.0,0.0,-1.0
972637999,972637142,0.00671707,0.00930078,-0.00311814,0.475055,0.0,0.0,0.0,-1.0
972738129,972737260,0.333745,0.00947227,-0.0157727,0.476073,0.0,0.0,0.0,-1.0
972840739,972839880,0.221967,-0.106972,-0.00732725,0.474036,0.0,0.0,0.0,-1.0
972938368,972937494,0.298969,0.0114171,-0.00973269,0.474036,0.0,0.0,0.0,-1.0
973038468,973037612,0.0631734,-0.00075366,-0.0109419,0.476073,0.0,0.0,0.0,-1.0
973138587,973137729,-0.268741,0.0805554,-0.0163225,0.476073,0.0,0.0,0.0,-1.0
973238715,973237847,-0.427806,0.0558037,-0.0322521,0.476073,0.0,0.0,0.0,-1.0
973336341,973335477,-0.150768,0.129517,-0.0490934,0.477091,0.0,0.0,0.0,-1.0
973438938,973438081,-0.254327,0.053843,-0.0419423,0.481164,0.0,0.0,0.0,-1.0
973539085,973538226,-0.0657788,0.00353945,-0.0531026,0.484218,0.0,0.0,0.0,-1.0
973639189,973638325,0.158613,0.0870192,-0.0562858,0.485236,0.0,0.0,0.0,-1.0
973739304,973738433,0.429216,0.00569574,-0.0431628,0.490327,0.0,0.0,0.0,-1.0
973836901,973836048,0.23201,0.0424609,-0.0284008,0.488291,0.0,0.0,0.0,-1.0
973939536,973938668,0.214971,0.0459094,-0.020315,0.486255,0.0,0.0,0.0,-1.0
974037144,974036284,-0.103506,-0.0140939,-0.0159529,0.487273,0.0,0.0,0.0,-1.0
974139776,974138906,-0.0344874,0.0999127,-0.0158124,0.486255,0.0,0.0,0.0,-1.0
974239879,974239020,-0.0326876,-0.0267219,-0.0133109,0.487273,0.0,0.0,0.0,-1.0
974337496,974336634,-0.415103,0.0265216,-0.0242115,0.486255,0.0,0.0,0.0,-1.0
974440116,974439255,-0.271672,0.110568,-0.0104714,0.486255,0.0,0.0,0.0,-1.0
974537728,974536871,-0.204296,0.186751,-0.0254611,0.487273,0.0,0.0,0.0,-1.0
974637853,974636989,0.176225,0.0355213,-0.0163105,0.487273,0.0,0.0,0.0,-1.0
974737966,974737104,0.375217,0.0527805,-0.0121038,0.487273,0.0,0.0,0.0,-1.0
974838078,974837223,0.506682,-0.0119311,-0.00837518,0.485236,0.0,0.0,0.0,-1.0
974940708,974939841,0.192393,0.0385622,-0.00909661,0.487273,0.0,0.0,0.0,-1.0
975038346,975037468,-0.0542145,0.0149255,-0.00467611,0.486255,0.0,0.0,0.0,-1.0
975138427,975137573,-0.25547,0.0938252,0.000244772,0.485236,0.0,0.0,0.0,-1.0
975238546,975237690,-0.370984,0.00963147,0.00101449,0.487273,0.0,0.0,0.0,-1.0
975338668,975337810,-0.507472,0.0434427,0.0109889,0.487273,0.0,0.0,0.0,-1.0
975436296,975435422,-0.00807858,0.0285583,-0.00211299,0.487273,0.0,0.0,0.0,-1.0
975538905,975538042,-0.11889,0.118653,0.0129645,0.486255,0.0,0.0,0.0,-1.0
975639016,975638160,0.190456,0.121311,0.0227906,0.486255,0.0,0.0,0.0,-1.0
975739134,975738281,0.377925,-0.0309194,0.00835088,0.486255,0.0,0.0,0.0,-1.0
975839261,975838394,0.30646,0.102017,-0.00734082,0.486255,0.0,0.0,0.0,-1.0
975936875,975936012,0.156735,0.154022,-0.0159286,0.486255,0.0,0.0,0.0,-1.0
976039481,976038629,0.330269,-0.0912362,-0.0150262,0.486255,0.0,0.0,0.0,-1.0
976137114,976136253,-0.0622464,0.0493818,-0.0103356,0.486255,0.0,0.0,0.0,-1.0
976239730,976238863,0.201288,0.0523345,-0.0425151,0.486255,0.0,0.0,0.0,-1.0
976339834,976338981,-0.106574,0.0580935,-0.0296448,0.486255,0.0,0.0,0.0,-1.0
976437452,976436595,-0.404472,0.0227817,-0.0244589,0.486255,0.0,0.0,0.0,-1.0
976540072,976539219,-0.536176,0.0682522,-0.0208966,0.486255,0.0,0.0,0.0,-1.0
976637689,976636830,0.0669488,0.118937,-0.0330346,0.486255,0.0,0.0,0.0,-1.0
976740356,976739461,-0.0542725,0.00996002,-0.0249548,0.486255,0.0,0.0,0.0,-1.0
976837921,976837064,0.350034,-0.0655546,-0.0382209,0.486255,0.0,0.0,0.0,-1.0
976938038,976937181,0.375414,-0.0397547,-0.030987,0.486255,0.0,0.0,0.0,-1.0
977040654,977039802,0.256308,-0.0353322,-0.0160355,0.486255,0.0,0.0,0.0,-1.0
977138288,977137416,-0.560324,0.136262,-0.0251354,0.487273,0.0,0.0,0.0,-1.0
977238400,977237540,-0.47177,-4.85003e-05,-0.0187171,0.487273,0.0,0.0,0.0,-1.0
977338507,977337650,-0.370019,0.00989063,-0.0391017,0.484218,0.0,0.0,0.0,-1.0
977438624,977437768,0.0513954,-0.0663442,-0.0321496,0.486255,0.0,0.0,0.0,-1.0
977536255,977535382,0.422836,-0.00510877,-0.0467629,0.486255,0.0,0.0,0.0,-1.0
977638862,977638002,0.388026,-0.0635165,-0.0388479,0.486255,0.0,0.0,0.0,-1.0
977738988,977738119,0.355766,-0.0392346,-0.036028,0.486255,0.0,0.0,0.0,-1.0
977839103,977838237,0.0372505,0.0926739,-0.0327299,0.486255,0.0,0.0,0.0,-1.0
977939216,977938354,0.1054,-0.0156772,-0.0574631,0.488291,0.0,0.0,0.0,-1.0
978036826,978035969,-0.393082,0.0734315,-0.0750925,0.488291,0.0,0.0,0.0,-1.0
978139451,978138594,-0.39566,0.0246326,-0.0885784,0.488291,0.0,0.0,0.0,-1.0
978237072,978236203,-0.27874,-0.012957,-0.0879845,0.489309,0.0,0.0,0.0,-1.0
978339679,978338823,-0.408845,-0.0557025,-0.0116933,0.485236,0.0,0.0,0.0,-1.0
978439797,978438940,-0.191979,-0.0929169,-0.00648282,0.490327,0.0,0.0,0.0,-1.0
978537421,978536554,0.340949,-0.0957472,-0.0158774,0.488291,0.0,0.0,0.0,-1.0
978640050,978639174,0.331613,0.0148282,-0.00783956,0.488291,0.0,0.0,0.0,-1.0
978737642,978736788,0.286446,0.0166949,-0.0138123,0.490327,0.0,0.0,0.0,-1.0
978840285,978839409,0.340527,0.00988301,-0.0150782,0.490327,0.0,0.0,0.0,-1.0
978937878,978937023,-0.36488,0.00108406,-0.00498555,0.488291,0.0,0.0,0.0,-1.0
979037995,979037140,-0.623578,0.0312281,-0.0300448,0.489309,0.0,0.0,0.0,-1.0
979140628,979139760,-0.513089,0.15145,-0.0184899,0.489309,0.0,0.0,0.0,-1.0
979238242,979237382,0.0628372,0.0264285,-0.0393967,0.489309,0.0,0.0,0.0,-1.0
979338355,979337494,0.29298,0.0318427,-0.0312187,0.489309,0.0,0.0,0.0,-1.0
979438463,979437609,0.503953,-0.0808863,-0.0357113,0.489309,0.0,0.0,0.0,-1.0
979538580,979537726,0.318089,0.0116377,-0.0229284,0.489309,0.0,0.0,0.0,-1.0
979636215,979635341,-0.362946,0.185787,-0.018772,0.488291,0.0,0.0,0.0,-1.0
979738817,979737961,-0.0746438,0.00522145,-0.0231447,0.491345,0.0,0.0,0.0,-1.0
979836432,979835575,-0.492708,-0.0148091,0.00215689,0.489309,0.0,0.0,0.0,-1.0
979939056,979938195,-0.697073,0.1179,0.00203875,0.488291,0.0,0.0,0.0,-1.0
980036667,980035809,-0.458605,0.0654213,-0.0151122,0.489309,0.0,0.0,0.0,-1.0
980136786,980135926,-0.0416788,-0.0603026,-0.0126632,0.489309,0.0,0.0,0.0,-1.0
980239400,980238547,-0.212508,0.0424467,-0.0136373,0.489309,0.0,0.0,0.0,-1.0
980337031,980336162,0.262678,0.1373,-0.0241666,0.489309,0.0,0.0,0.0,-1.0
980439642,980438781,0.182249,-0.000683034,-0.0201259,0.489309,0.0,0.0,0.0,-1.0
980539751,980538898,0.413215,0.0232018,-0.0364928,0.478109,0.0,0.0,0.0,-1.0
980637370,980636513,-0.0353463,0.0974847,-0.0287637,0.489309,0.0,0.0,0.0,-1.0
980739985,980739132,0.129633,-0.0690947,-0.039495,0.489309,0.0,0.0,0.0,-1.0
980837624,980836747,-0.452565,0.0440774,-0.0351069,0.489309,0.0,0.0,0.0,-1.0
980940236,980939367,-0.21581,0.117307,-0.0284536,0.490327,0.0,0.0,0.0,-1.0
981037838,981036981,-0.180848,0.00949665,-0.0350939,0.489309,0.0,0.0,0.0,-1.0
981137955,981137098,-0.102102,-0.0379043,-0.0277899,0.489309,0.0,0.0,0.0,-1.0
981240571,981239718,0.0302887,-0.0185033,-0.0443512,0.489309,0.0,0.0,0.0,-1.0
981338189,981337333,0.493732,0.03775,-0.0464944,0.489309,0.0,0.0,0.0,-1.0
981440826,981439953,0.583089,0.0319018,-0.052931,0.488291,0.0,0.0,0.0,-1.0
981538433,981537567,0.14217,-0.040827,-0.0310002,0.498473,0.0,0.0,0.0,-1.0
981638546,981637684,-0.390567,0.08046,-0.0209668,0.52,0.0,0.0,0.0,-1.0
981736153,981735299,-0.408483,0.0149127,-0.0434831,0.509091,0.0,0.0,0.0,-1.0
981838775,981837918,-0.527258,0.113761,-0.0364211,0.509091,0.0,0.0,0.0,-1.0
981938892,981938035,-0.388467,0.00302214,-0.0278209,0.509091,0.0,0.0,0.0,-1.0
982039012,982038152,-0.224343,0.026751,-0.0521304,0.509091,0.0,0.0,0.0,-1.0
982139140,982138276,0.175962,0.0685099,-0.0326692,0.509091,0.0,0.0,0.0,-1.0
982236738,982235884,0.323205,0.079448,-0.0230622,0.509091,0.0,0.0,0.0,-1.0
982339365,982338504,0.325905,0.041156,-0.0356605,0.509091,0.0,0.0,0.0,-1.0
982436972,982436118,0.17468,0.12504,-0.0223663,0.509091,0.0,0.0,0.0,-1.0
982539595,982538738,0.0450675,0.0819103,-0.0149414,0.510303,0.0,0.0,0.0,-1.0
982639715,982638855,0.252893,-0.0409195,-0.0210189,0.510303,0.0,0.0,0.0,-1.0
982737338,982736470,-0.093903,0.0975389,-0.0194183,0.510303,0.0,0.0,0.0,-1.0
982839949,982839090,-0.120337,-0.0100052,0.0020875,0.507879,0.0,0.0,0.0,-1.0
982937558,982936704,-0.226307,0.00294567,-0.0138926,0.509091,0.0,0.0,0.0,-1.0
983040181,983039324,-0.40117,0.0783267,-0.0216928,0.506667,0.0,0.0,0.0,-1.0
983137792,983136938,0.0786437,0.0334683,-0.0214328,0.507879,0.0,0.0,0.0,-1.0
983237926,983237069,0.357286,-0.0552707,-0.0383727,0.506667,0.0,0.0,0.0,-1.0
983340551,983339675,0.288914,-0.0140889,-0.0401779,0.506667,0.0,0.0,0.0,-1.0
983438144,983437291,-0.103475,0.0381398,-0.0333467,0.506667,0.0,0.0,0.0,-1.0
983540783,983539910,0.096465,0.0259796,-0.0353843,0.506667,0.0,0.0,0.0,-1.0
983638392,983637524,-0.565185,0.00219969,-0.0248472,0.505455,0.0,0.0,0.0,-1.0
983738513,983737641,-0.192594,0.0496937,-0.0347669,0.505455,0.0,0.0,0.0,-1.0
983836116,983835255,0.42797,0.0125947,-0.03819,0.507879,0.0,0.0,0.0,-1.0
983938727,983937875,0.377541,-0.0130609,-0.0336861,0.507879,0.0,0.0,0.0,-1.0
984038845,984037992,0.281915,0.0201413,-0.0197838,0.509091,0.0,0.0,0.0,-1.0
984138976,984138112,0.516941,0.0595805,-0.0321497,0.489309,0.0,0.0,0.0,-1.0
984239079,984238227,0.274851,0.0728815,-0.0157779,0.485236,0.0,0.0,0.0,-1.0
984336707,984335848,-0.462171,0.0606579,-0.00789364,0.485236,0.0,0.0,0.0,-1.0
984439319,984438460,-0.133038,0.0716811,-0.026774,0.485236,0.0,0.0,0.0,-1.0
984536943,984536075,-0.377633,-0.0334008,-0.0305927,0.484218,0.0,0.0,0.0,-1.0
984639557,984638695,-0.44244,-0.00451909,-0.0246307,0.4832,0.0,0.0,0.0,-1.0
984739668,984738812,-0.345006,0.0530694,-0.0369661,0.4832,0.0,0.0,0.0,-1.0
984837305,984836426,0.320789,-0.0173539,-0.0447019,0.482182,0.0,0.0,0.0,-1.0
984939913,984939054,0.342022,0.00854568,-0.0378536,0.4832,0.0,0.0,0.0,-1.0
985037517,985036660,0.298872,0.0454372,-0.0488485,0.4832,0.0,0.0,0.0,-1.0
985140139,985139282,0.143966,0.0143344,-0.0469132,0.4832,0.0,0.0,0.0,-1.0
985237769,985236907,-0.499608,-0.0126583,-0.0379679,0.4832,0.0,0.0,0.0,-1.0
985337868,985337011,-0.393072,0.0616125,-0.0317157,0.4832,0.0,0.0,0.0,-1.0
985440485,985439631,-0.414671,0.00720495,-0.0282894,0.482182,0.0,0.0,0.0,-1.0
985538118,985537248,0.128655,0.076857,-0.0380754,0.484218,0.0,0.0,0.0,-1.0
985640732,985639866,0.0164741,-0.0331996,-0.0437977,0.484218,0.0,0.0,0.0,-1.0
985738348,985737480,0.539742,-0.0144692,-0.0385822,0.4832,0.0,0.0,0.0,-1.0
985838467,985837597,0.183064,0.0550003,-0.0234094,0.484218,0.0,0.0,0.0,-1.0
985936078,985935220,-0.641324,0.0742113,-0.0117595,0.4832,0.0,0.0,0.0,-1.0
986038688,986037831,-0.243032,0.0886423,-0.0529585,0.4832,0.0,0.0,0.0,-1.0
986141345,986140451,-0.196426,-0.0342317,-0.029849,0.4832,0.0,0.0,0.0,-1.0
986238922,986238065,-0.450681,0.00366671,-0.0409676,0.4832,0.0,0.0,0.0,-1.0
986339039,986338182,-0.261572,0.0754907,-0.0408222,0.476073,0.0,0.0,0.0,-1.0
986436673,986435802,0.50803,-0.0593197,-0.0278791,0.476073,0.0,0.0,0.0,-1.0
986539291,986538417,0.131384,-0.0121806,-0.0325079,0.474036,0.0,0.0,0.0,-1.0
986636885,986636031,0.320916,0.118804,-0.026571,0.474036,0.0,0.0,0.0,-1.0
986739512,986738651,0.475026,-0.00290559,-0.0469545,0.476073,0.0,0.0,0.0,-1.0
986839625,986838768,0.375348,0.0689847,-0.0361548,0.476073,0.0,0.0,0.0,-1.0
986937242,986936382,-0.161447,0.0341759,-0.0317748,0.476073,0.0,0.0,0.0,-1.0
987039859,987039002,-0.11155,0.0146019,-0.0100572,0.476073,0.0,0.0,0.0,-1.0
987137469,987136616,-0.426837,0.0124878,-0.0170434,0.474036,0.0,0.0,0.0,-1.0
987240105,987239236,-0.321962,-0.000821443,-0.00354525,0.474036,0.0,0.0,0.0,-1.0
987337703,987336851,0.325773,-0.0523232,-0.0290664,0.475055,0.0,0.0,0.0,-1.0
987437823,987436968,0.415279,-0.0754761,-0.0429209,0.474036,0.0,0.0,0.0,-1.0
987540444,987539588,0.526583,-0.0379991,-0.0520884,0.474036,0.0,0.0,0.0,-1.0
987638061,987637202,0.00668635,-0.0298239,-0.0285364,0.474036,0.0,0.0,0.0,-1.0
987740679,987739822,0.175621,-0.0263892,-0.0377923,0.476073,0.0,0.0,0.0,-1.0
987838297,987837436,-0.518555,-0.0235058,-0.0326146,0.476073,0.0,0.0,0.0,-1.0
987938410,987937553,-0.321038,0.0341518,-0.055038,0.474036,0.0,0.0,0.0,-1.0
988036024,988035167,0.490772,-0.0810837,-0.100251,0.476073,0.0,0.0,0.0,-1.0
988138640,988137787,0.425242,0.0147389,-0.115093,0.476073,0.0,0.0,0.0,-1.0
988241279,988240407,0.222533,-0.031448,-0.102018,0.475055,0.0,0.0,0.0,-1.0
988338889,988338022,0.175053,0.101873,-0.101991,0.475055,0.0,0.0,0.0,-1.0
988438994,988438139,0.207384,0.105514,-0.107779,0.476073,0.0,0.0,0.0,-1.0
988536609,988535753,-0.367167,-0.0411062,-0.0741204,0.476073,0.0,0.0,0.0,-1.0
988639233,988638376,-0.446999,-0.00243468,-0.069955,0.476073,0.0,0.0,0.0,-1.0
988736844,988735987,-0.0960485,-0.0654703,-0.0481596,0.475055,0.0,0.0,0.0,-1.0
988839463,988838607,-0.176827,0.00196156,-0.0297866,0.474036,0.0,0.0,0.0,-1.0
988939577,988938724,-0.245446,-0.00687041,-0.0121372,0.475055,0.0,0.0,0.0,-1.0
989037205,989036346,0.494441,-0.0727248,-0.0300695,0.474036,0.0,0.0,0.0,-1.0
989139815,989138958,0.456851,0.0796711,-0.0235283,0.474036,0.0,0.0,0.0,-1.0
989237432,989236572,-0.0764457,0.0425408,-0.00931047,0.474036,0.0,0.0,0.0,-1.0
989340050,989339192,-0.0983822,-0.00101826,0.0103462,0.473018,0.0,0.0,0.0,-1.0
989437663,989436806,-0.542259,0.0627177,0.00235569,0.474036,0.0,0.0,0.0,-1.0
989537783,989536923,-0.283203,0.0756544,-0.00485753,0.474036,0.0,0.0,0.0,-1.0
989640398,989639543,-0.0956344,-0.0865696,0.0132264,0.473018,0.0,0.0,0.0,-1.0
989738016,989737157,0.172531,-0.146163,-0.012779,0.474036,0.0,0.0,0.0,-1.0
989840630,989839777,-0.00743163,-0.0300932,-0.0144517,0.474036,0.0,0.0,0.0,-1.0
989938249,989937391,0.365651,-0.0638869,-0.0107043,0.474036,0.0,0.0,0.0,-1.0
990038364,990037507,0.211743,-0.0426213,-0.0425178,0.488291,0.0,0.0,0.0,-1.0
990135978,990135121,-0.395732,0.182068,-0.0465647,0.487273,0.0,0.0,0.0,-1.0
990238604,990237741,-0.27892,0.0314955,-0.0428393,0.487273,0.0,0.0,0.0,-1.0
990341229,990340361,-0.272843,0.0473937,-0.0154573,0.482182,0.0,0.0,0.0,-1.0
990438835,990437975,-0.368699,-0.0491027,-0.0199424,0.484218,0.0,0.0,0.0,-1.0
990538948,990538092,-0.149061,-0.032837,-0.0324414,0.485236,0.0,0.0,0.0,-1.0
990636572,990635708,0.202865,-0.069247,-0.0284535,0.485236,0.0,0.0,0.0,-1.0
990739182,990738325,0.265532,-0.0731332,-0.0430439,0.486255,0.0,0.0,0.0,-1.0
990836799,990835941,0.486982,-0.0137305,-0.0402936,0.487273,0.0,0.0,0.0,-1.0
990939432,990938559,0.388989,-0.0066356,-0.0461316,0.486255,0.0,0.0,0.0,-1.0
991039533,991038675,0.07211,0.088819,-0.0511208,0.487273,0.0,0.0,0.0,-1.0
991137162,991136305,-0.416175,0.0632932,-0.0469453,0.487273,0.0,0.0,0.0,-1.0
991239766,991238909,-0.253785,0.057043,-0.064894,0.486255,0.0,0.0,0.0,-1.0
991337383,991336523,-0.252489,-0.0871136,-0.0625467,0.487273,0.0,0.0,0.0,-1.0
991440018,991439146,-0.294346,0.0115749,-0.0613428,0.487273,0.0,0.0,0.0,-1.0
991537610,991536756,0.397566,-0.0371589,-0.0599214,0.526061,0.0,0.0,0.0,-1.0
991637727,991636873,0.460335,0.0110884,-0.0599182,0.526061,0.0,0.0,0.0,-1.0
991740358,991739492,0.708832,0.00098781,-0.0635381,0.523636,0.0,0.0,0.0,-1.0
991837960,991837106,-0.383874,0.0203646,-0.0228317,0.521212,0.0,0.0,0.0,-1.0
991940585,991939725,-0.129843,0.00848933,-0.0242964,0.521212,0.0,0.0,0.0,-1.0
992038201,992037342,-0.324808,0.0784302,-0.016258,0.522424,0.0,0.0,0.0,-1.0
992138327,992137456,-0.00835406,0.0468442,-0.020865,0.521212,0.0,0.0,0.0,-1.0
992235927,992235070,0.543501,0.0471974,-0.0388302,0.523636,0.0,0.0,0.0,-1.0
992338544,992337690,0.413794,0.0318989,-0.0379973,0.521212,0.0,0.0,0.0,-1.0
992441166,992440309,0.473596,-0.0913023,-0.0470118,0.521212,0.0,0.0,0.0,-1.0
992538778,992537923,0.262814,0.170529,-0.0183303,0.485236,0.0,0.0,0.0,-1.0
992636408,992635537,-0.226797,0.0110479,-0.0265003,0.485236,0.0,0.0,0.0,-1.0
992736513,992735653,-0.476846,0.0129957,-0.0243146,0.481164,0.0,0.0,0.0,-1.0
992839138,992838282,-0.506928,0.0316555,-0.0314731,0.4832,0.0,0.0,0.0,-1.0
992936743,992935886,-0.298448,0.0192139,-0.0486515,0.4832,0.0,0.0,0.0,-1.0
993039359,993038506,-0.16102,-0.0647827,-0.0665627,0.484218,0.0,0.0,0.0,-1.0
993139478,993138623,-0.00602649,0.0507961,-0.0885419,0.482182,0.0,0.0,0.0,-1.0
993237109,993236247,0.408282,0.143413,-0.0978401,0.482182,0.0,0.0,0.0,-1.0
993339711,993338856,0.40194,0.0981834,-0.103778,0.482182,0.0,0.0,0.0,-1.0
993437338,993436470,-0.0284486,0.108516,-0.0794809,0.484218,0.0,0.0,0.0,-1.0
993539950,993539089,-0.103679,0.031925,-0.0796035,0.4832,0.0,0.0,0.0,-1.0
993637560,993636703,-0.241409,-0.0215113,-0.0729168,0.482182,0.0,0.0,0.0,-1.0
993737677,993736819,-0.174359,0.0249066,-0.0601959,0.482182,0.0,0.0,0.0,-1.0
993837815,993836936,0.365439,0.0624654,-0.0622039,0.4832,0.0,0.0,0.0,-1.0
993937913,993937053,0.503568,-0.0206829,-0.0594457,0.484218,0.0,0.0,0.0,-1.0
994040525,994039672,0.349261,0.0132245,-0.0468576,0.480145,0.0,0.0,0.0,-1.0
994138143,994137286,-0.011535,0.0417069,-0.0486862,0.484218,0.0,0.0,0.0,-1.0
994238272,994237402,-0.305642,0.0830148,-0.0396428,0.486255,0.0,0.0,0.0,-1.0
994335873,994335016,-0.325958,0.0574088,-0.0250858,0.490327,0.0,0.0,0.0,-1.0
994438495,994437636,-0.179474,-0.00101198,-0.00941576,0.490327,0.0,0.0,0.0,-1.0
994541127,994540259,-0.406462,-0.096352,-0.00671666,0.490327,0.0,0.0,0.0,-1.0
994638729,994637868,0.277501,-0.000526431,-0.0260372,0.488291,0.0,0.0,0.0,-1.0
994738852,994737985,0.204728,0.0235865,-0.0347182,0.489309,0.0,0.0,0.0,-1.0
994836452,994835599,0.441787,0.121355,-0.0253038,0.489309,0.0,0.0,0.0,-1.0
994939080,994938224,0.475783,-0.0340164,-0.0123533,0.489309,0.0,0.0,0.0,-1.0
995036686,995035832,0.121441,0.0989341,-0.0111581,0.488291,0.0,0.0,0.0,-1.0
995139320,995138451,0.126648,0.00512138,-0.00932506,0.491345,0.0,0.0,0.0,-1.0
995239439,995238568,-0.160648,0.0998155,-0.0138009,0.489309,0.0,0.0,0.0,-1.0
995337048,995336181,-0.213177,-0.0513193,-0.0115942,0.489309,0.0,0.0,0.0,-1.0
995439659,995438800,-0.141002,0.0189642,-0.0155656,0.489309,0.0,0.0,0.0,-1.0
995537281,995536414,0.19654,0.0198704,-0.0198359,0.489309,0.0,0.0,0.0,-1.0
995639895,995639037,0.0475386,0.0195054,-0.0334148,0.490327,0.0,0.0,0.0,-1.0
995737501,995736647,0.397726,0.000650063,-0.0272853,0.489309,0.0,0.0,0.0,-1.0
995837622,995836764,0.296123,0.0658862,-0.0247549,0.489309,0.0,0.0,0.0,-1.0
995937763,995936895,-0.174104,0.0488712,-0.0331131,0.490327,0.0,0.0,0.0,-1.0
996037858,996036996,-0.363511,0.0327896,-0.01909,0.490327,0.0,0.0,0.0,-1.0
996140475,996139616,-0.53292,-0.0163783,-0.0125039,0.490327,0.0,0.0,0.0,-1.0
996238100,996237237,-0.0400331,-0.0600509,-0.0273653,0.489309,0.0,0.0,0.0,-1.0
996338206,996337352,0.35175,-0.154353,-0.0308417,0.489309,0.0,0.0,0.0,-1.0
996438345,996437465,0.47987,0.0241257,-0.0203684,0.489309,0.0,0.0,0.0,-1.0
996538438,996537579,0.272332,0.0707566,0.00842474,0.489309,0.0,0.0,0.0,-1.0
996636053,996635192,-0.295194,0.049315,0.0161272,0.490327,0.0,0.0,0.0,-1.0
996738672,996737819,-0.153477,0.00797675,0.0263741,0.489309,0.0,0.0,0.0,-1.0
996838783,996837928,-0.286499,0.0543344,0.0235447,0.489309,0.0,0.0,0.0,-1.0
996936402,996935541,-0.186858,-0.0286783,0.0165123,0.490327,0.0,0.0,0.0,-1.0
997036514,997035657,-0.102612,0.0434715,0.0149686,0.489309,0.0,0.0,0.0,-1.0
997136650,997135787,-0.14064,0.0418248,0.0214304,0.490327,0.0,0.0,0.0,-1.0
997239295,997238410,-0.0590149,-0.0459033,0.00620181,0.489309,0.0,0.0,0.0,-1.0
997336867,997336010,0.246187,0.00257418,-0.0088286,0.489309,0.0,0.0,0.0,-1.0
997436979,997436123,0.0801726,0.0410539,-0.00476437,0.490327,0.0,0.0,0.0,-1.0
997537116,997536253,-0.131828,0.0707461,-0.00633615,0.489309,0.0,0.0,0.0,-1.0
997637236,997636362,-0.0838269,-0.0163211,-0.0128528,0.489309,0.0,0.0,0.0,-1.0
997739844,997738974,0.134997,-0.0692949,-0.0156087,0.490327,0.0,0.0,0.0,-1.0
997837454,997836588,-0.25245,0.0555014,-0.000707242,0.495418,0.0,0.0,0.0,-1.0
997937560,997936704,-0.182767,0.0271769,-0.000173314,0.495418,0.0,0.0,0.0,-1.0
998037677,998036820,0.266409,0.0283719,0.00332809,0.495418,0.0,0.0,0.0,-1.0
998137793,998136937,0.350973,-0.00959634,-0.0247288,0.493382,0.0,0.0,0.0,-1.0
998240417,998239558,0.436347,-0.0560139,-0.0251732,0.4944,0.0,0.0,0.0,-1.0
998338029,998337169,0.226767,0.00259104,-0.0301924,0.4944,0.0,0.0,0.0,-1.0
998438143,998437286,0.143544,-0.00850377,-0.0364668,0.495418,0.0,0.0,0.0,-1.0
998538281,998537402,-0.297748,-0.00895867,-0.0119962,0.515152,0.0,0.0,0.0,-1.0
998638375,998637518,-0.487033,0.0174551,-0.0231667,0.526061,0.0,0.0,0.0,-1.0
998740993,998740137,-0.508195,0.0729223,-0.0291009,0.521212,0.0,0.0,0.0,-1.0
998838607,998837751,-0.139316,-0.121777,-0.0221583,0.533333,0.0,0.0,0.0,-1.0
998938724,998937867,0.333259,-0.071602,-0.0316413,0.528485,0.0,0.0,0.0,-1.0
999036347,999035480,0.57604,0.0641731,-0.0801211,0.496436,0.0,0.0,0.0,-1.0
999138956,999138099,0.567039,-0.037737,-0.126733,0.486255,0.0,0.0,0.0,-1.0
999236566,999235713,0.165643,0.0571064,-0.111382,0.484218,0.0,0.0,0.0,-1.0
999339189,999338332,0.228868,0.097426,-0.10041,0.484218,0.0,0.0,0.0,-1.0
999439317,999438448,0.197084,-0.0191568,-0.0457729,0.476073,0.0,0.0,0.0,-1.0
999536934,999536063,-0.338436,-0.00393386,0.0164898,0.454691,0.0,0.0,0.0,-1.0
999639537,999638680,-0.267782,-0.00871525,0.0140095,0.446545,0.0,0.0,0.0,-1.0
999737164,999736302,0.0958386,-0.0511257,0.0178047,0.4496,0.0,0.0,0.0,-1.0
999839771,999838913,0.0404037,0.00529087,0.0101859,0.4496,0.0,0.0,0.0,-1.0
999937378,999936524,0.0876537,0.0378292,-0.0022457,0.446545,0.0,0.0,0.0,-1.0
1000037516,1000036656,0.195063,0.0481132,0.00154615,0.452655,0.0,0.0,0.0,-1.0
1000137616,1000136760,0.145627,-0.0146932,-0.00455576,0.450618,0.0,0.0,0.0,-1.0
1000237735,1000236876,0.0255884,0.0231053,-0.00818492,0.450618,0.0,0.0,0.0,-1.0
1000340363,1000339493,-0.194332,0.140833,-0.00633846,0.450618,0.0,0.0,0.0,-1.0
1000437965,1000437108,-0.138916,-0.0423006,-0.0126168,0.456727,0.0,0.0,0.0,-1.0
1000538082,1000537226,0.0877148,-0.0339746,-0.0169166,0.492364,0.0,0.0,0.0,-1.0
1000638205,1000637348,0.479882,0.0824356,-0.0262093,0.493382,0.0,0.0,0.0,-1.0
1000738318,1000737455,0.321636,0.0441198,-0.0313114,0.4944,0.0,0.0,0.0,-1.0
1000835937,1000835075,-0.252958,0.0793185,-0.0297279,0.4944,0.0,0.0,0.0,-1.0
1000938545,1000937689,-0.0205339,0.154348,-0.0503589,0.4944,0.0,0.0,0.0,-1.0
1001038657,1001037804,-0.0828998,-0.00991702,-0.0449631,0.493382,0.0,0.0,0.0,-1.0
1001138795,1001137922,-0.346193,-0.0120955,-0.0343623,0.4944,0.0,0.0,0.0,-1.0
1001238893,1001238037,-0.493903,-0.56332,-0.0270583,0.4944,0.0,0.0,0.0,-1.0
1001339011,1001338156,-0.0514831,0.119626,-0.00682254,0.4944,0.0,0.0,0.0,-1.0
1001439129,1001438275,-0.169163,0.012736,-0.0141827,0.4944,0.0,0.0,0.0,-1.0
1001536743,1001535882,0.270798,0.00178162,-0.00524206,0.492364,0.0,0.0,0.0,-1.0
1001636854,1001635998,0.360915,0.0588657,-0.0157392,0.491345,0.0,0.0,0.0,-1.0
1001739473,1001738617,0.251947,0.0589869,-0.0217711,0.491345,0.0,0.0,0.0,-1.0
1001837102,1001836240,-0.173614,0.0352902,-0.0124106,0.491345,0.0,0.0,0.0,-1.0
1001939702,1001938849,-0.0694907,0.13708,-0.026743,0.491345,0.0,0.0,0.0,-1.0
1002037330,1002036462,-0.205086,0.0285324,-0.0240497,0.491345,0.0,0.0,0.0,-1.0
1002137444,1002136579,0.067311,0.0480065,-0.0366287,0.491345,0.0,0.0,0.0,-1.0
1002237551,1002236695,0.122523,0.0918238,-0.0325693,0.490327,0.0,0.0,0.0,-1.0
1002337670,1002336814,0.432378,0.00402616,-0.0223726,0.493382,0.0,0.0,0.0,-1.0
1002440301,1002439430,0.49359,0.0161334,-0.0295133,0.493382,0.0,0.0,0.0,-1.0
1002537903,1002537043,-0.387305,0.148943,-0.0199552,0.522424,0.0,0.0,0.0,-1.0
1002638036,1002637159,-0.366773,0.0619045,-0.0135822,0.522424,0.0,0.0,0.0,-1.0
1002738142,1002737282,-0.245592,0.0241517,-0.0186579,0.518788,0.0,0.0,0.0,-1.0
1002838254,1002837392,-0.124883,0.00573817,-0.0276229,0.517576,0.0,0.0,0.0,-1.0
1002940863,1002940011,-0.16229,0.0838382,-0.0366055,0.517576,0.0,0.0,0.0,-1.0
1003038494,1003037624,0.41749,0.0693034,-0.0223045,0.516364,0.0,0.0,0.0,-1.0
1003138600,1003137740,0.187037,0.0438327,-0.0154894,0.521212,0.0,0.0,0.0,-1.0
1003238726,1003237856,0.276883,0.0418096,-0.0633698,0.488291,0.0,0.0,0.0,-1.0
1003338829,1003337973,-0.0737114,-0.00613842,-0.0688279,0.487273,0.0,0.0,0.0,-1.0
1003436448,1003435586,-0.361326,-0.0245431,-0.116965,0.491345,0.0,0.0,0.0,-1.0
1003539067,1003538205,-0.400788,-6.33968e-05,-0.141086,0.491345,0.0,0.0,0.0,-1.0
1003636689,1003635818,0.12623,-0.141601,-0.117239,0.484218,0.0,0.0,0.0,-1.0
1003739315,1003738437,0.285941,0.0888225,-0.112596,0.492364,0.0,0.0,0.0,-1.0
1003839413,1003838553,0.449238,0.110511,-0.124547,0.491345,0.0,0.0,0.0,-1.0
1003937020,1003936166,-0.222871,0.151205,-0.116824,0.484218,0.0,0.0,0.0,-1.0
1004039645,1004038786,-0.132591,0.00698911,-0.0934499,0.4832,0.0,0.0,0.0,-1.0
1004137272,1004136400,-0.303233,0.0219725,-0.0897425,0.485236,0.0,0.0,0.0,-1.0
1004237377,1004236516,-0.139185,0.0607398,-0.0822015,0.485236,0.0,0.0,0.0,-1.0
1004339992,1004339135,0.017431,-0.110204,-0.0689413,0.485236,0.0,0.0,0.0,-1.0
1004437609,1004436749,0.244819,-0.0320191,-0.0526078,0.485236,0.0,0.0,0.0,-1.0
1004537722,1004536865,-0.134445,0.168625,-0.0433639,0.486255,0.0,0.0,0.0,-1.0
1004637853,1004636980,-0.36793,0.197669,-0.0500729,0.484218,0.0,0.0,0.0,-1.0
1004737950,1004737096,-0.37818,-0.00801057,-0.0406225,0.489309,0.0,0.0,0.0,-1.0
1004838071,1004837215,-0.217478,0.0637229,-0.0565228,0.489309,0.0,0.0,0.0,-1.0
1004938185,1004937330,0.0181306,0.133044,-0.0509549,0.489309,0.0,0.0,0.0,-1.0
1005040807,1005039947,0.0127787,0.00842302,-0.0301928,0.487273,0.0,0.0,0.0,-1.0
1005138419,1005137562,0.328522,0.0579871,0.0983672,0.489309,0.0,0.0,0.0,-1.0
1005238538,1005237678,0.20402,0.00040709,0.138336,0.489309,0.0,0.0,0.0,-1.0
1005338646,1005337793,0.12487,0.207297,0.0875366,0.490327,0.0,0.0,0.0,-1.0
1005438765,1005437911,-0.0967608,-0.0451342,0.0675439,0.490327,0.0,0.0,0.0,-1.0
1005538896,1005538027,-0.229196,0.03502,0.0470878,0.490327,0.0,0.0,0.0,-1.0
1005639000,1005638143,-0.16605,-0.00447751,0.0208049,0.485236,0.0,0.0,0.0,-1.0
1005736611,1005735754,-0.0360628,0.115163,0.00123252,0.490327,0.0,0.0,0.0,-1.0
1005839247,1005838375,-0.123717,0.0622705,-0.00835468,0.489309,0.0,0.0,0.0,-1.0
1005939365,1005938491,-0.240652,0.0688892,-0.0235207,0.489309,0.0,0.0,0.0,-1.0
1006036959,1006036103,0.361067,0.0575516,-0.0408037,0.489309,0.0,0.0,0.0,-1.0
1006139580,1006138722,0.372036,-0.0198685,-0.0336433,0.489309,0.0,0.0,0.0,-1.0
1006237192,1006236335,0.0652092,-0.0305205,-0.048381,0.488291,0.0,0.0,0.0,-1.0
1006339826,1006338954,0.0930308,0.0788348,-0.0532546,0.486255,0.0,0.0,0.0,-1.0
1006437424,1006436567,-0.329858,0.04029,-0.029568,0.489309,0.0,0.0,0.0,-1.0
1006537540,1006536684,-0.228642,0.0546879,-0.0361504,0.489309,0.0,0.0,0.0,-1.0
1006640156,1006639303,-0.0310342,0.0361524,-0.046037,0.489309,0.0,0.0,0.0,-1.0
1006737773,1006736916,0.363015,0.102748,-0.0367868,0.490327,0.0,0.0,0.0,-1.0
1006837892,1006837032,0.27826,-0.0287177,-0.0352595,0.489309,0.0,0.0,0.0,-1.0
1006938009,1006937152,0.164779,-0.0251589,-0.0313024,0.490327,0.0,0.0,0.0,-1.0
1007038127,1007037271,-0.376854,0.0507751,0.00387655,0.490327,0.0,0.0,0.0,-1.0
1007140736,1007139884,-0.194796,0.131058,-0.0272564,0.490327,0.0,0.0,0.0,-1.0
1007238367,1007237497,-0.364708,0.00786642,-0.0213777,0.490327,0.0,0.0,0.0,-1.0
1007338473,1007337613,-0.276457,0.0875141,-0.0091601,0.489309,0.0,0.0,0.0,-1.0
1007438590,1007437733,-0.0170987,-0.122207,-0.0228621,0.489309,0.0,0.0,0.0,-1.0
1007538706,1007537849,0.0811403,0.0896,-0.0279711,0.489309,0.0,0.0,0.0,-1.0
1007636333,1007635459,0.377518,0.10173,-0.0345562,0.489309,0.0,0.0,0.0,-1.0
1007738935,1007738078,0.256925,0.100376,-0.0421395,0.489309,0.0,0.0,0.0,-1.0
1007839056,1007838194,0.268241,-0.00178397,-0.044504,0.490327,0.0,0.0,0.0,-1.0
1007939170,1007938313,-0.0596376,0.11696,-0.039292,0.490327,0.0,0.0,0.0,-1.0
1008039297,1008038427,-0.30071,0.152582,-0.0338085,0.490327,0.0,0.0,0.0,-1.0
1008136899,1008136041,-0.373846,0.169048,-0.0325587,0.489309,0.0,0.0,0.0,-1.0
1008239516,1008238660,-0.121909,0.0550704,-0.0262687,0.489309,0.0,0.0,0.0,-1.0
1008337139,1008336274,0.438525,0.0318563,-0.0375431,0.489309,0.0,0.0,0.0,-1.0
1008439762,1008438892,0.153251,0.194004,-0.0381726,0.489309,0.0,0.0,0.0,-1.0
1008539868,1008539008,0.111497,0.162908,-0.0381241,0.489309,0.0,0.0,0.0,-1.0
1008637479,1008636622,-0.233472,0.0640641,-0.0192733,0.490327,0.0,0.0,0.0,-1.0
1008740124,1008739243,-0.237295,-0.00375529,-0.0256709,0.489309,0.0,0.0,0.0,-1.0
1008837712,1008836857,-0.153563,0.0665619,-0.029312,0.489309,0.0,0.0,0.0,-1.0
1008940351,1008939474,-0.253918,0.0276739,-0.0398048,0.489309,0.0,0.0,0.0,-1.0
1009037941,1009037087,0.410783,-0.0202973,-0.0254753,0.489309,0.0,0.0,0.0,-1.0
1009138059,1009137204,0.522401,0.0621319,-0.0290145,0.489309,0.0,0.0,0.0,-1.0
1009235676,1009234817,-0.00250143,0.0333457,-0.00712995,0.489309,0.0,0.0,0.0,-1.0
1009338304,1009337436,0.0349501,0.107025,-0.00272586,0.489309,0.0,0.0,0.0,-1.0
1009438407,1009437552,-0.332703,-0.0134025,0.0139067,0.489309,0.0,0.0,0.0,-1.0
1009538529,1009537675,-0.395551,0.0262943,0.00807592,0.489309,0.0,0.0,0.0,-1.0
1009638657,1009637792,-0.431131,0.235811,0.00703376,0.490327,0.0,0.0,0.0,-1.0
1009736275,1009735399,0.0502974,-0.0584641,-0.0141518,0.490327,0.0,0.0,0.0,-1.0
1009836388,1009835515,0.292879,0.0639153,-0.0114237,0.489309,0.0,0.0,0.0,-1.0
1009939000,1009938134,0.157529,0.0399388,-0.0102012,0.489309,0.0,0.0,0.0,-1.0
1010039121,1010038251,0.137227,0.185187,-0.0232872,0.489309,0.0,0.0,0.0,-1.0
1010139224,1010138367,0.192463,-0.0106444,-0.0690356,0.489309,0.0,0.0,0.0,-1.0
1010236847,1010235984,-0.399805,-0.0417918,-0.0479138,0.490327,0.0,0.0,0.0,-1.0
1010339453,1010338599,-0.361161,0.140733,-0.0500705,0.489309,0.0,0.0,0.0,-1.0
1010437095,1010436217,-0.267061,0.0121582,-0.0604293,0.489309,0.0,0.0,0.0,-1.0
1010539686,1010538832,0.00795189,-0.00330701,-0.0571931,0.53697,0.0,0.0,0.0,-1.0
1010637317,1010636446,0.535526,-0.082989,-0.0470993,0.526061,0.0,0.0,0.0,-1.0
1010737419,1010736562,0.0896416,0.0250442,-0.0353938,0.524848,0.0,0.0,0.0,-1.0
1010840034,1010839181,0.0174054,0.139382,-0.0366057,0.524848,0.0,0.0,0.0,-1.0
1010937652,1010936795,-0.558032,-0.0176602,-0.0299336,0.521212,0.0,0.0,0.0,-1.0
1011040284,1011039414,-0.506724,0.109942,-0.0300062,0.521212,0.0,0.0,0.0,-1.0
1011137885,1011137028,0.0087467,-0.00140829,-0.0334474,0.496436,0.0,0.0,0.0,-1.0
1011238001,1011237144,0.419259,0.0357993,-0.0143371,0.497455,0.0,0.0,0.0,-1.0
1011340616,1011339763,0.245724,0.0442726,-0.0315965,0.495418,0.0,0.0,0.0,-1.0
1011438239,1011437377,0.210001,-0.0272751,-0.0236306,0.497455,0.0,0.0,0.0,-1.0
1011538356,1011537493,-0.0697297,-0.0198331,-0.0387037,0.497455,0.0,0.0,0.0,-1.0
1011638467,1011637610,-0.0765583,-0.0108722,-0.0467346,0.495418,0.0,0.0,0.0,-1.0
1011738593,1011737726,-0.349828,0.010072,-0.0420428,0.487273,0.0,0.0,0.0,-1.0
1011836202,1011835341,-0.326739,0.102613,-0.0548416,0.488291,0.0,0.0,0.0,-1.0
1011938817,1011937959,-0.266956,-0.028075,-0.0456283,0.488291,0.0,0.0,0.0,-1.0
1012038959,1012038092,0.128596,-0.113099,-0.0580641,0.487273,0.0,0.0,0.0,-1.0
1012139058,1012138193,0.31846,0.0239475,-0.0721484,0.486255,0.0,0.0,0.0,-1.0
1012239176,1012238308,0.518885,0.0433589,-0.0595634,0.486255,0.0,0.0,0.0,-1.0
1012336776,1012335922,-0.294256,-0.0506108,-0.0277794,0.488291,0.0,0.0,0.0,-1.0
1012439408,1012438542,-0.0239137,0.0683619,-0.0396984,0.488291,0.0,0.0,0.0,-1.0
1012537015,1012536156,-0.404205,0.131704,-0.0363062,0.488291,0.0,0.0,0.0,-1.0
1012639631,1012638774,-0.288703,0.00991717,-0.0349997,0.487273,0.0,0.0,0.0,-1.0
1012739749,1012738890,0.0946802,-0.0902566,-0.0381881,0.487273,0.0,0.0,0.0,-1.0
1012837373,1012836505,0.465562,0.0066878,-0.0268829,0.488291,0.0,0.0,0.0,-1.0
1012937476,1012936622,-0.0161653,0.0890469,-0.0408558,0.488291,0.0,0.0,0.0,-1.0
1013037593,1013036738,-0.617551,0.0669008,-0.0316324,0.488291,0.0,0.0,0.0,-1.0
1013140252,1013139364,-0.662643,0.116637,-0.037862,0.487273,0.0,0.0,0.0,-1.0
1013237830,1013236971,-0.125938,-0.0227301,-0.0320837,0.488291,0.0,0.0,0.0,-1.0
1013337948,1013337086,0.228311,-0.0176746,-0.041913,0.489309,0.0,0.0,0.0,-1.0
1013440573,1013439705,0.142256,-0.0372167,-0.0361171,0.488291,0.0,0.0,0.0,-1.0
1013538174,1013537320,0.370902,0.0599843,-0.0440675,0.488291,0.0,0.0,0.0,-1.0
1013640809,1013639938,0.376833,-0.068805,-0.0376219,0.488291,0.0,0.0,0.0,-1.0
1013738405,1013737551,0.0556199,0.131935,-0.0436174,0.487273,0.0,0.0,0.0,-1.0
1013838522,1013837668,-0.27115,-0.00756358,-0.0196771,0.488291,0.0,0.0,0.0,-1.0
1013936141,1013935284,-0.367988,0.0317924,-0.0288253,0.488291,0.0,0.0,0.0,-1.0
1014038755,1014037900,-0.671828,0.128729,-0.0440567,0.488291,0.0,0.0,0.0,-1.0
1014136387,1014135514,0.100741,0.0632258,-0.0421201,0.489309,0.0,0.0,0.0,-1.0
1014239006,1014238134,-0.0452127,0.0608695,-0.0389466,0.489309,0.0,0.0,0.0,-1.0
1014336604,1014335747,0.431049,0.0249126,-0.027939,0.489309,0.0,0.0,0.0,-1.0
1014436732,1014435863,0.00848633,0.0594618,-0.0174713,0.489309,0.0,0.0,0.0,-1.0
1014539341,1014538483,0.378719,-0.0676629,-0.034309,0.489309,0.0,0.0,0.0,-1.0
1014636969,1014636099,-0.236272,0.12055,-0.026701,0.488291,0.0,0.0,0.0,-1.0
1014739571,1014738716,-0.214306,0.00286474,-0.0259799,0.489309,0.0,0.0,0.0,-1.0
1014837186,1014836329,-0.338041,0.0822773,-0.0290858,0.488291,0.0,0.0,0.0,-1.0
1014937313,1014936446,0.106151,0.127245,-0.03543,0.486255,0.0,0.0,0.0,-1.0
1015039918,1015039065,0.0443368,0.0478598,-0.023832,0.523636,0.0,0.0,0.0,-1.0
1015137546,1015136679,0.629262,-0.0919124,-0.0287879,0.526061,0.0,0.0,0.0,-1.0
1015240151,1015239298,0.559989,0.0133976,-0.0320029,0.526061,0.0,0.0,0.0,-1.0
1015337768,1015336912,-0.114406,0.166585,-0.0290319,0.524848,0.0,0.0,0.0,-1.0
1015437895,1015437028,-0.422221,0.165509,-0.0160509,0.523636,0.0,0.0,0.0,-1.0
1015540503,1015539647,-0.2836,0.106375,-0.0228472,0.524848,0.0,0.0,0.0,-1.0
1015638127,1015637261,-0.055592,0.0301548,-0.0230612,0.524848,0.0,0.0,0.0,-1.0
1015740747,1015739880,-0.151462,-0.0280557,-0.00874394,0.505455,0.0,0.0,0.0,-1.0
1015838363,1015837494,0.0122932,-0.0113976,-0.0309782,0.506667,0.0,0.0,0.0,-1.0
1015938467,1015937611,0.0925823,0.0823322,-0.0346405,0.50303,0.0,0.0,0.0,-1.0
1016036085,1016035226,0.340662,0.0895312,-0.0267066,0.504242,0.0,0.0,0.0,-1.0
1016138701,1016137844,0.412249,-0.0252227,-0.0243345,0.493382,0.0,0.0,0.0,-1.0
1016236361,1016235457,0.121288,0.0972851,-0.032556,0.504242,0.0,0.0,0.0,-1.0
1016338934,1016338077,-0.0892982,0.058949,-0.0319378,0.505455,0.0,0.0,0.0,-1.0
1016439053,1016438193,0.0824725,0.112286,-0.027887,0.50303,0.0,0.0,0.0,-1.0
1016536665,1016535807,-0.347773,-0.104442,-0.0294578,0.50303,0.0,0.0,0.0,-1.0
1016639294,1016638426,-0.276514,0.0257947,-0.0343231,0.501818,0.0,0.0,0.0,-1.0
1016736901,1016736040,0.218465,0.0783657,-0.0312747,0.50303,0.0,0.0,0.0,-1.0
1016839522,1016838660,0.399711,-0.011533,-0.0388881,0.50303,0.0,0.0,0.0,-1.0
1016939633,1016938776,0.336683,-0.0228432,-0.0424721,0.504242,0.0,0.0,0.0,-1.0
1017037246,1017036390,-0.48378,0.0816742,-0.0198981,0.504242,0.0,0.0,0.0,-1.0
1017139866,1017139009,-0.282301,0.0336863,-0.022247,0.505455,0.0,0.0,0.0,-1.0
1017237482,1017236623,-0.373836,0.0123186,-0.0124721,0.504242,0.0,0.0,0.0,-1.0
1017340112,1017339246,-0.410528,0.0618483,-0.0265706,0.50303,0.0,0.0,0.0,-1.0
1017437711,1017436857,0.21442,0.0833552,-0.0318196,0.501818,0.0,0.0,0.0,-1.0
1017537840,1017536976,0.265168,0.0356797,-0.0238298,0.50303,0.0,0.0,0.0,-1.0
1017640460,1017639598,0.242353,0.00548837,-0.0277722,0.50303,0.0,0.0,0.0,-1.0
1017738063,1017737207,-0.0263386,0.144576,-0.00257143,0.50303,0.0,0.0,0.0,-1.0
1017840683,1017839826,0.1415,0.0340202,-0.00244737,0.505455,0.0,0.0,0.0,-1.0
1017938308,1017937440,-0.353316,0.0818071,0.0471289,0.504242,0.0,0.0,0.0,-1.0
1018038414,1018037560,-0.583516,0.0354567,0.0721574,0.505455,0.0,0.0,0.0,-1.0
1018136031,1018135170,-0.127568,-0.0411362,0.0560828,0.505455,0.0,0.0,0.0,-1.0
1018238648,1018237791,-0.2809,0.0695979,0.035992,0.504242,0.0,0.0,0.0,-1.0
1018341283,1018340410,-0.294663,0.0876997,0.0384288,0.504242,0.0,0.0,0.0,-1.0
1018438881,1018438023,0.119444,-0.0623353,0.0289671,0.504242,0.0,0.0,0.0,-1.0
1018539032,1018538155,0.281169,0.0130922,0.0222053,0.506667,0.0,0.0,0.0,-1.0
1018636610,1018635754,0.180976,0.118938,0.00396382,0.506667,0.0,0.0,0.0,-1.0
1018739243,1018738377,0.301083,0.0375243,-0.00507351,0.506667,0.0,0.0,0.0,-1.0
1018836844,1018835987,-0.576542,0.0788045,0.00696701,0.504242,0.0,0.0,0.0,-1.0
1018939465,1018938609,-0.431512,0.0754077,0.00896968,0.506667,0.0,0.0,0.0,-1.0
1019037098,1019036237,0.0251506,0.00131005,0.00322797,0.504242,0.0,0.0,0.0,-1.0
1019137236,1019136355,0.282936,0.0536062,-0.0129293,0.504242,0.0,0.0,0.0,-1.0
1019239830,1019238959,0.0741332,0.0260706,-0.075974,0.501818,0.0,0.0,0.0,-1.0
1019337432,1019336573,-0.0550316,0.0892866,-0.0575892,0.50303,0.0,0.0,0.0,-1.0
1019440062,1019439193,0.0625227,0.0373543,-0.0578998,0.505455,0.0,0.0,0.0,-1.0
1019537661,1019536805,-0.275531,0.0745321,-0.0384396,0.50303,0.0,0.0,0.0,-1.0
1019637801,1019636922,-0.0851855,0.0187058,-0.0485626,0.501818,0.0,0.0,0.0,-1.0
1019740394,1019739541,-0.19875,0.106422,-0.0186666,0.501818,0.0,0.0,0.0,-1.0
1019838012,1019837155,0.211386,0.0475521,-0.031746,0.50303,0.0,0.0,0.0,-1.0
1019940643,1019939775,0.366075,0.0402749,-0.0159062,0.50303,0.0,0.0,0.0,-1.0
1020038249,1020037390,0.204672,0.0425811,-0.00928015,0.50303,0.0,0.0,0.0,-1.0
1020138364,1020137506,-0.0801281,0.0611421,0.0115523,0.504242,0.0,0.0,0.0,-1.0
1020235991,1020235120,-0.448445,0.146377,0.0112355,0.50303,0.0,0.0,0.0,-1.0
1020338599,1020337739,-0.330076,-0.0128009,0.0102218,0.50303,0.0,0.0,0.0,-1.0
1020441228,1020440359,-0.332707,-0.0141714,0.00762343,0.50303,0.0,0.0,0.0,-1.0
1020538859,1020537973,-0.481298,0.0817804,-0.00224989,0.50303,0.0,0.0,0.0,-1.0
1020638947,1020638090,-0.293284,0.150937,-0.00708213,0.50303,0.0,0.0,0.0,-1.0
1020736560,1020735705,0.550499,0.00922906,-0.0153842,0.501818,0.0,0.0,0.0,-1.0
1020839183,1020838324,0.481843,-0.00314784,-0.0164544,0.511515,0.0,0.0,0.0,-1.0
1020936794,1020935938,0.0444472,0.0626671,-0.0126262,0.539394,0.0,0.0,0.0,-1.0
1021039415,1021038557,-0.156151,0.0926935,0.00121568,0.539394,0.0,0.0,0.0,-1.0
1021139531,1021138674,-0.397756,0.07739,-0.0207865,0.538182,0.0,0.0,0.0,-1.0
1021237170,1021236297,-0.146494,-0.00119444,-0.0411794,0.53697,0.0,0.0,0.0,-1.0
1021339765,1021338908,0.151981,-0.0306725,-0.0280249,0.539394,0.0,0.0,0.0,-1.0
1021437378,1021436523,0.318711,0.0610758,-0.0431754,0.539394,0.0,0.0,0.0,-1.0
1021539999,1021539142,0.161737,-0.00561076,-0.0435471,0.538182,0.0,0.0,0.0,-1.0
1021637625,1021636756,0.0731828,0.130428,-0.0414924,0.539394,0.0,0.0,0.0,-1.0
1021737728,1021736873,-0.0958224,-0.0150138,-0.0253346,0.538182,0.0,0.0,0.0,-1.0
1021837848,1021836990,-0.318936,0.0451081,-0.0104256,0.538182,0.0,0.0,0.0,-1.0
1021937962,1021937107,-0.443242,0.0818582,-0.0177972,0.53697,0.0,0.0,0.0,-1.0
1022040584,1022039727,-0.509814,0.0119205,-0.0215708,0.53697,0.0,0.0,0.0,-1.0
1022138198,1022137344,0.0119635,0.0343071,-0.0328537,0.53697,0.0,0.0,0.0,-1.0
1022238333,1022237458,0.11567,0.0928409,-0.0409764,0.538182,0.0,0.0,0.0,-1.0
1022335934,1022335075,0.240649,0.021032,-0.0333561,0.535758,0.0,0.0,0.0,-1.0
1022438546,1022437692,0.255954,0.0364827,-0.0271081,0.484218,0.0,0.0,0.0,-1.0
1022541172,1022540315,0.293931,0.117567,-0.015271,0.485236,0.0,0.0,0.0,-1.0
1022638795,1022637939,-0.186286,0.0375337,-0.00841832,0.485236,0.0,0.0,0.0,-1.0
1022738896,1022738043,-0.36515,0.0800813,-0.011692,0.485236,0.0,0.0,0.0,-1.0
1022836514,1022835658,-0.158691,0.0886038,-0.0206468,0.484218,0.0,0.0,0.0,-1.0
1022939134,1022938282,-0.00275643,0.0551207,-0.0296253,0.484218,0.0,0.0,0.0,-1.0
1023036749,1023035892,0.421513,0.00408569,-0.0279085,0.484218,0.0,0.0,0.0,-1.0
1023139366,1023138512,0.313739,0.120826,-0.0320913,0.484218,0.0,0.0,0.0,-1.0
1023239485,1023238629,0.169795,-0.0727465,-0.0303682,0.4832,0.0,0.0,0.0,-1.0
1023337113,1023336253,-0.461836,0.0184975,-0.0371722,0.4832,0.0,0.0,0.0,-1.0
1023439722,1023438863,-0.590081,0.118512,-0.0539046,0.484218,0.0,0.0,0.0,-1.0
1023537346,1023536477,-0.00277725,0.0890259,-0.0630287,0.484218,0.0,0.0,0.0,-1.0
1023639951,1023639097,-0.111246,-0.0118656,-0.0516256,0.484218,0.0,0.0,0.0,-1.0
1023737572,1023736711,0.512608,-0.0406522,-0.0712593,0.4832,0.0,0.0,0.0,-1.0
1023837685,1023836829,0.261029,0.157463,-0.0733437,0.4832,0.0,0.0,0.0,-1.0
1023937816,1023936946,0.00883001,0.170211,-0.0723737,0.485236,0.0,0.0,0.0,-1.0
1024037934,1024037063,-0.387803,0.0750329,-0.0667845,0.485236,0.0,0.0,0.0,-1.0
1024140557,1024139683,-0.273153,0.173897,-0.0798379,0.4832,0.0,0.0,0.0,-1.0
1024238156,1024237299,-0.404898,0.0809711,-0.0711224,0.484218,0.0,0.0,0.0,-1.0
1024338282,1024337415,-0.0543218,0.0101495,-0.0846226,0.4832,0.0,0.0,0.0,-1.0
1024435907,1024435041,0.32194,0.112797,-0.0800951,0.4832,0.0,0.0,0.0,-1.0
1024538505,1024537649,0.54785,0.01276,-0.0805396,0.4832,0.0,0.0,0.0,-1.0
1024641139,1024640275,0.322996,0.031331,-0.0878209,0.4832,0.0,0.0,0.0,-1.0
1024738744,1024737885,0.299213,0.146828,-0.0731731,0.4832,0.0,0.0,0.0,-1.0
1024838860,1024838000,0.0466538,0.114225,-0.0629463,0.4832,0.0,0.0,0.0,-1.0
1024936474,1024935615,-0.477461,0.0530119,-0.0523162,0.4832,0.0,0.0,0.0,-1.0
1025039101,1025038235,-0.577801,0.0508183,-0.0445376,0.484218,0.0,0.0,0.0,-1.0
1025136732,1025135867,0.174211,0.133102,-0.0528093,0.484218,0.0,0.0,0.0,-1.0
1025239338,1025238469,0.224783,0.0149812,-0.0394448,0.485236,0.0,0.0,0.0,-1.0
