timestamp,x,y,z,r,flaps,aux1,aux2,aux3,aux4,aux5,aux6,mode_switch,return_switch,rattitude_switch,posctl_switch,loiter_switch,acro_switch,offboard_switch,kill_switch,arm_switch,transition_switch,gear_switch,mode_slot,data_source,stab_switch,man_switch
948823949,0.0,0.0,0.0351515,1.0,0.0,0.0,0.0,0.0,0.0,0.0,0.0,0,0,0,0,0,0,0,0,0,0,0,4,1,0,0
948843975,0.0,0.0,0.0339394,1.0,0.0,0.0,0.0,0.0,0.0,0.0,0.0,0,0,0,0,0,0,0,0,0,0,0,4,1,0,0
949034259,0.0,0.0,0.0327273,0.920398,0.0,0.0,0.0,0.0,0.0,0.0,0.0,0,0,0,0,0,0,0,0,0,0,0,4,1,0,0
949224406,0.0,0.0,0.0339394,0.0273632,0.0,0.0,0.0,0.0,0.0,0.0,0.0,0,0,0,0,0,0,0,0,0,0,0,4,1,0,0
949432431,0.0,0.0,0.0327273,0.0,0.0,0.0,0.0,0.0,0.0,0.0,0.0,0,0,0,0,0,0,0,0,0,0,0,4,1,0,0
949624938,0.0,0.0,0.0339394,0.0,0.0,0.0,0.0,0.0,0.0,0.0,0.0,0,0,0,0,0,0,0,0,0,0,0,4,1,0,0
949832901,0.0,0.0,0.0339394,0.0,0.0,0.0,0.0,0.0,0.0,0.0,0.0,0,0,0,0,0,0,0,0,0,0,0,4,1,0,0
950038142,0.0,0.0,0.0339394,0.0,0.0,0.0,0.0,0.0,0.0,0.0,0.0,0,0,0,0,0,0,0,0,0,0,0,4,1,0,0
950228517,0.0,0.0,0.0327273,0.0,0.0,0.0,0.0,0.0,0.0,0.0,0.0,0,0,0,0,0,0,0,0,0,0,0,4,1,0,0
950434550,0.0,0.0,0.150303,0.0,0.0,0.0,0.0,0.0,0.0,0.0,0.0,0,0,0,0,0,0,0,0,0,0,0,4,1,0,0
950621097,0.0,0.0,0.158788,0.0,0.0,0.0,0.0,0.0,0.0,0.0,0.0,0,0,0,0,0,0,0,0,0,0,0,4,1,0,0
950831300,0.0,0.0,0.157576,0.0,0.0,0.0,0.0,0.0,0.0,0.0,0.0,0,0,0,0,0,0,0,0,0,0,0,4,1,0,0
951021666,0.0,0.0,0.153939,0.0,0.0,0.0,0.0,0.0,0.0,0.0,0.0,0,0,0,0,0,0,0,0,0,0,0,4,1,0,0
951231898,0.0,0.0,0.187879,0.0,0.0,0.0,0.0,0.0,0.0,0.0,0.0,0,0,0,0,0,0,0,0,0,0,0,4,1,0,0
951419783,0.0,0.0,0.195152,0.0,0.0,0.0,0.0,0.0,0.0,0.0,0.0,0,0,0,0,0,0,0,0,0,0,0,4,1,0,0
951632351,0.0,0.0,0.224242,0.0,0.0,0.0,0.0,0.0,0.0,0.0,0.0,0,0,0,0,0,0,0,0,0,0,0,4,1,0,0
951822576,0.0,0.0,0.264242,0.0,0.0,0.0,0.0,0.0,0.0,0.0,0.0,0,0,0,0,0,0,0,0,0,0,0,4,1,0,0
952040523,0.0,0.0,0.266667,0.0,0.0,0.0,0.0,0.0,0.0,0.0,0.0,0,0,0,0,0,0,0,0,0,0,0,4,1,0,0
952223044,0.0,0.0,0.289697,0.0,0.0,0.0,0.0,0.0,0.0,0.0,0.0,0,0,0,0,0,0,0,0,0,0,0,4,1,0,0
952433191,0.0,0.0,0.357576,0.0,0.0,0.0,0.0,0.0,0.0,0.0,0.0,0,0,0,0,0,0,0,0,0,0,0,4,1,0,0
952639021,0.0,0.0,0.36,0.0,0.0,0.0,0.0,0.0,0.0,0.0,0.0,0,0,0,0,0,0,0,0,0,0,0,4,1,0,0
952818744,0.0,0.0,0.361212,0.0,0.0,0.0,0.0,0.0,0.0,0.0,0.0,0,0,0,0,0,0,0,0,0,0,0,4,1,0,0
953036678,0.0,0.0,0.358788,0.0,0.0,0.0,0.0,0.0,0.0,0.0,0.0,0,0,0,0,0,0,0,0,0,0,0,4,1,0,0
953219128,0.0,0.0,0.362424,0.0,0.0,0.0,0.0,0.0,0.0,0.0,0.0,0,0,0,0,0,0,0,0,0,0,0,4,1,0,0
953429371,0.0,0.1125,0.364848,0.0,0.0,0.0,0.0,0.0,0.0,0.0,0.0,0,0,0,0,0,0,0,0,0,0,0,4,1,0,0
953619601,0.0,0.1125,0.363636,0.0,0.0,0.0,0.0,0.0,0.0,0.0,0.0,0,0,0,0,0,0,0,0,0,0,0,4,1,0,0
953833527,0.0,0.12,0.364848,0.0,0.0,0.0,0.0,0.0,0.0,0.0,0.0,0,0,0,0,0,0,0,0,0,0,0,4,1,0,0
954028121,0.0,0.0275,0.362424,0.0,0.0,0.0,0.0,0.0,0.0,0.0,0.0,0,0,0,0,0,0,0,0,0,0,0,4,1,0,0
954238099,0.0,0.0,0.398788,0.0,0.0,0.0,0.0,0.0,0.0,0.0,0.0,0,0,0,0,0,0,0,0,0,0,0,4,1,0,0
954420561,0.0,0.0,0.420606,0.0,0.0,0.0,0.0,0.0,0.0,0.0,0.0,0,0,0,0,0,0,0,0,0,0,0,4,1,0,0
954640905,0.0,0.0,0.420606,0.0,0.0,0.0,0.0,0.0,0.0,0.0,0.0,0,0,0,0,0,0,0,0,0,0,0,4,1,0,0
954831015,0.0,0.0,0.420606,0.0,0.0,0.0,0.0,0.0,0.0,0.0,0.0,0,0,0,0,0,0,0,0,0,0,0,4,1,0,0
955031253,0.0,0.2025,0.42303,0.0,0.0,0.0,0.0,0.0,0.0,0.0,0.0,0,0,0,0,0,0,0,0,0,0,0,4,1,0,0
955221472,0.0,0.1775,0.420606,0.0,0.0,0.0,0.0,0.0,0.0,0.0,0.0,0,0,0,0,0,0,0,0,0,0,0,4,1,0,0
955429608,0.126551,0.135,0.420606,0.0,0.0,0.0,0.0,0.0,0.0,0.0,0.0,0,0,0,0,0,0,0,0,0,0,0,4,1,0,0
955635687,0.220844,0.085,0.421818,0.0,0.0,0.0,0.0,0.0,0.0,0.0,0.0,0,0,0,0,0,0,0,0,0,0,0,4,1,0,0
955819956,0.220844,0.085,0.420606,0.0,0.0,0.0,0.0,0.0,0.0,0.0,0.0,0,0,0,0,0,0,0,0,0,0,0,4,1,0,0
956030322,0.101737,0.08,0.419394,0.0,0.0,0.0,0.0,0.0,0.0,0.0,0.0,0,0,0,0,0,0,0,0,0,0,0,4,1,0,0
956225918,0.0,0.0,0.420606,0.0,0.0,0.0,0.0,0.0,0.0,0.0,0.0,0,0,0,0,0,0,0,0,0,0,0,4,1,0,0
956432936,0.0,0.0,0.438788,0.0,0.0,0.0,0.0,0.0,0.0,0.0,0.0,0,0,0,0,0,0,0,0,0,0,0,4,1,0,0
956620895,0.0,0.0,0.431515,0.0,0.0,0.0,0.0,0.0,0.0,0.0,0.0,0,0,0,0,0,0,0,0,0,0,0,4,1,0,0
956823380,0.0,0.0,0.432727,0.0,0.0,0.0,0.0,0.0,0.0,0.0,0.0,0,0,0,0,0,0,0,0,0,0,0,4,1,0,0
957033624,0.0,0.0,0.429091,0.0,0.0,0.0,0.0,0.0,0.0,0.0,0.0,0,0,0,0,0,0,0,0,0,0,0,4,1,0,0
957233895,0.0,0.0,0.429091,0.0,0.0,0.0,0.0,0.0,0.0,0.0,0.0,0,0,0,0,0,0,0,0,0,0,0,4,1,0,0
957427827,0.0,0.0,0.430303,0.0,0.0,0.0,0.0,0.0,0.0,0.0,0.0,0,0,0,0,0,0,0,0,0,0,0,4,1,0,0
957624350,0.0,0.0,0.430303,0.0,0.0,0.0,0.0,0.0,0.0,0.0,0.0,0,0,0,0,0,0,0,0,0,0,0,4,1,0,0
957838252,0.0,0.0,0.429091,0.0,0.0,0.0,0.0,0.0,0.0,0.0,0.0,0,0,0,0,0,0,0,0,0,0,0,4,1,0,0
958022541,0.0,0.0,0.429091,0.0,0.0,0.0,0.0,0.0,0.0,0.0,0.0,0,0,0,0,0,0,0,0,0,0,0,4,1,0,0
958225052,0.0,0.0,0.446061,0.0,0.0,0.0,0.0,0.0,0.0,0.0,0.0,0,0,0,0,0,0,0,0,0,0,0,4,1,0,0
958433030,0.0,0.0,0.460606,0.0,0.0,0.0,0.0,0.0,0.0,0.0,0.0,0,0,0,0,0,0,0,0,0,0,0,4,1,0,0
958635607,0.0,0.0,0.461818,0.0,0.0,0.0,0.0,0.0,0.0,0.0,0.0,0,0,0,0,0,0,0,0,0,0,0,4,1,0,0
958839059,0.0,0.0,0.461818,0.0,0.0,0.0,0.0,0.0,0.0,0.0,0.0,0,0,0,0,0,0,0,0,0,0,0,4,1,0,0
959025967,0.0,0.0,0.455758,0.0,0.0,0.0,0.0,0.0,0.0,0.0,0.0,0,0,0,0,0,0,0,0,0,0,0,4,1,0,0
959229931,0.0,0.0,0.45697,0.0,0.0,0.0,0.0,0.0,0.0,0.0,0.0,0,0,0,0,0,0,0,0,0,0,0,4,1,0,0
959420109,0.0347395,0.0,0.444848,0.0,0.0,0.0,0.0,0.0,0.0,0.0,0.0,0,0,0,0,0,0,0,0,0,0,0,4,1,0,0
959631701,0.0471464,0.0,0.443636,0.0,0.0,0.0,0.0,0.0,0.0,0.0,0.0,0,0,0,0,0,0,0,0,0,0,0,4,1,0,0
959821879,0.104218,0.0,0.446061,0.0,0.0,0.0,0.0,0.0,0.0,0.0,0.0,0,0,0,0,0,0,0,0,0,0,0,4,1,0,0
960025927,0.104218,0.0,0.446061,0.0,0.0,0.0,0.0,0.0,0.0,0.0,0.0,0,0,0,0,0,0,0,0,0,0,0,4,1,0,0
960220142,0.104218,0.0,0.446061,0.0,0.0,0.0,0.0,0.0,0.0,0.0,0.0,0,0,0,0,0,0,0,0,0,0,0,4,1,0,0
960432780,0.057072,0.0,0.444848,0.0,0.0,0.0,0.0,0.0,0.0,0.0,0.0,0,0,0,0,0,0,0,0,0,0,0,4,1,0,0
960622867,0.0272953,0.085,0.446061,0.0,0.0,0.0,0.0,0.0,0.0,0.0,0.0,0,0,0,0,0,0,0,0,0,0,0,4,1,0,0
960833201,0.00496278,0.0275,0.446061,0.0,0.0,0.0,0.0,0.0,0.0,0.0,0.0,0,0,0,0,0,0,0,0,0,0,0,4,1,0,0
961023325,0.0,0.0,0.446061,0.0,0.0,0.0,0.0,0.0,0.0,0.0,0.0,0,0,0,0,0,0,0,0,0,0,0,4,1,0,0
961221323,0.0,0.0,0.446061,0.0,0.0,0.0,0.0,0.0,0.0,0.0,0.0,0,0,0,0,0,0,0,0,0,0,0,4,1,0,0
961423796,0.0,0.1375,0.444848,0.0,0.0,0.0,0.0,0.0,0.0,0.0,0.0,0,0,0,0,0,0,0,0,0,0,0,4,1,0,0
961624020,0.0,0.2175,0.446061,0.0,0.0,0.0,0.0,0.0,0.0,0.0,0.0,0,0,0,0,0,0,0,0,0,0,0,4,1,0,0
961829248,0.0,0.2275,0.446061,0.0,0.0,0.0,0.0,0.0,0.0,0.0,0.0,0,0,0,0,0,0,0,0,0,0,0,4,1,0,0
962033325,0.0,0.0325,0.442424,0.0,0.0,0.0,0.0,0.0,0.0,0.0,0.0,0,0,0,0,0,0,0,0,0,0,0,4,1,0,0
962223521,0.0,0.0,0.450909,0.0,0.0,0.0,0.0,0.0,0.0,0.0,0.0,0,0,0,0,0,0,0,0,0,0,0,4,1,0,0
962433726,0.0,0.0,0.461818,0.0,0.0,0.0,0.0,0.0,0.0,0.0,0.0,0,0,0,0,0,0,0,0,0,0,0,4,1,0,0
962623879,0.0,0.0,0.450909,0.0,0.0,0.0,0.0,0.0,0.0,0.0,0.0,0,0,0,0,0,0,0,0,0,0,0,4,1,0,0
962838197,0.0,0.0,0.454545,0.0,0.0,0.0,0.0,0.0,0.0,0.0,0.0,0,0,0,0,0,0,0,0,0,0,0,4,1,0,0
963040674,0.0372208,0.0,0.454545,0.0,0.0,0.0,0.0,0.0,0.0,0.0,0.0,0,0,0,0,0,0,0,0,0,0,0,4,1,0,0
963228672,0.0272953,0.0,0.454545,0.0,0.0,0.0,0.0,0.0,0.0,0.0,0.0,0,0,0,0,0,0,0,0,0,0,0,4,1,0,0
963431134,0.0,0.0,0.453333,0.0,0.0,0.0,0.0,0.0,0.0,0.0,0.0,0,0,0,0,0,0,0,0,0,0,0,4,1,0,0
963639148,0.0,-0.0464548,0.450909,0.0,0.0,0.0,0.0,0.0,0.0,0.0,0.0,0,0,0,0,0,0,0,0,0,0,0,4,1,0,0
963821598,0.0,-0.117359,0.450909,0.0,0.0,0.0,0.0,0.0,0.0,0.0,0.0,0,0,0,0,0,0,0,0,0,0,0,4,1,0,0
964031868,0.0,-0.158924,0.450909,0.0,0.0,0.0,0.0,0.0,0.0,0.0,0.0,0,0,0,0,0,0,0,0,0,0,0,4,1,0,0
964215872,0.0,-0.176039,0.450909,0.0,0.0,0.0,0.0,0.0,0.0,0.0,0.0,0,0,0,0,0,0,0,0,0,0,0,4,1,0,0
964422438,0.0,0.0,0.450909,0.0,0.0,0.0,0.0,0.0,0.0,0.0,0.0,0,0,0,0,0,0,0,0,0,0,0,4,1,0,0
964630382,0.0,0.0,0.483636,0.0,0.0,0.0,0.0,0.0,0.0,0.0,0.0,0,0,0,0,0,0,0,0,0,0,0,4,1,0,0
964832778,0.0,0.0,0.48,0.0,0.0,0.0,0.0,0.0,0.0,0.0,0.0,0,0,0,0,0,0,0,0,0,0,0,4,1,0,0
965023016,0.0,0.1525,0.48,0.0,0.0,0.0,0.0,0.0,0.0,0.0,0.0,0,0,0,0,0,0,0,0,0,0,0,4,1,0,0
965223258,0.0,0.17,0.48,0.0,0.0,0.0,0.0,0.0,0.0,0.0,0.0,0,0,0,0,0,0,0,0,0,0,0,4,1,0,0
965433477,0.0,0.19,0.48,0.0,0.0,0.0,0.0,0.0,0.0,0.0,0.0,0,0,0,0,0,0,0,0,0,0,0,4,1,0,0
965637456,0.0,0.1825,0.48,0.0,0.0,0.0,0.0,0.0,0.0,0.0,0.0,0,0,0,0,0,0,0,0,0,0,0,4,1,0,0
965827633,-0.0074813,0.1575,0.48,0.0,0.0,0.0,0.0,0.0,0.0,0.0,0.0,0,0,0,0,0,0,0,0,0,0,0,4,1,0,0
966024215,-0.0349127,0.0575,0.48,0.0,0.0,0.0,0.0,0.0,0.0,0.0,0.0,0,0,0,0,0,0,0,0,0,0,0,4,1,0,0
966234444,-0.0124688,0.0275,0.477576,0.0,0.0,0.0,0.0,0.0,0.0,0.0,0.0,0,0,0,0,0,0,0,0,0,0,0,4,1,0,0
966427515,-0.0299252,0.0,0.477576,0.0,0.0,0.0,0.0,0.0,0.0,0.0,0.0,0,0,0,0,0,0,0,0,0,0,0,4,1,0,0
966619874,-0.0773067,0.0,0.481212,0.0,0.0,0.0,0.0,0.0,0.0,0.0,0.0,0,0,0,0,0,0,0,0,0,0,0,4,1,0,0
966813829,-0.0673317,0.0,0.48,0.0,0.0,0.0,0.0,0.0,0.0,0.0,0.0,0,0,0,0,0,0,0,0,0,0,0,4,1,0,0
967038137,-0.0174564,0.0,0.477576,0.0,0.0,0.0,0.0,0.0,0.0,0.0,0.0,0,0,0,0,0,0,0,0,0,0,0,4,1,0,0
967228571,0.0,-0.0464548,0.478788,0.0,0.0,0.0,0.0,0.0,0.0,0.0,0.0,0,0,0,0,0,0,0,0,0,0,0,4,1,0,0
967420826,0.0,-0.117359,0.478788,0.0,0.0,0.0,0.0,0.0,0.0,0.0,0.0,0,0,0,0,0,0,0,0,0,0,0,4,1,0,0
967628914,0.0,-0.117359,0.48,0.0,0.0,0.0,0.0,0.0,0.0,0.0,0.0,0,0,0,0,0,0,0,0,0,0,0,4,1,0,0
967835151,0.0,-0.119804,0.478788,0.0,0.0,0.0,0.0,0.0,0.0,0.0,0.0,0,0,0,0,0,0,0,0,0,0,0,4,1,0,0
968034885,0.0,0.0,0.48,0.0,0.0,0.0,0.0,0.0,0.0,0.0,0.0,0,0,0,0,0,0,0,0,0,0,0,4,1,0,0
968229620,0.0,0.0,0.48,0.0,0.0,0.0,0.0,0.0,0.0,0.0,0.0,0,0,0,0,0,0,0,0,0,0,0,4,1,0,0
968422011,0.0,0.0,0.478788,0.0,0.0,0.0,0.0,0.0,0.0,0.0,0.0,0,0,0,0,0,0,0,0,0,0,0,4,1,0,0
968640015,0.0,0.0,0.48,0.0,0.0,0.0,0.0,0.0,0.0,0.0,0.0,0,0,0,0,0,0,0,0,0,0,0,4,1,0,0
968830406,0.0,0.0,0.48,0.0,0.0,0.0,0.0,0.0,0.0,0.0,0.0,0,0,0,0,0,0,0,0,0,0,0,4,1,0,0
969020542,0.0,0.0,0.481212,0.0,0.0,0.0,0.0,0.0,0.0,0.0,0.0,0,0,0,0,0,0,0,0,0,0,0,4,1,0,0
969236635,0.0,0.0,0.481212,0.0,0.0,0.0,0.0,0.0,0.0,0.0,0.0,0,0,0,0,0,0,0,0,0,0,0,4,1,0,0
969426962,0.0,0.0,0.470303,0.0,0.0,0.0,0.0,0.0,0.0,0.0,0.0,0,0,0,0,0,0,0,0,0,0,0,4,1,0,0
969633687,0.0,0.0,0.48,0.0,0.0,0.0,0.0,0.0,0.0,0.0,0.0,0,0,0,0,0,0,0,0,0,0,0,4,1,0,0
969833663,0.0,0.0,0.471515,0.0,0.0,0.0,0.0,0.0,0.0,0.0,0.0,0,0,0,0,0,0,0,0,0,0,0,4,1,0,0
970031861,0.0,0.085,0.476364,0.0,0.0,0.0,0.0,0.0,0.0,0.0,0.0,0,0,0,0,0,0,0,0,0,0,0,4,1,0,0
970224104,0.0,0.085,0.477576,0.0,0.0,0.0,0.0,0.0,0.0,0.0,0.0,0,0,0,0,0,0,0,0,0,0,0,4,1,0,0
970418013,0.0,0.125,0.476364,0.0,0.0,0.0,0.0,0.0,0.0,0.0,0.0,0,0,0,0,0,0,0,0,0,0,0,4,1,0,0
970634699,0.0,0.16,0.476364,0.0,0.0,0.0,0.0,0.0,0.0,0.0,0.0,0,0,0,0,0,0,0,0,0,0,0,4,1,0,0
970824801,0.0,0.1525,0.477576,0.0,0.0,0.0,0.0,0.0,0.0,0.0,0.0,0,0,0,0,0,0,0,0,0,0,0,4,1,0,0
971032950,0.0,0.0,0.472727,0.0,0.0,0.0,0.0,0.0,0.0,0.0,0.0,0,0,0,0,0,0,0,0,0,0,0,4,1,0,0
971233180,0.0,0.0,0.482424,0.0,0.0,0.0,0.0,0.0,0.0,0.0,0.0,0,0,0,0,0,0,0,0,0,0,0,4,1,0,0
971423295,0.0,0.0,0.482424,0.0,0.0,0.0,0.0,0.0,0.0,0.0,0.0,0,0,0,0,0,0,0,0,0,0,0,4,1,0,0
971630752,0.0,0.0,0.484848,0.0,0.0,0.0,0.0,0.0,0.0,0.0,0.0,0,0,0,0,0,0,0,0,0,0,0,4,1,0,0
971820972,0.0,0.0,0.484848,0.0,0.0,0.0,0.0,0.0,0.0,0.0,0.0,0,0,0,0,0,0,0,0,0,0,0,4,1,0,0
972021339,0.0372208,0.0,0.469091,0.0,0.0,0.0,0.0,0.0,0.0,0.0,0.0,0,0,0,0,0,0,0,0,0,0,0,4,1,0,0
972229220,0.109181,0.0,0.470303,0.0,0.0,0.0,0.0,0.0,0.0,0.0,0.0,0,0,0,0,0,0,0,0,0,0,0,4,1,0,0
972431707,0.133995,0.0,0.471515,0.0,0.0,0.0,0.0,0.0,0.0,0.0,0.0,0,0,0,0,0,0,0,0,0,0,0,4,1,0,0
972622001,0.0868486,0.0,0.470303,0.0,0.0,0.0,0.0,0.0,0.0,0.0,0.0,0,0,0,0,0,0,0,0,0,0,0,4,1,0,0
972829926,0.0,0.0,0.469091,0.0,0.0,0.0,0.0,0.0,0.0,0.0,0.0,0,0,0,0,0,0,0,0,0,0,0,4,1,0,0
973032379,0.0,-0.0513447,0.471515,0.0,0.0,0.0,0.0,0.0,0.0,0.0,0.0,0,0,0,0,0,0,0,0,0,0,0,4,1,0,0
973222651,0.0,-0.122249,0.471515,0.0,0.0,0.0,0.0,0.0,0.0,0.0,0.0,0,0,0,0,0,0,0,0,0,0,0,4,1,0,0
973426539,0.0,-0.0440098,0.477576,0.0,0.0,0.0,0.0,0.0,0.0,0.0,0.0,0,0,0,0,0,0,0,0,0,0,0,4,1,0,0
973636358,0.0,-0.00488998,0.484848,0.0,0.0,0.0,0.0,0.0,0.0,0.0,0.0,0,0,0,0,0,0,0,0,0,0,0,4,1,0,0
973827144,0.0,0.0,0.486061,0.0,0.0,0.0,0.0,0.0,0.0,0.0,0.0,0,0,0,0,0,0,0,0,0,0,0,4,1,0,0
974021332,0.0,0.0,0.484848,0.0,0.0,0.0,0.0,0.0,0.0,0.0,0.0,0,0,0,0,0,0,0,0,0,0,0,4,1,0,0
974233793,0.0,0.0,0.484848,0.0,0.0,0.0,0.0,0.0,0.0,0.0,0.0,0,0,0,0,0,0,0,0,0,0,0,4,1,0,0
974434127,0.0,0.0,0.483636,0.0,0.0,0.0,0.0,0.0,0.0,0.0,0.0,0,0,0,0,0,0,0,0,0,0,0,4,1,0,0
974638531,0.0,0.0,0.483636,0.0,0.0,0.0,0.0,0.0,0.0,0.0,0.0,0,0,0,0,0,0,0,0,0,0,0,4,1,0,0
974824578,0.0421836,0.0,0.482424,0.0,0.0,0.0,0.0,0.0,0.0,0.0,0.0,0,0,0,0,0,0,0,0,0,0,0,4,1,0,0
975034766,0.0471464,0.0,0.483636,0.0,0.0,0.0,0.0,0.0,0.0,0.0,0.0,0,0,0,0,0,0,0,0,0,0,0,4,1,0,0
975215099,0.0496278,0.0,0.484848,0.0,0.0,0.0,0.0,0.0,0.0,0.0,0.0,0,0,0,0,0,0,0,0,0,0,0,4,1,0,0
975430292,0.0,0.0,0.484848,0.0,0.0,0.0,0.0,0.0,0.0,0.0,0.0,0,0,0,0,0,0,0,0,0,0,0,4,1,0,0
975624252,-0.0274314,0.005,0.483636,0.0,0.0,0.0,0.0,0.0,0.0,0.0,0.0,0,0,0,0,0,0,0,0,0,0,0,4,1,0,0
975838452,-0.0498753,0.0175,0.483636,0.0,0.0,0.0,0.0,0.0,0.0,0.0,0.0,0,0,0,0,0,0,0,0,0,0,0,4,1,0,0
976030905,-0.032419,0.0175,0.483636,0.0,0.0,0.0,0.0,0.0,0.0,0.0,0.0,0,0,0,0,0,0,0,0,0,0,0,4,1,0,0
976224881,0.0,0.0575,0.483636,0.0,0.0,0.0,0.0,0.0,0.0,0.0,0.0,0,0,0,0,0,0,0,0,0,0,0,4,1,0,0
976439158,0.0,0.0825,0.483636,0.0,0.0,0.0,0.0,0.0,0.0,0.0,0.0,0,0,0,0,0,0,0,0,0,0,0,4,1,0,0
976631626,0.0,0.06,0.483636,0.0,0.0,0.0,0.0,0.0,0.0,0.0,0.0,0,0,0,0,0,0,0,0,0,0,0,4,1,0,0
976819709,0.0,0.06,0.483636,0.0,0.0,0.0,0.0,0.0,0.0,0.0,0.0,0,0,0,0,0,0,0,0,0,0,0,4,1,0,0
977032124,0.0,0.06,0.483636,0.0,0.0,0.0,0.0,0.0,0.0,0.0,0.0,0,0,0,0,0,0,0,0,0,0,0,4,1,0,0
977226033,0.0,0.0275,0.484848,0.0,0.0,0.0,0.0,0.0,0.0,0.0,0.0,0,0,0,0,0,0,0,0,0,0,0,4,1,0,0
977432552,0.0,0.0,0.483636,0.0,0.0,0.0,0.0,0.0,0.0,0.0,0.0,0,0,0,0,0,0,0,0,0,0,0,4,1,0,0
977622799,0.0,0.0,0.483636,0.0,0.0,0.0,0.0,0.0,0.0,0.0,0.0,0,0,0,0,0,0,0,0,0,0,0,4,1,0,0
977823000,0.0,0.0,0.483636,0.0,0.0,0.0,0.0,0.0,0.0,0.0,0.0,0,0,0,0,0,0,0,0,0,0,0,4,1,0,0
978036651,0.0,0.0,0.486061,-0.0875912,0.0,0.0,0.0,0.0,0.0,0.0,0.0,0,0,0,0,0,0,0,0,0,0,0,4,1,0,0
978231336,0.0,0.0,0.487273,-0.16545,0.0,0.0,0.0,0.0,0.0,0.0,0.0,0,0,0,0,0,0,0,0,0,0,0,4,1,0,0
978423754,0.0,0.0,0.488485,0.0,0.0,0.0,0.0,0.0,0.0,0.0,0.0,0,0,0,0,0,0,0,0,0,0,0,4,1,0,0
978634108,0.0,0.0,0.484848,0.0,0.0,0.0,0.0,0.0,0.0,0.0,0.0,0,0,0,0,0,0,0,0,0,0,0,4,1,0,0
978832123,0.0322581,0.0,0.489697,0.0,0.0,0.0,0.0,0.0,0.0,0.0,0.0,0,0,0,0,0,0,0,0,0,0,0,4,1,0,0
979028238,0.0694789,0.0,0.487273,0.0,0.0,0.0,0.0,0.0,0.0,0.0,0.0,0,0,0,0,0,0,0,0,0,0,0,4,1,0,0
979238494,0.00496278,0.0,0.487273,0.0,0.0,0.0,0.0,0.0,0.0,0.0,0.0,0,0,0,0,0,0,0,0,0,0,0,4,1,0,0
979424942,0.0,-0.0268949,0.487273,0.0,0.0,0.0,0.0,0.0,0.0,0.0,0.0,0,0,0,0,0,0,0,0,0,0,0,4,1,0,0
979622883,0.0,-0.0831296,0.486061,0.0,0.0,0.0,0.0,0.0,0.0,0.0,0.0,0,0,0,0,0,0,0,0,0,0,0,4,1,0,0
979818742,0.0,-0.0953545,0.487273,0.0,0.0,0.0,0.0,0.0,0.0,0.0,0.0,0,0,0,0,0,0,0,0,0,0,0,4,1,0,0
980033502,0.0,-0.0757946,0.487273,0.0,0.0,0.0,0.0,0.0,0.0,0.0,0.0,0,0,0,0,0,0,0,0,0,0,0,4,1,0,0
980229507,0.0,0.0,0.487273,0.0,0.0,0.0,0.0,0.0,0.0,0.0,0.0,0,0,0,0,0,0,0,0,0,0,0,4,1,0,0
980424910,0.0,0.0,0.487273,0.0,0.0,0.0,0.0,0.0,0.0,0.0,0.0,0,0,0,0,0,0,0,0,0,0,0,4,1,0,0
980631291,0.0,0.0,0.487273,0.0,0.0,0.0,0.0,0.0,0.0,0.0,0.0,0,0,0,0,0,0,0,0,0,0,0,4,1,0,0
980835283,0.0,0.0,0.489697,0.0,0.0,0.0,0.0,0.0,0.0,0.0,0.0,0,0,0,0,0,0,0,0,0,0,0,4,1,0,0
981021752,-0.0498753,0.025,0.487273,0.0,0.0,0.0,0.0,0.0,0.0,0.0,0.0,0,0,0,0,0,0,0,0,0,0,0,4,1,0,0
981229790,-0.0224439,0.035,0.487273,0.0,0.0,0.0,0.0,0.0,0.0,0.0,0.0,0,0,0,0,0,0,0,0,0,0,0,4,1,0,0
981432217,0.0,0.0,0.486061,0.0,0.0,0.0,0.0,0.0,0.0,0.0,0.0,0,0,0,0,0,0,0,0,0,0,0,4,1,0,0
981620254,0.0,0.0,0.52,0.0,0.0,0.0,0.0,0.0,0.0,0.0,0.0,0,0,0,0,0,0,0,0,0,0,0,4,1,0,0
981832705,0.0,0.0575,0.509091,0.0,0.0,0.0,0.0,0.0,0.0,0.0,0.0,0,0,0,0,0,0,0,0,0,0,0,4,1,0,0
982036706,0.0,0.1275,0.509091,0.0,0.0,0.0,0.0,0.0,0.0,0.0,0.0,0,0,0,0,0,0,0,0,0,0,0,4,1,0,0
982223159,-0.00249377,0.12,0.509091,0.0,0.0,0.0,0.0,0.0,0.0,0.0,0.0,0,0,0,0,0,0,0,0,0,0,0,4,1,0,0
982423396,0.0,0.0875,0.509091,0.0,0.0,0.0,0.0,0.0,0.0,0.0,0.0,0,0,0,0,0,0,0,0,0,0,0,4,1,0,0
982633643,0.0,0.0,0.510303,0.0,0.0,0.0,0.0,0.0,0.0,0.0,0.0,0,0,0,0,0,0,0,0,0,0,0,4,1,0,0
982837600,0.0,0.0,0.506667,0.0,0.0,0.0,0.0,0.0,0.0,0.0,0.0,0,0,0,0,0,0,0,0,0,0,0,4,1,0,0
983021871,0.0,0.0,0.506667,0.0,0.0,0.0,0.0,0.0,0.0,0.0,0.0,0,0,0,0,0,0,0,0,0,0,0,4,1,0,0
983224375,0.0,0.0,0.506667,0.0,0.0,0.0,0.0,0.0,0.0,0.0,0.0,0,0,0,0,0,0,0,0,0,0,0,4,1,0,0
983429602,0.0,0.0,0.506667,0.0,0.0,0.0,0.0,0.0,0.0,0.0,0.0,0,0,0,0,0,0,0,0,0,0,0,4,1,0,0
983637842,0.0,0.0,0.505455,0.0,0.0,0.0,0.0,0.0,0.0,0.0,0.0,0,0,0,0,0,0,0,0,0,0,0,4,1,0,0
983837866,0.0,0.0,0.506667,0.0,0.0,0.0,0.0,0.0,0.0,0.0,0.0,0,0,0,0,0,0,0,0,0,0,0,4,1,0,0
984028188,0.0,0.0,0.509091,0.0,0.0,0.0,0.0,0.0,0.0,0.0,0.0,0,0,0,0,0,0,0,0,0,0,0,4,1,0,0
984240512,0.0,0.0,0.483636,0.0,0.0,0.0,0.0,0.0,0.0,0.0,0.0,0,0,0,0,0,0,0,0,0,0,0,4,1,0,0
984428506,0.0,0.0,0.482424,0.0,0.0,0.0,0.0,0.0,0.0,0.0,0.0,0,0,0,0,0,0,0,0,0,0,0,4,1,0,0
984638764,0.0,0.0,0.48,0.0,0.0,0.0,0.0,0.0,0.0,0.0,0.0,0,0,0,0,0,0,0,0,0,0,0,4,1,0,0
984828972,0.0,0.0,0.48,0.0,0.0,0.0,0.0,0.0,0.0,0.0,0.0,0,0,0,0,0,0,0,0,0,0,0,4,1,0,0
985025257,0.0,0.0,0.48,0.0,0.0,0.0,0.0,0.0,0.0,0.0,0.0,0,0,0,0,0,0,0,0,0,0,0,4,1,0,0
985219468,0.0,0.0,0.48,0.0,0.0,0.0,0.0,0.0,0.0,0.0,0.0,0,0,0,0,0,0,0,0,0,0,0,4,1,0,0
985435638,0.0,0.0,0.48,0.0,0.0,0.0,0.0,0.0,0.0,0.0,0.0,0,0,0,0,0,0,0,0,0,0,0,4,1,0,0
985622130,0.0,0.1125,0.481212,0.0,0.0,0.0,0.0,0.0,0.0,0.0,0.0,0,0,0,0,0,0,0,0,0,0,0,4,1,0,0
985832373,0.0,0.0875,0.481212,0.0,0.0,0.0,0.0,0.0,0.0,0.0,0.0,0,0,0,0,0,0,0,0,0,0,0,4,1,0,0
986020478,0.0,0.08,0.48,0.0,0.0,0.0,0.0,0.0,0.0,0.0,0.0,0,0,0,0,0,0,0,0,0,0,0,4,1,0,0
986230614,0.0,0.0025,0.48,0.0,0.0,0.0,0.0,0.0,0.0,0.0,0.0,0,0,0,0,0,0,0,0,0,0,0,4,1,0,0
986420840,0.0,0.0,0.471515,0.0,0.0,0.0,0.0,0.0,0.0,0.0,0.0,0,0,0,0,0,0,0,0,0,0,0,4,1,0,0
986631305,0.0,0.0375,0.471515,0.0,0.0,0.0,0.0,0.0,0.0,0.0,0.0,0,0,0,0,0,0,0,0,0,0,0,4,1,0,0
986823628,0.0,0.0575,0.471515,0.0,0.0,0.0,0.0,0.0,0.0,0.0,0.0,0,0,0,0,0,0,0,0,0,0,0,4,1,0,0
987026546,0.0,0.0325,0.471515,0.0,0.0,0.0,0.0,0.0,0.0,0.0,0.0,0,0,0,0,0,0,0,0,0,0,0,4,1,0,0
987236936,0.0,0.02,0.469091,0.0,0.0,0.0,0.0,0.0,0.0,0.0,0.0,0,0,0,0,0,0,0,0,0,0,0,4,1,0,0
987439291,0.0,0.02,0.469091,0.0,0.0,0.0,0.0,0.0,0.0,0.0,0.0,0,0,0,0,0,0,0,0,0,0,0,4,1,0,0
987627275,0.0,0.0425,0.469091,0.0,0.0,0.0,0.0,0.0,0.0,0.0,0.0,0,0,0,0,0,0,0,0,0,0,0,4,1,0,0
987832954,0.0,0.0825,0.471515,0.0,0.0,0.0,0.0,0.0,0.0,0.0,0.0,0,0,0,0,0,0,0,0,0,0,0,4,1,0,0
988027761,0.0,0.15,0.471515,0.0,0.0,0.0,0.0,0.0,0.0,0.0,0.0,0,0,0,0,0,0,0,0,0,0,0,4,1,0,0
988233871,0.0,0.15,0.471515,0.0,0.0,0.0,0.0,0.0,0.0,0.0,0.0,0,0,0,0,0,0,0,0,0,0,0,4,1,0,0
988423752,0.0,0.155,0.471515,0.0,0.0,0.0,0.0,0.0,0.0,0.0,0.0,0,0,0,0,0,0,0,0,0,0,0,4,1,0,0
988638440,0.0,0.0,0.471515,0.0,0.0,0.0,0.0,0.0,0.0,0.0,0.0,0,0,0,0,0,0,0,0,0,0,0,4,1,0,0
988828639,0.0,0.0,0.469091,0.0,0.0,0.0,0.0,0.0,0.0,0.0,0.0,0,0,0,0,0,0,0,0,0,0,0,4,1,0,0
989038897,0.0,0.0,0.469091,0.0,0.0,0.0,0.0,0.0,0.0,0.0,0.0,0,0,0,0,0,0,0,0,0,0,0,4,1,0,0
989225053,0.0,0.0,0.469091,0.0,0.0,0.0,0.0,0.0,0.0,0.0,0.0,0,0,0,0,0,0,0,0,0,0,0,4,1,0,0
989419367,0.0,0.0,0.469091,0.0,0.0,0.0,0.0,0.0,0.0,0.0,0.0,0,0,0,0,0,0,0,0,0,0,0,4,1,0,0
989621807,0.0,0.0,0.467879,0.0,0.0,0.0,0.0,0.0,0.0,0.0,0.0,0,0,0,0,0,0,0,0,0,0,0,4,1,0,0
989830064,0.0,0.0,0.469091,0.0,0.0,0.0,0.0,0.0,0.0,0.0,0.0,0,0,0,0,0,0,0,0,0,0,0,4,1,0,0
990032330,0.0,0.0,0.487273,0.0,0.0,0.0,0.0,0.0,0.0,0.0,0.0,0,0,0,0,0,0,0,0,0,0,0,4,1,0,0
990222513,0.0,0.0,0.484848,0.0,0.0,0.0,0.0,0.0,0.0,0.0,0.0,0,0,0,0,0,0,0,0,0,0,0,4,1,0,0
990426537,0.0,0.0,0.481212,0.0,0.0,0.0,0.0,0.0,0.0,0.0,0.0,0,0,0,0,0,0,0,0,0,0,0,4,1,0,0
990632973,0.0,0.0,0.483636,0.0,0.0,0.0,0.0,0.0,0.0,0.0,0.0,0,0,0,0,0,0,0,0,0,0,0,4,1,0,0
990821077,0.0,0.115,0.484848,0.0,0.0,0.0,0.0,0.0,0.0,0.0,0.0,0,0,0,0,0,0,0,0,0,0,0,4,1,0,0
991027376,0.0,0.1875,0.484848,0.0,0.0,0.0,0.0,0.0,0.0,0.0,0.0,0,0,0,0,0,0,0,0,0,0,0,4,1,0,0
991226750,0.0,0.195,0.483636,0.0,0.0,0.0,0.0,0.0,0.0,0.0,0.0,0,0,0,0,0,0,0,0,0,0,0,4,1,0,0
991417591,0.0,0.13,0.484848,0.0,0.0,0.0,0.0,0.0,0.0,0.0,0.0,0,0,0,0,0,0,0,0,0,0,0,4,1,0,0
991632154,0.0,0.085,0.526061,0.0,0.0,0.0,0.0,0.0,0.0,0.0,0.0,0,0,0,0,0,0,0,0,0,0,0,4,1,0,0
991832155,0.0124069,0.0175,0.521212,0.0,0.0,0.0,0.0,0.0,0.0,0.0,0.0,0,0,0,0,0,0,0,0,0,0,0,4,1,0,0
992022381,0.0124069,0.005,0.522424,0.0,0.0,0.0,0.0,0.0,0.0,0.0,0.0,0,0,0,0,0,0,0,0,0,0,0,4,1,0,0
992224856,0.0173697,0.0,0.523636,0.0,0.0,0.0,0.0,0.0,0.0,0.0,0.0,0,0,0,0,0,0,0,0,0,0,0,4,1,0,0
992435194,0.0421836,0.0,0.521212,0.0,0.0,0.0,0.0,0.0,0.0,0.0,0.0,0,0,0,0,0,0,0,0,0,0,0,4,1,0,0
992635344,0.0645161,0.0,0.483636,0.0,0.0,0.0,0.0,0.0,0.0,0.0,0.0,0,0,0,0,0,0,0,0,0,0,0,4,1,0,0
992835571,0.044665,0.045,0.48,0.0,0.0,0.0,0.0,0.0,0.0,0.0,0.0,0,0,0,0,0,0,0,0,0,0,0,4,1,0,0
993034505,0.0,0.1675,0.481212,0.0,0.0,0.0,0.0,0.0,0.0,0.0,0.0,0,0,0,0,0,0,0,0,0,0,0,4,1,0,0
993224709,0.0,0.17,0.478788,0.0,0.0,0.0,0.0,0.0,0.0,0.0,0.0,0,0,0,0,0,0,0,0,0,0,0,4,1,0,0
993431258,0.0,0.18,0.481212,0.0,0.0,0.0,0.0,0.0,0.0,0.0,0.0,0,0,0,0,0,0,0,0,0,0,0,4,1,0,0
993619246,0.0,0.185,0.478788,0.0,0.0,0.0,0.0,0.0,0.0,0.0,0.0,0,0,0,0,0,0,0,0,0,0,0,4,1,0,0
993821724,0.0,0.0875,0.48,0.0,0.0,0.0,0.0,0.0,0.0,0.0,0.0,0,0,0,0,0,0,0,0,0,0,0,4,1,0,0
994029853,0.0,0.0,0.476364,0.0,0.0,0.0,0.0,0.0,0.0,0.0,0.0,0,0,0,0,0,0,0,0,0,0,0,4,1,0,0
994239963,0.0,0.0,0.483636,0.0,0.0,0.0,0.0,0.0,0.0,0.0,0.0,0,0,0,0,0,0,0,0,0,0,0,4,1,0,0
994436351,0.0,0.0,0.488485,0.0,0.0,0.0,0.0,0.0,0.0,0.0,0.0,0,0,0,0,0,0,0,0,0,0,0,4,1,0,0
994626469,0.0,0.0,0.486061,0.0,0.0,0.0,0.0,0.0,0.0,0.0,0.0,0,0,0,0,0,0,0,0,0,0,0,4,1,0,0
994830735,0.0,0.0,0.487273,0.0,0.0,0.0,0.0,0.0,0.0,0.0,0.0,0,0,0,0,0,0,0,0,0,0,0,4,1,0,0
995027380,0.00496278,0.0,0.486061,0.0,0.0,0.0,0.0,0.0,0.0,0.0,0.0,0,0,0,0,0,0,0,0,0,0,0,4,1,0,0
995237196,0.00496278,0.0,0.486061,0.0,0.0,0.0,0.0,0.0,0.0,0.0,0.0,0,0,0,0,0,0,0,0,0,0,0,4,1,0,0
995431406,0.0,0.0,0.481212,0.0,0.0,0.0,0.0,0.0,0.0,0.0,0.0,0,0,0,0,0,0,0,0,0,0,0,4,1,0,0
995621499,0.0,0.1525,0.488485,0.0,0.0,0.0,0.0,0.0,0.0,0.0,0.0,0,0,0,0,0,0,0,0,0,0,0,4,1,0,0
995831980,0.0,0.16,0.487273,0.0,0.0,0.0,0.0,0.0,0.0,0.0,0.0,0,0,0,0,0,0,0,0,0,0,0,4,1,0,0
996024403,0.0,0.16,0.488485,0.0,0.0,0.0,0.0,0.0,0.0,0.0,0.0,0,0,0,0,0,0,0,0,0,0,0,4,1,0,0
996222285,0.0,0.175,0.487273,0.0,0.0,0.0,0.0,0.0,0.0,0.0,0.0,0,0,0,0,0,0,0,0,0,0,0,4,1,0,0
996432625,0.0,0.1725,0.487273,0.0,0.0,0.0,0.0,0.0,0.0,0.0,0.0,0,0,0,0,0,0,0,0,0,0,0,4,1,0,0
996625046,0.0,0.06,0.488485,0.0,0.0,0.0,0.0,0.0,0.0,0.0,0.0,0,0,0,0,0,0,0,0,0,0,0,4,1,0,0
996822993,0.00496278,0.0,0.487273,0.0,0.0,0.0,0.0,0.0,0.0,0.0,0.0,0,0,0,0,0,0,0,0,0,0,0,4,1,0,0
997019257,0.0,0.0,0.487273,0.0,0.0,0.0,0.0,0.0,0.0,0.0,0.0,0,0,0,0,0,0,0,0,0,0,0,4,1,0,0
997239458,0.0,0.0,0.488485,0.0,0.0,0.0,0.0,0.0,0.0,0.0,0.0,0,0,0,0,0,0,0,0,0,0,0,4,1,0,0
997425904,0.0,0.0,0.488485,0.0,0.0,0.0,0.0,0.0,0.0,0.0,0.0,0,0,0,0,0,0,0,0,0,0,0,4,1,0,0
997634831,0.0,0.0,0.487273,0.0,0.0,0.0,0.0,0.0,0.0,0.0,0.0,0,0,0,0,0,0,0,0,0,0,0,4,1,0,0
997829262,0.0,0.0,0.494545,0.0,0.0,0.0,0.0,0.0,0.0,0.0,0.0,0,0,0,0,0,0,0,0,0,0,0,4,1,0,0
998031604,0.0,0.0,0.494545,0.0,0.0,0.0,0.0,0.0,0.0,0.0,0.0,0,0,0,0,0,0,0,0,0,0,0,4,1,0,0
998221819,0.0,0.0,0.493333,0.0,0.0,0.0,0.0,0.0,0.0,0.0,0.0,0,0,0,0,0,0,0,0,0,0,0,4,1,0,0
998425402,0.0,0.0,0.494545,0.0,0.0,0.0,0.0,0.0,0.0,0.0,0.0,0,0,0,0,0,0,0,0,0,0,0,4,1,0,0
998632298,0.0,0.0,0.526061,0.0,0.0,0.0,0.0,0.0,0.0,0.0,0.0,0,0,0,0,0,0,0,0,0,0,0,4,1,0,0
998820312,0.0,0.0,0.533333,0.0,0.0,0.0,0.0,0.0,0.0,0.0,0.0,0,0,0,0,0,0,0,0,0,0,0,4,1,0,0
999022763,0.0,0.0,0.495758,-0.0681265,0.0,0.0,0.0,0.0,0.0,0.0,0.0,0,0,0,0,0,0,0,0,0,0,0,4,1,0,0
999230881,0.0,0.0,0.481212,-0.189781,0.0,0.0,0.0,0.0,0.0,0.0,0.0,0,0,0,0,0,0,0,0,0,0,0,4,1,0,0
999433217,0.0,0.0,0.471515,-0.0948905,0.0,0.0,0.0,0.0,0.0,0.0,0.0,0,0,0,0,0,0,0,0,0,0,0,4,1,0,0
999621245,0.0,0.0,0.436364,0.0,0.0,0.0,0.0,0.0,0.0,0.0,0.0,0,0,0,0,0,0,0,0,0,0,0,4,1,0,0
999823704,0.0,0.0,0.44,0.0,0.0,0.0,0.0,0.0,0.0,0.0,0.0,0,0,0,0,0,0,0,0,0,0,0,4,1,0,0
1000033913,-0.0399003,0.0,0.442424,0.0,0.0,0.0,0.0,0.0,0.0,0.0,0.0,0,0,0,0,0,0,0,0,0,0,0,4,1,0,0
1000238903,-0.0548628,0.0,0.441212,0.0,0.0,0.0,0.0,0.0,0.0,0.0,0.0,0,0,0,0,0,0,0,0,0,0,0,4,1,0,0
1000422193,-0.0648379,0.0,0.448485,0.0,0.0,0.0,0.0,0.0,0.0,0.0,0.0,0,0,0,0,0,0,0,0,0,0,0,4,1,0,0
1000634678,-0.0473815,0.0,0.492121,0.0,0.0,0.0,0.0,0.0,0.0,0.0,0.0,0,0,0,0,0,0,0,0,0,0,0,4,1,0,0
1000834943,0.0,0.05,0.493333,0.0,0.0,0.0,0.0,0.0,0.0,0.0,0.0,0,0,0,0,0,0,0,0,0,0,0,4,1,0,0
1001022848,0.0,0.115,0.492121,0.0,0.0,0.0,0.0,0.0,0.0,0.0,0.0,0,0,0,0,0,0,0,0,0,0,0,4,1,0,0
1001235313,-0.0224439,0.1975,0.493333,0.0,0.0,0.0,0.0,0.0,0.0,0.0,0.0,0,0,0,0,0,0,0,0,0,0,0,4,1,0,0
1001435572,-0.0374065,0.2175,0.493333,0.0,0.0,0.0,0.0,0.0,0.0,0.0,0.0,0,0,0,0,0,0,0,0,0,0,0,4,1,0,0
1001615779,-0.0473815,0.22,0.489697,0.0,0.0,0.0,0.0,0.0,0.0,0.0,0.0,0,0,0,0,0,0,0,0,0,0,0,4,1,0,0
1001834729,-0.0573566,0.205,0.489697,0.0,0.0,0.0,0.0,0.0,0.0,0.0,0.0,0,0,0,0,0,0,0,0,0,0,0,4,1,0,0
1002035074,-0.0723192,0.205,0.489697,0.0,0.0,0.0,0.0,0.0,0.0,0.0,0.0,0,0,0,0,0,0,0,0,0,0,0,4,1,0,0
1002221613,0.0,0.035,0.488485,0.0,0.0,0.0,0.0,0.0,0.0,0.0,0.0,0,0,0,0,0,0,0,0,0,0,0,4,1,0,0
1002431726,0.0,0.0,0.492121,0.0,0.0,0.0,0.0,0.0,0.0,0.0,0.0,0,0,0,0,0,0,0,0,0,0,0,4,1,0,0
1002639743,0.0,0.0,0.523636,0.0,0.0,0.0,0.0,0.0,0.0,0.0,0.0,0,0,0,0,0,0,0,0,0,0,0,4,1,0,0
1002825871,0.0,0.0,0.517576,0.0,0.0,0.0,0.0,0.0,0.0,0.0,0.0,0,0,0,0,0,0,0,0,0,0,0,4,1,0,0
1003036102,-0.00997506,0.0,0.517576,0.0,0.0,0.0,0.0,0.0,0.0,0.0,0.0,0,0,0,0,0,0,0,0,0,0,0,4,1,0,0
1003226445,-0.0149626,0.0,0.486061,-0.0681265,0.0,0.0,0.0,0.0,0.0,0.0,0.0,0,0,0,0,0,0,0,0,0,0,0,4,1,0,0
1003426208,-0.0349127,0.0,0.489697,-0.233577,0.0,0.0,0.0,0.0,0.0,0.0,0.0,0,0,0,0,0,0,0,0,0,0,0,4,1,0,0
1003636798,-0.0399003,0.0,0.490909,-0.321168,0.0,0.0,0.0,0.0,0.0,0.0,0.0,0,0,0,0,0,0,0,0,0,0,0,4,1,0,0
1003821091,-0.0174564,0.0,0.489697,-0.343066,0.0,0.0,0.0,0.0,0.0,0.0,0.0,0,0,0,0,0,0,0,0,0,0,0,4,1,0,0
1004037275,-0.0374065,0.0,0.48,-0.360097,0.0,0.0,0.0,0.0,0.0,0.0,0.0,0,0,0,0,0,0,0,0,0,0,0,4,1,0,0
1004231646,-0.0374065,0.0,0.482424,-0.374696,0.0,0.0,0.0,0.0,0.0,0.0,0.0,0,0,0,0,0,0,0,0,0,0,0,4,1,0,0
1004433930,-0.0399003,0.0,0.482424,-0.374696,0.0,0.0,0.0,0.0,0.0,0.0,0.0,0,0,0,0,0,0,0,0,0,0,0,4,1,0,0
1004622063,-0.0399003,0.01,0.481212,-0.40146,0.0,0.0,0.0,0.0,0.0,0.0,0.0,0,0,0,0,0,0,0,0,0,0,0,4,1,0,0
1004829535,-0.0374065,0.0,0.487273,-0.420925,0.0,0.0,0.0,0.0,0.0,0.0,0.0,0,0,0,0,0,0,0,0,0,0,0,4,1,0,0
1005038432,-0.032419,0.0,0.484848,-0.360097,0.0,0.0,0.0,0.0,0.0,0.0,0.0,0,0,0,0,0,0,0,0,0,0,0,4,1,0,0
1005228700,0.0,0.0,0.487273,0.0,0.0,0.0,0.0,0.0,0.0,0.0,0.0,0,0,0,0,0,0,0,0,0,0,0,4,1,0,0
1005415284,0.0,0.0,0.488485,0.0,0.0,0.0,0.0,0.0,0.0,0.0,0.0,0,0,0,0,0,0,0,0,0,0,0,4,1,0,0
1005625399,0.0297767,0.0,0.482424,0.0,0.0,0.0,0.0,0.0,0.0,0.0,0.0,0,0,0,0,0,0,0,0,0,0,0,4,1,0,0
1005835706,0.131514,0.0,0.487273,0.0,0.0,0.0,0.0,0.0,0.0,0.0,0.0,0,0,0,0,0,0,0,0,0,0,0,4,1,0,0
1006033679,0.16129,0.0,0.487273,0.0,0.0,0.0,0.0,0.0,0.0,0.0,0.0,0,0,0,0,0,0,0,0,0,0,0,4,1,0,0
1006231103,0.133995,0.0,0.487273,0.0,0.0,0.0,0.0,0.0,0.0,0.0,0.0,0,0,0,0,0,0,0,0,0,0,0,4,1,0,0
1006421448,0.0,0.0575,0.487273,0.0,0.0,0.0,0.0,0.0,0.0,0.0,0.0,0,0,0,0,0,0,0,0,0,0,0,4,1,0,0
1006621591,-0.0897756,0.1175,0.487273,0.0,0.0,0.0,0.0,0.0,0.0,0.0,0.0,0,0,0,0,0,0,0,0,0,0,0,4,1,0,0
1006829600,-0.127182,0.1375,0.487273,0.0,0.0,0.0,0.0,0.0,0.0,0.0,0.0,0,0,0,0,0,0,0,0,0,0,0,4,1,0,0
1007032038,-0.134663,0.135,0.488485,0.0,0.0,0.0,0.0,0.0,0.0,0.0,0.0,0,0,0,0,0,0,0,0,0,0,0,4,1,0,0
1007220080,-0.159601,0.0,0.488485,0.0,0.0,0.0,0.0,0.0,0.0,0.0,0.0,0,0,0,0,0,0,0,0,0,0,0,4,1,0,0
1007422494,-0.209476,-0.158924,0.487273,0.0,0.0,0.0,0.0,0.0,0.0,0.0,0.0,0,0,0,0,0,0,0,0,0,0,0,4,1,0,0
1007616515,-0.239401,-0.205379,0.487273,0.0,0.0,0.0,0.0,0.0,0.0,0.0,0.0,0,0,0,0,0,0,0,0,0,0,0,4,1,0,0
1007840756,-0.249377,-0.205379,0.487273,0.0,0.0,0.0,0.0,0.0,0.0,0.0,0.0,0,0,0,0,0,0,0,0,0,0,0,4,1,0,0
1008026989,-0.246883,-0.217604,0.488485,0.0,0.0,0.0,0.0,0.0,0.0,0.0,0.0,0,0,0,0,0,0,0,0,0,0,0,4,1,0,0
1008223425,-0.201995,-0.249389,0.487273,0.0,0.0,0.0,0.0,0.0,0.0,0.0,0.0,0,0,0,0,0,0,0,0,0,0,0,4,1,0,0
1008433678,0.0,-0.205379,0.488485,0.0,0.0,0.0,0.0,0.0,0.0,0.0,0.0,0,0,0,0,0,0,0,0,0,0,0,4,1,0,0
1008623881,0.0,-0.171149,0.488485,0.0,0.0,0.0,0.0,0.0,0.0,0.0,0.0,0,0,0,0,0,0,0,0,0,0,0,4,1,0,0
1008832055,0.0,-0.127139,0.488485,0.0,0.0,0.0,0.0,0.0,0.0,0.0,0.0,0,0,0,0,0,0,0,0,0,0,0,4,1,0,0
1009024441,0.0,-0.149144,0.487273,0.0,0.0,0.0,0.0,0.0,0.0,0.0,0.0,0,0,0,0,0,0,0,0,0,0,0,4,1,0,0
1009234663,0.0,-0.281174,0.487273,0.0,0.0,0.0,0.0,0.0,0.0,0.0,0.0,0,0,0,0,0,0,0,0,0,0,0,4,1,0,0
1009418592,0.215881,-0.154034,0.487273,0.0,0.0,0.0,0.0,0.0,0.0,0.0,0.0,0,0,0,0,0,0,0,0,0,0,0,4,1,0,0
1009625101,0.454094,-0.188264,0.488485,0.0,0.0,0.0,0.0,0.0,0.0,0.0,0.0,0,0,0,0,0,0,0,0,0,0,0,4,1,0,0
1009839020,0.401985,-0.156479,0.488485,0.0,0.0,0.0,0.0,0.0,0.0,0.0,0.0,0,0,0,0,0,0,0,0,0,0,0,4,1,0,0
1010035535,0.186104,0.0,0.487273,0.0,0.0,0.0,0.0,0.0,0.0,0.0,0.0,0,0,0,0,0,0,0,0,0,0,0,4,1,0,0
1010238696,0.131514,0.0,0.487273,0.0,0.0,0.0,0.0,0.0,0.0,0.0,0.0,0,0,0,0,0,0,0,0,0,0,0,4,1,0,0
1010428762,0.138958,0.0,0.487273,0.0,0.0,0.0,0.0,0.0,0.0,0.0,0.0,0,0,0,0,0,0,0,0,0,0,0,4,1,0,0
1010618984,0.109181,0.0,0.526061,0.0,0.0,0.0,0.0,0.0,0.0,0.0,0.0,0,0,0,0,0,0,0,0,0,0,0,4,1,0,0
1010836321,0.0421836,0.0,0.526061,0.0,0.0,0.0,0.0,0.0,0.0,0.0,0.0,0,0,0,0,0,0,0,0,0,0,0,4,1,0,0
1011036968,0.0,0.0,0.501818,0.0,0.0,0.0,0.0,0.0,0.0,0.0,0.0,0,0,0,0,0,0,0,0,0,0,0,4,1,0,0
1011221938,0.0,0.0,0.49697,0.0,0.0,0.0,0.0,0.0,0.0,0.0,0.0,0,0,0,0,0,0,0,0,0,0,0,4,1,0,0
1011422289,0.0,-0.0464548,0.49697,0.0,0.0,0.0,0.0,0.0,0.0,0.0,0.0,0,0,0,0,0,0,0,0,0,0,0,4,1,0,0
1011617447,0.0,-0.0220049,0.494545,0.0,0.0,0.0,0.0,0.0,0.0,0.0,0.0,0,0,0,0,0,0,0,0,0,0,0,4,1,0,0
1011837452,0.0,-0.0220049,0.486061,0.0,0.0,0.0,0.0,0.0,0.0,0.0,0.0,0,0,0,0,0,0,0,0,0,0,0,4,1,0,0
1012022954,0.0,-0.0122249,0.484848,0.0,0.0,0.0,0.0,0.0,0.0,0.0,0.0,0,0,0,0,0,0,0,0,0,0,0,4,1,0,0
1012223209,0.0,-0.0122249,0.483636,0.0,0.0,0.0,0.0,0.0,0.0,0.0,0.0,0,0,0,0,0,0,0,0,0,0,0,4,1,0,0
1012438463,0.0,0.0,0.486061,0.0,0.0,0.0,0.0,0.0,0.0,0.0,0.0,0,0,0,0,0,0,0,0,0,0,0,4,1,0,0
1012623627,-0.074813,0.0,0.484848,0.0,0.0,0.0,0.0,0.0,0.0,0.0,0.0,0,0,0,0,0,0,0,0,0,0,0,4,1,0,0
1012821663,-0.0199501,0.0425,0.486061,0.0,0.0,0.0,0.0,0.0,0.0,0.0,0.0,0,0,0,0,0,0,0,0,0,0,0,4,1,0,0
1013034025,-0.0399003,0.1675,0.486061,0.0,0.0,0.0,0.0,0.0,0.0,0.0,0.0,0,0,0,0,0,0,0,0,0,0,0,4,1,0,0
1013222105,-0.0648379,0.1875,0.486061,0.0,0.0,0.0,0.0,0.0,0.0,0.0,0.0,0,0,0,0,0,0,0,0,0,0,0,4,1,0,0
1013432251,-0.0723192,0.185,0.486061,0.0,0.0,0.0,0.0,0.0,0.0,0.0,0.0,0,0,0,0,0,0,0,0,0,0,0,4,1,0,0
1013624764,-0.0822943,0.1875,0.486061,0.0,0.0,0.0,0.0,0.0,0.0,0.0,0.0,0,0,0,0,0,0,0,0,0,0,0,4,1,0,0
1013832956,-0.0673317,0.1525,0.484848,0.0,0.0,0.0,0.0,0.0,0.0,0.0,0.0,0,0,0,0,0,0,0,0,0,0,0,4,1,0,0
1014022953,-0.0548628,0.12,0.486061,0.0,0.0,0.0,0.0,0.0,0.0,0.0,0.0,0,0,0,0,0,0,0,0,0,0,0,4,1,0,0
1014225435,-0.0573566,0.1125,0.487273,0.0,0.0,0.0,0.0,0.0,0.0,0.0,0.0,0,0,0,0,0,0,0,0,0,0,0,4,1,0,0
1014438439,-0.032419,0.1075,0.487273,0.0,0.0,0.0,0.0,0.0,0.0,0.0,0.0,0,0,0,0,0,0,0,0,0,0,0,4,1,0,0
1014620878,-0.032419,0.0575,0.486061,0.0,0.0,0.0,0.0,0.0,0.0,0.0,0.0,0,0,0,0,0,0,0,0,0,0,0,4,1,0,0
1014818874,0.0,-0.0415648,0.486061,0.0,0.0,0.0,0.0,0.0,0.0,0.0,0.0,0,0,0,0,0,0,0,0,0,0,0,4,1,0,0
1015021423,0.0,0.0,0.523636,0.0,0.0,0.0,0.0,0.0,0.0,0.0,0.0,0,0,0,0,0,0,0,0,0,0,0,4,1,0,0
1015235287,0.0,0.0,0.523636,0.0,0.0,0.0,0.0,0.0,0.0,0.0,0.0,0,0,0,0,0,0,0,0,0,0,0,4,1,0,0
1015429577,0.0,-0.0537897,0.522424,0.0,0.0,0.0,0.0,0.0,0.0,0.0,0.0,0,0,0,0,0,0,0,0,0,0,0,4,1,0,0
1015632189,0.0,-0.0513447,0.522424,0.0,0.0,0.0,0.0,0.0,0.0,0.0,0.0,0,0,0,0,0,0,0,0,0,0,0,4,1,0,0
1015822249,0.0,-0.0440098,0.506667,0.0,0.0,0.0,0.0,0.0,0.0,0.0,0.0,0,0,0,0,0,0,0,0,0,0,0,4,1,0,0
1016026430,0.0,-0.0611247,0.504242,0.0,0.0,0.0,0.0,0.0,0.0,0.0,0.0,0,0,0,0,0,0,0,0,0,0,0,4,1,0,0
1016236571,0.0,-0.0684597,0.504242,0.0,0.0,0.0,0.0,0.0,0.0,0.0,0.0,0,0,0,0,0,0,0,0,0,0,0,4,1,0,0
1016440764,0.0,-0.0880196,0.50303,0.0,0.0,0.0,0.0,0.0,0.0,0.0,0.0,0,0,0,0,0,0,0,0,0,0,0,4,1,0,0
1016627004,0.0,-0.0782396,0.501818,0.0,0.0,0.0,0.0,0.0,0.0,0.0,0.0,0,0,0,0,0,0,0,0,0,0,0,4,1,0,0
1016831321,0.0,-0.0660147,0.50303,0.0,0.0,0.0,0.0,0.0,0.0,0.0,0.0,0,0,0,0,0,0,0,0,0,0,0,4,1,0,0
1017023782,-0.0448878,0.0,0.504242,0.0,0.0,0.0,0.0,0.0,0.0,0.0,0.0,0,0,0,0,0,0,0,0,0,0,0,4,1,0,0
1017217575,-0.0224439,0.0,0.504242,0.0,0.0,0.0,0.0,0.0,0.0,0.0,0.0,0,0,0,0,0,0,0,0,0,0,0,4,1,0,0
1017424236,-0.109726,0.08,0.501818,0.0,0.0,0.0,0.0,0.0,0.0,0.0,0.0,0,0,0,0,0,0,0,0,0,0,0,4,1,0,0
1017634374,-0.216958,0.12,0.501818,0.0,0.0,0.0,0.0,0.0,0.0,0.0,0.0,0,0,0,0,0,0,0,0,0,0,0,4,1,0,0
1017834670,-0.112219,0.0,0.504242,0.0,0.0,0.0,0.0,0.0,0.0,0.0,0.0,0,0,0,0,0,0,0,0,0,0,0,4,1,0,0
1018024824,-0.0448878,0.0,0.505455,0.159204,0.0,0.0,0.0,0.0,0.0,0.0,0.0,0,0,0,0,0,0,0,0,0,0,0,4,1,0,0
1018225099,-0.00249377,0.0,0.504242,0.174129,0.0,0.0,0.0,0.0,0.0,0.0,0.0,0,0,0,0,0,0,0,0,0,0,0,4,1,0,0
1018435310,-0.00249377,0.0,0.504242,0.174129,0.0,0.0,0.0,0.0,0.0,0.0,0.0,0,0,0,0,0,0,0,0,0,0,0,4,1,0,0
1018625156,-0.00498753,0.0,0.506667,0.176617,0.0,0.0,0.0,0.0,0.0,0.0,0.0,0,0,0,0,0,0,0,0,0,0,0,4,1,0,0
1018825864,0.0,0.0,0.504242,0.156716,0.0,0.0,0.0,0.0,0.0,0.0,0.0,0,0,0,0,0,0,0,0,0,0,0,4,1,0,0
1019033934,0.0,0.0,0.504242,0.169154,0.0,0.0,0.0,0.0,0.0,0.0,0.0,0,0,0,0,0,0,0,0,0,0,0,4,1,0,0
1019236321,0.0,0.0,0.50303,0.0,0.0,0.0,0.0,0.0,0.0,0.0,0.0,0,0,0,0,0,0,0,0,0,0,0,4,1,0,0
1019439245,0.0620347,0.0,0.50303,0.0,0.0,0.0,0.0,0.0,0.0,0.0,0.0,0,0,0,0,0,0,0,0,0,0,0,4,1,0,0
1019639823,0.0,0.0425,0.500606,0.0,0.0,0.0,0.0,0.0,0.0,0.0,0.0,0,0,0,0,0,0,0,0,0,0,0,4,1,0,0
1019829819,-0.109726,0.1775,0.50303,0.0,0.0,0.0,0.0,0.0,0.0,0.0,0.0,0,0,0,0,0,0,0,0,0,0,0,4,1,0,0
1020022178,-0.0773067,0.14,0.50303,0.0,0.0,0.0,0.0,0.0,0.0,0.0,0.0,0,0,0,0,0,0,0,0,0,0,0,4,1,0,0
1020236104,-0.074813,0.13,0.504242,0.0,0.0,0.0,0.0,0.0,0.0,0.0,0.0,0,0,0,0,0,0,0,0,0,0,0,4,1,0,0
1020432666,-0.0822943,0.1325,0.50303,0.0,0.0,0.0,0.0,0.0,0.0,0.0,0.0,0,0,0,0,0,0,0,0,0,0,0,4,1,0,0
1020628029,-0.0972569,0.1225,0.50303,0.0,0.0,0.0,0.0,0.0,0.0,0.0,0.0,0,0,0,0,0,0,0,0,0,0,0,4,1,0,0
1020826481,-0.0997506,0.115,0.511515,0.0,0.0,0.0,0.0,0.0,0.0,0.0,0.0,0,0,0,0,0,0,0,0,0,0,0,4,1,0,0
1021021102,-0.0897756,0.0875,0.539394,0.0,0.0,0.0,0.0,0.0,0.0,0.0,0.0,0,0,0,0,0,0,0,0,0,0,0,4,1,0,0
1021231353,-0.102244,0.035,0.53697,0.0,0.0,0.0,0.0,0.0,0.0,0.0,0.0,0,0,0,0,0,0,0,0,0,0,0,4,1,0,0
1021433837,-0.0897756,0.0225,0.538182,0.0,0.0,0.0,0.0,0.0,0.0,0.0,0.0,0,0,0,0,0,0,0,0,0,0,0,4,1,0,0
1021637389,0.0,0.0,0.539394,0.0,0.0,0.0,0.0,0.0,0.0,0.0,0.0,0,0,0,0,0,0,0,0,0,0,0,4,1,0,0
1021822030,0.0,0.0,0.538182,0.0,0.0,0.0,0.0,0.0,0.0,0.0,0.0,0,0,0,0,0,0,0,0,0,0,0,4,1,0,0
1022032405,0.0,0.0,0.53697,0.0,0.0,0.0,0.0,0.0,0.0,0.0,0.0,0,0,0,0,0,0,0,0,0,0,0,4,1,0,0
1022228151,0.0297767,0.0,0.538182,0.0,0.0,0.0,0.0,0.0,0.0,0.0,0.0,0,0,0,0,0,0,0,0,0,0,0,4,1,0,0
1022422732,0.0,0.0,0.481212,0.0,0.0,0.0,0.0,0.0,0.0,0.0,0.0,0,0,0,0,0,0,0,0,0,0,0,4,1,0,0
1022628909,0.0,0.0,0.482424,0.0,0.0,0.0,0.0,0.0,0.0,0.0,0.0,0,0,0,0,0,0,0,0,0,0,0,4,1,0,0
1022820426,0.0,0.0,0.481212,0.0,0.0,0.0,0.0,0.0,0.0,0.0,0.0,0,0,0,0,0,0,0,0,0,0,0,4,1,0,0
1023020684,0.0,-0.112469,0.481212,0.0,0.0,0.0,0.0,0.0,0.0,0.0,0.0,0,0,0,0,0,0,0,0,0,0,0,4,1,0,0
1023228766,0.0,-0.151589,0.48,0.0,0.0,0.0,0.0,0.0,0.0,0.0,0.0,0,0,0,0,0,0,0,0,0,0,0,4,1,0,0
1023431130,0.0,-0.151589,0.481212,0.0,0.0,0.0,0.0,0.0,0.0,0.0,0.0,0,0,0,0,0,0,0,0,0,0,0,4,1,0,0
1023621376,0.0,-0.122249,0.481212,0.0,0.0,0.0,0.0,0.0,0.0,0.0,0.0,0,0,0,0,0,0,0,0,0,0,0,4,1,0,0
1023825310,-0.0124688,0.005,0.48,0.0,0.0,0.0,0.0,0.0,0.0,0.0,0.0,0,0,0,0,0,0,0,0,0,0,0,4,1,0,0
1024035597,-0.0274314,0.05,0.48,0.0,0.0,0.0,0.0,0.0,0.0,0.0,0.0,0,0,0,0,0,0,0,0,0,0,0,4,1,0,0
1024222055,0.0,0.0,0.481212,0.0,0.0,0.0,0.0,0.0,0.0,0.0,0.0,0,0,0,0,0,0,0,0,0,0,0,4,1,0,0
1024422305,0.0,0.0,0.48,0.0,0.0,0.0,0.0,0.0,0.0,0.0,0.0,0,0,0,0,0,0,0,0,0,0,0,4,1,0,0
1024626484,0.0,0.0,0.48,0.0,0.0,0.0,0.0,0.0,0.0,0.0,0.0,0,0,0,0,0,0,0,0,0,0,0,4,1,0,0
1024836546,0.0,0.005,0.481212,0.0,0.0,0.0,0.0,0.0,0.0,0.0,0.0,0,0,0,0,0,0,0,0,0,0,0,4,1,0,0
1025023032,0.0,0.045,0.481212,0.0,0.0,0.0,0.0,0.0,0.0,0.0,0.0,0,0,0,0,0,0,0,0,0,0,0,4,1,0,0
1025223227,0.0,0.0,0.482424,0.0,0.0,0.0,0.0,0.0,0.0,0.0,0.0,0,0,0,0,0,0,0,0,0,0,0,4,1,0,0
1025423619,0.0,0.0,0.477576,0.0621891,0.0,0.0,0.0,0.0,0.0,0.0,0.0,0,0,0,0,0,0,0,0,0,0,0,4,1,0,0
1025633721,0.0,0.0,0.477576,0.0920398,0.0,0.0,0.0,0.0,0.0,0.0,0.0,0,0,0,0,0,0,0,0,0,0,0,4,1,0,0
1025833994,0.0,0.0,0.482424,0.114428,0.0,0.0,0.0,0.0,0.0,0.0,0.0,0,0,0,0,0,0,0,0,0,0,0,4,1,0,0
1026024194,0.0,0.0,0.506667,0.079602,0.0,0.0,0.0,0.0,0.0,0.0,0.0,0,0,0,0,0,0,0,0,0,0,0,4,1,0,0
1026232258,0.0,0.0,0.539394,0.0,0.0,0.0,0.0,0.0,0.0,0.0,0.0,0,0,0,0,0,0,0,0,0,0,0,4,1,0,0
1026434681,-0.0074813,0.115,0.524848,0.0,0.0,0.0,0.0,0.0,0.0,0.0,0.0,0,0,0,0,0,0,0,0,0,0,0,4,1,0,0
1026624952,-0.0448878,0.135,0.524848,0.0,0.0,0.0,0.0,0.0,0.0,0.0,0.0,0,0,0,0,0,0,0,0,0,0,0,4,1,0,0
1026825171,-0.0448878,0.1225,0.528485,0.0,0.0,0.0,0.0,0.0,0.0,0.0,0.0,0,0,0,0,0,0,0,0,0,0,0,4,1,0,0
1027035353,-0.0274314,0.1175,0.533333,0.0,0.0,0.0,0.0,0.0,0.0,0.0,0.0,0,0,0,0,0,0,0,0,0,0,0,4,1,0,0
1027220587,-0.0399003,0.12,0.533333,0.0,0.0,0.0,0.0,0.0,0.0,0.0,0.0,0,0,0,0,0,0,0,0,0,0,0,4,1,0,0
1027430860,-0.0473815,0.1175,0.527273,0.0,0.0,0.0,0.0,0.0,0.0,0.0,0.0,0,0,0,0,0,0,0,0,0,0,0,4,1,0,0
1027628831,-0.0548628,0.1125,0.523636,0.0,0.0,0.0,0.0,0.0,0.0,0.0,0.0,0,0,0,0,0,0,0,0,0,0,0,4,1,0,0
1027839076,-0.0548628,0.1125,0.524848,0.0,0.0,0.0,0.0,0.0,0.0,0.0,0.0,0,0,0,0,0,0,0,0,0,0,0,4,1,0,0
1028029310,-0.074813,0.1225,0.528485,0.0,0.0,0.0,0.0,0.0,0.0,0.0,0.0,0,0,0,0,0,0,0,0,0,0,0,4,1,0,0
1028219576,-0.0698254,0.1125,0.526061,0.0,0.0,0.0,0.0,0.0,0.0,0.0,0.0,0,0,0,0,0,0,0,0,0,0,0,4,1,0,0
1028435828,-0.0523691,0.085,0.526061,0.0,0.0,0.0,0.0,0.0,0.0,0.0,0.0,0,0,0,0,0,0,0,0,0,0,0,4,1,0,0
1028619992,-0.0224439,0.03,0.526061,0.0,0.0,0.0,0.0,0.0,0.0,0.0,0.0,0,0,0,0,0,0,0,0,0,0,0,4,1,0,0
1028822445,0.0,0.0,0.524848,0.0,0.0,0.0,0.0,0.0,0.0,0.0,0.0,0,0,0,0,0,0,0,0,0,0,0,4,1,0,0
1029026589,0.0,0.0,0.534545,0.0597015,0.0,0.0,0.0,0.0,0.0,0.0,0.0,0,0,0,0,0,0,0,0,0,0,0,4,1,0,0
1029230814,0.0,0.0,0.538182,0.11194,0.0,0.0,0.0,0.0,0.0,0.0,0.0,0,0,0,0,0,0,0,0,0,0,0,4,1,0,0
1029420933,0.0,0.0,0.538182,0.151741,0.0,0.0,0.0,0.0,0.0,0.0,0.0,0,0,0,0,0,0,0,0,0,0,0,4,1,0,0
1029637102,0.0,0.0,0.538182,0.156716,0.0,0.0,0.0,0.0,0.0,0.0,0.0,0,0,0,0,0,0,0,0,0,0,0,4,1,0,0
1029831510,0.0,0.0,0.53697,0.166667,0.0,0.0,0.0,0.0,0.0,0.0,0.0,0,0,0,0,0,0,0,0,0,0,0,4,1,0,0
1030037217,0.0,0.0,0.516364,0.0547264,0.0,0.0,0.0,0.0,0.0,0.0,0.0,0,0,0,0,0,0,0,0,0,0,0,4,1,0,0
1030234114,0.0,0.0,0.515152,0.0,0.0,0.0,0.0,0.0,0.0,0.0,0.0,0,0,0,0,0,0,0,0,0,0,0,4,1,0,0
1030422109,0.0,0.005,0.518788,0.0,0.0,0.0,0.0,0.0,0.0,0.0,0.0,0,0,0,0,0,0,0,0,0,0,0,4,1,0,0
1030632450,0.0,0.0025,0.487273,0.0,0.0,0.0,0.0,0.0,0.0,0.0,0.0,0,0,0,0,0,0,0,0,0,0,0,4,1,0,0
1030822583,0.0,0.005,0.484848,0.0,0.0,0.0,0.0,0.0,0.0,0.0,0.0,0,0,0,0,0,0,0,0,0,0,0,4,1,0,0
1031025085,-0.0548628,0.115,0.481212,0.0,0.0,0.0,0.0,0.0,0.0,0.0,0.0,0,0,0,0,0,0,0,0,0,0,0,4,1,0,0
1031215308,-0.0473815,0.1125,0.48,0.0,0.0,0.0,0.0,0.0,0.0,0.0,0.0,0,0,0,0,0,0,0,0,0,0,0,4,1,0,0
1031430553,-0.032419,0.125,0.48,0.0,0.0,0.0,0.0,0.0,0.0,0.0,0.0,0,0,0,0,0,0,0,0,0,0,0,4,1,0,0
1031630777,-0.0448878,0.125,0.481212,0.0,0.0,0.0,0.0,0.0,0.0,0.0,0.0,0,0,0,0,0,0,0,0,0,0,0,4,1,0,0
1031834759,-0.0473815,0.125,0.482424,0.0,0.0,0.0,0.0,0.0,0.0,0.0,0.0,0,0,0,0,0,0,0,0,0,0,0,4,1,0,0
1032036413,-0.0448878,0.125,0.482424,0.0,0.0,0.0,0.0,0.0,0.0,0.0,0.0,0,0,0,0,0,0,0,0,0,0,0,4,1,0,0
1032231461,0.0,0.0,0.481212,0.0,0.0,0.0,0.0,0.0,0.0,0.0,0.0,0,0,0,0,0,0,0,0,0,0,0,4,1,0,0
1032431740,0.0,0.0,0.482424,0.0,0.0,0.0,0.0,0.0,0.0,0.0,0.0,0,0,0,0,0,0,0,0,0,0,0,4,1,0,0
1032619691,0.0,0.0,0.484848,0.0,0.0,0.0,0.0,0.0,0.0,0.0,0.0,0,0,0,0,0,0,0,0,0,0,0,4,1,0,0
1032827435,0.0,0.0,0.483636,0.0,0.0,0.0,0.0,0.0,0.0,0.0,0.0,0,0,0,0,0,0,0,0,0,0,0,4,1,0,0
1033030192,0.0,0.0,0.483636,0.0,0.0,0.0,0.0,0.0,0.0,0.0,0.0,0,0,0,0,0,0,0,0,0,0,0,4,1,0,0
1033240421,0.0,0.0,0.486061,0.0,0.0,0.0,0.0,0.0,0.0,0.0,0.0,0,0,0,0,0,0,0,0,0,0,0,4,1,0,0
1033422872,0.0,0.0,0.495758,0.0,0.0,0.0,0.0,0.0,0.0,0.0,0.0,0,0,0,0,0,0,0,0,0,0,0,4,1,0,0
1033631030,0.0,0.0,0.513939,0.0,0.0,0.0,0.0,0.0,0.0,0.0,0.0,0,0,0,0,0,0,0,0,0,0,0,4,1,0,0
1033839053,0.0,0.0,0.513939,0.0,0.0,0.0,0.0,0.0,0.0,0.0,0.0,0,0,0,0,0,0,0,0,0,0,0,4,1,0,0
1034023622,0.0843672,0.0,0.512727,0.0,0.0,0.0,0.0,0.0,0.0,0.0,0.0,0,0,0,0,0,0,0,0,0,0,0,4,1,0,0
1034233823,0.191067,-0.00488998,0.538182,0.0,0.0,0.0,0.0,0.0,0.0,0.0,0.0,0,0,0,0,0,0,0,0,0,0,0,4,1,0,0
1034437804,0.16129,0.0,0.538182,0.0,0.0,0.0,0.0,0.0,0.0,0.0,0.0,0,0,0,0,0,0,0,0,0,0,0,4,1,0,0
1034624403,0.104218,0.0,0.539394,0.0,0.0,0.0,0.0,0.0,0.0,0.0,0.0,0,0,0,0,0,0,0,0,0,0,0,4,1,0,0
1034828274,0.0918114,0.0,0.538182,0.0,0.0,0.0,0.0,0.0,0.0,0.0,0.0,0,0,0,0,0,0,0,0,0,0,0,4,1,0,0
1035034759,0.171216,0.0,0.532121,0.0,0.0,0.0,0.0,0.0,0.0,0.0,0.0,0,0,0,0,0,0,0,0,0,0,0,4,1,0,0
1035218836,0.193548,0.0,0.539394,0.0,0.0,0.0,0.0,0.0,0.0,0.0,0.0,0,0,0,0,0,0,0,0,0,0,0,4,1,0,0
1035438954,0.131514,0.0,0.511515,0.0,0.0,0.0,0.0,0.0,0.0,0.0,0.0,0,0,0,0,0,0,0,0,0,0,0,4,1,0,0
1035628809,0.00496278,0.005,0.528485,0.0223881,0.0,0.0,0.0,0.0,0.0,0.0,0.0,0,0,0,0,0,0,0,0,0,0,0,4,1,0,0
1035835722,0.0,0.0,0.527273,0.233831,0.0,0.0,0.0,0.0,0.0,0.0,0.0,0,0,0,0,0,0,0,0,0,0,0,4,1,0,0
1036023727,0.0,0.0,0.527273,0.206468,0.0,0.0,0.0,0.0,0.0,0.0,0.0,0,0,0,0,0,0,0,0,0,0,0,4,1,0,0
1036226186,0.0,0.0,0.527273,0.278607,0.0,0.0,0.0,0.0,0.0,0.0,0.0,0,0,0,0,0,0,0,0,0,0,0,4,1,0,0
1036421482,0.0,0.0875,0.490909,0.0547264,0.0,0.0,0.0,0.0,0.0,0.0,0.0,0,0,0,0,0,0,0,0,0,0,0,4,1,0,0
1036631665,-0.00498753,0.2275,0.492121,0.0,0.0,0.0,0.0,0.0,0.0,0.0,0.0,0,0,0,0,0,0,0,0,0,0,0,4,1,0,0
1036819642,-0.0074813,0.23,0.492121,0.0,0.0,0.0,0.0,0.0,0.0,0.0,0.0,0,0,0,0,0,0,0,0,0,0,0,4,1,0,0
1037029876,-0.00997506,0.22,0.492121,0.0,0.0,0.0,0.0,0.0,0.0,0.0,0.0,0,0,0,0,0,0,0,0,0,0,0,4,1,0,0
1037222406,0.0372208,0.04,0.492121,0.0,0.0,0.0,0.0,0.0,0.0,0.0,0.0,0,0,0,0,0,0,0,0,0,0,0,4,1,0,0
1037432703,0.0744417,0.0,0.48,0.0,0.0,0.0,0.0,0.0,0.0,0.0,0.0,0,0,0,0,0,0,0,0,0,0,0,4,1,0,0
1037622932,0.109181,0.0,0.472727,0.0,0.0,0.0,0.0,0.0,0.0,0.0,0.0,0,0,0,0,0,0,0,0,0,0,0,4,1,0,0
1037820894,0.133995,0.0,0.483636,0.0,0.0,0.0,0.0,0.0,0.0,0.0,0.0,0,0,0,0,0,0,0,0,0,0,0,4,1,0,0
1038031148,0.16129,0.0,0.481212,0.0,0.0,0.0,0.0,0.0,0.0,0.0,0.0,0,0,0,0,0,0,0,0,0,0,0,4,1,0,0
1038223668,0.16129,0.0,0.472727,0.0,0.0,0.0,0.0,0.0,0.0,0.0,0.0,0,0,0,0,0,0,0,0,0,0,0,4,1,0,0
1038413855,0.136476,0.0,0.477576,0.0,0.0,0.0,0.0,0.0,0.0,0.0,0.0,0,0,0,0,0,0,0,0,0,0,0,4,1,0,0
1038634036,0.0669975,0.005,0.477576,0.0,0.0,0.0,0.0,0.0,0.0,0.0,0.0,0,0,0,0,0,0,0,0,0,0,0,4,1,0,0
1038821981,0.0,0.0,0.481212,0.0,0.0,0.0,0.0,0.0,0.0,0.0,0.0,0,0,0,0,0,0,0,0,0,0,0,4,1,0,0
1039022251,0.0,0.0,0.482424,0.0,0.0,0.0,0.0,0.0,0.0,0.0,0.0,0,0,0,0,0,0,0,0,0,0,0,4,1,0,0
1039232573,0.0,0.0,0.482424,0.0,0.0,0.0,0.0,0.0,0.0,0.0,0.0,0,0,0,0,0,0,0,0,0,0,0,4,1,0,0
1039425260,0.0,0.0,0.481212,0.0,0.0,0.0,0.0,0.0,0.0,0.0,0.0,0,0,0,0,0,0,0,0,0,0,0,4,1,0,0
1039622920,0.0,0.0,0.481212,0.0,0.0,0.0,0.0,0.0,0.0,0.0,0.0,0,0,0,0,0,0,0,0,0,0,0,4,1,0,0
1039833166,0.0,0.0,0.482424,0.0,0.0,0.0,0.0,0.0,0.0,0.0,0.0,0,0,0,0,0,0,0,0,0,0,0,4,1,0,0
1040025646,0.0,0.14,0.478788,0.0,0.0,0.0,0.0,0.0,0.0,0.0,0.0,0,0,0,0,0,0,0,0,0,0,0,4,1,0,0
1040233679,0.0,0.1325,0.48,0.0,0.0,0.0,0.0,0.0,0.0,0.0,0.0,0,0,0,0,0,0,0,0,0,0,0,4,1,0,0
1040423955,0.0,0.0,0.486061,0.0,0.0,0.0,0.0,0.0,0.0,0.0,0.0,0,0,0,0,0,0,0,0,0,0,0,4,1,0,0
1040639112,0.0,0.0,0.494545,0.0,0.0,0.0,0.0,0.0,0.0,0.0,0.0,0,0,0,0,0,0,0,0,0,0,0,4,1,0,0
1040821661,0.0,0.0,0.492121,0.0,0.0,0.0,0.0,0.0,0.0,0.0,0.0,0,0,0,0,0,0,0,0,0,0,0,4,1,0,0
1041025530,0.104218,0.0,0.490909,0.0,0.0,0.0,0.0,0.0,0.0,0.0,0.0,0,0,0,0,0,0,0,0,0,0,0,4,1,0,0
1041235436,0.0769231,0.0,0.493333,0.0,0.0,0.0,0.0,0.0,0.0,0.0,0.0,0,0,0,0,0,0,0,0,0,0,0,4,1,0,0
1041425987,0.0173697,0.0,0.493333,0.0,0.0,0.0,0.0,0.0,0.0,0.0,0.0,0,0,0,0,0,0,0,0,0,0,0,4,1,0,0
1041630395,0.0,0.0025,0.524848,0.0,0.0,0.0,0.0,0.0,0.0,0.0,0.0,0,0,0,0,0,0,0,0,0,0,0,4,1,0,0
1041822760,0.0,0.085,0.522424,0.0,0.0,0.0,0.0,0.0,0.0,0.0,0.0,0,0,0,0,0,0,0,0,0,0,0,4,1,0,0
1042030776,0.0,0.1125,0.521212,0.0,0.0,0.0,0.0,0.0,0.0,0.0,0.0,0,0,0,0,0,0,0,0,0,0,0,4,1,0,0
1042226982,0.0,0.045,0.521212,0.0,0.0,0.0,0.0,0.0,0.0,0.0,0.0,0,0,0,0,0,0,0,0,0,0,0,4,1,0,0
1042437156,0.0,0.0,0.521212,0.0,0.0,0.0,0.0,0.0,0.0,0.0,0.0,0,0,0,0,0,0,0,0,0,0,0,4,1,0,0
1042627498,0.0,0.005,0.52,0.0,0.0,0.0,0.0,0.0,0.0,0.0,0.0,0,0,0,0,0,0,0,0,0,0,0,4,1,0,0
1042833916,0.0,0.1425,0.521212,0.0,0.0,0.0,0.0,0.0,0.0,0.0,0.0,0,0,0,0,0,0,0,0,0,0,0,4,1,0,0
1043021909,0.0,0.115,0.52,0.0,0.0,0.0,0.0,0.0,0.0,0.0,0.0,0,0,0,0,0,0,0,0,0,0,0,4,1,0,0
1043224376,0.0,0.085,0.495758,0.0,0.0,0.0,0.0,0.0,0.0,0.0,0.0,0,0,0,0,0,0,0,0,0,0,0,4,1,0,0
1043434676,0.0,0.085,0.498182,0.0,0.0,0.0,0.0,0.0,0.0,0.0,0.0,0,0,0,0,0,0,0,0,0,0,0,4,1,0,0
1043637717,0.0,0.085,0.49697,0.0,0.0,0.0,0.0,0.0,0.0,0.0,0.0,0,0,0,0,0,0,0,0,0,0,0,4,1,0,0
1043830172,0.0,0.025,0.499394,0.0,0.0,0.0,0.0,0.0,0.0,0.0,0.0,0,0,0,0,0,0,0,0,0,0,0,4,1,0,0
1044020300,0.0,0.01,0.501818,0.0,0.0,0.0,0.0,0.0,0.0,0.0,0.0,0,0,0,0,0,0,0,0,0,0,0,4,1,0,0
1044230658,0.0,0.0,0.500606,0.0,0.0,0.0,0.0,0.0,0.0,0.0,0.0,0,0,0,0,0,0,0,0,0,0,0,4,1,0,0
1044430827,0.0,0.0,0.500606,0.0,0.0,0.0,0.0,0.0,0.0,0.0,0.0,0,0,0,0,0,0,0,0,0,0,0,4,1,0,0
1044628940,0.0,0.0,0.499394,0.0,0.0,0.0,0.0,0.0,0.0,0.0,0.0,0,0,0,0,0,0,0,0,0,0,0,4,1,0,0
1044825134,0.0,0.0,0.500606,0.0,0.0,0.0,0.0,0.0,0.0,0.0,0.0,0,0,0,0,0,0,0,0,0,0,0,4,1,0,0
1045039280,0.0,0.0,0.498182,0.0,0.0,0.0,0.0,0.0,0.0,0.0,0.0,0,0,0,0,0,0,0,0,0,0,0,4,1,0,0
1045225577,0.0,0.0,0.495758,0.0,0.0,0.0,0.0,0.0,0.0,0.0,0.0,0,0,0,0,0,0,0,0,0,0,0,4,1,0,0
1045421940,0.0,0.0,0.493333,0.0,0.0,0.0,0.0,0.0,0.0,0.0,0.0,0,0,0,0,0,0,0,0,0,0,0,4,1,0,0
1045632299,0.0,0.0,0.483636,0.0,0.0,0.0,0.0,0.0,0.0,0.0,0.0,0,0,0,0,0,0,0,0,0,0,0,4,1,0,0
1045840220,0.0223325,0.0,0.483636,0.0,0.0,0.0,0.0,0.0,0.0,0.0,0.0,0,0,0,0,0,0,0,0,0,0,0,4,1,0,0
1046022662,0.104218,-0.00244499,0.484848,0.0,0.0,0.0,0.0,0.0,0.0,0.0,0.0,0,0,0,0,0,0,0,0,0,0,0,4,1,0,0
1046216573,0.16129,-0.00244499,0.483636,0.0,0.0,0.0,0.0,0.0,0.0,0.0,0.0,0,0,0,0,0,0,0,0,0,0,0,4,1,0,0
1046431028,0.136476,0.0,0.483636,0.0,0.0,0.0,0.0,0.0,0.0,0.0,0.0,0,0,0,0,0,0,0,0,0,0,0,4,1,0,0
1046633461,0.133995,-0.00488998,0.483636,0.0,0.0,0.0,0.0,0.0,0.0,0.0,0.0,0,0,0,0,0,0,0,0,0,0,0,4,1,0,0
1046821364,0.0248139,0.0,0.483636,0.0,0.0,0.0,0.0,0.0,0.0,0.0,0.0,0,0,0,0,0,0,0,0,0,0,0,4,1,0,0
1047027522,0.0,0.0,0.484848,0.0,0.0,0.0,0.0,0.0,0.0,0.0,0.0,0,0,0,0,0,0,0,0,0,0,0,4,1,0,0
1047221839,0.0,0.0,0.486061,0.0,0.0,0.0,0.0,0.0,0.0,0.0,0.0,0,0,0,0,0,0,0,0,0,0,0,4,1,0,0
1047434348,0.0,0.005,0.484848,0.0,0.0,0.0,0.0,0.0,0.0,0.0,0.0,0,0,0,0,0,0,0,0,0,0,0,4,1,0,0
1047624546,0.0,0.085,0.486061,0.0,0.0,0.0,0.0,0.0,0.0,0.0,0.0,0,0,0,0,0,0,0,0,0,0,0,4,1,0,0
1047834917,0.0,0.135,0.484848,0.0,0.0,0.0,0.0,0.0,0.0,0.0,0.0,0,0,0,0,0,0,0,0,0,0,0,4,1,0,0
1048027925,0.0,0.14,0.484848,0.0,0.0,0.0,0.0,0.0,0.0,0.0,0.0,0,0,0,0,0,0,0,0,0,0,0,4,1,0,0
1048230276,0.0,0.1575,0.486061,0.0,0.0,0.0,0.0,0.0,0.0,0.0,0.0,0,0,0,0,0,0,0,0,0,0,0,4,1,0,0
1048438259,0.0,0.1425,0.484848,0.0,0.0,0.0,0.0,0.0,0.0,0.0,0.0,0,0,0,0,0,0,0,0,0,0,0,4,1,0,0
1048640762,0.0,0.0,0.484848,0.0,0.0,0.0,0.0,0.0,0.0,0.0,0.0,0,0,0,0,0,0,0,0,0,0,0,4,1,0,0
1048828803,0.0,0.0,0.484848,0.0,0.0,0.0,0.0,0.0,0.0,0.0,0.0,0,0,0,0,0,0,0,0,0,0,0,4,1,0,0
1049034897,-0.164589,0.0,0.487273,0.0,0.0,0.0,0.0,0.0,0.0,0.0,0.0,0,0,0,0,0,0,0,0,0,0,0,4,1,0,0
1049221395,-0.169576,-0.00733496,0.487273,0.0,0.0,0.0,0.0,0.0,0.0,0.0,0.0,0,0,0,0,0,0,0,0,0,0,0,4,1,0,0
1049429593,-0.129676,-0.0415648,0.486061,0.0,0.0,0.0,0.0,0.0,0.0,0.0,0.0,0,0,0,0,0,0,0,0,0,0,0,4,1,0,0
1049635736,-0.0972569,-0.0611247,0.484848,0.0,0.0,0.0,0.0,0.0,0.0,0.0,0.0,0,0,0,0,0,0,0,0,0,0,0,4,1,0,0
1049835487,0.0,-0.107579,0.484848,0.0,0.0,0.0,0.0,0.0,0.0,0.0,0.0,0,0,0,0,0,0,0,0,0,0,0,4,1,0,0
1050022435,0.0,-0.0611247,0.484848,0.0,0.0,0.0,0.0,0.0,0.0,0.0,0.0,0,0,0,0,0,0,0,0,0,0,0,4,1,0,0
1050232588,0.0,0.0,0.484848,0.0,0.0,0.0,0.0,0.0,0.0,0.0,0.0,0,0,0,0,0,0,0,0,0,0,0,4,1,0,0
1050432847,0.133995,0.0,0.486061,0.0,0.0,0.0,0.0,0.0,0.0,0.0,0.0,0,0,0,0,0,0,0,0,0,0,0,4,1,0,0
1050620865,0.133995,0.0,0.484848,0.0,0.0,0.0,0.0,0.0,0.0,0.0,0.0,0,0,0,0,0,0,0,0,0,0,0,4,1,0,0
1050831183,0.101737,0.0,0.481212,0.0,0.0,0.0,0.0,0.0,0.0,0.0,0.0,0,0,0,0,0,0,0,0,0,0,0,4,1,0,0
1051033538,0.0496278,0.0,0.511515,0.0,0.0,0.0,0.0,0.0,0.0,0.0,0.0,0,0,0,0,0,0,0,0,0,0,0,4,1,0,0
1051223754,0.0,0.0,0.512727,0.0,0.0,0.0,0.0,0.0,0.0,0.0,0.0,0,0,0,0,0,0,0,0,0,0,0,4,1,0,0
1051423995,0.0,0.0,0.510303,0.0,0.0,0.0,0.0,0.0,0.0,0.0,0.0,0,0,0,0,0,0,0,0,0,0,0,4,1,0,0
1051634313,-0.00249377,0.0,0.509091,0.0,0.0,0.0,0.0,0.0,0.0,0.0,0.0,0,0,0,0,0,0,0,0,0,0,0,4,1,0,0
1051822205,-0.00498753,0.0,0.505455,0.0,0.0,0.0,0.0,0.0,0.0,0.0,0.0,0,0,0,0,0,0,0,0,0,0,0,4,1,0,0
1052024683,-0.00498753,0.0,0.500606,0.0,0.0,0.0,0.0,0.0,0.0,0.0,0.0,0,0,0,0,0,0,0,0,0,0,0,4,1,0,0
1052225068,-0.0124688,0.0,0.500606,0.0,0.0,0.0,0.0,0.0,0.0,0.0,0.0,0,0,0,0,0,0,0,0,0,0,0,4,1,0,0
1052418834,-0.0149626,0.0,0.50303,0.0,0.0,0.0,0.0,0.0,0.0,0.0,0.0,0,0,0,0,0,0,0,0,0,0,0,4,1,0,0
1052625367,-0.0124688,0.0,0.50303,0.0,0.0,0.0,0.0,0.0,0.0,0.0,0.0,0,0,0,0,0,0,0,0,0,0,0,4,1,0,0
1052825736,-0.0598504,0.0,0.50303,0.0,0.0,0.0,0.0,0.0,0.0,0.0,0.0,0,0,0,0,0,0,0,0,0,0,0,4,1,0,0
1053033785,0.0,0.085,0.501818,0.0,0.0,0.0,0.0,0.0,0.0,0.0,0.0,0,0,0,0,0,0,0,0,0,0,0,4,1,0,0
1053238868,0.0,0.1675,0.501818,0.0,0.0,0.0,0.0,0.0,0.0,0.0,0.0,0,0,0,0,0,0,0,0,0,0,0,4,1,0,0
1053431318,-0.0174564,0.18,0.50303,0.0,0.0,0.0,0.0,0.0,0.0,0.0,0.0,0,0,0,0,0,0,0,0,0,0,0,4,1,0,0
1053621548,-0.0124688,0.1425,0.501818,0.0,0.0,0.0,0.0,0.0,0.0,0.0,0.0,0,0,0,0,0,0,0,0,0,0,0,4,1,0,0
1053831896,0.0,0.0,0.501818,0.0,0.0,0.0,0.0,0.0,0.0,0.0,0.0,0,0,0,0,0,0,0,0,0,0,0,4,1,0,0
1054029889,-0.0922693,0.0,0.501818,0.0,0.0,0.0,0.0,0.0,0.0,0.0,0.0,0,0,0,0,0,0,0,0,0,0,0,4,1,0,0
1054240036,-0.162095,0.0,0.50303,0.0,0.0,0.0,0.0,0.0,0.0,0.0,0.0,0,0,0,0,0,0,0,0,0,0,0,4,1,0,0
1054422514,-0.137157,0.0,0.501818,0.0,0.0,0.0,0.0,0.0,0.0,0.0,0.0,0,0,0,0,0,0,0,0,0,0,0,4,1,0,0
1054620481,-0.109726,0.0,0.50303,0.0,0.0,0.0,0.0,0.0,0.0,0.0,0.0,0,0,0,0,0,0,0,0,0,0,0,4,1,0,0
1054830858,-0.0997506,0.0,0.50303,0.0,0.0,0.0,0.0,0.0,0.0,0.0,0.0,0,0,0,0,0,0,0,0,0,0,0,4,1,0,0
1055023167,-0.102244,0.0,0.50303,0.0,0.0,0.0,0.0,0.0,0.0,0.0,0.0,0,0,0,0,0,0,0,0,0,0,0,4,1,0,0
1055221248,-0.0648379,0.0,0.501818,0.0,0.0,0.0,0.0,0.0,0.0,0.0,0.0,0,0,0,0,0,0,0,0,0,0,0,4,1,0,0
1055431585,-0.0399003,0.0,0.501818,0.0,0.0,0.0,0.0,0.0,0.0,0.0,0.0,0,0,0,0,0,0,0,0,0,0,0,4,1,0,0
1055627573,0.0,0.0,0.507879,0.0,0.0,0.0,0.0,0.0,0.0,0.0,0.0,0,0,0,0,0,0,0,0,0,0,0,4,1,0,0
1055834297,0.0,0.0,0.507879,-0.053528,0.0,0.0,0.0,0.0,0.0,0.0,0.0,0,0,0,0,0,0,0,0,0,0,0,4,1,0,0
1056034353,0.0,0.0,0.505455,-0.153285,0.0,0.0,0.0,0.0,0.0,0.0,0.0,0,0,0,0,0,0,0,0,0,0,0,4,1,0,0
1056224661,0.0,0.0,0.510303,-0.199513,0.0,0.0,0.0,0.0,0.0,0.0,0.0,0,0,0,0,0,0,0,0,0,0,0,4,1,0,0
1056418575,0.0,0.0,0.509091,-0.250608,0.0,0.0,0.0,0.0,0.0,0.0,0.0,0,0,0,0,0,0,0,0,0,0,0,4,1,0,0
1056638235,0.0,0.0,0.510303,-0.284672,0.0,0.0,0.0,0.0,0.0,0.0,0.0,0,0,0,0,0,0,0,0,0,0,0,4,1,0,0
1056830302,0.0,0.0,0.511515,-0.287105,0.0,0.0,0.0,0.0,0.0,0.0,0.0,0,0,0,0,0,0,0,0,0,0,0,4,1,0,0
1057030552,0.0,0.0,0.512727,-0.289538,0.0,0.0,0.0,0.0,0.0,0.0,0.0,0,0,0,0,0,0,0,0,0,0,0,4,1,0,0
1057230796,0.0,0.0,0.510303,-0.167883,0.0,0.0,0.0,0.0,0.0,0.0,0.0,0,0,0,0,0,0,0,0,0,0,0,4,1,0,0
1057421082,0.0,0.0,0.511515,0.0,0.0,0.0,0.0,0.0,0.0,0.0,0.0,0,0,0,0,0,0,0,0,0,0,0,4,1,0,0
1057631218,0.0,0.0,0.515152,0.0,0.0,0.0,0.0,0.0,0.0,0.0,0.0,0,0,0,0,0,0,0,0,0,0,0,4,1,0,0
1057831597,0.0,0.0,0.509091,0.0,0.0,0.0,0.0,0.0,0.0,0.0,0.0,0,0,0,0,0,0,0,0,0,0,0,4,1,0,0
1058021699,0.0,0.0,0.507879,0.0,0.0,0.0,0.0,0.0,0.0,0.0,0.0,0,0,0,0,0,0,0,0,0,0,0,4,1,0,0
1058231943,0.0,0.0,0.507879,0.0,0.0,0.0,0.0,0.0,0.0,0.0,0.0,0,0,0,0,0,0,0,0,0,0,0,4,1,0,0
1058439947,0.0,0.0,0.510303,0.0,0.0,0.0,0.0,0.0,0.0,0.0,0.0,0,0,0,0,0,0,0,0,0,0,0,4,1,0,0
1058622393,0.0,0.0,0.510303,0.0,0.0,0.0,0.0,0.0,0.0,0.0,0.0,0,0,0,0,0,0,0,0,0,0,0,4,1,0,0
1058822654,0.0,0.0,0.509091,0.0,0.0,0.0,0.0,0.0,0.0,0.0,0.0,0,0,0,0,0,0,0,0,0,0,0,4,1,0,0
1059030639,0.0,0.0,0.532121,-0.16545,0.0,0.0,0.0,0.0,0.0,0.0,0.0,0,0,0,0,0,0,0,0,0,0,0,4,1,0,0
1059238543,0.0,0.0,0.529697,-0.201946,0.0,0.0,0.0,0.0,0.0,0.0,0.0,0,0,0,0,0,0,0,0,0,0,0,4,1,0,0
1059421107,0.0,0.0,0.528485,-0.20438,0.0,0.0,0.0,0.0,0.0,0.0,0.0,0,0,0,0,0,0,0,0,0,0,0,4,1,0,0
1059633625,0.0,0.0,0.528485,-0.209246,0.0,0.0,0.0,0.0,0.0,0.0,0.0,0,0,0,0,0,0,0,0,0,0,0,4,1,0,0
1059833857,0.0,0.0,0.524848,-0.0754258,0.0,0.0,0.0,0.0,0.0,0.0,0.0,0,0,0,0,0,0,0,0,0,0,0,4,1,0,0
1060034040,0.0,0.0,0.488485,-0.0851582,0.0,0.0,0.0,0.0,0.0,0.0,0.0,0,0,0,0,0,0,0,0,0,0,0,4,1,0,0
1060229436,0.0,0.0,0.488485,0.0,0.0,0.0,0.0,0.0,0.0,0.0,0.0,0,0,0,0,0,0,0,0,0,0,0,4,1,0,0
1060434529,0.0,0.0,0.488485,-0.0194647,0.0,0.0,0.0,0.0,0.0,0.0,0.0,0,0,0,0,0,0,0,0,0,0,0,4,1,0,0
1060634858,0.0,0.0,0.490909,-0.238443,0.0,0.0,0.0,0.0,0.0,0.0,0.0,0,0,0,0,0,0,0,0,0,0,0,4,1,0,0
1060820239,0.0,0.0,0.490909,-0.364964,0.0,0.0,0.0,0.0,0.0,0.0,0.0,0,0,0,0,0,0,0,0,0,0,0,4,1,0,0
1061030336,0.0,0.0,0.490909,-0.377129,0.0,0.0,0.0,0.0,0.0,0.0,0.0,0,0,0,0,0,0,0,0,0,0,0,4,1,0,0
1061223767,0.0,0.0,0.489697,-0.367397,0.0,0.0,0.0,0.0,0.0,0.0,0.0,0,0,0,0,0,0,0,0,0,0,0,4,1,0,0
1061430699,0.0,0.0,0.490909,-0.372263,0.0,0.0,0.0,0.0,0.0,0.0,0.0,0,0,0,0,0,0,0,0,0,0,0,4,1,0,0
1061624598,0.0,0.0,0.489697,-0.379562,0.0,0.0,0.0,0.0,0.0,0.0,0.0,0,0,0,0,0,0,0,0,0,0,0,4,1,0,0
1061821129,0.0,0.0,0.489697,-0.360097,0.0,0.0,0.0,0.0,0.0,0.0,0.0,0,0,0,0,0,0,0,0,0,0,0,4,1,0,0
1062021412,0.0,0.0,0.489697,0.0,0.0,0.0,0.0,0.0,0.0,0.0,0.0,0,0,0,0,0,0,0,0,0,0,0,4,1,0,0
1062236430,0.0,0.0,0.492121,0.0,0.0,0.0,0.0,0.0,0.0,0.0,0.0,0,0,0,0,0,0,0,0,0,0,0,4,1,0,0
1062429726,0.0,0.0,0.490909,0.0,0.0,0.0,0.0,0.0,0.0,0.0,0.0,0,0,0,0,0,0,0,0,0,0,0,4,1,0,0
1062619918,0.0,-0.0611247,0.490909,0.0,0.0,0.0,0.0,0.0,0.0,0.0,0.0,0,0,0,0,0,0,0,0,0,0,0,4,1,0,0
1062827260,0.0,-0.308068,0.493333,0.0,0.0,0.0,0.0,0.0,0.0,0.0,0.0,0,0,0,0,0,0,0,0,0,0,0,4,1,0,0
1063020321,0.0,-0.337408,0.493333,0.0,0.0,0.0,0.0,0.0,0.0,0.0,0.0,0,0,0,0,0,0,0,0,0,0,0,4,1,0,0
1063220553,0.0,-0.0562347,0.538182,0.0,0.0,0.0,0.0,0.0,0.0,0.0,0.0,0,0,0,0,0,0,0,0,0,0,0,4,1,0,0
1063433132,0.0,-0.00488998,0.538182,0.0,0.0,0.0,0.0,0.0,0.0,0.0,0.0,0,0,0,0,0,0,0,0,0,0,0,4,1,0,0
1063631046,0.0,0.0,0.539394,0.0,0.0,0.0,0.0,0.0,0.0,0.0,0.0,0,0,0,0,0,0,0,0,0,0,0,4,1,0,0
1063841299,0.0,0.0,0.539394,0.0,0.0,0.0,0.0,0.0,0.0,0.0,0.0,0,0,0,0,0,0,0,0,0,0,0,4,1,0,0
1064023730,0.0,0.0,0.539394,0.0,0.0,0.0,0.0,0.0,0.0,0.0,0.0,0,0,0,0,0,0,0,0,0,0,0,4,1,0,0
1064221790,0.0,0.0,0.539394,0.0,0.0,0.0,0.0,0.0,0.0,0.0,0.0,0,0,0,0,0,0,0,0,0,0,0,4,1,0,0
1064434232,0.0,0.0,0.510303,0.0,0.0,0.0,0.0,0.0,0.0,0.0,0.0,0,0,0,0,0,0,0,0,0,0,0,4,1,0,0
1064624424,0.0,0.0,0.511515,0.0,0.0,0.0,0.0,0.0,0.0,0.0,0.0,0,0,0,0,0,0,0,0,0,0,0,4,1,0,0
1064834731,0.0,0.0,0.539394,0.0,0.0,0.0,0.0,0.0,0.0,0.0,0.0,0,0,0,0,0,0,0,0,0,0,0,4,1,0,0
1065028738,0.0,0.0,0.539394,0.0,0.0,0.0,0.0,0.0,0.0,0.0,0.0,0,0,0,0,0,0,0,0,0,0,0,4,1,0,0
1065238840,0.0,0.0,0.539394,0.0,0.0,0.0,0.0,0.0,0.0,0.0,0.0,0,0,0,0,0,0,0,0,0,0,0,4,1,0,0
1065433145,0.0,0.0,0.539394,0.0,0.0,0.0,0.0,0.0,0.0,0.0,0.0,0,0,0,0,0,0,0,0,0,0,0,4,1,0,0
1065625611,0.0,0.0,0.539394,0.0,0.0,0.0,0.0,0.0,0.0,0.0,0.0,0,0,0,0,0,0,0,0,0,0,0,4,1,0,0
1065839818,0.0,0.0,0.539394,0.0,0.0,0.0,0.0,0.0,0.0,0.0,0.0,0,0,0,0,0,0,0,0,0,0,0,4,1,0,0
1066034413,0.0,0.0,0.53697,0.0,0.0,0.0,0.0,0.0,0.0,0.0,0.0,0,0,0,0,0,0,0,0,0,0,0,4,1,0,0
1066225020,0.0,0.0,0.530909,0.0,0.0,0.0,0.0,0.0,0.0,0.0,0.0,0,0,0,0,0,0,0,0,0,0,0,4,1,0,0
1066431571,0.0,0.0,0.518788,0.0,0.0,0.0,0.0,0.0,0.0,0.0,0.0,0,0,0,0,0,0,0,0,0,0,0,4,1,0,0
1066629551,0.0,0.0,0.517576,0.0,0.0,0.0,0.0,0.0,0.0,0.0,0.0,0,0,0,0,0,0,0,0,0,0,0,4,1,0,0
1066832012,0.0,0.0,0.481212,0.0,0.0,0.0,0.0,0.0,0.0,0.0,0.0,0,0,0,0,0,0,0,0,0,0,0,4,1,0,0
1067032307,0.0,0.0,0.48,0.0,0.0,0.0,0.0,0.0,0.0,0.0,0.0,0,0,0,0,0,0,0,0,0,0,0,4,1,0,0
1067222472,0.0,-0.00733496,0.48,0.0,0.0,0.0,0.0,0.0,0.0,0.0,0.0,0,0,0,0,0,0,0,0,0,0,0,4,1,0,0
1067430614,0.0,0.0,0.486061,0.0,0.0,0.0,0.0,0.0,0.0,0.0,0.0,0,0,0,0,0,0,0,0,0,0,0,4,1,0,0
1067623067,0.0,0.0,0.486061,0.0,0.0,0.0,0.0,0.0,0.0,0.0,0.0,0,0,0,0,0,0,0,0,0,0,0,4,1,0,0
1067823195,-0.0149626,-0.0635697,0.489697,0.0,0.0,0.0,0.0,0.0,0.0,0.0,0.0,0,0,0,0,0,0,0,0,0,0,0,4,1,0,0
1068033419,0.0,-0.110024,0.487273,0.0,0.0,0.0,0.0,0.0,0.0,0.0,0.0,0,0,0,0,0,0,0,0,0,0,0,4,1,0,0
1068221424,0.0,-0.112469,0.486061,0.0,0.0,0.0,0.0,0.0,0.0,0.0,0.0,0,0,0,0,0,0,0,0,0,0,0,4,1,0,0
1068433995,-0.0249377,-0.102689,0.484848,0.0,0.0,0.0,0.0,0.0,0.0,0.0,0.0,0,0,0,0,0,0,0,0,0,0,0,4,1,0,0
1068624221,-0.226933,0.0,0.487273,0.0,0.0,0.0,0.0,0.0,0.0,0.0,0.0,0,0,0,0,0,0,0,0,0,0,0,4,1,0,0
1068834383,-0.197007,0.0,0.487273,0.0,0.0,0.0,0.0,0.0,0.0,0.0,0.0,0,0,0,0,0,0,0,0,0,0,0,4,1,0,0
1069022519,-0.179551,0.0,0.487273,0.0,0.0,0.0,0.0,0.0,0.0,0.0,0.0,0,0,0,0,0,0,0,0,0,0,0,4,1,0,0
1069232613,0.0,0.0,0.487273,0.0,0.0,0.0,0.0,0.0,0.0,0.0,0.0,0,0,0,0,0,0,0,0,0,0,0,4,1,0,0
1069425225,0.0,0.0,0.53697,0.0,0.0,0.0,0.0,0.0,0.0,0.0,0.0,0,0,0,0,0,0,0,0,0,0,0,4,1,0,0
1069635318,0.0,0.0,0.527273,0.0,0.0,0.0,0.0,0.0,0.0,0.0,0.0,0,0,0,0,0,0,0,0,0,0,0,4,1,0,0
1069819268,0.0,0.0,0.527273,0.0,0.0,0.0,0.0,0.0,0.0,0.0,0.0,0,0,0,0,0,0,0,0,0,0,0,4,1,0,0
1070034586,0.0,0.0875,0.524848,0.0,0.0,0.0,0.0,0.0,0.0,0.0,0.0,0,0,0,0,0,0,0,0,0,0,0,4,1,0,0
1070228805,-0.00249377,0.145,0.524848,0.0,0.0,0.0,0.0,0.0,0.0,0.0,0.0,0,0,0,0,0,0,0,0,0,0,0,4,1,0,0
1070424957,-0.0199501,0.14,0.527273,0.0,0.0,0.0,0.0,0.0,0.0,0.0,0.0,0,0,0,0,0,0,0,0,0,0,0,4,1,0,0
1070615297,0.0,0.0575,0.524848,0.0,0.0,0.0,0.0,0.0,0.0,0.0,0.0,0,0,0,0,0,0,0,0,0,0,0,4,1,0,0
1070835428,0.0,0.035,0.529697,0.0298507,0.0,0.0,0.0,0.0,0.0,0.0,0.0,0,0,0,0,0,0,0,0,0,0,0,4,1,0,0
1071025422,0.0,0.0,0.534545,0.0771144,0.0,0.0,0.0,0.0,0.0,0.0,0.0,0,0,0,0,0,0,0,0,0,0,0,4,1,0,0
1071236039,0.0,0.0,0.538182,0.159204,0.0,0.0,0.0,0.0,0.0,0.0,0.0,0,0,0,0,0,0,0,0,0,0,0,4,1,0,0
1071427084,0.0,0.0,0.535758,0.0,0.0,0.0,0.0,0.0,0.0,0.0,0.0,0,0,0,0,0,0,0,0,0,0,0,4,1,0,0
1071632685,0.0,0.0,0.522424,-0.201946,0.0,0.0,0.0,0.0,0.0,0.0,0.0,0,0,0,0,0,0,0,0,0,0,0,4,1,0,0
1071822902,0.0,0.0,0.516364,-0.262774,0.0,0.0,0.0,0.0,0.0,0.0,0.0,0,0,0,0,0,0,0,0,0,0,0,4,1,0,0
1072018291,0.0,0.0,0.518788,-0.243309,0.0,0.0,0.0,0.0,0.0,0.0,0.0,0,0,0,0,0,0,0,0,0,0,0,4,1,0,0
1072238125,0.0,0.0,0.511515,0.0,0.0,0.0,0.0,0.0,0.0,0.0,0.0,0,0,0,0,0,0,0,0,0,0,0,4,1,0,0
1072438474,0.0,0.0,0.482424,0.0,0.0,0.0,0.0,0.0,0.0,0.0,0.0,0,0,0,0,0,0,0,0,0,0,0,4,1,0,0
1072617210,0.0,0.0,0.483636,0.0,0.0,0.0,0.0,0.0,0.0,0.0,0.0,0,0,0,0,0,0,0,0,0,0,0,4,1,0,0
1072831860,0.0,-0.00244499,0.483636,0.0,0.0,0.0,0.0,0.0,0.0,0.0,0.0,0,0,0,0,0,0,0,0,0,0,0,4,1,0,0
1073022189,-0.0473815,-0.00244499,0.483636,0.0,0.0,0.0,0.0,0.0,0.0,0.0,0.0,0,0,0,0,0,0,0,0,0,0,0,4,1,0,0
1073229759,-0.0997506,0.0,0.484848,0.0,0.0,0.0,0.0,0.0,0.0,0.0,0.0,0,0,0,0,0,0,0,0,0,0,0,4,1,0,0
1073428530,-0.102244,0.0,0.486061,0.0,0.0,0.0,0.0,0.0,0.0,0.0,0.0,0,0,0,0,0,0,0,0,0,0,0,4,1,0,0
1073618409,-0.0922693,-0.00244499,0.484848,0.0,0.0,0.0,0.0,0.0,0.0,0.0,0.0,0,0,0,0,0,0,0,0,0,0,0,4,1,0,0
1073833044,-0.0473815,-0.0171149,0.486061,0.0,0.0,0.0,0.0,0.0,0.0,0.0,0.0,0,0,0,0,0,0,0,0,0,0,0,4,1,0,0
1074033321,0.0,-0.0366748,0.484848,0.0,0.0,0.0,0.0,0.0,0.0,0.0,0.0,0,0,0,0,0,0,0,0,0,0,0,4,1,0,0
1074233527,0.0,-0.0635697,0.484848,0.0,0.0,0.0,0.0,0.0,0.0,0.0,0.0,0,0,0,0,0,0,0,0,0,0,0,4,1,0,0
1074428776,0.0,-0.0635697,0.486061,0.0,0.0,0.0,0.0,0.0,0.0,0.0,0.0,0,0,0,0,0,0,0,0,0,0,0,4,1,0,0
1074615040,0.0,0.0,0.484848,0.0,0.0,0.0,0.0,0.0,0.0,0.0,0.0,0,0,0,0,0,0,0,0,0,0,0,4,1,0,0
1074831495,0.0,0.0,0.484848,0.0,0.0,0.0,0.0,0.0,0.0,0.0,0.0,0,0,0,0,0,0,0,0,0,0,0,4,1,0,0
1075031833,0.0,-0.00244499,0.486061,0.0,0.0,0.0,0.0,0.0,0.0,0.0,0.0,0,0,0,0,0,0,0,0,0,0,0,4,1,0,0
