timestamp,lat,lon,alt,alt_ellipsoid,delta_alt,eph,epv,terrain_alt,lat_lon_reset_counter,alt_reset_counter,terrain_alt_valid,dead_reckoning
948834169,34.0348606472,108.756698539,420.807,394.151,-0.0,1.30092,1.35361,420.701,2,0,1,0
948844178,34.0348606429,108.756698533,420.807,394.151,-0.0,1.30113,1.35378,420.701,2,0,1,0
949034405,34.0348604492,108.756698432,420.805,394.142,-0.0,1.30085,1.35329,420.695,2,0,1,0
949234638,34.0348602956,108.756698331,420.806,394.136,-0.0,1.30078,1.35366,420.695,2,0,1,0
949434877,34.0348601543,108.756698271,420.811,394.134,-0.0,1.30072,1.35336,420.695,2,0,1,0
949635110,34.034860037,108.756698234,420.818,394.132,-0.0,1.30065,1.35308,420.695,2,0,1,0
949835346,34.0348598881,108.756698129,420.819,394.126,-0.0,1.30056,1.35346,420.695,2,0,1,0
950030576,34.0348597493,108.756698099,420.817,394.115,-0.0,1.30049,1.35319,420.695,2,0,1,0
950230812,34.0348596478,108.756697992,420.814,394.103,-0.0,1.30042,1.35293,420.695,2,0,1,0
950431048,34.0348595011,108.756697963,420.806,394.087,-0.0,1.30034,1.35334,420.695,2,0,1,0
950631301,34.0348593573,108.756697945,420.802,394.074,-0.0,1.30026,1.35309,420.695,2,0,1,0
950831520,34.034859193,108.756697866,420.801,394.064,-0.0,1.30018,1.35286,420.695,2,0,1,0
951031756,34.0348590327,108.75669783,420.803,394.057,-0.0,1.30011,1.3533,420.695,2,0,1,0
951231993,34.0348588712,108.756697744,420.81,394.055,-0.0,1.30004,1.35309,420.695,2,0,1,0
951432227,34.0348586967,108.756697619,420.82,394.055,-0.0,1.29997,1.3529,420.695,2,0,1,0
951632466,34.034858552,108.756697577,420.818,394.044,-0.0,1.29991,1.35338,420.695,2,0,1,0
951832694,34.0348583673,108.75669754,420.824,394.039,-0.0,1.29986,1.3532,420.695,2,0,1,0
952032935,34.0348582217,108.75669744,420.836,394.04,-0.0,1.2998,1.35303,420.695,2,0,1,0
952233171,34.0348580989,108.756697432,420.838,394.032,-0.0,1.29977,1.35287,420.695,2,0,1,0
952433407,34.0348579283,108.756697361,420.834,394.017,-0.0,1.29971,1.35339,420.695,2,0,1,0
952633646,34.0348578033,108.756697263,420.834,394.006,-0.0,1.29966,1.35324,420.695,2,0,1,0
952828872,34.0348576723,108.756697222,420.838,393.998,-0.0,1.2996,1.35311,420.695,2,0,1,0
953029108,34.0348575524,108.7566971,420.845,393.993,-0.0,1.29955,1.35297,420.695,2,0,1,0
953229346,34.0348574835,108.756696965,420.849,393.985,-0.0,1.29951,1.35351,420.695,2,0,1,0
953439591,34.034857445,108.756696872,420.855,393.979,-0.0,1.29968,1.35356,420.695,2,0,1,0
953629819,34.034857321,108.756696917,420.86,393.971,-0.0,1.29942,1.35325,420.695,2,0,1,0
953830051,34.034857195,108.756696924,420.865,393.963,-0.0,1.29937,1.3538,420.695,2,0,1,0
954030287,34.0348570959,108.756696851,420.866,393.951,-0.0,1.29933,1.35368,0.0,2,0,0,0
954230523,34.0348569977,108.756696747,420.867,393.939,-0.0,1.2993,1.35355,0.0,2,0,0,0
954430758,34.0348568878,108.756696629,420.869,393.928,-0.0,1.29926,1.35342,0.0,2,0,0,0
954630994,34.0348567914,108.756696473,420.879,393.925,-0.0,1.29923,1.35398,0.0,2,0,0,0
954831243,34.0348566658,108.756696165,420.902,393.933,-0.0,1.29918,1.35386,0.0,2,0,0,0
955031468,34.0348564912,108.75669574,420.936,393.953,-0.0,1.29912,1.35373,0.0,2,0,0,0
955231702,34.034856383,108.756695536,420.965,393.969,-0.0,1.29907,1.35361,0.0,2,0,0,0
955431937,34.0348562622,108.756695726,420.988,393.977,-0.0,1.29902,1.35417,0.0,2,0,0,0
955632174,34.0348561801,108.756696188,420.982,393.957,-0.0,1.29897,1.35404,0.0,2,0,0,0
955832409,34.034856308,108.756696701,420.964,393.926,-0.0,1.29891,1.3539,0.0,2,0,0,0
956032645,34.0348568921,108.756697394,420.935,393.881,-0.0,1.29888,1.35446,0.0,2,0,0,0
956232881,34.0348574476,108.756698058,420.96,393.891,-0.0,1.29884,1.35432,0.0,2,0,0,0
956433129,34.0348581331,108.756698746,420.974,393.889,-0.0,1.29883,1.35416,0.0,2,0,0,0
956633353,34.0348587748,108.756699306,420.992,393.892,-0.0,1.29881,1.35398,0.0,2,0,0,0
956833590,34.0348594954,108.756699691,421.024,393.907,-0.0,1.29878,1.35447,0.0,2,0,0,0
957033824,34.0348602568,108.756699958,421.048,393.915,-0.0,1.29877,1.35423,0.0,2,0,0,0
957234060,34.0348609918,108.756700178,421.062,393.914,-0.0,1.29876,1.35467,0.0,2,0,0,0
957434299,34.0348617231,108.756700387,421.071,393.909,-0.0,1.29875,1.3544,0.0,2,0,0,0
957634531,34.0348624273,108.756700645,421.08,393.903,-0.0,1.29875,1.35412,0.0,2,0,0,0
957834769,34.0348631811,108.756700831,421.079,393.886,-0.0,1.29873,1.35383,0.0,2,0,0,0
958035011,34.034863988,108.756700958,421.063,393.856,-0.0,1.29872,1.35423,0.0,2,0,0,0
958235253,34.0348648031,108.756701233,421.033,393.812,-0.0,1.29872,1.35393,0.0,2,0,0,0
958435474,34.034865583,108.756701457,421.023,393.786,-0.0,1.29873,1.35363,0.0,2,0,0,0
958635713,34.0348663265,108.756701497,421.05,393.813,-0.0,1.29874,1.35401,0.0,2,0,0,0
958835946,34.0348670503,108.756701491,421.092,393.825,-0.0,1.29872,1.35371,0.0,2,0,0,0
959036181,34.0348678278,108.756701504,421.146,393.864,-0.0,1.29873,1.3534,0.0,2,0,0,0
959236434,34.0348685815,108.75670145,421.22,393.923,-0.0,1.29872,1.35378,0.0,2,0,0,0
959436652,34.0348693383,108.756701296,421.29,393.979,-0.0,1.2987,1.35349,0.0,2,0,0,0
959631885,34.0348700355,108.756701065,421.344,394.02,-0.0,1.29868,1.35321,0.0,2,0,0,0
959832117,34.0348708227,108.756700869,421.379,394.055,-0.0,1.29868,1.35361,0.0,2,0,0,0
960032353,34.0348717006,108.756700591,421.4,394.051,-0.0,1.29864,1.35334,0.0,2,0,0,0
960232588,34.0348727084,108.756700163,421.407,394.046,-0.0,1.29865,1.35308,0.0,2,0,0,0
960432825,34.034873889,108.756699675,421.403,394.032,-0.0,1.29866,1.35284,0.0,2,0,0,0
960633059,34.03487518,108.756699248,421.387,394.005,-0.0,1.29865,1.35327,0.0,2,0,0,0
960833296,34.0348764876,108.756698911,421.367,393.976,-0.0,1.29866,1.35305,0.0,2,0,0,0
961033530,34.0348777895,108.756698813,421.343,393.942,-0.0,1.29868,1.35284,0.0,2,0,0,0
961233765,34.0348790189,108.756698655,421.313,393.9,-0.0,1.2987,1.35264,0.0,2,0,0,0
961434000,34.0348802237,108.756698299,421.283,393.86,-0.0,1.2987,1.35311,0.0,2,0,0,0
961634249,34.0348814536,108.756698019,421.252,393.818,-0.0,1.29869,1.35292,0.0,2,0,0,0
961839477,34.0348826978,108.756698094,421.205,393.762,-0.0,1.29889,1.35292,0.0,2,0,0,0
962029702,34.0348837959,108.756698616,421.152,393.699,-0.0,1.29864,1.35323,0.0,2,0,0,0
962229935,34.0348848904,108.756699244,421.09,393.628,-0.0,1.29857,1.35372,0.0,2,0,0,0
962430170,34.0348859873,108.756699726,421.038,393.576,-0.0,1.29853,1.35353,0.0,2,0,0,0
962630406,34.0348869634,108.756700039,421.036,393.555,-0.0,1.29846,1.35334,0.0,2,0,0,0
962830641,34.0348879485,108.756700404,421.048,393.558,-0.0,1.29841,1.35384,0.0,2,0,0,0
963030876,34.0348890261,108.756700757,421.07,393.57,-0.0,1.29836,1.35367,0.0,2,0,0,0
963231111,34.0348902194,108.75670113,421.106,393.599,-0.0,1.29832,1.3535,0.0,2,0,0,0
963431347,34.0348914333,108.756701513,421.146,393.631,-0.0,1.29827,1.35402,0.0,2,0,0,0
963631582,34.034892698,108.756701863,421.181,393.658,-0.0,1.29823,1.35386,0.0,2,0,0,0
963831817,34.0348940105,108.756702122,421.216,393.687,-0.0,1.29817,1.35371,0.0,2,0,0,0
964032052,34.0348952714,108.756702203,421.249,393.714,-0.0,1.29809,1.35423,0.0,2,0,0,0
964232295,34.0348965782,108.756701943,421.264,393.724,-0.0,1.29799,1.35407,0.0,2,0,0,0
964432522,34.0348979344,108.756701213,421.25,393.703,-0.0,1.29792,1.35392,0.0,2,0,0,0
964632757,34.0348993084,108.756700431,421.217,393.67,-0.0,1.29785,1.35376,0.0,2,0,0,0
964832993,34.0349007027,108.75669977,421.182,393.623,-0.0,1.29776,1.35429,0.0,2,0,0,0
965033227,34.0349021132,108.75669915,421.157,393.591,-0.0,1.29771,1.35414,0.0,2,0,0,0
965233462,34.0349034919,108.756698639,421.123,393.55,-0.0,1.29765,1.35399,0.0,2,0,0,0
965433697,34.0349049237,108.756698689,421.094,393.514,-0.0,1.29759,1.35383,0.0,2,0,0,0
965633934,34.0349063855,108.756698923,421.075,393.488,-0.0,1.29753,1.35437,0.0,2,0,0,0
965834167,34.0349078674,108.756699233,421.074,393.48,-0.0,1.29747,1.35421,0.0,2,0,0,0
966034402,34.034909323,108.756699812,421.08,393.48,-0.0,1.29741,1.35475,0.0,2,0,0,0
966234637,34.0349107448,108.756700551,421.079,393.473,-0.0,1.29737,1.35458,0.0,2,0,0,0
966429866,34.0349120391,108.756701264,421.088,393.476,-0.0,1.29731,1.35441,0.0,2,0,0,0
966630101,34.0349133578,108.756702015,421.113,393.496,-0.0,1.29725,1.35424,0.0,2,0,0,0
966830336,34.0349145974,108.756702677,421.141,393.517,-0.0,1.29719,1.35477,0.0,2,0,0,0
967030570,34.0349156669,108.756703226,421.178,393.549,-0.0,1.29713,1.35459,0.0,2,0,0,0
967230809,34.0349166573,108.756703786,421.226,393.593,-0.0,1.29707,1.3544,0.0,2,0,0,0
967431040,34.0349176336,108.756704289,421.276,393.637,-0.0,1.29701,1.35492,0.0,2,0,0,0
967631281,34.0349185605,108.756704605,421.316,393.671,-0.0,1.29695,1.35474,0.0,2,0,0,0
967831510,34.0349194697,108.756704705,421.365,393.715,-0.0,1.29688,1.35455,0.0,2,0,0,0
968031746,34.0349203899,108.756704498,421.416,393.76,-0.0,1.29683,1.35508,0.0,2,0,0,0
968231979,34.0349213124,108.756704118,421.456,393.794,-0.0,1.29675,1.35489,0.0,2,0,0,0
968432216,34.0349222429,108.756703654,421.487,393.819,-0.0,1.29668,1.3547,0.0,2,0,0,0
968632448,34.0349231605,108.756703223,421.517,393.842,-0.0,1.29661,1.3552,0.0,2,0,0,0
968832683,34.0349240597,108.756702776,421.547,393.865,-0.0,1.29654,1.35499,0.0,2,0,0,0
969032918,34.0349249398,108.756702384,421.56,393.871,-0.0,1.29647,1.35478,0.0,2,0,0,0
969233152,34.0349257197,108.756701794,421.576,393.879,-0.0,1.29639,1.35529,0.0,2,0,0,0
969433400,34.0349264773,108.756701223,421.596,393.891,-0.0,1.29632,1.35508,0.0,2,0,0,0
969633623,34.0349272205,108.756700642,421.621,393.906,-0.0,1.29624,1.35487,0.0,2,0,0,0
969833864,34.0349280429,108.756700214,421.636,393.912,-0.0,1.29617,1.35538,0.0,2,0,0,0
970034091,34.034928839,108.756699646,421.644,393.911,-0.0,1.2961,1.35517,0.0,2,0,0,0
970234326,34.0349295883,108.756699076,421.647,393.904,-0.0,1.29603,1.35496,0.0,2,0,0,0
970434561,34.0349303087,108.756698693,421.633,393.882,-0.0,1.29595,1.35547,0.0,2,0,0,0
970634807,34.0349310034,108.756698414,421.615,393.863,-0.0,1.2959,1.35525,0.0,2,0,0,0
970835030,34.0349316687,108.75669843,421.595,393.825,-0.0,1.29584,1.35503,0.0,2,0,0,0
971035268,34.0349322563,108.756698712,421.576,393.798,-0.0,1.29581,1.35482,0.0,2,0,0,0
971235500,34.0349327997,108.756699196,421.558,393.77,-0.0,1.29577,1.35532,0.0,2,0,0,0
971430748,34.0349332976,108.756699648,421.538,393.741,-0.0,1.29573,1.3551,0.0,2,0,0,0
971630967,34.034933802,108.756700111,421.527,393.72,-0.0,1.29568,1.35489,0.0,2,0,0,0
971831198,34.0349343338,108.756700538,421.52,393.705,-0.0,1.29564,1.35539,0.0,2,0,0,0
972031433,34.0349348373,108.756701018,421.522,393.698,-0.0,1.29559,1.35518,0.0,2,0,0,0
972231667,34.0349353723,108.756701503,421.514,393.682,-0.0,1.29554,1.35496,0.0,2,0,0,0
972431905,34.0349360698,108.756702053,421.495,393.655,-0.0,1.2955,1.35475,0.0,2,0,0,0
972632138,34.0349369816,108.756702708,421.465,393.624,-0.0,1.29545,1.35525,0.0,2,0,0,0
972832372,34.0349380185,108.756703488,421.437,393.581,-0.0,1.29539,1.35504,0.0,2,0,0,0
973032611,34.0349390298,108.756704164,421.409,393.544,-0.0,1.29534,1.35484,0.0,2,0,0,0
973232841,34.0349400418,108.756704692,421.375,393.5,-0.0,1.29528,1.35463,0.0,2,0,0,0
973433075,34.0349411569,108.756704955,421.34,393.456,-0.0,1.29522,1.35514,0.0,2,0,0,0
973633310,34.0349423552,108.756704978,421.305,393.41,-0.0,1.29517,1.35493,0.0,2,0,0,0
973833545,34.0349436123,108.756704996,421.28,393.374,-0.0,1.29511,1.35473,0.0,2,0,0,0
974033779,34.0349449713,108.756705064,421.247,393.331,-0.0,1.29505,1.35524,0.0,2,0,0,0
974234014,34.0349464198,108.756705022,421.214,393.286,-0.0,1.295,1.35503,0.0,2,0,0,0
974434285,34.0349479256,108.756704935,421.185,393.247,-0.0,1.29493,1.35483,0.0,2,0,0,0
974634483,34.0349495146,108.756704778,421.16,393.209,-0.0,1.29487,1.35463,0.0,2,0,0,0
974834718,34.0349511695,108.75670455,421.15,393.187,-0.0,1.2948,1.35513,0.0,2,0,0,0
975034953,34.0349529594,108.756704233,421.139,393.163,-0.0,1.29473,1.35492,0.0,2,0,0,0
975235189,34.0349549287,108.756703844,421.148,393.159,-0.0,1.29466,1.35471,0.0,2,0,0,0
975430425,34.0349569819,108.756703558,421.175,393.173,-0.0,1.29458,1.35521,0.0,2,0,0,0
975640662,34.0349592076,108.756703211,421.219,393.204,-0.0,1.29472,1.3552,0.0,2,0,0,0
975830885,34.0349611986,108.756702959,421.261,393.234,-0.0,1.29442,1.35549,0.0,2,0,0,0
976031120,34.0349632023,108.756702646,421.304,393.265,-0.0,1.29435,1.35526,0.0,2,0,0,0
976231355,34.0349651122,108.756702472,421.356,393.304,-0.0,1.29429,1.35502,0.0,2,0,0,0
976431589,34.0349669091,108.756702316,421.393,393.331,-0.0,1.29422,1.35551,0.0,2,0,0,0
976631827,34.0349686845,108.756702265,421.426,393.363,-0.0,1.29416,1.35528,0.0,2,0,0,0
976832058,34.0349703734,108.756702458,421.448,393.362,-0.0,1.29407,1.35505,0.0,2,0,0,0
977032293,34.034971975,108.756702646,421.469,393.371,-0.0,1.29401,1.35483,0.0,2,0,0,0
977232527,34.0349735105,108.75670291,421.493,393.395,-0.0,1.29398,1.35532,0.0,2,0,0,0
977432762,34.0349750552,108.75670319,421.526,393.404,-0.0,1.29391,1.35509,0.0,2,0,0,0
977632996,34.0349765743,108.756703484,421.556,393.422,-0.0,1.29386,1.35486,0.0,2,0,0,0
977833231,34.0349780412,108.75670376,421.575,393.431,-0.0,1.29381,1.35535,0.0,2,0,0,0
978033471,34.0349794784,108.75670399,421.595,393.439,-0.0,1.29377,1.35512,0.0,2,0,0,0
978233703,34.0349809044,108.756704269,421.606,393.437,-0.0,1.29373,1.3549,0.0,2,0,0,0
978433934,34.0349823061,108.756704549,421.596,393.415,-0.0,1.29368,1.35539,0.0,2,0,0,0
978634170,34.0349836916,108.756704757,421.6,393.407,-0.0,1.29363,1.35517,0.0,2,0,0,0
978834403,34.0349850373,108.756704969,421.604,393.398,-0.0,1.29359,1.35495,0.0,2,0,0,0
979034637,34.0349863979,108.756705289,421.605,393.387,-0.0,1.29355,1.35473,0.0,2,0,0,0
979234871,34.0349878589,108.75670566,421.596,393.364,-0.0,1.2935,1.35523,0.0,2,0,0,0
979435106,34.0349894009,108.756705969,421.58,393.335,-0.0,1.29345,1.35502,0.0,2,0,0,0
979635341,34.0349909735,108.756706265,421.56,393.302,-0.0,1.29339,1.35481,0.0,2,0,0,0
979835575,34.0349924968,108.75670641,421.535,393.263,-0.0,1.29334,1.3546,0.0,2,0,0,0
980035809,34.0349939857,108.756706317,421.511,393.226,-0.0,1.29329,1.3551,0.0,2,0,0,0
980236046,34.0349954464,108.756706006,421.496,393.196,-0.0,1.29323,1.3549,0.0,2,0,0,0
980431278,34.0349968593,108.756705565,421.487,393.173,-0.0,1.29318,1.35469,0.0,2,0,0,0
980631507,34.0349983546,108.756705036,421.475,393.146,-0.0,1.29313,1.35519,0.0,2,0,0,0
980831744,34.0349998741,108.75670446,421.44,393.097,-0.0,1.29308,1.35499,0.0,2,0,0,0
981031975,34.0350013984,108.756703786,421.389,393.033,-0.0,1.29303,1.35478,0.0,2,0,0,0
981232210,34.0350027852,108.756703044,421.343,392.974,-0.0,1.29297,1.35457,0.0,2,0,0,0
981432444,34.0350041269,108.756702359,421.29,392.908,-0.0,1.29296,1.35508,0.0,2,0,0,0
981632682,34.0350054788,108.75670172,421.25,392.855,-0.0,1.29297,1.35487,0.0,2,0,0,0
981832916,34.035006883,108.756701197,421.228,392.819,-0.0,1.29299,1.35467,0.0,2,0,0,0
982033147,34.0350083325,108.756700852,421.215,392.793,-0.0,1.29301,1.35518,0.0,2,0,0,0
982233381,34.0350098197,108.756700687,421.219,392.784,-0.0,1.29304,1.35498,0.0,2,0,0,0
982433615,34.0350113361,108.75670081,421.244,392.798,-0.0,1.29307,1.35478,0.0,2,0,0,0
982633850,34.0350128806,108.756701192,421.278,392.821,-0.0,1.2931,1.35458,0.0,2,0,0,0
982834084,34.035014441,108.756701794,421.317,392.848,-0.0,1.29311,1.35509,0.0,2,0,0,0
983034318,34.0350159245,108.756702281,421.353,392.874,-0.0,1.29312,1.35489,0.0,2,0,0,0
983234552,34.0350173708,108.756702461,421.409,392.919,-0.0,1.29314,1.35469,0.0,2,0,0,0
983429781,34.0350187531,108.756702738,421.461,392.962,-0.0,1.29314,1.35449,0.0,2,0,0,0
983630015,34.0350201131,108.756703107,421.534,393.036,-0.0,1.29314,1.355,0.0,2,0,0,0
983830249,34.0350213899,108.75670333,421.624,393.105,-0.0,1.29312,1.3548,0.0,2,0,0,0
984040495,34.0350227133,108.756703554,421.729,393.202,-0.0,1.2933,1.35479,0.0,2,0,0,0
984230724,34.0350238791,108.756703718,421.834,393.297,-0.0,1.29308,1.3551,0.0,2,0,0,0
984430954,34.0350250471,108.756703729,421.941,393.396,-0.0,1.29307,1.3549,0.0,2,0,0,0
984631193,34.0350261261,108.756703653,422.042,393.489,-0.0,1.29304,1.3554,0.0,2,0,0,0
984831420,34.0350271688,108.756703513,422.134,393.573,-0.0,1.29303,1.35518,0.0,2,0,0,0
985031654,34.0350282307,108.756703281,422.212,393.644,-0.0,1.29301,1.35496,0.0,2,0,0,0
985231888,34.0350291712,108.756702917,422.291,393.716,-0.0,1.29299,1.35474,0.0,2,0,0,0
985432123,34.0350300685,108.75670252,422.363,393.78,-0.0,1.29296,1.35524,0.0,2,0,0,0
985632357,34.0350310054,108.756702186,422.434,393.843,-0.0,1.29289,1.35502,0.0,2,0,0,0
985832591,34.0350318901,108.756701859,422.504,393.905,-0.0,1.29279,1.3548,0.0,2,0,0,0
986032831,34.0350327952,108.756701685,422.585,393.978,-0.0,1.29268,1.3553,0.0,2,0,0,0
986233059,34.0350336918,108.756701527,422.678,394.064,-0.0,1.29254,1.35509,0.0,2,0,0,0
986433294,34.0350345936,108.756701412,422.781,394.16,-0.0,1.29241,1.35488,0.0,2,0,0,0
986633528,34.0350355127,108.756701301,422.88,394.252,-0.0,1.29228,1.35536,0.0,2,0,0,0
986833762,34.0350363991,108.756701246,422.972,394.338,-0.0,1.29216,1.35513,0.0,2,0,0,0
987039002,34.035037337,108.75670118,423.053,394.411,-0.0,1.29225,1.3551,0.0,2,0,0,0
987239236,34.0350382713,108.756701003,423.115,394.468,-0.0,1.29217,1.35559,0.0,2,0,0,0
987429459,34.0350391557,108.756700661,423.166,394.511,-0.0,1.29194,1.35516,0.0,2,0,0,0
987629693,34.0350401047,108.756700295,423.193,394.53,-0.0,1.2919,1.35565,0.0,2,0,0,0
987829928,34.0350410288,108.756699932,423.196,394.526,-0.0,1.29187,1.35541,0.0,2,0,0,0
988030162,34.0350419366,108.756699605,423.196,394.517,-0.0,1.29189,1.35518,0.0,2,0,0,0
988240407,34.0350428133,108.756699475,423.19,394.503,-0.0,1.29211,1.35515,0.0,2,0,0,0
988430637,34.0350435304,108.756699667,423.187,394.491,-0.0,1.29195,1.35545,0.0,2,0,0,0
988630864,34.0350442803,108.756700015,423.151,394.454,-0.0,1.29197,1.35523,0.0,2,0,0,0
988831098,34.0350449903,108.756700594,423.1,394.385,-0.0,1.29199,1.35501,0.0,2,0,0,0
989031333,34.0350455907,108.756701156,423.043,394.319,-0.0,1.29202,1.3548,0.0,2,0,0,0
989231570,34.0350461025,108.756701516,422.973,394.24,-0.0,1.29207,1.3553,0.0,2,0,0,0
989431800,34.0350464876,108.756701865,422.899,394.158,-0.0,1.2921,1.35509,0.0,2,0,0,0
989632034,34.0350468795,108.756702055,422.811,394.06,-0.0,1.29214,1.35489,0.0,2,0,0,0
989832276,34.0350472615,108.756702021,422.71,393.95,-0.0,1.29216,1.3554,0.0,2,0,0,0
990032502,34.0350475696,108.756701959,422.603,393.832,-0.0,1.29219,1.35519,0.0,2,0,0,0
990232744,34.0350478186,108.756701883,422.501,393.72,-0.0,1.29221,1.35499,0.0,2,0,0,0
990432969,34.0350480669,108.756701617,422.403,393.611,-0.0,1.29223,1.35479,0.0,2,0,0,0
990633205,34.035048293,108.75670123,422.293,393.49,-0.0,1.29227,1.3553,0.0,2,0,0,0
990833436,34.0350484409,108.756700697,422.168,393.355,-0.0,1.29228,1.35511,0.0,2,0,0,0
991033670,34.0350485518,108.756700216,422.049,393.225,-0.0,1.29228,1.35491,0.0,2,0,0,0
991233905,34.0350486917,108.756699875,421.914,393.078,-0.0,1.2923,1.35472,0.0,2,0,0,0
991434136,34.0350488217,108.756699891,421.769,392.922,-0.0,1.29229,1.35524,0.0,2,0,0,0
991634373,34.0350489679,108.756700091,421.615,392.757,-0.0,1.29227,1.35504,0.0,2,0,0,0
991834603,34.0350491286,108.756700415,421.471,392.601,-0.0,1.29226,1.35484,0.0,2,0,0,0
992034836,34.0350494043,108.75670086,421.354,392.474,-0.0,1.29227,1.35537,0.0,2,0,0,0
992235070,34.0350498144,108.756701155,421.27,392.378,-0.0,1.29229,1.35517,0.0,2,0,0,0
992435307,34.0350504606,108.756701267,421.228,392.326,-0.0,1.29233,1.35498,0.0,2,0,0,0
992635537,34.035051201,108.756701198,421.237,392.325,-0.0,1.29236,1.35479,0.0,2,0,0,0
992835772,34.0350520909,108.756701088,421.253,392.331,-0.0,1.29239,1.3553,0.0,2,0,0,0
993031004,34.0350530869,108.75670094,421.272,392.341,-0.0,1.29244,1.35509,0.0,2,0,0,0
993231237,34.0350541979,108.75670094,421.273,392.333,-0.0,1.29252,1.35561,0.0,2,0,0,0
993431467,34.0350552959,108.756700948,421.273,392.326,-0.0,1.2926,1.35539,0.0,2,0,0,0
993631697,34.0350563805,108.756701239,421.25,392.295,-0.0,1.29267,1.35519,0.0,2,0,0,0
993831930,34.0350574108,108.756701708,421.211,392.25,-0.0,1.29275,1.35569,0.0,2,0,0,0
994032163,34.035058425,108.756702355,421.181,392.214,-0.0,1.29283,1.35547,0.0,2,0,0,0
994232400,34.0350594038,108.756702966,421.165,392.191,-0.0,1.2929,1.35525,0.0,2,0,0,0
994432630,34.0350603865,108.756703445,421.156,392.175,-0.0,1.29296,1.35503,0.0,2,0,0,0
994632863,34.0350613538,108.756703945,421.151,392.171,-0.0,1.293,1.35553,0.0,2,0,0,0
994833096,34.0350622877,108.756704379,421.149,392.155,-0.0,1.29299,1.3553,0.0,2,0,0,0
995033336,34.0350632304,108.75670464,421.158,392.157,-0.0,1.29302,1.35509,0.0,2,0,0,0
995233572,34.0350642555,108.75670482,421.18,392.171,-0.0,1.29305,1.35487,0.0,2,0,0,0
995433798,34.0350653246,108.75670486,421.205,392.188,-0.0,1.29307,1.35538,0.0,2,0,0,0
995634028,34.0350664429,108.756704763,421.21,392.185,-0.0,1.29307,1.35517,0.0,2,0,0,0
995834261,34.0350675901,108.756704631,421.206,392.172,-0.0,1.29306,1.35495,0.0,2,0,0,0
996034493,34.035068701,108.756704693,421.204,392.162,-0.0,1.29305,1.35546,0.0,2,0,0,0
996234726,34.0350697732,108.756705032,421.2,392.149,-0.0,1.29303,1.35525,0.0,2,0,0,0
996434959,34.0350708071,108.756705596,421.197,392.136,-0.0,1.29301,1.35504,0.0,2,0,0,0
996635192,34.0350717717,108.756706408,421.199,392.128,-0.0,1.29301,1.35482,0.0,2,0,0,0
996835425,34.0350726476,108.756707372,421.212,392.132,-0.0,1.29301,1.35533,0.0,2,0,0,0
997035657,34.0350735232,108.756708322,421.228,392.138,-0.0,1.29301,1.35512,0.0,2,0,0,0
997235890,34.0350743406,108.756709186,421.224,392.123,-0.0,1.293,1.35491,0.0,2,0,0,0
997436123,34.0350751592,108.75671005,421.188,392.078,-0.0,1.293,1.35471,0.0,2,0,0,0
997631353,34.0350758766,108.756710762,421.14,392.02,-0.0,1.293,1.35522,0.0,2,0,0,0
997831582,34.0350765273,108.756711143,421.135,392.005,-0.0,1.29302,1.35501,0.0,2,0,0,0
998031815,34.0350770703,108.756711183,421.182,392.042,-0.0,1.29304,1.3555,0.0,2,0,0,0
998232047,34.0350777362,108.756711177,421.218,392.067,-0.0,1.29305,1.35524,0.0,2,0,0,0
998432281,34.0350783861,108.756710966,421.253,392.092,-0.0,1.29306,1.35496,0.0,2,0,0,0
998632512,34.0350791103,108.756710686,421.296,392.126,-0.0,1.29307,1.35538,0.0,2,0,0,0
998832745,34.0350798034,108.756710226,421.355,392.176,-0.0,1.29308,1.35507,0.0,2,0,0,0
999032977,34.0350805319,108.756709773,421.444,392.257,-0.0,1.2931,1.35476,0.0,2,0,0,0
999233214,34.0350812699,108.75670928,421.534,392.34,-0.0,1.29313,1.35514,0.0,2,0,0,0
999433449,34.035081964,108.756708506,421.621,392.419,-0.0,1.29315,1.35481,0.0,2,0,0,0
999633675,34.0350827408,108.756707755,421.689,392.482,-0.0,1.29318,1.35448,0.0,2,0,0,0
999833907,34.0350835335,108.756706897,421.723,392.511,-0.0,1.29321,1.35415,0.0,2,0,0,0
1000034141,34.0350842901,108.756705908,421.716,392.499,-0.0,1.29323,1.35452,0.0,2,0,0,0
1000234379,34.0350849927,108.756704872,421.667,392.446,-0.0,1.29325,1.35419,0.0,2,0,0,0
1000434604,34.0350856718,108.756703886,421.572,392.345,-0.0,1.29328,1.35386,0.0,2,0,0,0
1000634839,34.0350862173,108.756702805,421.436,392.205,-0.0,1.29326,1.35355,0.0,2,0,0,0
1000835075,34.0350866654,108.756701652,421.303,392.068,-0.0,1.29326,1.35392,0.0,2,0,0,0
1001035301,34.0350870965,108.756700461,421.183,391.941,-0.0,1.29327,1.35362,0.0,2,0,0,0
1001235535,34.0350875847,108.756699409,421.109,391.862,-0.0,1.29328,1.35333,0.0,2,0,0,0
1001435766,34.0350879517,108.756698896,421.183,391.928,-0.0,1.29334,1.35306,0.0,2,0,0,0
1001635998,34.0350883826,108.75669871,421.248,391.986,-0.0,1.29341,1.35345,0.0,2,0,0,0
1001831226,34.0350887893,108.756699022,421.271,392.003,-0.0,1.29344,1.35317,0.0,2,0,0,0
1002031466,34.0350891897,108.756699565,421.262,391.989,-0.0,1.29345,1.35355,0.0,2,0,0,0
1002231689,34.0350894677,108.75670035,421.243,391.965,-0.0,1.29345,1.35326,0.0,2,0,0,0
1002431922,34.0350896373,108.756701204,421.227,391.944,-0.0,1.29343,1.35297,0.0,2,0,0,0
1002632154,34.0350898307,108.756702067,421.223,391.94,-0.0,1.29342,1.35334,0.0,2,0,0,0
1002832386,34.0350900003,108.756702851,421.242,391.948,-0.0,1.29338,1.35304,0.0,2,0,0,0
1003032625,34.0350901772,108.756703524,421.287,391.987,-0.0,1.29335,1.35274,0.0,2,0,0,0
1003232851,34.0350903813,108.75670426,421.352,392.046,-0.0,1.29332,1.35246,0.0,2,0,0,0
1003433083,34.0350906005,108.756704935,421.402,392.092,-0.0,1.29328,1.35283,0.0,2,0,0,0
1003633317,34.0350907575,108.756705551,421.463,392.148,-0.0,1.29323,1.35255,0.0,2,0,0,0
1003833547,34.0350909376,108.756706226,421.505,392.185,-0.0,1.29321,1.35227,0.0,2,0,0,0
1004033781,34.0350910459,108.756706749,421.537,392.214,-0.0,1.29319,1.35266,0.0,2,0,0,0
1004234016,34.0350910983,108.75670721,421.58,392.253,-0.0,1.29318,1.35241,0.0,2,0,0,0
1004434244,34.0350911187,108.756707596,421.607,392.276,-0.0,1.2932,1.35216,0.0,2,0,0,0
1004634477,34.0350911585,108.756707932,421.628,392.292,-0.0,1.29323,1.35257,0.0,2,0,0,0
1004834709,34.03509129,108.756708243,421.645,392.304,-0.0,1.29327,1.35232,0.0,2,0,0,0
1005034943,34.0350913925,108.756708379,421.657,392.312,-0.0,1.29332,1.3521,0.0,2,0,0,0
1005235174,34.0350914932,108.756708368,421.659,392.308,-0.0,1.29336,1.35253,0.0,2,0,0,0
1005435414,34.0350916479,108.756708172,421.649,392.293,-0.0,1.29342,1.35233,0.0,2,0,0,0
1005635638,34.0350918137,108.75670792,421.611,392.25,-0.0,1.29347,1.35214,0.0,2,0,0,0
1005835874,34.0350920048,108.756707627,421.556,392.189,-0.0,1.29353,1.35261,0.0,2,0,0,0
1006036103,34.0350921032,108.756707167,421.49,392.119,-0.0,1.2936,1.35244,0.0,2,0,0,0
1006231334,34.0350921659,108.756706217,421.427,392.051,-0.0,1.29367,1.35228,0.0,2,0,0,0
1006431562,34.0350920711,108.756704869,421.363,391.983,-0.0,1.29375,1.35278,0.0,2,0,0,0
1006631813,34.0350919957,108.756703457,421.307,391.922,-0.0,1.29382,1.35262,0.0,2,0,0,0
1006832026,34.0350921341,108.756702053,421.267,391.877,-0.0,1.29391,1.35248,0.0,2,0,0,0
1007032259,34.0350925534,108.756700642,421.249,391.855,-0.0,1.29399,1.35299,0.0,2,0,0,0
1007232491,34.0350932431,108.756699348,421.255,391.857,-0.0,1.29409,1.35284,0.0,2,0,0,0
1007432724,34.035094079,108.756698363,421.285,391.884,-0.0,1.29417,1.35336,0.0,2,0,0,0
1007632956,34.035094777,108.756697839,421.33,391.925,-0.0,1.29424,1.35321,0.0,2,0,0,0
1007833189,34.0350952255,108.756697908,421.365,391.957,-0.0,1.29426,1.35307,0.0,2,0,0,0
1008033421,34.0350953183,108.756698557,421.379,391.967,-0.0,1.29427,1.3536,0.0,2,0,0,0
1008233654,34.0350951602,108.756699735,421.372,391.957,-0.0,1.29426,1.35347,0.0,2,0,0,0
1008433889,34.0350947097,108.756701323,421.358,391.939,-0.0,1.29423,1.35333,0.0,2,0,0,0
1008634119,34.035093952,108.756703037,421.339,391.915,-0.0,1.2942,1.3532,0.0,2,0,0,0
1008834352,34.0350928917,108.756704738,421.31,391.882,-0.0,1.29416,1.35374,0.0,2,0,0,0
1009034584,34.0350915197,108.756706465,421.281,391.848,-0.0,1.29411,1.35359,0.0,2,0,0,0
1009234817,34.0350898887,108.756708061,421.27,391.831,-0.0,1.29405,1.35413,0.0,2,0,0,0
1009435049,34.0350879153,108.756709595,421.267,391.823,-0.0,1.29398,1.35399,0.0,2,0,0,0
1009635282,34.0350855685,108.756710949,421.256,391.808,-0.0,1.29391,1.35384,0.0,2,0,0,0
1009835515,34.0350828319,108.756711624,421.257,391.803,-0.0,1.29386,1.35438,0.0,2,0,0,0
1010035751,34.0350796737,108.756711549,421.23,391.772,-0.0,1.2938,1.35424,0.0,2,0,0,0
1010230978,34.0350764756,108.756711032,421.223,391.765,-0.0,1.29372,1.35408,0.0,2,0,0,0
1010431207,34.0350733228,108.756709912,421.252,391.79,-0.0,1.29369,1.35393,0.0,2,0,0,0
1010631440,34.0350701991,108.756708387,421.28,391.814,-0.0,1.29366,1.35447,0.0,2,0,0,0
1010831673,34.0350671398,108.756706475,421.316,391.842,-0.0,1.29364,1.35432,0.0,2,0,0,0
1011031905,34.0350642015,108.75670442,421.369,391.892,-0.0,1.29366,1.35416,0.0,2,0,0,0
1011232138,34.0350613744,108.75670213,421.428,391.949,-0.0,1.29366,1.3547,0.0,2,0,0,0
1011432377,34.0350586445,108.756699844,421.483,392.002,-0.0,1.29366,1.35455,0.0,2,0,0,0
1011632604,34.0350559832,108.756697588,421.545,392.062,-0.0,1.29365,1.35439,0.0,2,0,0,0
1011832837,34.0350533252,108.756695354,421.599,392.116,-0.0,1.29364,1.35491,0.0,2,0,0,0
1012033069,34.0350506695,108.756693126,421.644,392.162,-0.0,1.29363,1.35472,0.0,2,0,0,0
1012233304,34.0350479998,108.756690946,421.694,392.211,-0.0,1.29361,1.35454,0.0,2,0,0,0
1012433535,34.0350452262,108.756688816,421.74,392.256,-0.0,1.2936,1.35506,0.0,2,0,0,0
1012633768,34.0350423979,108.756686735,421.764,392.28,-0.0,1.29359,1.35487,0.0,2,0,0,0
1012834001,34.0350396955,108.756684752,421.762,392.276,-0.0,1.29355,1.35468,0.0,2,0,0,0
1013034234,34.0350371427,108.756682773,421.735,392.249,-0.0,1.29354,1.35449,0.0,2,0,0,0
1013234466,34.0350348237,108.756680784,421.701,392.214,-0.0,1.29352,1.35501,0.0,2,0,0,0
1013434699,34.0350329484,108.756678659,421.661,392.174,-0.0,1.29349,1.3548,0.0,2,0,0,0
1013634932,34.035031519,108.756676633,421.609,392.123,-0.0,1.2935,1.35532,0.0,2,0,0,0
1013835165,34.0350304936,108.756674632,421.556,392.072,-0.0,1.29347,1.35511,0.0,2,0,0,0
1014035399,34.0350297633,108.75667275,421.497,392.014,-0.0,1.29344,1.35491,0.0,2,0,0,0
1014235630,34.0350293391,108.756670956,421.445,391.964,-0.0,1.29341,1.3547,0.0,2,0,0,0
1014430857,34.0350292579,108.756669293,421.392,391.913,-0.0,1.29337,1.35521,0.0,2,0,0,0
1014631090,34.0350294362,108.756667569,421.321,391.844,-0.0,1.29333,1.35501,0.0,2,0,0,0
1014831324,34.0350296842,108.756665931,421.248,391.773,-0.0,1.29329,1.3548,0.0,2,0,0,0
1015031556,34.035029803,108.756664386,421.188,391.716,-0.0,1.29325,1.35531,0.0,2,0,0,0
1015231789,34.0350298831,108.756662783,421.159,391.69,-0.0,1.29319,1.3551,0.0,2,0,0,0
1015432023,34.0350299093,108.756661013,421.179,391.712,-0.0,1.29312,1.35489,0.0,2,0,0,0
1015632257,34.0350298491,108.756659179,421.226,391.763,-0.0,1.29307,1.35468,0.0,2,0,0,0
1015832488,34.0350296337,108.756657333,421.291,391.831,-0.0,1.29301,1.35519,0.0,2,0,0,0
1016032721,34.0350291567,108.756655514,421.345,391.89,-0.0,1.29295,1.35498,0.0,2,0,0,0
1016232958,34.035028641,108.756653531,421.403,391.953,-0.0,1.29288,1.35476,0.0,2,0,0,0
1016433188,34.0350279659,108.756651451,421.457,392.012,-0.0,1.29281,1.35526,0.0,2,0,0,0
1016633421,34.0350272042,108.756649373,421.512,392.073,-0.0,1.29275,1.35505,0.0,2,0,0,0
1016833655,34.0350262073,108.75664728,421.554,392.121,-0.0,1.29269,1.35483,0.0,2,0,0,0
1017033887,34.0350251093,108.75664514,421.588,392.162,-0.0,1.29264,1.35462,0.0,2,0,0,0
1017234120,34.0350239239,108.756642965,421.623,392.203,-0.0,1.29259,1.35512,0.0,2,0,0,0
1017434354,34.0350227209,108.756640845,421.658,392.245,-0.0,1.29255,1.35491,0.0,2,0,0,0
1017634587,34.035021692,108.756638837,421.7,392.292,-0.0,1.29252,1.3547,0.0,2,0,0,0
1017834820,34.0350209907,108.756637129,421.735,392.334,-0.0,1.29253,1.3552,0.0,2,0,0,0
1018035053,34.0350205056,108.756635725,421.757,392.362,-0.0,1.29255,1.35498,0.0,2,0,0,0
1018235287,34.0350200453,108.756634427,421.775,392.386,-0.0,1.29257,1.35477,0.0,2,0,0,0
1018435528,34.0350195228,108.756633154,421.791,392.407,-0.0,1.29259,1.35526,0.0,2,0,0,0
1018635754,34.035019037,108.756631883,421.793,392.414,-0.0,1.29259,1.35505,0.0,2,0,0,0
1018835987,34.0350185296,108.756630642,421.772,392.398,-0.0,1.2926,1.35483,0.0,2,0,0,0
1019036237,34.0350180104,108.756629402,421.738,392.37,-0.0,1.29264,1.35462,0.0,2,0,0,0
1019236455,34.0350174944,108.75662807,421.701,392.337,-0.0,1.29269,1.35512,0.0,2,0,0,0
1019431685,34.03501711,108.756626749,421.645,392.285,-0.0,1.29272,1.35491,0.0,2,0,0,0
1019631916,34.0350166044,108.756625228,421.578,392.224,-0.0,1.29278,1.3554,0.0,2,0,0,0
1019832149,34.0350161883,108.756623622,421.522,392.169,-0.0,1.29282,1.35518,0.0,2,0,0,0
1020032383,34.0350159371,108.756622154,421.466,392.123,-0.0,1.29286,1.35495,0.0,2,0,0,0
1020232617,34.0350160138,108.756620858,421.402,392.063,-0.0,1.29294,1.35473,0.0,2,0,0,0
1020432851,34.0350162361,108.75661976,421.339,392.006,-0.0,1.29304,1.35521,0.0,2,0,0,0
1020633084,34.0350167574,108.756618885,421.283,391.954,-0.0,1.29314,1.35498,0.0,2,0,0,0
1020833321,34.0350174385,108.756618246,421.219,391.895,-0.0,1.29324,1.35475,0.0,2,0,0,0
1021033562,34.0350181389,108.756617783,421.166,391.845,-0.0,1.29334,1.35524,0.0,2,0,0,0
1021233785,34.035018819,108.756617527,421.162,391.845,-0.0,1.29346,1.35502,0.0,2,0,0,0
1021434020,34.0350196808,108.756617432,421.194,391.879,-0.0,1.29361,1.3548,0.0,2,0,0,0
1021634254,34.0350204832,108.756617561,421.243,391.93,-0.0,1.29373,1.35529,0.0,2,0,0,0
1021834487,34.0350213035,108.756617874,421.308,391.997,-0.0,1.29385,1.35507,0.0,2,0,0,0
1022034721,34.0350221665,108.756618079,421.396,392.089,-0.0,1.29396,1.35484,0.0,2,0,0,0
1022234956,34.0350229779,108.756618173,421.531,392.227,-0.0,1.29406,1.35532,0.0,2,0,0,0
1022435189,34.0350237003,108.756618149,421.681,392.38,-0.0,1.29417,1.35508,0.0,2,0,0,0
1022635423,34.0350243722,108.756617937,421.814,392.517,-0.0,1.29427,1.35485,0.0,2,0,0,0
1022830652,34.0350251357,108.756617643,421.91,392.617,-0.0,1.29437,1.35533,0.0,2,0,0,0
1023030886,34.0350258824,108.756617168,421.982,392.694,-0.0,1.29445,1.3551,0.0,2,0,0,0
1023231120,34.0350265313,108.756616523,422.039,392.755,-0.0,1.29454,1.35558,0.0,2,0,0,0
1023431358,34.0350269122,108.75661574,422.079,392.799,-0.0,1.29463,1.35533,0.0,2,0,0,0
1023631588,34.0350270321,108.756614812,422.108,392.832,-0.0,1.29471,1.35509,0.0,2,0,0,0
1023831823,34.0350268615,108.756613669,422.135,392.863,-0.0,1.29479,1.35486,0.0,2,0,0,0
1024032057,34.0350265789,108.756612426,422.145,392.876,-0.0,1.29487,1.35534,0.0,2,0,0,0
1024232292,34.035026413,108.756611177,422.136,392.868,-0.0,1.29493,1.35511,0.0,2,0,0,0
1024432566,34.0350264,108.756610024,422.098,392.832,-0.0,1.29502,1.35488,0.0,2,0,0,0
1024632760,34.0350263175,108.756608752,422.041,392.778,-0.0,1.29509,1.35465,0.0,2,0,0,0
1024832995,34.035026238,108.756607455,421.982,392.722,-0.0,1.29515,1.35514,0.0,2,0,0,0
1025033250,34.0350261206,108.756606063,421.914,392.657,-0.0,1.29522,1.35491,0.0,2,0,0,0
1025233463,34.0350260486,108.75660461,421.828,392.574,-0.0,1.2953,1.35539,0.0,2,0,0,0
1025433698,34.035026015,108.756603117,421.731,392.481,-0.0,1.29537,1.35516,0.0,2,0,0,0
1025633933,34.0350259833,108.756601572,421.621,392.374,-0.0,1.29543,1.35494,0.0,2,0,0,0
1025834168,34.0350259495,108.756599967,421.509,392.264,-0.0,1.29549,1.35472,0.0,2,0,0,0
1026034402,34.0350258909,108.756598221,421.396,392.156,-0.0,1.29553,1.35521,0.0,2,0,0,0
1026234637,34.0350258063,108.756596408,421.319,392.082,-0.0,1.29559,1.35499,0.0,2,0,0,0
1026434876,34.0350256387,108.756594547,421.305,392.07,-0.0,1.29567,1.35477,0.0,2,0,0,0
1026635106,34.0350255238,108.756592701,421.322,392.088,-0.0,1.29577,1.35456,0.0,2,0,0,0
1026835345,34.0350256528,108.756590976,421.357,392.126,-0.0,1.29587,1.35506,0.0,2,0,0,0
1027035576,34.0350259145,108.756589359,421.4,392.173,-0.0,1.29595,1.35485,0.0,2,0,0,0
1027230812,34.0350263551,108.756587919,421.429,392.208,-0.0,1.29605,1.35465,0.0,2,0,0,0
1027431040,34.0350268055,108.756586569,421.476,392.261,-0.0,1.29611,1.35515,0.0,2,0,0,0
1027631281,34.0350271937,108.756585254,421.53,392.323,-0.0,1.29617,1.35493,0.0,2,0,0,0
1027831509,34.0350275544,108.756584107,421.598,392.397,-0.0,1.29622,1.35471,0.0,2,0,0,0
1028031747,34.0350280921,108.756583153,421.669,392.476,-0.0,1.29628,1.3552,0.0,2,0,0,0
1028231979,34.0350288109,108.756582374,421.739,392.546,-0.0,1.29632,1.35496,0.0,2,0,0,0
1028432217,34.0350296344,108.75658176,421.815,392.637,-0.0,1.29639,1.35473,0.0,2,0,0,0
1028632457,34.0350304535,108.756581315,421.908,392.738,-0.0,1.29647,1.35522,0.0,2,0,0,0
1028832688,34.0350312702,108.756580974,421.997,392.835,-0.0,1.29657,1.35499,0.0,2,0,0,0
1029032920,34.0350321448,108.7565806,422.069,392.915,-0.0,1.29666,1.35477,0.0,2,0,0,0
1029233155,34.0350329378,108.756580089,422.13,392.984,-0.0,1.29675,1.35526,0.0,2,0,0,0
1029433390,34.0350338417,108.756579544,422.191,393.054,-0.0,1.29682,1.35504,0.0,2,0,0,0
1029633626,34.0350346995,108.75657896,422.258,393.131,-0.0,1.29689,1.35481,0.0,2,0,0,0
1029833861,34.0350355332,108.756578326,422.342,393.224,-0.0,1.29696,1.3553,0.0,2,0,0,0
1030034101,34.0350362237,108.75657771,422.447,393.33,-0.0,1.29701,1.35507,0.0,2,0,0,0
1030234335,34.0350367739,108.756577122,422.577,393.469,-0.0,1.29709,1.35485,0.0,2,0,0,0
1030434566,34.0350372337,108.756576549,422.724,393.636,-0.0,1.29715,1.35463,0.0,2,0,0,0
1030634802,34.0350376137,108.756576003,422.887,393.798,-0.0,1.29722,1.35512,0.0,2,0,0,0
1030835037,34.0350379107,108.756575435,423.035,393.966,-0.0,1.29727,1.3549,0.0,2,0,0,0
1031035282,34.03503811,108.756574803,423.141,394.083,-0.0,1.29733,1.35469,0.0,2,0,0,0
1031235508,34.035038263,108.756574208,423.215,394.168,-0.0,1.2974,1.35448,0.0,2,0,0,0
1031430738,34.035038578,108.756573844,423.266,394.23,-0.0,1.29747,1.35498,0.0,2,0,0,0
1031630976,34.0350389481,108.756573647,423.292,394.267,-0.0,1.29754,1.35477,0.0,2,0,0,0
1031831208,34.0350393058,108.75657353,423.297,394.284,-0.0,1.29762,1.35455,0.0,2,0,0,0
1032031444,34.0350396309,108.756573552,423.281,394.279,-0.0,1.29769,1.35505,0.0,2,0,0,0
1032231680,34.03503997,108.756573795,423.25,394.249,-0.0,1.29775,1.35554,0.0,2,0,0,0
1032431915,34.0350403015,108.756574208,423.22,394.238,-0.0,1.29782,1.35529,0.0,2,0,0,0
1032632150,34.0350405806,108.756574685,423.179,394.207,-0.0,1.29789,1.35505,0.0,2,0,0,0
1032832386,34.0350406649,108.756575055,423.118,394.146,-0.0,1.29793,1.35481,0.0,2,0,0,0
1033032621,34.0350407965,108.756575368,423.03,394.067,-0.0,1.29798,1.35529,0.0,2,0,0,0
1033232857,34.0350407902,108.756575677,422.9,393.955,-0.0,1.29802,1.35505,0.0,2,0,0,0
1033433092,34.0350407953,108.756575991,422.728,393.791,-0.0,1.29809,1.35482,0.0,2,0,0,0
1033633328,34.0350407694,108.756576307,422.511,393.584,-0.0,1.29816,1.35531,0.0,2,0,0,0
1033833574,34.0350406267,108.756576506,422.26,393.342,-0.0,1.29823,1.35508,0.0,2,0,0,0
1034033798,34.0350403958,108.75657667,421.993,393.084,-0.0,1.2983,1.35486,0.0,2,0,0,0
1034234034,34.0350402553,108.756576809,421.712,392.811,-0.0,1.29838,1.35464,0.0,2,0,0,0
1034434287,34.0350403741,108.756576621,421.464,392.572,-0.0,1.29847,1.35513,0.0,2,0,0,0
1034634504,34.035040442,108.756576697,421.42,392.532,-0.0,1.29856,1.35492,0.0,2,0,0,0
1034834740,34.0350407723,108.756576738,421.43,392.551,-0.0,1.29868,1.35468,0.0,2,0,0,0
1035034975,34.0350413544,108.756576701,421.43,392.562,-0.0,1.29877,1.35445,0.0,2,0,0,0
1035235210,34.0350419719,108.756576206,421.446,392.591,-0.0,1.29884,1.3549,0.0,2,0,0,0
1035435446,34.035042624,108.756575249,421.502,392.662,-0.0,1.29887,1.35463,0.0,2,0,0,0
1035635684,34.0350432379,108.75657397,421.61,392.784,-0.0,1.2989,1.35506,0.0,2,0,0,0
1035835917,34.0350438443,108.756572565,421.731,392.919,-0.0,1.29891,1.35475,0.0,2,0,0,0
1036036152,34.0350443634,108.756571237,421.867,393.07,-0.0,1.29892,1.35444,0.0,2,0,0,0
1036236387,34.0350449453,108.756570031,422.006,393.223,-0.0,1.29888,1.35482,0.0,2,0,0,0
1036431616,34.0350451858,108.756568752,422.146,393.377,-0.0,1.29883,1.35449,0.0,2,0,0,0
1036631851,34.0350454132,108.756567574,422.298,393.53,-0.0,1.29876,1.35416,0.0,2,0,0,0
1036832086,34.0350456079,108.756566762,422.434,393.693,-0.0,1.29868,1.35383,0.0,2,0,0,0
1037032322,34.035045869,108.756566456,422.565,393.837,-0.0,1.29863,1.35419,0.0,2,0,0,0
1037232557,34.0350461736,108.756566641,422.679,393.965,-0.0,1.29855,1.35385,0.0,2,0,0,0
1037432797,34.035046462,108.756566988,422.795,394.094,-0.0,1.29846,1.35353,0.0,2,0,0,0
1037633035,34.0350466761,108.756567293,422.892,394.204,-0.0,1.29838,1.35389,0.0,2,0,0,0
1037833262,34.0350468289,108.756567354,422.954,394.279,-0.0,1.29831,1.35357,0.0,2,0,0,0
1038033499,34.035047148,108.756567328,422.989,394.327,-0.0,1.29824,1.35326,0.0,2,0,0,0
1038233732,34.0350476555,108.756567117,423.001,394.351,-0.0,1.29817,1.35297,0.0,2,0,0,0
1038433972,34.0350483761,108.756566797,422.993,394.355,-0.0,1.2981,1.35335,0.0,2,0,0,0
1038634203,34.0350492278,108.756566245,422.969,394.343,-0.0,1.29802,1.35307,0.0,2,0,0,0
1038834438,34.0350502484,108.756565763,422.941,394.324,-0.0,1.29794,1.3528,0.0,2,0,0,0
1039034673,34.0350512144,108.756565229,422.91,394.302,-0.0,1.29786,1.35321,0.0,2,0,0,0
1039234908,34.0350521619,108.756564707,422.886,394.287,-0.0,1.29777,1.35296,0.0,2,0,0,0
1039435143,34.0350531102,108.756564217,422.86,394.269,-0.0,1.29768,1.35272,0.0,2,0,0,0
1039635378,34.0350539843,108.756563677,422.822,394.238,-0.0,1.29759,1.35316,0.0,2,0,0,0
1039835613,34.0350548665,108.756563251,422.755,394.177,-0.0,1.2975,1.35295,0.0,2,0,0,0
1040035847,34.0350556223,108.756562741,422.663,394.091,-0.0,1.29742,1.35276,0.0,2,0,0,0
1040236086,34.0350563383,108.756562146,422.555,393.989,-0.0,1.29732,1.35257,0.0,2,0,0,0
1040436323,34.0350570651,108.756561781,422.439,393.879,-0.0,1.29721,1.35305,0.0,2,0,0,0
1040631546,34.0350578073,108.756561637,422.312,393.757,-0.0,1.29712,1.35287,0.0,2,0,0,0
1040831781,34.035058471,108.756561422,422.169,393.62,-0.0,1.29702,1.35337,0.0,2,0,0,0
1041032016,34.0350591134,108.756561138,422.029,393.485,-0.0,1.2969,1.35321,0.0,2,0,0,0
1041232251,34.0350598473,108.756560788,421.876,393.339,-0.0,1.29683,1.35305,0.0,2,0,0,0
1041432486,34.0350607154,108.756560315,421.718,393.187,-0.0,1.29674,1.35291,0.0,2,0,0,0
1041632721,34.0350616855,108.756559787,421.575,393.052,-0.0,1.29665,1.35344,0.0,2,0,0,0
1041832956,34.0350626543,108.756559239,421.467,392.951,-0.0,1.29657,1.3533,0.0,2,0,0,0
1042033191,34.0350637042,108.756558837,421.389,392.881,-0.0,1.29649,1.35317,0.0,2,0,0,0
1042233426,34.0350649408,108.756558568,421.344,392.842,-0.0,1.29641,1.35304,0.0,2,0,0,0
1042433662,34.0350662686,108.756558244,421.342,392.846,-0.0,1.29633,1.35359,0.0,2,0,0,0
1042633896,34.0350676434,108.756557826,421.381,392.891,-0.0,1.29625,1.35347,0.0,2,0,0,0
1042834139,34.0350690798,108.756557455,421.441,392.957,-0.0,1.29616,1.35334,0.0,2,0,0,0
1043034367,34.03507062,108.756557281,421.512,393.034,-0.0,1.29608,1.3539,0.0,2,0,0,0
1043234601,34.0350721768,108.756557381,421.595,393.123,-0.0,1.29599,1.35377,0.0,2,0,0,0
1043434838,34.035073615,108.756557555,421.685,393.22,-0.0,1.29592,1.35364,0.0,2,0,0,0
1043630065,34.0350750614,108.756557923,421.764,393.306,-0.0,1.29584,1.35419,0.0,2,0,0,0
1043830317,34.0350763831,108.756558396,421.847,393.397,-0.0,1.29576,1.35406,0.0,2,0,0,0
1044030535,34.0350776266,108.756559052,421.935,393.493,-0.0,1.29568,1.35392,0.0,2,0,0,0
1044230774,34.0350787453,108.756559731,422.018,393.583,-0.0,1.29559,1.35378,0.0,2,0,0,0
1044431005,34.0350797115,108.756560261,422.111,393.683,-0.0,1.2955,1.35434,0.0,2,0,0,0
1044631239,34.0350805449,108.756560667,422.205,393.783,-0.0,1.29542,1.35419,0.0,2,0,0,0
1044831474,34.0350813312,108.756561016,422.292,393.878,-0.0,1.29533,1.35405,0.0,2,0,0,0
1045031709,34.0350819792,108.756561344,422.387,393.979,-0.0,1.29525,1.3546,0.0,2,0,0,0
1045231947,34.0350825922,108.756561691,422.482,394.081,-0.0,1.29518,1.35445,0.0,2,0,0,0
1045432178,34.0350831334,108.756562022,422.565,394.171,-0.0,1.29513,1.3543,0.0,2,0,0,0
1045632415,34.0350836316,108.756562405,422.639,394.251,-0.0,1.29511,1.35485,0.0,2,0,0,0
1045832647,34.0350840454,108.756562581,422.703,394.323,-0.0,1.29508,1.35468,0.0,2,0,0,0
1046032882,34.0350844103,108.756562721,422.759,394.384,-0.0,1.29505,1.35452,0.0,2,0,0,0
1046233116,34.0350848803,108.756562909,422.785,394.417,-0.0,1.29505,1.35435,0.0,2,0,0,0
1046433351,34.0350855592,108.756562939,422.794,394.431,-0.0,1.29504,1.35488,0.0,2,0,0,0
1046633607,34.0350863698,108.756562725,422.793,394.436,-0.0,1.29506,1.35471,0.0,2,0,0,0
1046833820,34.0350873567,108.756562407,422.786,394.433,-0.0,1.29507,1.35454,0.0,2,0,0,0
1047034055,34.0350884146,108.756561967,422.779,394.43,-0.0,1.29508,1.35507,0.0,2,0,0,0
1047234290,34.0350894431,108.75656149,422.76,394.415,-0.0,1.29511,1.35489,0.0,2,0,0,0
1047434524,34.0350903647,108.756560956,422.737,394.397,-0.0,1.29514,1.35471,0.0,2,0,0,0
1047634758,34.0350912775,108.75656042,422.716,394.379,-0.0,1.29517,1.35523,0.0,2,0,0,0
1047834994,34.0350921614,108.756559958,422.682,394.349,-0.0,1.29522,1.35503,0.0,2,0,0,0
1048030225,34.0350929759,108.756559702,422.639,394.31,-0.0,1.29526,1.35484,0.0,2,0,0,0
1048230458,34.0350938542,108.756559551,422.595,394.269,-0.0,1.29531,1.35464,0.0,2,0,0,0
1048430690,34.0350947713,108.75655963,422.551,394.227,-0.0,1.29535,1.35516,0.0,2,0,0,0
1048630924,34.0350957686,108.756560116,422.497,394.173,-0.0,1.2954,1.35496,0.0,2,0,0,0
1048831159,34.0350967214,108.756560765,422.439,394.12,-0.0,1.29543,1.35476,0.0,2,0,0,0
1049031408,34.0350975938,108.756561341,422.377,394.06,-0.0,1.29549,1.35527,0.0,2,0,0,0
1049231627,34.0350983973,108.756562014,422.328,394.012,-0.0,1.29557,1.35507,0.0,2,0,0,0
1049431862,34.0350989099,108.756562827,422.267,393.952,-0.0,1.29563,1.35487,0.0,2,0,0,0
1049632096,34.0350990667,108.756563624,422.195,393.882,-0.0,1.29569,1.35466,0.0,2,0,0,0
1049832332,34.0350990025,108.756564275,422.123,393.811,-0.0,1.29575,1.35517,0.0,2,0,0,0
1050032564,34.0350988469,108.756564687,422.025,393.714,-0.0,1.29581,1.35497,0.0,2,0,0,0
1050232798,34.0350985598,108.756564872,421.904,393.593,-0.0,1.29588,1.35477,0.0,2,0,0,0
1050433039,34.0350982541,108.756564898,421.766,393.455,-0.0,1.29594,1.35457,0.0,2,0,0,0
1050633272,34.0350981651,108.756564918,421.616,393.304,-0.0,1.296,1.35508,0.0,2,0,0,0
1050833500,34.0350983316,108.756564751,421.459,393.147,-0.0,1.29606,1.35488,0.0,2,0,0,0
1051033734,34.0350986351,108.756564534,421.31,392.997,-0.0,1.29613,1.35468,0.0,2,0,0,0
1051233968,34.0350990552,108.756564082,421.194,392.879,-0.0,1.2962,1.35519,0.0,2,0,0,0
1051434202,34.0350994444,108.75656373,421.16,392.841,-0.0,1.29628,1.35498,0.0,2,0,0,0
1051634450,34.0350998624,108.756563584,421.212,392.889,-0.0,1.29638,1.35477,0.0,2,0,0,0
1051834672,34.0351004665,108.756563352,421.262,392.937,-0.0,1.29648,1.35454,0.0,2,0,0,0
1052034904,34.0351010699,108.756563026,421.311,392.983,-0.0,1.29658,1.35499,0.0,2,0,0,0
1052235141,34.0351016196,108.756562587,421.349,393.019,-0.0,1.29667,1.3547,0.0,2,0,0,0
1052435373,34.0351020888,108.756562023,421.405,393.074,-0.0,1.29674,1.35511,0.0,2,0,0,0
1052635606,34.0351024575,108.756561568,421.48,393.149,-0.0,1.29682,1.3548,0.0,2,0,0,0
1052835840,34.0351027557,108.756560924,421.556,393.225,-0.0,1.29691,1.35448,0.0,2,0,0,0
1053036078,34.0351029225,108.756560294,421.638,393.306,-0.0,1.29702,1.35415,0.0,2,0,0,0
1053231303,34.0351030318,108.756559763,421.724,393.393,-0.0,1.29712,1.35452,0.0,2,0,0,0
1053431537,34.0351031906,108.756559431,421.815,393.482,-0.0,1.29724,1.35418,0.0,2,0,0,0
1053631774,34.0351034658,108.756559503,421.901,393.565,-0.0,1.29734,1.35384,0.0,2,0,0,0
1053832007,34.0351037829,108.756559967,421.973,393.636,-0.0,1.29743,1.3542,0.0,2,0,0,0
1054032238,34.0351040252,108.756560452,422.048,393.71,-0.0,1.29753,1.35387,0.0,2,0,0,0
1054232472,34.03510412,108.756560874,422.123,393.783,-0.0,1.29762,1.35354,0.0,2,0,0,0
1054432706,34.0351040543,108.756561581,422.2,393.856,-0.0,1.29771,1.35322,0.0,2,0,0,0
1054632940,34.035103746,108.756562452,422.259,393.913,-0.0,1.2978,1.35359,0.0,2,0,0,0
1054833174,34.0351032758,108.75656335,422.305,393.957,-0.0,1.29791,1.3533,0.0,2,0,0,0
1055033408,34.0351025498,108.75656417,422.352,394.001,-0.0,1.298,1.35301,0.0,2,0,0,0
1055233646,34.0351016546,108.756564909,422.399,394.045,-0.0,1.29809,1.35341,0.0,2,0,0,0
1055433879,34.0351005781,108.75656549,422.452,394.094,-0.0,1.29818,1.35314,0.0,2,0,0,0
1055634110,34.0350994079,108.756565988,422.495,394.132,-0.0,1.29827,1.3529,0.0,2,0,0,0
1055834345,34.0350982067,108.756566415,422.525,394.156,-0.0,1.29836,1.35266,0.0,2,0,0,0
1056034616,34.0350970556,108.756566762,422.556,394.182,-0.0,1.29843,1.3531,0.0,2,0,0,0
1056234812,34.0350959978,108.756567176,422.587,394.207,-0.0,1.2985,1.35289,0.0,2,0,0,0
1056435046,34.0350949317,108.756567502,422.619,394.239,-0.0,1.29852,1.35269,0.0,2,0,0,0
1056630288,34.0350939161,108.756567787,422.638,394.251,-0.0,1.29854,1.35251,0.0,2,0,0,0
1056840520,34.0350929823,108.756568207,422.646,394.246,-0.0,1.29875,1.35316,0.0,2,0,0,0
1057030742,34.0350922442,108.756568558,422.653,394.252,-0.0,1.29851,1.3528,0.0,2,0,0,0
1057230976,34.0350914157,108.756568844,422.666,394.259,-0.0,1.2985,1.35329,0.0,2,0,0,0
1057431210,34.0350906478,108.756569119,422.676,394.257,-0.0,1.2985,1.35312,0.0,2,0,0,0
1057631447,34.0350899476,108.756569332,422.685,394.266,-0.0,1.29852,1.35361,0.0,2,0,0,0
1057831680,34.0350891573,108.756569375,422.687,394.258,-0.0,1.29855,1.35343,0.0,2,0,0,0
1058031913,34.0350883219,108.756569376,422.687,394.253,-0.0,1.29859,1.35326,0.0,2,0,0,0
1058232147,34.0350874638,108.756569316,422.688,394.247,-0.0,1.29863,1.35377,0.0,2,0,0,0
1058432381,34.0350866524,108.756569184,422.686,394.239,-0.0,1.29867,1.35361,0.0,2,0,0,0
1058632615,34.0350858128,108.756569003,422.674,394.222,-0.0,1.2987,1.35346,0.0,2,0,0,0
1058832858,34.0350848888,108.756568678,422.659,394.202,-0.0,1.29874,1.35399,0.0,2,0,0,0
1059033084,34.0350839856,108.756568302,422.643,394.179,-0.0,1.29879,1.35384,0.0,2,0,0,0
1059233320,34.0350831061,108.756567875,422.638,394.174,-0.0,1.29883,1.35437,0.0,2,0,0,0
1059433563,34.0350821625,108.756567359,422.652,394.176,-0.0,1.29887,1.3542,0.0,2,0,0,0
1059633797,34.0350812212,108.756566808,422.672,394.189,-0.0,1.2989,1.35403,0.0,2,0,0,0
1059834022,34.0350803275,108.756566182,422.703,394.213,-0.0,1.29894,1.35456,0.0,2,0,0,0
1060034259,34.0350794597,108.756565449,422.739,394.242,-0.0,1.29898,1.35439,0.0,2,0,0,0
1060234490,34.0350785589,108.756564696,422.759,394.257,-0.0,1.29903,1.35422,0.0,2,0,0,0
1060434725,34.0350776782,108.756563883,422.766,394.257,-0.0,1.29908,1.35405,0.0,2,0,0,0
1060634963,34.035076824,108.756562947,422.744,394.236,-0.0,1.29913,1.35459,0.0,2,0,0,0
1060835194,34.0350759254,108.756561981,422.715,394.197,-0.0,1.29916,1.35442,0.0,2,0,0,0
1061035429,34.0350750318,108.756560956,422.682,394.159,-0.0,1.29921,1.35495,0.0,2,0,0,0
1061230658,34.0350741708,108.756559939,422.646,394.123,-0.0,1.29927,1.35476,0.0,2,0,0,0
1061430892,34.0350732608,108.756558844,422.622,394.089,-0.0,1.29933,1.35457,0.0,2,0,0,0
1061631127,34.0350723416,108.756557572,422.596,394.059,-0.0,1.29937,1.35508,0.0,2,0,0,0
1061831362,34.0350714633,108.756556194,422.572,394.035,-0.0,1.29943,1.35489,0.0,2,0,0,0
1062031596,34.0350705615,108.756554748,422.544,393.996,-0.0,1.29951,1.35468,0.0,2,0,0,0
1062231832,34.0350696513,108.756553268,422.507,393.954,-0.0,1.2996,1.35519,0.0,2,0,0,0
1062432066,34.0350687565,108.756551683,422.447,393.894,-0.0,1.29969,1.35497,0.0,2,0,0,0
1062632301,34.0350678209,108.756550011,422.351,393.788,-0.0,1.29979,1.35476,0.0,2,0,0,0
1062832536,34.0350669346,108.756548449,422.237,393.669,-0.0,1.29989,1.35526,0.0,2,0,0,0
1063032781,34.0350660599,108.756547144,422.115,393.548,-0.0,1.30001,1.35505,0.0,2,0,0,0
1063233006,34.035065031,108.756546619,421.988,393.415,-0.0,1.30012,1.35484,0.0,2,0,0,0
1063433243,34.0350639185,108.75654644,421.87,393.286,-0.0,1.30024,1.35535,0.0,2,0,0,0
1063633475,34.0350627463,108.756546194,421.76,393.176,-0.0,1.30033,1.35513,0.0,2,0,0,0
1063833711,34.0350614725,108.756545981,421.662,393.066,-0.0,1.30043,1.35563,0.0,2,0,0,0
1064033946,34.0350601052,108.756545775,421.573,392.977,-0.0,1.30054,1.3554,0.0,2,0,0,0
1064234180,34.035058673,108.756545682,421.507,392.904,-0.0,1.30065,1.35517,0.0,2,0,0,0
1064434421,34.0350571431,108.756545506,421.471,392.862,-0.0,1.30074,1.35494,0.0,2,0,0,0
1064634652,34.0350555058,108.756545249,421.434,392.812,-0.0,1.30087,1.35543,0.0,2,0,0,0
1064834886,34.0350537943,108.756545179,421.403,392.774,-0.0,1.30094,1.35521,0.0,2,0,0,0
1065035121,34.0350520279,108.75654508,421.388,392.76,-0.0,1.30102,1.35498,0.0,2,0,0,0
1065235356,34.0350502395,108.75654494,421.4,392.757,-0.0,1.30108,1.35548,0.0,2,0,0,0
1065435591,34.0350483487,108.756544858,421.445,392.794,-0.0,1.30115,1.35526,0.0,2,0,0,0
1065635826,34.0350463553,108.756544864,421.505,392.848,-0.0,1.30122,1.35504,0.0,2,0,0,0
1065836072,34.0350443352,108.756544733,421.597,392.933,-0.0,1.30126,1.35482,0.0,2,0,0,0
1066031293,34.0350423517,108.756544597,421.705,393.041,-0.0,1.3013,1.35532,0.0,2,0,0,0
1066231526,34.0350402485,108.756544563,421.829,393.15,-0.0,1.30135,1.35511,0.0,2,0,0,0
1066431762,34.035038098,108.756544548,421.95,393.265,-0.0,1.30137,1.35489,0.0,2,0,0,0
1066631997,34.0350359516,108.756544417,422.071,393.387,-0.0,1.3014,1.35538,0.0,2,0,0,0
1066832241,34.0350337782,108.756544369,422.189,393.494,-0.0,1.30141,1.35515,0.0,2,0,0,0
1067032468,34.0350315313,108.756544145,422.296,393.601,-0.0,1.30143,1.35492,0.0,2,0,0,0
1067232703,34.035029251,108.756543918,422.373,393.669,-0.0,1.30145,1.35541,0.0,2,0,0,0
1067432939,34.0350269772,108.756543816,422.433,393.724,-0.0,1.30146,1.35517,0.0,2,0,0,0
1067633174,34.035024657,108.75654366,422.48,393.767,-0.0,1.30148,1.35494,0.0,2,0,0,0
1067833410,34.0350224003,108.756543477,422.526,393.807,-0.0,1.30152,1.35543,0.0,2,0,0,0
1068033648,34.0350201514,108.75654323,422.567,393.844,-0.0,1.30155,1.3552,0.0,2,0,0,0
1068233881,34.0350178916,108.756543144,422.579,393.85,-0.0,1.30156,1.35497,0.0,2,0,0,0
1068434124,34.0350156735,108.756543367,422.569,393.835,-0.0,1.30158,1.35546,0.0,2,0,0,0
1068634353,34.0350134625,108.756543799,422.548,393.806,-0.0,1.30159,1.35522,0.0,2,0,0,0
1068834589,34.035011427,108.756544362,422.504,393.755,-0.0,1.3016,1.35499,0.0,2,0,0,0
1069034824,34.0350096867,108.756544943,422.433,393.685,-0.0,1.30158,1.35548,0.0,2,0,0,0
1069235060,34.035008195,108.756545534,422.353,393.587,-0.0,1.30159,1.35525,0.0,2,0,0,0
1069435296,34.035006936,108.756546173,422.272,393.495,-0.0,1.30161,1.35502,0.0,2,0,0,0
1069635572,34.0350057115,108.756546922,422.212,393.423,-0.0,1.30164,1.3548,0.0,2,0,0,0
1069835768,34.0350044265,108.756547812,422.164,393.362,-0.0,1.30167,1.35529,0.0,2,0,0,0
1070030998,34.0350032005,108.75654886,422.129,393.314,-0.0,1.30172,1.35507,0.0,2,0,0,0
1070231234,34.0350018957,108.756549798,422.093,393.266,-0.0,1.30175,1.35484,0.0,2,0,0,0
1070431470,34.0350006037,108.756550431,422.074,393.235,-0.0,1.3018,1.35532,0.0,2,0,0,0
1070631706,34.0349993732,108.756550683,422.069,393.23,-0.0,1.30187,1.35509,0.0,2,0,0,0
1070831942,34.0349981563,108.756550584,422.075,393.224,-0.0,1.30191,1.35486,0.0,2,0,0,0
1071032178,34.0349969043,108.756550259,422.089,393.227,-0.0,1.30197,1.35533,0.0,2,0,0,0
1071232414,34.0349956565,108.756550045,422.119,393.248,-0.0,1.30203,1.35508,0.0,2,0,0,0
1071432651,34.0349944127,108.756549806,422.163,393.28,-0.0,1.30207,1.35555,0.0,2,0,0,0
1071632887,34.0349932239,108.756549533,422.217,393.323,-0.0,1.30212,1.35531,0.0,2,0,0,0
1071833123,34.0349920339,108.756549124,422.28,393.375,-0.0,1.30217,1.35507,0.0,2,0,0,0
1072033360,34.0349907774,108.756548936,422.342,393.428,-0.0,1.30225,1.35484,0.0,2,0,0,0
1072233597,34.0349894994,108.75654874,422.413,393.489,-0.0,1.30231,1.35532,0.0,2,0,0,0
1072433834,34.0349881727,108.756548565,422.5,393.557,-0.0,1.30238,1.35509,0.0,2,0,0,0
1072634069,34.0349868012,108.756548188,422.584,393.642,-0.0,1.30244,1.35486,0.0,2,0,0,0
1072834305,34.0349853634,108.756547778,422.661,393.709,-0.0,1.30246,1.35463,0.0,2,0,0,0
1073034542,34.0349839325,108.756547461,422.716,393.749,-0.0,1.3025,1.35512,0.0,2,0,0,0
1073234779,34.0349825012,108.756547093,422.756,393.788,-0.0,1.30253,1.3549,0.0,2,0,0,0
1073435015,34.0349811407,108.756546478,422.778,393.802,-0.0,1.30254,1.35469,0.0,2,0,0,0
1073635251,34.0349799489,108.756545913,422.799,393.814,-0.0,1.30254,1.35518,0.0,2,0,0,0
1073835488,34.0349789346,108.756545428,422.82,393.826,-0.0,1.30254,1.35496,0.0,2,0,0,0
1074035725,34.0349779751,108.756544949,422.822,393.819,-0.0,1.30254,1.35475,0.0,2,0,0,0
1074235961,34.0349770369,108.756544677,422.81,393.798,-0.0,1.30253,1.35454,0.0,2,0,0,0
1074431192,34.034976155,108.756544625,422.802,393.781,-0.0,1.30255,1.35504,0.0,2,0,0,0
1074631429,34.0349752527,108.756544763,422.799,393.767,-0.0,1.30255,1.35482,0.0,2,0,0,0
1074831666,34.0349743007,108.756545093,422.774,393.73,-0.0,1.30253,1.35461,0.0,2,0,0,0
1075031904,34.0349732826,108.756545415,422.734,393.678,-0.0,1.30254,1.35511,0.0,2,0,0,0
1075232140,34.0349722086,108.756545705,422.677,393.608,-0.0,1.30255,1.3549,0.0,2,0,0,0
1075432377,34.0349710979,108.756546142,422.619,393.538,-0.0,1.30256,1.35469,0.0,2,0,0,0
1075632615,34.034970005,108.756546722,422.556,393.447,-0.0,1.30256,1.35449,0.0,2,0,0,0
1075832851,34.0349688572,108.756547233,422.482,393.372,-0.0,1.30257,1.35499,0.0,2,0,0,0
1076033088,34.0349677617,108.756547654,422.405,393.28,-0.0,1.30257,1.35479,0.0,2,0,0,0
1076233327,34.0349666651,108.756548142,422.327,393.186,-0.0,1.30259,1.35459,0.0,2,0,0,0
1076433574,34.0349655324,108.756548607,422.212,393.056,-0.0,1.30263,1.35438,0.0,2,0,0,0
1076633802,34.0349643468,108.75654904,422.075,392.904,-0.0,1.30264,1.35489,0.0,2,0,0,0
1076834036,34.0349631766,108.756549297,421.934,392.747,-0.0,1.30264,1.35469,0.0,2,0,0,0
1077034290,34.034962148,108.756549437,421.778,392.576,-0.0,1.30262,1.35449,0.0,2,0,0,0
1077234523,34.0349612403,108.756549615,421.604,392.388,-0.0,1.30259,1.35499,0.0,2,0,0,0
1077434748,34.034960383,108.756549849,421.443,392.199,-0.0,1.30256,1.35477,0.0,2,0,0,0
1077634985,34.0349596394,108.756549994,421.318,392.074,-0.0,1.30255,1.35526,0.0,2,0,0,0
1077830223,34.0349590256,108.756550067,421.235,391.975,-0.0,1.30251,1.35503,0.0,2,0,0,0
1078030458,34.034958511,108.756550016,421.186,391.911,-0.0,1.30246,1.3548,0.0,2,0,0,0
1078230694,34.0349581435,108.756549818,421.19,391.9,-0.0,1.30241,1.35527,0.0,2,0,0,0
1078430929,34.034957876,108.756549493,421.224,391.918,-0.0,1.30235,1.35574,0.0,2,0,0,0
1078631167,34.0349577089,108.756548972,421.269,391.947,-0.0,1.30227,1.35547,0.0,2,0,0,0
1078831404,34.0349574759,108.756548579,421.327,391.991,-0.0,1.30217,1.35521,0.0,2,0,0,0
1079031642,34.0349572093,108.756548258,421.403,392.055,-0.0,1.30209,1.35567,0.0,2,0,0,0
1079231879,34.0349568754,108.756547933,421.477,392.115,-0.0,1.30201,1.35542,0.0,2,0,0,0
1079432117,34.0349564708,108.756547642,421.543,392.156,-0.0,1.30192,1.35517,0.0,2,0,0,0
1079632355,34.0349560791,108.756547237,421.599,392.213,-0.0,1.30183,1.35492,0.0,2,0,0,0
1079832592,34.0349555817,108.756546714,421.645,392.246,-0.0,1.30173,1.3554,0.0,2,0,0,0
1080032830,34.0349550799,108.756546173,421.686,392.263,-0.0,1.30161,1.35515,0.0,2,0,0,0
1080233068,34.0349545102,108.756545641,421.722,392.285,-0.0,1.30152,1.35562,0.0,2,0,0,0
1080433306,34.0349538713,108.756545111,421.758,392.308,-0.0,1.30141,1.35536,0.0,2,0,0,0
1080633547,34.0349531717,108.756544762,421.777,392.315,-0.0,1.3013,1.35511,0.0,2,0,0,0
1080833792,34.0349524356,108.756544522,421.781,392.32,-0.0,1.3012,1.35558,0.0,2,0,0,0
1081034021,34.034951628,108.756544379,421.769,392.282,-0.0,1.3011,1.35533,0.0,2,0,0,0
1081234261,34.0349507475,108.756544486,421.747,392.248,-0.0,1.30101,1.35509,0.0,2,0,0,0
1081434496,34.0349498281,108.756544725,421.709,392.196,-0.0,1.30093,1.35485,0.0,2,0,0,0
1081634734,34.0349488769,108.756545076,421.646,392.119,-0.0,1.30084,1.35534,0.0,2,0,0,0
1081834972,34.0349479132,108.756545469,421.561,392.021,-0.0,1.30076,1.3551,0.0,2,0,0,0
1082035210,34.0349469626,108.756545638,421.454,391.898,-0.0,1.30068,1.35487,0.0,2,0,0,0
1082235448,34.0349460132,108.756545674,421.347,391.775,-0.0,1.30057,1.35534,0.0,2,0,0,0
1082435690,34.0349450781,108.756545808,421.244,391.655,-0.0,1.30046,1.35509,0.0,2,0,0,0
1082635925,34.0349441273,108.756545991,421.15,391.543,-0.0,1.30038,1.35485,0.0,2,0,0,0
1082836163,34.0349431105,108.756545946,421.072,391.447,-0.0,1.30031,1.35533,0.0,2,0,0,0
1083031404,34.0349420905,108.756545519,421.025,391.4,-0.0,1.30025,1.35509,0.0,2,0,0,0
1083231634,34.0349410353,108.756544787,421.029,391.37,-0.0,1.30018,1.35485,0.0,2,0,0,0
1083431872,34.0349400186,108.756543728,421.041,391.365,-0.0,1.30011,1.35533,0.0,2,0,0,0
1083632110,34.034939055,108.756542541,421.053,391.361,-0.0,1.30004,1.3551,0.0,2,0,0,0
1083832349,34.0349380988,108.756541592,421.085,391.379,-0.0,1.29996,1.35487,0.0,2,0,0,0
1084032587,34.0349371361,108.756540662,421.112,391.392,-0.0,1.29991,1.35465,0.0,2,0,0,0
1084232825,34.034936243,108.75653969,421.149,391.429,-0.0,1.29984,1.35514,0.0,2,0,0,0
