timestamp,timestamp_sample,baro_device_id,baro_alt_meter,baro_temp_celcius,baro_pressure_pa,rho
948833145,948810465,3997706,453.145,44.74,95999.2,1.14063
948883435,948863233,3997706,452.952,44.73,96001.5,1.14066
948993970,948971293,3997706,453.123,44.73,95999.5,1.14063
949206648,949185706,3997706,453.211,44.73,95998.5,1.14062
949416943,949399213,3997706,453.057,44.74,96000.2,1.14064
949598662,949575754,3997706,453.166,44.73,95999.0,1.14063
949809642,949789470,3997706,452.928,44.73,96001.7,1.14066
950021659,950003487,3997706,452.928,44.73,96001.7,1.14066
950202575,950172186,3997706,453.306,44.73,95997.4,1.14061
950413385,950393173,3997706,452.865,44.73,96002.5,1.14067
950625330,950607612,3997706,453.057,44.74,96000.2,1.14064
950785989,950768332,3997706,453.036,44.73,96000.5,1.14064
951007969,950985231,3997706,453.081,44.74,96000.0,1.14064
951218899,951198731,3997706,453.166,44.74,95999.0,1.14063
951430809,951412674,3997706,453.34,44.73,95997.0,1.1406
951591587,951573930,3997706,452.907,44.74,96002.0,1.14066
951812636,951789956,3997706,452.949,44.73,96001.5,1.14066
952025087,952004418,3997706,453.189,44.73,95998.8,1.14062
952235564,952217900,3997706,453.145,44.73,95999.2,1.14063
952397177,952379519,3997706,453.298,44.73,95997.5,1.14061
952618174,952595499,3997706,453.168,44.73,95999.0,1.14063
952830896,952809883,3997706,453.472,44.73,95995.5,1.14059
952990876,952970591,3997706,453.039,44.73,96000.5,1.14064
953201716,953184061,3997706,453.256,44.73,95998.0,1.14061
953423638,953400951,3997706,453.015,44.72,96000.8,1.14065
953634718,953614530,3997706,452.883,44.73,96002.2,1.14067
953796455,953776206,3997706,453.015,44.73,96000.8,1.14065
954007423,953989758,3997706,452.994,44.72,96001.0,1.14065
954229324,954206634,3997706,452.928,44.72,96001.8,1.14066
954390141,954367467,3997706,452.949,44.72,96001.5,1.14066
954602079,954581664,3997706,453.123,44.72,95999.5,1.14063
954813294,954795347,3997706,453.123,44.72,95999.5,1.14063
955034062,955011348,3997706,453.036,44.72,96000.5,1.14064
955195732,955173010,3997706,453.319,44.72,95997.2,1.14061
955406697,955386526,3997706,453.277,44.72,95997.8,1.14061
955618548,955600887,3997706,453.256,44.72,95998.0,1.14061
955779329,955761648,3997706,453.232,44.71,95998.2,1.14062
956001256,955978569,3997706,453.364,44.72,95996.8,1.1406
956212256,956192073,3997706,453.256,44.71,95998.0,1.14061
956424161,956406021,3997706,453.298,44.72,95997.5,1.14061
956605389,956582249,3997706,453.427,44.72,95996.0,1.14059
956825983,956808253,3997706,453.319,44.71,95997.2,1.14061
956987599,956969941,3997706,452.928,44.71,96001.7,1.14066
957208612,957185937,3997706,453.256,44.71,95998.0,1.14061
957420598,957400282,3997706,453.34,44.71,95997.0,1.1406
957631473,957613804,3997706,453.277,44.71,95997.8,1.14061
957792262,957774550,3997706,453.364,44.71,95996.8,1.1406
958014212,957991539,3997706,453.057,44.71,96000.2,1.14064
958225318,958205067,3997706,453.34,44.7,95997.0,1.1406
958437632,958419473,3997706,453.057,44.7,96000.2,1.14064
958617935,958595254,3997706,453.145,44.69,95999.2,1.14063
958829821,958809653,3997706,453.385,44.69,95996.5,1.1406
958990601,958970433,3997706,453.189,44.68,95998.8,1.14062
959202705,959184943,3997706,453.364,44.68,95996.8,1.1406
959423715,959401007,3997706,453.166,44.67,95999.0,1.14063
959635665,959615465,3997706,453.256,44.68,95998.0,1.14061
959796384,959776189,3997706,453.385,44.67,95996.5,1.1406
960007402,959989683,3997706,453.538,44.66,95994.7,1.14058
960229416,960206716,3997706,453.734,44.66,95992.5,1.14055
960440410,960420188,3997706,453.689,44.65,95993.0,1.14056
960602073,960581900,3997706,453.427,44.65,95996.0,1.14059
960813109,960795436,3997706,453.559,44.64,95994.5,1.14057
961035413,961012374,3997706,453.364,44.63,95996.8,1.1406
961205935,961185693,3997706,453.472,44.63,95995.5,1.14059
961417865,961400204,3997706,453.385,44.62,95996.5,1.1406
961638898,961616223,3997706,453.298,44.62,95997.5,1.14061
961801509,961777639,3997706,452.883,44.6,96002.2,1.14067
961981682,961957155,3997706,453.203,44.6,95998.6,1.14062
962212490,962192261,3997706,453.102,44.59,95999.8,1.14064
962424455,962406777,3997706,453.189,44.58,95998.8,1.14062
962585188,962567520,3997706,452.796,44.57,96003.2,1.14068
962807190,962784502,3997706,452.973,44.56,96001.2,1.14065
963018175,962998009,3997706,453.427,44.56,95996.0,1.14059
963230164,963212441,3997706,453.277,44.55,95997.8,1.14061
963390874,963373207,3997706,453.34,44.54,95997.0,1.1406
963613655,963590190,3997706,453.34,44.54,95997.0,1.1406
963834107,963816234,3997706,453.647,44.53,95993.5,1.14056
963995545,963977439,3997706,453.256,44.53,95998.0,1.14061
964216637,964193893,3997706,453.602,44.52,95994.0,1.14057
964427619,964407420,3997706,453.581,44.52,95994.2,1.14057
964639502,964621829,3997706,453.256,44.51,95998.0,1.14061
964800243,964782574,3997706,453.668,44.5,95993.2,1.14056
965022195,964999515,3997706,453.211,44.5,95998.5,1.14062
965233188,965213019,3997706,453.256,44.49,95998.0,1.14061
965395803,965374666,3997706,453.081,44.48,96000.0,1.14064
965625860,965603165,3997706,453.427,44.47,95996.0,1.14059
965837820,965817640,3997706,453.232,44.46,95998.2,1.14062
965998590,965978424,3997706,453.166,44.46,95999.0,1.14063
966209581,966191926,3997706,453.277,44.45,95997.8,1.14061
966432011,966408767,3997706,453.385,44.44,95996.5,1.1406
966602241,966582044,3997706,453.493,44.43,95995.2,1.14058
966814108,966796441,3997706,453.427,44.43,95996.0,1.14059
967035186,967012509,3997706,453.145,44.42,95999.2,1.14063
967196832,967173449,3997706,453.277,44.41,95997.8,1.14061
967407843,967387674,3997706,453.538,44.41,95994.7,1.14058
967618860,967601169,3997706,453.71,44.4,95992.8,1.14055
967780482,967762823,3997706,453.647,44.4,95993.5,1.14056
968001541,967978858,3997706,453.493,44.39,95995.2,1.14058
968223804,968199256,3997706,453.742,44.39,95992.4,1.14055
968404296,968381593,3997706,453.647,44.38,95993.5,1.14056
968616194,968595975,3997706,453.602,44.38,95994.0,1.14057
968827181,968809518,3997706,453.493,44.37,95995.2,1.14058
968988914,968970525,3997706,453.517,44.36,95995.0,1.14058
969209921,969187232,3997706,453.668,44.35,95993.2,1.14056
969421910,969400999,3997706,453.821,44.35,95991.5,1.14054
969632972,969615253,3997706,453.908,44.35,95990.5,1.14053
969793662,969775985,3997706,453.842,44.34,95991.2,1.14053
970016110,969992877,3997706,453.776,44.34,95992.0,1.14054
970236584,970218913,3997706,453.863,44.33,95991.0,1.14053
970398308,970380628,3997706,453.755,44.33,95992.2,1.14055
970619372,970596635,3997706,453.972,44.32,95989.8,1.14052
970831433,970811016,3997706,453.755,44.32,95992.2,1.14055
970992006,970971830,3997706,453.647,44.32,95993.5,1.14056
971203029,971185340,3997706,453.364,44.31,95996.8,1.1406
971424908,971402233,3997706,453.602,44.3,95994.0,1.14057
971635865,971615696,3997706,453.995,44.29,95989.5,1.14051
971797526,971777330,3997706,453.821,44.29,95991.5,1.14054
972008505,971990842,3997706,453.472,44.28,95995.5,1.14059
972230419,972207726,3997706,453.689,44.28,95993.0,1.14056
972391147,972368464,3997706,453.581,44.28,95994.2,1.14057
972602189,972581961,3997706,453.668,44.27,95993.2,1.14056
972814509,972796347,3997706,453.538,44.26,95994.7,1.14058
973035002,973012319,3997706,453.451,44.26,95995.7,1.14059
973196707,973174030,3997706,453.538,44.25,95994.7,1.14058
973407699,973387504,3997706,453.493,44.25,95995.2,1.14058
973619574,973601887,3997706,453.34,44.25,95997.0,1.1406
973780318,973762620,3997706,453.493,44.24,95995.2,1.14058
974001316,973978595,3997706,453.647,44.24,95993.5,1.14056
974213265,974193068,3997706,453.517,44.23,95995.0,1.14058
974424324,974406599,3997706,453.493,44.23,95995.2,1.14058
974606281,974583305,3997706,453.319,44.23,95997.2,1.14061
974817015,974796837,3997706,453.602,44.22,95994.0,1.14057
975028912,975011249,3997706,453.256,44.22,95998.0,1.14061
975189632,975171972,3997706,453.493,44.22,95995.2,1.14058
975412413,975388962,3997706,453.211,44.22,95998.5,1.14062
975632735,975614979,3997706,453.668,44.22,95993.2,1.14056
975814436,975791045,3997706,453.493,44.21,95995.2,1.14058
976025469,976005266,3997706,453.581,44.21,95994.2,1.14057
976237428,976219273,3997706,453.863,44.2,95991.0,1.14053
976398165,976380504,3997706,453.8,44.2,95991.7,1.14054
976619175,976596495,3997706,453.972,44.19,95989.8,1.14052
976831161,976810992,3997706,453.472,44.2,95995.5,1.14059
976991941,976971743,3997706,453.385,44.19,95996.5,1.1406
977224363,977193712,3997706,453.639,44.19,95993.6,1.14056
977434954,977414681,3997706,453.559,44.18,95994.5,1.14057
977596570,977575894,3997706,453.602,44.18,95994.0,1.14057
977807500,977789833,3997706,453.538,44.17,95994.8,1.14058
978029511,978006093,3997706,453.689,44.17,95993.0,1.14056
978190212,978167518,3997706,453.842,44.16,95991.2,1.14053
978401235,978381065,3997706,453.995,44.16,95989.5,1.14051
978613218,978595552,3997706,454.038,44.15,95989.0,1.14051
978834256,978811578,3997706,453.863,44.15,95991.0,1.14053
978996606,978973189,3997706,453.517,44.14,95995.0,1.14058
979206996,979186669,3997706,453.755,44.14,95992.2,1.14055
979418788,979401128,3997706,454.191,44.14,95987.2,1.14049
979579601,979561884,3997706,453.884,44.13,95990.8,1.14053
979800620,979777912,3997706,453.689,44.12,95993.0,1.14056
980012552,979992371,3997706,453.602,44.12,95994.0,1.14057
980223608,980205880,3997706,453.929,44.11,95990.2,1.14052
980385224,980367563,3997706,453.755,44.11,95992.2,1.14055
980606269,980583571,3997706,453.581,44.1,95994.2,1.14057
980818224,980798039,3997706,453.797,44.1,95991.8,1.14054
981029222,981011519,3997706,453.71,44.09,95992.8,1.14055
981190896,981173231,3997706,453.71,44.08,95992.8,1.14055
981412004,981389258,3997706,453.581,44.08,95994.2,1.14057
981624743,981603723,3997706,453.493,44.08,95995.2,1.14058
981835201,981817185,3997706,453.385,44.07,95996.5,1.1406
981995659,981977945,3997706,453.517,44.06,95995.0,1.14058
982217538,982194854,3997706,453.581,44.06,95994.2,1.14057
982428536,982408364,3997706,453.34,44.04,95997.0,1.1406
982640484,982622805,3997706,453.581,44.05,95994.2,1.14057
982801206,982783548,3997706,453.538,44.04,95994.8,1.14058
983023212,983000521,3997706,453.406,44.04,95996.2,1.14059
983234244,983214072,3997706,453.884,44.04,95990.8,1.14053
983395994,983375774,3997706,453.776,44.03,95992.0,1.14054
983607013,983589309,3997706,453.908,44.03,95990.5,1.14053
983828915,983806237,3997706,453.884,44.02,95990.7,1.14053
984039900,984019734,3997706,453.929,44.01,95990.2,1.14052
984200777,984180507,3997706,453.929,44.01,95990.2,1.14052
984433173,984409948,3997706,454.408,44.0,95984.8,1.14046
984603414,984583209,3997706,454.297,44.01,95986.0,1.14047
984815314,984797635,3997706,454.212,44.0,95987.0,1.14048
985036364,985013646,3997706,454.45,44.0,95984.2,1.14045
985198107,985175363,3997706,454.492,44.0,95983.8,1.14045
985409105,985388935,3997706,454.711,43.99,95981.2,1.14042
985621035,985603362,3997706,454.778,43.99,95980.5,1.14041
985781812,985764155,3997706,454.862,43.99,95979.5,1.1404
986002877,985980168,3997706,454.711,43.98,95981.2,1.14042
986224917,986200573,3997706,455.203,43.98,95975.6,1.14035
986405615,986382928,3997706,454.994,43.98,95978.0,1.14038
986617551,986597371,3997706,454.973,43.98,95978.2,1.14038
986828553,986810883,3997706,455.126,43.98,95976.5,1.14036
986991051,986972501,3997706,455.277,43.98,95974.8,1.14034
987221347,987201015,3997706,455.539,43.98,95971.8,1.1403
987433098,987415442,3997706,455.19,43.98,95975.8,1.14035
987593888,987576227,3997706,455.668,43.98,95970.2,1.14029
987814895,987792222,3997706,455.539,43.98,95971.8,1.1403
988026839,988006645,3997706,455.19,43.98,95975.8,1.14035
988237873,988220178,3997706,454.928,43.98,95978.8,1.14039
988399556,988381883,3997706,455.692,43.98,95970.0,1.14028
988620587,988597911,3997706,455.8,43.98,95968.7,1.14027
988833252,988812282,3997706,455.385,43.98,95973.5,1.14032
988993356,988972981,3997706,455.406,43.98,95973.2,1.14032
989205104,989187215,3997706,455.668,43.98,95970.2,1.14029
989426135,989403459,3997706,455.385,43.98,95973.5,1.14032
989637125,989616927,3997706,455.343,43.98,95974.0,1.14033
989798798,989778614,3997706,455.494,43.97,95972.2,1.14031
990009769,989992112,3997706,455.319,43.97,95974.2,1.14033
990231733,990209056,3997706,454.624,43.97,95982.2,1.14043
990392506,990369816,3997706,455.06,43.97,95977.2,1.14037
990604987,990584191,3997706,454.886,43.97,95979.2,1.14039
990815575,990797626,3997706,454.471,43.96,95984.0,1.14045
991037262,991014114,3997706,454.561,43.95,95983.0,1.14044
991198021,991175333,3997706,454.318,43.95,95985.8,1.14047
991409060,991388891,3997706,453.972,43.94,95989.8,1.14052
991621011,991603344,3997706,454.191,43.94,95987.2,1.14049
991781784,991764127,3997706,453.451,43.94,95995.7,1.14059
992003767,991981062,3997706,453.602,43.93,95994.0,1.14057
992214737,992194566,3997706,453.647,43.93,95993.5,1.14056
992427464,992409040,3997706,453.472,43.93,95995.5,1.14059
992607561,992584802,3997706,453.517,43.93,95995.0,1.14058
992819425,992799235,3997706,453.626,43.94,95993.7,1.14056
993030410,993012715,3997706,453.863,43.93,95991.0,1.14053
993191140,993173485,3997706,453.842,43.93,95991.2,1.14053
993413502,993390378,3997706,453.951,43.93,95990.0,1.14052
993634113,993616441,3997706,453.668,43.93,95993.2,1.14056
993795785,993778118,3997706,453.797,43.94,95991.8,1.14054
994016795,993994116,3997706,453.842,43.94,95991.2,1.14053
994228753,994208541,3997706,453.776,43.94,95992.0,1.14054
994439745,994422080,3997706,453.668,43.93,95993.2,1.14056
994601413,994583261,3997706,453.493,43.94,95995.2,1.14058
994822493,994799793,3997706,453.515,43.94,95995.0,1.14058
995034456,995013749,3997706,453.626,43.93,95993.7,1.14056
995195415,995174935,3997706,453.689,43.93,95993.0,1.14056
995406066,995388400,3997706,453.559,43.95,95994.5,1.14057
995628087,995605413,3997706,453.472,43.94,95995.5,1.14059
995839102,995818929,3997706,453.493,43.94,95995.2,1.14058
996000753,995980573,3997706,453.517,43.95,95995.0,1.14058
996211787,996194121,3997706,453.319,43.95,95997.2,1.14061
996433805,996411095,3997706,453.776,43.95,95992.0,1.14054
996594570,996571876,3997706,453.559,43.95,95994.5,1.14057
996806519,996785834,3997706,453.427,43.96,95996.0,1.14059
997017831,996999754,3997706,453.385,43.96,95996.5,1.1406
997238489,997215747,3997706,453.559,43.97,95994.5,1.14057
997400103,997377422,3997706,453.211,43.96,95998.5,1.14062
997611045,997590866,3997706,453.406,43.97,95996.2,1.14059
997773671,997752561,3997706,453.211,43.97,95998.5,1.14062
998013796,997993611,3997706,452.973,43.98,96001.2,1.14065
998225739,998208076,3997706,453.602,43.97,95994.0,1.14057
998386482,998368812,3997706,453.427,43.98,95996.0,1.14059
998607567,998584809,3997706,453.71,43.98,95992.8,1.14055
998819470,998799260,3997706,453.929,43.99,95990.2,1.14052
999030552,999012818,3997706,453.734,44.0,95992.5,1.14055
999192158,999174495,3997706,454.059,43.99,95988.7,1.14051
999413252,999390556,3997706,454.209,43.99,95987.0,1.14048
999626829,999604951,3997706,454.017,44.0,95989.2,1.14051
999837437,999818436,3997706,454.125,44.01,95988.0,1.1405
999997754,999980079,3997706,454.233,44.01,95986.8,1.14048
1000218766,1000196090,3997706,454.104,44.01,95988.2,1.1405
1000430657,1000410009,3997706,453.908,44.01,95990.5,1.14053
1000591393,1000571204,3997706,453.863,44.01,95991.0,1.14053
1000802344,1000784678,3997706,453.908,44.01,95990.5,1.14053
1001024416,1001001704,3997706,453.731,44.02,95992.5,1.14055
1001235431,1001215230,3997706,453.626,44.02,95993.7,1.14056
1001407582,1001382925,3997706,453.48,44.02,95995.4,1.14058
1001628135,1001605422,3997706,453.581,44.02,95994.2,1.14057
1001789747,1001766368,3997706,453.842,44.03,95991.2,1.14053
1002000781,1001980612,3997706,453.755,44.03,95992.2,1.14055
1002212729,1002194584,3997706,453.776,44.04,95992.0,1.14054
1002393688,1002363322,3997706,453.48,44.04,95995.4,1.14058
1002604563,1002584385,3997706,453.559,44.04,95994.5,1.14057
1002816501,1002798816,3997706,453.647,44.04,95993.5,1.14056
1003037539,1003014855,3997706,453.298,44.04,95997.5,1.14061
1003199196,1003176498,3997706,453.755,44.05,95992.2,1.14055
1003410180,1003390014,3997706,453.929,44.05,95990.2,1.14052
1003622129,1003604461,3997706,453.538,44.05,95994.7,1.14058
1003782988,1003765284,3997706,454.017,44.05,95989.2,1.14051
1004006842,1003982210,3997706,453.972,44.06,95989.8,1.14052
1004217475,1004195668,3997706,453.821,44.06,95991.5,1.14054
1004407487,1004384076,3997706,453.884,44.06,95990.8,1.14053
1004618673,1004598502,3997706,453.731,44.07,95992.5,1.14055
1004829654,1004811983,3997706,453.689,44.07,95993.0,1.14056
1004991416,1004973712,3997706,453.731,44.07,95992.5,1.14055
1005212475,1005189751,3997706,453.713,44.07,95992.7,1.14055
1005424410,1005404217,3997706,453.821,44.08,95991.5,1.14054
1005635409,1005617722,3997706,453.647,44.09,95993.5,1.14056
1005799073,1005779410,3997706,453.731,44.09,95992.5,1.14055
1006028106,1006007937,3997706,453.755,44.09,95992.2,1.14055
1006188888,1006168687,3997706,453.668,44.09,95993.2,1.14056
1006400773,1006383113,3997706,453.559,44.1,95994.5,1.14057
1006621911,1006599146,3997706,453.319,44.11,95997.2,1.14061
1006795421,1006773371,3997706,453.364,44.11,95996.8,1.1406
1007035702,1007014555,3997706,453.731,44.11,95992.5,1.14055
1007196433,1007176239,3997706,453.71,44.12,95992.8,1.14055
1007407437,1007389750,3997706,453.71,44.12,95992.8,1.14055
1007629297,1007606615,3997706,453.647,44.13,95993.5,1.14056
1007840339,1007820154,3997706,453.472,44.13,95995.5,1.14059
1008001981,1007981590,3997706,453.602,44.13,95994.0,1.14057
1008212991,1008195334,3997706,453.493,44.14,95995.2,1.14058
1008434960,1008411572,3997706,454.017,44.14,95989.2,1.14051
1008606004,1008585502,3997706,453.713,44.15,95992.7,1.14055
1008836737,1008814050,3997706,453.668,44.15,95993.2,1.14056
1008998410,1008975699,3997706,453.277,44.16,95997.8,1.14061
1009209478,1009189289,3997706,453.406,44.16,95996.2,1.14059
1009421354,1009403677,3997706,453.277,44.17,95997.8,1.14061
1009582144,1009564487,3997706,453.427,44.17,95996.0,1.14059
1009804067,1009781169,3997706,453.277,44.18,95997.8,1.14061
1010015070,1009994901,3997706,453.842,44.18,95991.2,1.14053
1010227014,1010208633,3997706,453.538,44.19,95994.7,1.14058
1010387708,1010370042,3997706,453.189,44.19,95998.8,1.14062
1010608716,1010586040,3997706,453.451,44.19,95995.7,1.14059
1010820629,1010800443,3997706,453.647,44.2,95993.5,1.14056
1011031612,1011013956,3997706,453.256,44.21,95998.0,1.14061
1011195570,1011175600,3997706,453.689,44.21,95993.0,1.14056
1011415562,1011391583,3997706,453.776,44.21,95992.0,1.14054
1011595698,1011570906,3997706,453.845,44.21,95991.2,1.14053
1011817089,1011794403,3997706,453.71,44.21,95992.8,1.14055
1012028136,1012007917,3997706,454.32,44.21,95985.7,1.14047
1012240002,1012222337,3997706,454.017,44.22,95989.2,1.14051
1012400801,1012383135,3997706,454.167,44.21,95987.5,1.14049
1012622786,1012600108,3997706,453.842,44.21,95991.2,1.14053
1012833850,1012813670,3997706,454.146,44.2,95987.7,1.14049
1012997385,1012975326,3997706,453.863,44.2,95991.0,1.14053
1013226582,1013203878,3997706,453.559,44.2,95994.5,1.14057
1013438496,1013418306,3997706,453.776,44.2,95992.0,1.14054
1013599229,1013579062,3997706,453.731,44.2,95992.5,1.14055
1013810232,1013792536,3997706,453.884,44.19,95990.8,1.14053
1014032148,1014009466,3997706,453.755,44.2,95992.2,1.14055
1014192962,1014170256,3997706,453.929,44.2,95990.2,1.14052
1014404882,1014384708,3997706,453.842,44.2,95991.2,1.14053
1014615862,1014598199,3997706,453.797,44.2,95991.8,1.14054
1014837842,1014815109,3997706,453.626,44.2,95993.7,1.14056
1014998540,1014975863,3997706,453.668,44.2,95993.2,1.14056
1015210485,1015190286,3997706,453.626,44.21,95993.7,1.14056
1015421526,1015403857,3997706,453.821,44.2,95991.5,1.14054
1015582280,1015564581,3997706,453.385,44.2,95996.5,1.1406
1015814588,1015794042,3997706,453.451,44.22,95995.7,1.14059
1016025274,1016007529,3997706,453.602,44.22,95994.0,1.14057
1016186930,1016169264,3997706,453.451,44.22,95995.7,1.14059
1016407954,1016385273,3997706,453.821,44.23,95991.5,1.14054
1016619882,1016599676,3997706,453.908,44.23,95990.5,1.14053
1016830847,1016813188,3997706,453.842,44.23,95991.2,1.14053
1016992564,1016974894,3997706,454.101,44.24,95988.2,1.1405
1017213610,1017190913,3997706,453.972,44.24,95989.8,1.14052
1017426428,1017405425,3997706,453.929,44.25,95990.2,1.14052
1017596611,1017572148,3997706,454.072,44.25,95988.6,1.1405
1017818346,1017794965,3997706,454.233,44.25,95986.7,1.14048
1018029322,1018009145,3997706,453.972,44.26,95989.8,1.14052
1018190063,1018169897,3997706,454.017,44.26,95989.2,1.14051
1018401983,1018384307,3997706,453.776,44.27,95992.0,1.14054
1018623059,1018600375,3997706,453.908,44.27,95990.5,1.14053
1018835015,1018814849,3997706,454.08,44.28,95988.5,1.1405
1018995799,1018975630,3997706,454.146,44.29,95987.7,1.14049
1019209645,1019190072,3997706,454.104,44.29,95988.2,1.1405
1019438866,1019418653,3997706,454.038,44.29,95989.0,1.14051
1019600519,1019580103,3997706,454.017,44.29,95989.2,1.14051
1019811548,1019793881,3997706,453.951,44.3,95990.0,1.14052
1020035628,1020010883,3997706,453.884,44.3,95990.8,1.14053
1020204535,1020184223,3997706,454.017,44.31,95989.2,1.14051
1020415411,1020397703,3997706,453.472,44.32,95995.5,1.14059
1020637374,1020614681,3997706,453.797,44.32,95991.8,1.14054
1020798097,1020775413,3997706,453.731,44.32,95992.5,1.14055
1021010055,1020989878,3997706,453.668,44.33,95993.2,1.14056
1021221053,1021203393,3997706,453.451,44.33,95995.7,1.14059
1021382861,1021365137,3997706,453.34,44.33,95997.0,1.1406
1021603846,1021581156,3997706,453.427,44.35,95996.0,1.14059
1021826536,1021801643,3997706,453.306,44.35,95997.4,1.14061
1022006666,1021983983,3997706,453.755,44.35,95992.2,1.14055
1022218535,1022198147,3997706,453.993,44.36,95989.5,1.14051
1022429543,1022411873,3997706,453.821,44.37,95991.5,1.14054
1022590264,1022572595,3997706,453.972,44.37,95989.8,1.14052
1022812421,1022789480,3997706,454.453,44.38,95984.2,1.14045
1023033228,1023015557,3997706,454.408,44.38,95984.8,1.14046
1023194965,1023177299,3997706,454.254,44.39,95986.5,1.14048
1023415982,1023393310,3997706,454.45,44.39,95984.2,1.14045
1023627956,1023607760,3997706,454.104,44.4,95988.2,1.1405
1023838903,1023821242,3997706,454.429,44.4,95984.5,1.14045
1024000557,1023982437,3997706,454.429,44.4,95984.5,1.14045
1024221602,1024198917,3997706,454.365,44.42,95985.2,1.14046
1024432641,1024412434,3997706,454.209,44.42,95987.0,1.14048
1024594878,1024574047,3997706,454.125,44.43,95988.0,1.1405
1024825305,1024802575,3997706,454.059,44.43,95988.8,1.14051
1025037191,1025017026,3997706,454.038,44.44,95989.0,1.14051
1025197939,1025177773,3997706,454.297,44.45,95986.0,1.14047
1025409929,1025392134,3997706,453.908,44.46,95990.5,1.14053
1025630822,1025608142,3997706,453.626,44.46,95993.7,1.14056
1025791554,1025768872,3997706,453.581,44.47,95994.2,1.14057
1026003462,1025983277,3997706,453.385,44.47,95996.5,1.1406
1026214454,1026196790,3997706,453.472,44.47,95995.5,1.14059
1026436740,1026413672,3997706,453.364,44.48,95996.8,1.1406
1026597074,1026574392,3997706,453.166,44.49,95999.0,1.14063
1026808947,1026788767,3997706,453.364,44.49,95996.8,1.1406
1027019955,1027002296,3997706,453.517,44.5,95995.0,1.14058
1027180717,1027163056,3997706,453.517,44.51,95995.0,1.14058
1027404109,1027379947,3997706,453.713,44.51,95992.7,1.14055
1027624515,1027606034,3997706,453.929,44.51,95990.2,1.14052
1027805512,1027782791,3997706,453.647,44.53,95993.5,1.14056
1028016518,1027996329,3997706,454.146,44.53,95987.8,1.14049
1028228457,1028210757,3997706,453.972,44.54,95989.8,1.14052
1028389189,1028371530,3997706,454.146,44.54,95987.8,1.14049
1028611194,1028588507,3997706,454.209,44.55,95987.0,1.14048
1028822200,1028802028,3997706,453.995,44.55,95989.5,1.14051
1029034960,1029016498,3997706,454.017,44.56,95989.2,1.14051
1029215261,1029192287,3997706,454.492,44.57,95983.8,1.14045
1029426912,1029406029,3997706,454.429,44.57,95984.5,1.14045
1029637874,1029620208,3997706,454.733,44.57,95981.0,1.14041
1029798610,1029780951,3997706,454.492,44.59,95983.8,1.14045
1030020559,1029997864,3997706,454.69,44.59,95981.5,1.14042
1030231543,1030211371,3997706,454.82,44.6,95980.0,1.1404
1030393158,1030372986,3997706,454.669,44.6,95981.7,1.14042
1030604153,1030586492,3997706,455.015,44.61,95977.8,1.14037
1030826151,1030802958,3997706,454.928,44.62,95978.8,1.14039
1031037275,1031016916,3997706,455.364,44.62,95973.8,1.14033
1031197817,1031177650,3997706,455.256,44.62,95975.0,1.14034
1031409723,1031392055,3997706,455.298,44.63,95974.5,1.14034
1031630736,1031608049,3997706,455.385,44.64,95973.5,1.14032
1031794333,1031769692,3997706,455.103,44.64,95976.7,1.14036
1032034968,1032010811,3997706,455.451,44.65,95972.8,1.14032
1032205187,1032184562,3997706,455.779,44.64,95969.0,1.14027
1032416188,1032398529,3997706,455.647,44.65,95970.5,1.14029
1032637245,1032614513,3997706,455.472,44.65,95972.5,1.14031
1032798840,1032776155,3997706,455.145,44.66,95976.2,1.14036
1033009876,1032989703,3997706,454.667,44.67,95981.8,1.14042
1033221799,1033204139,3997706,454.69,44.67,95981.5,1.14042
1033382567,1033364910,3997706,454.429,44.67,95984.5,1.14045
1033605352,1033581916,3997706,454.429,44.67,95984.5,1.14045
1033815653,1033795378,3997706,454.579,44.68,95982.8,1.14043
1034027487,1034009820,3997706,453.884,44.68,95990.8,1.14053
1034188211,1034170544,3997706,453.863,44.68,95991.0,1.14053
1034409295,1034386553,3997706,453.602,44.69,95994.0,1.14057
1034621103,1034600934,3997706,453.406,44.69,95996.2,1.14059
1034832127,1034814427,3997706,453.581,44.69,95994.2,1.14057
1034993817,1034976147,3997706,453.602,44.7,95994.0,1.14057
1035214872,1035192176,3997706,454.017,44.7,95989.2,1.14051
1035437501,1035412646,3997706,453.758,44.71,95992.2,1.14055
1035617832,1035594953,3997706,453.863,44.71,95991.0,1.14053
1035829519,1035809125,3997706,454.038,44.71,95989.0,1.14051
1035990295,1035970086,3997706,454.08,44.72,95988.5,1.1405
1036201281,1036183612,3997706,454.45,44.72,95984.2,1.14045
1036423439,1036400531,3997706,454.471,44.72,95984.0,1.14045
1036634977,1036614047,3997706,454.537,44.72,95983.2,1.14044
1036795954,1036775735,3997706,454.886,44.73,95979.2,1.14039
1037006925,1036989271,3997706,454.907,44.73,95979.0,1.14039
1037228835,1037206157,3997706,455.103,44.74,95976.7,1.14036
1037439815,1037419648,3997706,454.907,44.74,95979.0,1.14039
1037600632,1037580388,3997706,455.015,44.74,95977.8,1.14037
1037812454,1037794793,3997706,455.081,44.74,95977.0,1.14037
1038033565,1038010799,3997706,455.06,44.74,95977.2,1.14037
1038196814,1038172414,3997706,455.06,44.75,95977.2,1.14037
1038416087,1038391897,3997706,455.499,44.75,95972.2,1.14031
1038638088,1038615394,3997706,455.343,44.75,95974.0,1.14033
1038798888,1038776194,3997706,455.277,44.74,95974.8,1.14034
1039010903,1038990605,3997706,456.08,44.75,95965.5,1.14023
1039221822,1039204159,3997706,455.539,44.75,95971.8,1.1403
1039382643,1039364933,3997706,455.343,44.75,95974.0,1.14033
1039604583,1039581908,3997706,455.232,44.75,95975.2,1.14034
1039815547,1039795380,3997706,455.319,44.76,95974.2,1.14033
1040028000,1040009749,3997706,454.667,44.76,95981.8,1.14042
1040208230,1040185551,3997706,454.841,44.76,95979.8,1.1404
1040420146,1040399978,3997706,454.32,44.76,95985.7,1.14047
1040631123,1040613466,3997706,454.537,44.77,95983.2,1.14044
1040792834,1040774947,3997706,453.929,44.76,95990.2,1.14052
1041014054,1040991156,3997706,453.929,44.77,95990.2,1.14052
1041225834,1041204908,3997706,453.884,44.77,95990.8,1.14053
1041436799,1041419138,3997706,453.797,44.77,95991.8,1.14054
1041597561,1041579890,3997706,453.517,44.77,95995.0,1.14058
1041819503,1041796801,3997706,453.559,44.77,95994.5,1.14057
1042030536,1042010370,3997706,453.581,44.77,95994.2,1.14057
1042192151,1042171977,3997706,453.319,44.77,95997.2,1.14061
1042403142,1042385485,3997706,453.472,44.77,95995.5,1.14059
1042625911,1042602449,3997706,453.472,44.77,95995.5,1.14059
1042795947,1042775719,3997706,453.277,44.77,95997.8,1.14061
1043006925,1042989237,3997706,453.734,44.77,95992.5,1.14055
1043228830,1043206150,3997706,453.821,44.77,95991.5,1.14054
1043439930,1043419668,3997706,454.191,44.77,95987.2,1.14049
1043601862,1043581320,3997706,454.125,44.77,95988.0,1.1405
1043812452,1043794778,3997706,453.972,44.77,95989.8,1.14052
1044034412,1044011694,3997706,454.342,44.77,95985.5,1.14047
1044195139,1044172464,3997706,454.384,44.76,95985.0,1.14046
1044407084,1044386417,3997706,454.297,44.77,95986.0,1.14047
1044618053,1044600391,3997706,454.297,44.76,95986.0,1.14047
1044840012,1044816628,3997706,454.45,44.77,95984.2,1.14045
1045000771,1044978073,3997706,454.754,44.76,95980.8,1.14041
1045211741,1045191566,3997706,454.579,44.76,95982.8,1.14043
1045384238,1045359295,3997706,454.82,44.76,95980.0,1.1404
1045604556,1045581817,3997706,454.667,44.76,95981.8,1.14042
1045816442,1045796239,3997706,454.928,44.75,95978.8,1.14039
1046027414,1046009748,3997706,455.169,44.75,95976.0,1.14035
1046189104,1046170721,3997706,454.841,44.75,95979.8,1.1404
1046410144,1046387449,3997706,455.081,44.75,95977.0,1.14037
1046621149,1046600931,3997706,454.949,44.75,95978.5,1.14038
1046833053,1046815393,3997706,454.82,44.75,95980.0,1.1404
1046993846,1046976181,3997706,454.973,44.75,95978.2,1.14038
1047216442,1047193096,3997706,454.949,44.75,95978.5,1.14038
1047436796,1047419122,3997706,454.994,44.74,95978.0,1.14038
1047598465,1047580779,3997706,454.907,44.74,95979.0,1.14039
1047819496,1047796795,3997706,454.907,44.74,95979.0,1.14039
1048032140,1048011228,3997706,454.799,44.74,95980.2,1.1404
1048192251,1048171953,3997706,454.471,44.73,95984.0,1.14045
1048403114,1048385448,3997706,454.799,44.72,95980.2,1.1404
1048625090,1048602371,3997706,454.537,44.72,95983.2,1.14044
1048836090,1048815921,3997706,454.886,44.71,95979.2,1.14039
1048997795,1048977605,3997706,454.799,44.71,95980.2,1.1404
1049208781,1049191122,3997706,454.711,44.7,95981.2,1.14042
1049430748,1049408052,3997706,455.015,44.69,95977.8,1.14037
1049591508,1049568818,3997706,454.754,44.69,95980.8,1.14041
1049803399,1049782733,3997706,454.558,44.69,95983.0,1.14044
1050014593,1049996737,3997706,454.603,44.68,95982.5,1.14043
1050236379,1050212996,3997706,454.254,44.67,95986.5,1.14048
1050397108,1050374430,3997706,453.755,44.67,95992.2,1.14055
1050608047,1050587878,3997706,453.776,44.66,95992.0,1.14054
1050820024,1050802344,3997706,453.71,44.65,95992.8,1.14055
1050980791,1050963133,3997706,453.821,44.65,95991.5,1.14054
1051202766,1051180068,3997706,453.036,44.65,96000.5,1.14064
1051413758,1051393576,3997706,453.668,44.64,95993.2,1.14056
1051626521,1051608015,3997706,453.427,44.64,95996.0,1.14059
1051806761,1051783779,3997706,453.451,44.63,95995.7,1.14059
1052028419,1052010063,3997706,453.734,44.62,95992.5,1.14055
1052189137,1052171477,3997706,453.647,44.63,95993.5,1.14056
1052410173,1052387496,3997706,453.517,44.62,95995.0,1.14058
1052622107,1052601927,3997706,453.713,44.62,95992.7,1.14055
1052833105,1052815445,3997706,453.908,44.62,95990.5,1.14053
1052994796,1052977106,3997706,453.929,44.62,95990.2,1.14052
1053215844,1053193168,3997706,454.017,44.62,95989.2,1.14051
1053427821,1053407593,3997706,454.209,44.61,95987.0,1.14048
1053638787,1053621079,3997706,454.146,44.62,95987.7,1.14049
1053799530,1053781803,3997706,454.342,44.61,95985.5,1.14047
1054021414,1053998708,3997706,454.537,44.62,95983.2,1.14044
1054232419,1054212230,3997706,454.667,44.62,95981.8,1.14042
1054394697,1054373938,3997706,454.579,44.62,95982.8,1.14043
1054605050,1054587382,3997706,454.778,44.62,95980.5,1.14041
1054827057,1054804378,3997706,454.886,44.62,95979.2,1.14039
1055038034,1055017869,3997706,454.69,44.62,95981.5,1.14042
1055199774,1055179577,3997706,454.45,44.62,95984.2,1.14045
1055410733,1055393076,3997706,454.561,44.63,95983.0,1.14044
1055632707,1055609803,3997706,454.648,44.63,95982.0,1.14042
1055793497,1055770796,3997706,455.169,44.63,95976.0,1.14035
1056004496,1055984322,3997706,454.841,44.63,95979.8,1.1404
1056218019,1056198666,3997706,454.841,44.63,95979.8,1.1404
1056438272,1056414627,3997706,454.841,44.64,95979.8,1.1404
1056609004,1056588835,3997706,454.799,44.64,95980.2,1.1404
1056820002,1056802342,3997706,454.754,44.65,95980.8,1.14041
1056981721,1056963350,3997706,454.711,44.65,95981.2,1.14042
1057224182,1057198578,3997706,454.648,44.65,95982.0,1.14042
1057403638,1057380950,3997706,454.754,44.66,95980.8,1.14041
1057615587,1057595418,3997706,454.841,44.66,95979.8,1.1404
1057826571,1057808911,3997706,455.126,44.66,95976.5,1.14036
1057988178,1057970517,3997706,454.841,44.67,95979.8,1.1404
1058209275,1058186586,3997706,454.886,44.67,95979.2,1.14039
1058421221,1058401024,3997706,454.886,44.68,95979.2,1.14039
1058632225,1058614565,3997706,454.862,44.69,95979.5,1.1404
1058793951,1058776025,3997706,454.603,44.68,95982.5,1.14043
1059036753,1059010848,3997706,454.838,44.69,95979.8,1.1404
1059215885,1059185639,3997706,454.735,44.7,95981.0,1.14041
1059427740,1059407561,3997706,454.711,44.71,95981.2,1.14042
1059638718,1059621059,3997706,454.949,44.71,95978.5,1.14038
1059800350,1059782674,3997706,454.886,44.72,95979.2,1.14039
1060021376,1059998684,3997706,454.949,44.72,95978.5,1.14038
1060233242,1060213061,3997706,455.126,44.73,95976.5,1.14036
1060394020,1060373850,3997706,454.994,44.73,95978.0,1.14038
1060605995,1060587583,3997706,454.778,44.73,95980.5,1.14041
1060838362,1060816774,3997706,454.841,44.74,95979.8,1.1404
1061008531,1060990064,3997706,455.06,44.75,95977.2,1.14037
1061229642,1061206961,3997706,454.603,44.76,95982.5,1.14043
1061390411,1061367701,3997706,454.733,44.76,95981.0,1.14041
1061604255,1061582138,3997706,454.949,44.76,95978.5,1.14038
1061834530,1061810643,3997706,454.667,44.77,95981.8,1.14042
1062005090,1061984220,3997706,454.82,44.77,95980.0,1.1404
1062216053,1062198392,3997706,454.69,44.79,95981.5,1.14042
1062437146,1062414436,3997706,454.862,44.79,95979.5,1.1404
1062598787,1062576053,3997706,454.624,44.8,95982.2,1.14043
1062809756,1062789553,3997706,454.667,44.81,95981.8,1.14042
1063021667,1063004002,3997706,454.453,44.81,95984.2,1.14045
1063182467,1063164794,3997706,454.365,44.82,95985.2,1.14046
1063406405,1063381712,3997706,454.233,44.83,95986.7,1.14048
1063576642,1063554996,3997706,453.951,44.83,95990.0,1.14052
1063806310,1063783561,3997706,453.689,44.84,95993.0,1.14056
1064018156,1063997991,3997706,454.059,44.84,95988.7,1.14051
1064229225,1064211504,3997706,453.908,44.84,95990.5,1.14053
1064390888,1064373211,3997706,453.559,44.85,95994.5,1.14057
1064611927,1064589250,3997706,453.647,44.86,95993.5,1.14056
1064823855,1064803687,3997706,453.689,44.86,95993.0,1.14056
1065034875,1065017172,3997706,453.776,44.86,95992.0,1.14054
1065197364,1065178904,3997706,453.647,44.87,95993.5,1.14056
1065417505,1065394820,3997706,453.821,44.88,95991.5,1.14054
1065629433,1065609013,3997706,453.972,44.88,95989.8,1.14052
1065790130,1065769961,3997706,453.797,44.88,95991.8,1.14054
1066001112,1065983455,3997706,453.776,44.88,95992.0,1.14054
1066223587,1066200386,3997706,454.083,44.89,95988.5,1.1405
1066393897,1066373669,3997706,454.276,44.89,95986.2,1.14048
1066605796,1066588136,3997706,454.318,44.89,95985.8,1.14047
1066826795,1066804111,3997706,454.733,44.9,95981.0,1.14041
1067038896,1067018477,3997706,454.471,44.91,95984.0,1.14045
1067209464,1067191789,3997706,454.841,44.91,95979.8,1.1404
1067430523,1067407790,3997706,455.06,44.91,95977.2,1.14037
1067592152,1067569477,3997706,454.994,44.91,95978.0,1.14038
1067803209,1067783019,3997706,454.82,44.91,95980.0,1.1404
1068015669,1067997427,3997706,455.145,44.92,95976.2,1.14036
1068195952,1068173266,3997706,454.949,44.92,95978.5,1.14038
1068407851,1068387681,3997706,454.841,44.92,95979.8,1.1404
1068618820,1068601157,3997706,454.669,44.93,95981.7,1.14042
1068779622,1068761929,3997706,454.886,44.93,95979.2,1.14039
1069001543,1068978858,3997706,454.928,44.94,95978.8,1.14039
1069212636,1069192423,3997706,454.624,44.94,95982.2,1.14043
1069424620,1069406952,3997706,455.015,44.95,95977.8,1.14037
1069585347,1069567677,3997706,454.492,44.94,95983.8,1.14045
1069807815,1069784581,3997706,454.276,44.96,95986.2,1.14048
1070028252,1070010591,3997706,454.711,44.95,95981.2,1.14042
1070189926,1070172263,3997706,454.862,44.96,95979.5,1.1404
1070410961,1070388285,3997706,454.648,44.96,95982.0,1.14042
1070623702,1070602729,3997706,454.167,44.97,95987.5,1.14049
1070813820,1070791092,3997706,454.579,44.98,95982.8,1.14043
1071025719,1071005079,3997706,454.492,44.98,95983.8,1.14045
1071236738,1071219065,3997706,454.254,44.99,95986.5,1.14048
1071397476,1071379797,3997706,454.69,44.99,95981.5,1.14042
1071619417,1071596718,3997706,454.429,45.0,95984.5,1.14045
1071830412,1071810221,3997706,454.624,45.0,95982.2,1.14043
1071992058,1071971880,3997706,454.492,45.01,95983.8,1.14045
1072203039,1072185383,3997706,454.973,45.01,95978.2,1.14038
1072425635,1072402315,3997706,455.06,45.02,95977.2,1.14037
1072637292,1072615778,3997706,454.928,45.03,95978.8,1.14039
1072797790,1072776525,3997706,455.081,45.03,95977.0,1.14037
1073008598,1072990940,3997706,455.06,45.04,95977.2,1.14037
1073229590,1073206913,3997706,455.256,45.04,95975.0,1.14034
1073391241,1073368531,3997706,455.145,45.05,95976.2,1.14036
1073602285,1073582107,3997706,455.036,45.05,95977.5,1.14037
1073814179,1073796515,3997706,454.949,45.06,95978.5,1.14038
1074035220,1074012541,3997706,455.126,45.07,95976.5,1.14036
1074196951,1074173542,3997706,455.06,45.07,95977.2,1.14037
1074407923,1074387747,3997706,455.036,45.08,95977.5,1.14037
1074618887,1074601231,3997706,455.015,45.08,95977.8,1.14037
1074780565,1074762907,3997706,454.928,45.09,95978.8,1.14039
1075001590,1074978910,3997706,454.928,45.1,95978.8,1.14039
1075213914,1075193278,3997706,454.603,45.11,95982.5,1.14043
1075424501,1075406747,3997706,454.648,45.11,95982.0,1.14042
1075585804,1075567477,3997706,454.537,45.11,95983.2,1.14044
1075807074,1075784393,3997706,454.558,45.12,95983.0,1.14044
1076018050,1075997878,3997706,454.471,45.13,95984.0,1.14045
1076230028,1076212330,3997706,454.561,45.13,95983.0,1.14044
1076390741,1076373075,3997706,454.45,45.14,95984.2,1.14045
1076612843,1076590083,3997706,454.384,45.15,95985.0,1.14046
1076823863,1076803620,3997706,454.017,45.15,95989.2,1.14051
1076987459,1076965286,3997706,453.713,45.16,95992.7,1.14055
1077227733,1077206396,3997706,453.863,45.16,95991.0,1.14053
1077398236,1077373304,3997706,453.583,45.17,95994.2,1.14057
1077619246,1077596567,3997706,453.538,45.18,95994.8,1.14058
1077830303,1077810063,3997706,453.821,45.18,95991.5,1.14054
1078003570,1077977742,3997706,453.549,45.19,95994.6,1.14057
1078183892,1078160055,3997706,453.232,45.2,95998.2,1.14062
1078404709,1078387014,3997706,453.406,45.2,95996.2,1.14059
1078625688,1078603012,3997706,453.559,45.21,95994.5,1.14057
1078837730,1078817422,3997706,453.581,45.22,95994.2,1.14057
1078998334,1078978161,3997706,453.713,45.23,95992.7,1.14055
1079209332,1079191669,3997706,453.559,45.23,95994.5,1.14057
1079431281,1079408595,3997706,453.581,45.24,95994.2,1.14057
1079592003,1079569323,3997706,453.668,45.24,95993.2,1.14056
1079814461,1079789799,3997706,454.175,45.25,95987.4,1.14049
1079994846,1079972137,3997706,453.842,45.26,95991.2,1.14053
1080206752,1080186581,3997706,453.734,45.26,95992.5,1.14055
1080417741,1080400082,3997706,453.993,45.27,95989.5,1.14051
1080639649,1080616739,3997706,454.167,45.28,95987.5,1.14049
1080800540,1080777802,3997706,453.908,45.28,95990.5,1.14053
1081011539,1080991281,3997706,454.08,45.28,95988.5,1.1405
1081223325,1081205646,3997706,453.863,45.29,95991.0,1.14053
1081384160,1081366497,3997706,454.363,45.29,95985.2,1.14046
1081606884,1081583397,3997706,453.731,45.3,95992.5,1.14055
1081827073,1081809393,3997706,453.776,45.3,95992.0,1.14054
1082008822,1081986149,3997706,453.734,45.3,95992.5,1.14055
1082219872,1082199666,3997706,453.602,45.31,95994.0,1.14057
1082431745,1082413603,3997706,453.385,45.31,95996.5,1.1406
1082592524,1082574841,3997706,453.517,45.31,95995.0,1.14058
1082813600,1082790915,3997706,453.123,45.32,95999.5,1.14063
1083025538,1083005360,3997706,453.406,45.32,95996.2,1.14059
1083236532,1083218869,3997706,453.448,45.32,95995.8,1.14059
1083398141,1083380484,3997706,453.34,45.33,95997.0,1.1406
1083619142,1083596468,3997706,453.298,45.33,95997.5,1.14061
1083831038,1083810870,3997706,453.406,45.33,95996.2,1.14059
1083991840,1083971671,3997706,453.406,45.34,95996.2,1.14059
1084202859,1084185160,3997706,453.515,45.34,95995.0,1.14058
1084434917,1084414592,3997706,453.647,45.35,95993.5,1.14056
1084595473,1084575296,3997706,453.647,45.35,95993.5,1.14056
1084807442,1084789719,3997706,453.863,45.35,95991.0,1.14053
1085028452,1085005733,3997706,453.731,45.35,95992.5,1.14055
1085240332,1085220157,3997706,453.929,45.36,95990.2,1.14052
1085401100,1085380929,3997706,453.731,45.36,95992.5,1.14055
1085613011,1085594890,3997706,454.017,45.36,95989.2,1.14051
1085834099,1085811400,3997706,453.776,45.37,95992.0,1.14054
1085994846,1085972171,3997706,453.842,45.37,95991.2,1.14053
1086207239,1086186585,3997706,453.559,45.37,95994.5,1.14057
1086417731,1086400068,3997706,453.581,45.37,95994.2,1.14057
1086639690,1086617005,3997706,453.951,45.37,95990.0,1.14052
1086800459,1086777754,3997706,453.626,45.37,95993.7,1.14056
1087012410,1086992217,3997706,453.951,45.37,95990.0,1.14052
1087173505,1087152963,3997706,453.863,45.37,95991.0,1.14053
1087405158,1087382024,3997706,454.017,45.37,95989.2,1.14051
1087616156,1087595983,3997706,454.038,45.36,95989.0,1.14051
1087828145,1087809756,3997706,453.71,45.37,95992.8,1.14055
1087988851,1087971188,3997706,453.493,45.36,95995.2,1.14058
1088209918,1088187244,3997706,453.929,45.36,95990.2,1.14052
1088421944,1088401724,3997706,453.929,45.36,95990.2,1.14052
1088632927,1088615250,3997706,454.384,45.35,95985.0,1.14046
1088795422,1088776891,3997706,454.101,45.35,95988.2,1.1405
1089025637,1089005376,3997706,454.104,45.35,95988.2,1.1405
1089237466,1089219779,3997706,454.209,45.34,95987.0,1.14048
1089398245,1089380576,3997706,454.365,45.34,95985.2,1.14046
1089619363,1089596587,3997706,454.297,45.34,95986.0,1.14047
1089831210,1089811045,3997706,454.516,45.34,95983.5,1.14044
1089992013,1089971829,3997706,454.453,45.34,95984.2,1.14045
1090203950,1090186288,3997706,454.146,45.34,95987.7,1.14049
1090424936,1090402260,3997706,454.017,45.34,95989.2,1.14051
1090637548,1090616720,3997706,454.254,45.34,95986.5,1.14048
1090807705,1090783513,3997706,454.262,45.34,95986.4,1.14048
1091029641,1091006961,3997706,454.82,45.34,95980.0,1.1404
1091190443,1091167716,3997706,454.841,45.34,95979.8,1.1404
1091401442,1091381224,3997706,454.778,45.34,95980.5,1.14041
1091613799,1091595632,3997706,454.318,45.34,95985.8,1.14047
1091834448,1091811670,3997706,454.603,45.34,95982.5,1.14043
1091996071,1091973386,3997706,454.471,45.35,95984.0,1.14045
1092207116,1092186918,3997706,454.297,45.35,95986.0,1.14047
1092419021,1092401350,3997706,454.471,45.35,95984.0,1.14045
1092579823,1092562153,3997706,454.363,45.35,95985.2,1.14046
1092801797,1092779112,3997706,454.928,45.36,95978.8,1.14039
1093012812,1092992644,3997706,454.603,45.36,95982.5,1.14043
1093225328,1093207057,3997706,454.733,45.36,95981.0,1.14041
1093405807,1093375317,3997706,454.735,45.37,95981.0,1.14041
1093616619,1093596408,3997706,454.342,45.37,95985.5,1.14047
1093828466,1093810798,3997706,454.579,45.36,95982.8,1.14043
1093989177,1093971514,3997706,454.492,45.37,95983.8,1.14045
1094211182,1094188500,3997706,454.384,45.37,95985.0,1.14046
1094422183,1094402017,3997706,454.342,45.38,95985.5,1.14047
1094634176,1094616479,3997706,454.059,45.38,95988.7,1.14051
1094794917,1094777244,3997706,454.429,45.38,95984.5,1.14045
1095017742,1094994153,3997706,454.191,45.39,95987.2,1.14049
1095237903,1095220235,3997706,453.929,45.39,95990.2,1.14052
1095398710,1095380998,3997706,453.842,45.4,95991.2,1.14053
1095620674,1095597994,3997706,454.278,45.4,95986.2,1.14048
1095831780,1095811521,3997706,454.017,45.4,95989.2,1.14051
1096004055,1095979137,3997706,453.81,45.41,95991.6,1.14054
1096224451,1096201734,3997706,453.842,45.41,95991.2,1.14053
1096436358,1096416179,3997706,454.059,45.42,95988.8,1.14051
1096597108,1096576941,3997706,453.319,45.42,95997.2,1.14061
1096809067,1096791373,3997706,454.038,45.42,95989.0,1.14051
1097030109,1097007424,3997706,453.189,45.43,95998.8,1.14062
1097190890,1097168177,3997706,453.731,45.43,95992.5,1.14055
1097402807,1097382629,3997706,453.71,45.44,95992.8,1.14055
1097613853,1097596137,3997706,453.517,45.43,95995.0,1.14058
1097836192,1097813033,3997706,453.647,45.44,95993.5,1.14056
1098006486,1097986299,3997706,453.472,45.44,95995.5,1.14059
1098218379,1098200705,3997706,453.755,45.44,95992.2,1.14055
1098379096,1098361439,3997706,453.451,45.44,95995.7,1.14059
1098601218,1098578439,3997706,453.626,45.44,95993.7,1.14056
1098812112,1098791943,3997706,453.734,45.45,95992.5,1.14055
1099024020,1099005883,3997706,453.797,45.44,95991.8,1.14054
1099184795,1099167134,3997706,453.821,45.45,95991.5,1.14054
1099405883,1099383208,3997706,453.538,45.45,95994.7,1.14058
1099617792,1099597620,3997706,453.626,45.45,95993.8,1.14056
1099828788,1099811128,3997706,453.863,45.46,95991.0,1.14053
1099990471,1099972804,3997706,453.972,45.46,95989.8,1.14052
1100211493,1100188805,3997706,453.951,45.47,95990.0,1.14052
1100425351,1100403178,3997706,453.995,45.47,95989.5,1.14051
1100595595,1100576488,3997706,453.951,45.47,95990.0,1.14052
1100826180,1100805556,3997706,454.191,45.47,95987.2,1.14049
1101037216,1101019555,3997706,454.233,45.47,95986.8,1.14048
1101197947,1101180290,3997706,453.863,45.47,95991.0,1.14053
1101419926,1101397224,3997706,454.191,45.47,95987.2,1.14049
1101630926,1101610757,3997706,454.342,45.48,95985.5,1.14047
1101792598,1101772427,3997706,454.453,45.48,95984.2,1.14045
1102003623,1101985956,3997706,454.384,45.48,95985.0,1.14046
1102226147,1102202956,3997706,454.363,45.48,95985.2,1.14046
1102436564,1102416395,3997706,454.603,45.48,95982.5,1.14043
1102597339,1102577129,3997706,454.408,45.48,95984.8,1.14046
1102809204,1102791544,3997706,454.233,45.49,95986.8,1.14048
1103030217,1103007535,3997706,454.667,45.49,95981.8,1.14042
1103191923,1103169240,3997706,454.667,45.49,95981.8,1.14042
1103402974,1103382766,3997706,454.561,45.49,95983.0,1.14044
1103614945,1103597276,3997706,454.69,45.5,95981.5,1.14042
1103835947,1103813268,3997706,454.928,45.49,95978.8,1.14039
1103997701,1103974969,3997706,454.799,45.5,95980.2,1.1404
1104208632,1104188468,3997706,454.841,45.5,95979.8,1.1404
1104420620,1104402957,3997706,455.06,45.51,95977.2,1.14037
1104581491,1104563768,3997706,455.06,45.51,95977.2,1.14037
1104803453,1104780037,3997706,455.319,45.51,95974.2,1.14033
1105026126,1105000215,3997706,455.203,45.52,95975.6,1.14035
1105205950,1105182554,3997706,455.169,45.52,95976.0,1.14035
1105427190,1105409532,3997706,455.626,45.52,95970.7,1.14029
1105587955,1105570295,3997706,455.385,45.53,95973.5,1.14032
1105809883,1105787184,3997706,455.713,45.53,95969.7,1.14028
1106020920,1106000743,3997706,455.975,45.54,95966.7,1.14024
1106232840,1106215183,3997706,455.494,45.54,95972.2,1.14031
1106393615,1106375946,3997706,455.515,45.54,95972.0,1.14031
1106614652,1106591945,3997706,455.56,45.55,95971.5,1.1403
1106797868,1106772181,3997706,455.568,45.55,95971.4,1.1403
1107027423,1107007244,3997706,455.581,45.55,95971.2,1.1403
1107189055,1107168879,3997706,455.211,45.56,95975.5,1.14035
1107400056,1107382396,3997706,455.256,45.56,95975.0,1.14034
1107622542,1107599310,3997706,455.169,45.56,95976.0,1.14035
1107833075,1107812772,3997706,454.624,45.57,95982.2,1.14043
1107993800,1107973581,3997706,454.516,45.56,95983.5,1.14044
1108205651,1108187988,3997706,454.32,45.58,95985.7,1.14047
1108426783,1108404022,3997706,454.209,45.58,95987.0,1.14048
1108588315,1108565632,3997706,453.842,45.58,95991.2,1.14053
1108799320,1108779130,3997706,453.797,45.58,95991.8,1.14054
1109011198,1108993529,3997706,453.602,45.58,95994.0,1.14057
1109232221,1109209543,3997706,453.581,45.59,95994.2,1.14057
1109392995,1109370276,3997706,453.71,45.59,95992.8,1.14055
1109615254,1109590656,3997706,453.567,45.59,95994.4,1.14057
1109835867,1109813172,3997706,453.626,45.59,95993.8,1.14056
1109997494,1109974801,3997706,453.34,45.6,95997.0,1.1406
1110208457,1110188279,3997706,453.647,45.6,95993.5,1.14056
1110420433,1110402626,3997706,453.493,45.6,95995.2,1.14058
1110581056,1110563394,3997706,453.256,45.6,95998.0,1.14061
1110802142,1110779410,3997706,453.406,45.6,95996.2,1.14059
1111014001,1110993820,3997706,453.668,45.6,95993.2,1.14056
1111224950,1111207287,3997706,453.647,45.6,95993.5,1.14056
1111407112,1111376505,3997706,453.583,45.61,95994.2,1.14057
1111617686,1111597491,3997706,453.908,45.6,95990.5,1.14053
1111829654,1111811989,3997706,453.602,45.61,95994.0,1.14057
1111990411,1111972719,3997706,453.581,45.61,95994.2,1.14057
1112212361,1112189215,3997706,453.776,45.62,95992.0,1.14054
1112423366,1112403191,3997706,453.908,45.62,95990.5,1.14053
1112584898,1112563936,3997706,453.884,45.61,95990.8,1.14053
1112816152,1112793476,3997706,454.191,45.62,95987.2,1.14049
1113027095,1113006930,3997706,453.821,45.63,95991.5,1.14054
1113239010,1113221348,3997706,453.908,45.63,95990.5,1.14053
1113399772,1113382114,3997706,454.038,45.63,95989.0,1.14051
1113621829,1113599099,3997706,454.083,45.63,95988.5,1.1405
1113832762,1113812593,3997706,454.146,45.63,95987.7,1.14049
1113994494,1113973833,3997706,454.32,45.63,95985.8,1.14047
1114225559,1114202817,3997706,454.254,45.62,95986.5,1.14048
1114407056,1114382154,3997706,454.072,45.62,95988.6,1.1405
1114628352,1114605671,3997706,454.146,45.63,95987.7,1.14049
1114789096,1114766418,3997706,453.884,45.62,95990.8,1.14053
1115000980,1114980810,3997706,454.038,45.62,95989.0,1.14051
1115212043,1115194349,3997706,454.299,45.62,95986.0,1.14047
1115434029,1115411301,3997706,454.276,45.62,95986.2,1.14048
1115594722,1115572041,3997706,454.254,45.62,95986.5,1.14048
1115806661,1115786014,3997706,454.167,45.62,95987.5,1.14049
1116017625,1115999964,3997706,453.668,45.63,95993.2,1.14056
1116238673,1116215944,3997706,453.972,45.63,95989.8,1.14052
1116400303,1116377615,3997706,453.647,45.62,95993.5,1.14056
1116611272,1116591097,3997706,453.668,45.63,95993.2,1.14056
1116823724,1116805525,3997706,453.626,45.63,95993.7,1.14056
1116984084,1116966265,3997706,453.472,45.63,95995.5,1.14059
1117215916,1117195503,3997706,453.559,45.63,95994.5,1.14057
1117426923,1117409265,3997706,453.319,45.63,95997.2,1.14061
1117587708,1117570048,3997706,453.842,45.63,95991.2,1.14053
1117809648,1117786967,3997706,453.602,45.63,95994.0,1.14057
1118020679,1118000510,3997706,453.668,45.63,95993.2,1.14056
1118232609,1118214945,3997706,453.668,45.63,95993.2,1.14056
1118393322,1118375653,3997706,453.884,45.62,95990.8,1.14053
1118617087,1118592643,3997706,453.797,45.62,95991.8,1.14054
1118837914,1118818610,3997706,453.797,45.62,95991.8,1.14054
1119018042,1118994886,3997706,453.951,45.62,95990.0,1.14052
1119228995,1119208826,3997706,453.842,45.62,95991.2,1.14053
1119389733,1119369556,3997706,453.884,45.61,95990.8,1.14053
1119603413,1119583893,3997706,453.797,45.62,95991.8,1.14054
1119832655,1119812426,3997706,454.017,45.61,95989.2,1.14051
1119994274,1119974103,3997706,453.797,45.62,95991.8,1.14054
1120205374,1120187689,3997706,453.713,45.62,95992.7,1.14055
1120427425,1120404628,3997706,453.908,45.62,95990.5,1.14053
1120638335,1120618148,3997706,453.995,45.62,95989.5,1.14051
1120799079,1120778916,3997706,453.842,45.62,95991.2,1.14053
1121010978,1120993310,3997706,453.995,45.62,95989.5,1.14051
1121231992,1121209316,3997706,453.951,45.62,95990.0,1.14052
1121394331,1121370950,3997706,453.929,45.63,95990.2,1.14052
1121634763,1121604553,3997706,453.916,45.63,95990.4,1.14052
1121796466,1121773530,3997706,454.017,45.63,95989.2,1.14051
1122007425,1121987250,3997706,454.167,45.62,95987.5,1.14049
1122218415,1122200709,3997706,454.167,45.63,95987.5,1.14049
1122380119,1122362454,3997706,453.908,45.63,95990.5,1.14053
1122601163,1122578482,3997706,453.863,45.63,95991.0,1.14053
1122813123,1122792957,3997706,453.731,45.63,95992.5,1.14055
1123024179,1123006508,3997706,453.908,45.64,95990.5,1.14053
1123206289,1123175748,3997706,453.966,45.64,95989.8,1.14052
1123416962,1123396739,3997706,454.038,45.63,95989.0,1.14051
1123628832,1123611167,3997706,453.972,45.64,95989.8,1.14052
1123789584,1123771927,3997706,454.08,45.65,95988.5,1.1405
1124011577,1123988395,3997706,454.278,45.64,95986.2,1.14048
1124222624,1124202379,3997706,454.059,45.64,95988.7,1.14051
1124434560,1124416417,3997706,453.972,45.64,95989.8,1.14052
1124595374,1124577650,3997706,454.188,45.64,95987.2,1.14049
1124816509,1124793767,3997706,453.842,45.64,95991.2,1.14053
1125038497,1125020810,3997706,453.689,45.64,95993.0,1.14056
1125199284,1125181619,3997706,454.342,45.64,95985.5,1.14047
1125421251,1125398555,3997706,453.713,45.64,95992.7,1.14055
1125632283,1125612101,3997706,453.538,45.64,95994.7,1.14058
1125795794,1125773799,3997706,453.493,45.64,95995.2,1.14058
1126006099,1125987285,3997706,453.647,45.64,95993.5,1.14056
1126226881,1126204197,3997706,452.973,45.64,96001.2,1.14065
1126437959,1126417765,3997706,453.493,45.64,95995.2,1.14058
1126599641,1126579018,3997706,453.277,45.64,95997.8,1.14061
1126810652,1126792994,3997706,453.517,45.64,95995.0,1.14058
1127031712,1127009004,3997706,453.71,45.64,95992.8,1.14055
1127193333,1127170650,3997706,453.668,45.63,95993.2,1.14056
1127404356,1127384183,3997706,453.647,45.64,95993.5,1.14056
1127618066,1127598559,3997706,453.884,45.64,95990.8,1.14053
1127838643,1127814555,3997706,454.083,45.63,95988.5,1.1405
1128009003,1127988827,3997706,453.821,45.64,95991.5,1.14054
1128219995,1128202336,3997706,453.821,45.64,95991.5,1.14054
1128380716,1128363060,3997706,453.929,45.63,95990.2,1.14052
1128612886,1128592586,3997706,454.125,45.64,95988.0,1.1405
1128824394,1128806028,3997706,454.059,45.64,95988.7,1.14051
1128985422,1128967731,3997706,454.191,45.64,95987.2,1.14049
1129206434,1129183725,3997706,454.471,45.64,95984.0,1.14045
1129418328,1129398141,3997706,454.384,45.64,95985.0,1.14046
1129629331,1129611665,3997706,454.278,45.64,95986.2,1.14048
1129791017,1129773122,3997706,454.408,45.64,95984.8,1.14046
1130012066,1129989384,3997706,454.233,45.64,95986.8,1.14048
1130223041,1130202837,3997706,454.492,45.63,95983.8,1.14045
1130436768,1130417220,3997706,454.516,45.64,95983.5,1.14044
1130615729,1130593046,3997706,455.06,45.63,95977.2,1.14037
1130827645,1130807477,3997706,454.886,45.64,95979.2,1.14039
1131038645,1131020989,3997706,454.862,45.64,95979.5,1.1404
1131200426,1131182642,3997706,455.256,45.63,95975.0,1.14034
1131421410,1131398717,3997706,455.19,45.63,95975.8,1.14035
1131633355,1131613175,3997706,454.928,45.63,95978.8,1.14039
1131794192,1131774026,3997706,455.169,45.63,95976.0,1.14035
1132005205,1131987510,3997706,455.036,45.63,95977.5,1.14037
1132237587,1132216946,3997706,455.277,45.63,95974.8,1.14034
1132397869,1132377691,3997706,455.06,45.63,95977.2,1.14037
1132609748,1132592088,3997706,455.56,45.63,95971.5,1.1403
1132830726,1132808052,3997706,455.256,45.64,95975.0,1.14034
1132992428,1132969487,3997706,455.277,45.63,95974.8,1.14034
1133203613,1133183146,3997706,455.081,45.64,95977.0,1.14037
1133414455,1133396673,3997706,455.385,45.64,95973.5,1.14032
1133636349,1133613622,3997706,455.211,45.64,95975.5,1.14035
1133797086,1133774408,3997706,455.364,45.64,95973.8,1.14033
1134009050,1133988874,3997706,454.973,45.65,95978.2,1.14038
1134220010,1134202347,3997706,454.799,45.65,95980.2,1.1404
1134381711,1134364041,3997706,455.581,45.65,95971.2,1.1403
1134602758,1134580083,3997706,455.103,45.65,95976.7,1.14036
1134815748,1134794483,3997706,455.211,45.65,95975.5,1.14035
1134985577,1134967745,3997706,454.276,45.66,95986.2,1.14048
1135216532,1135196290,3997706,454.342,45.65,95985.5,1.14047
1135428424,1135410747,3997706,453.951,45.66,95990.0,1.14052
1135589131,1135571473,3997706,454.104,45.66,95988.2,1.1405
1135811042,1135788357,3997706,453.385,45.66,95996.5,1.1406
1136022029,1136001865,3997706,452.949,45.66,96001.5,1.14066
1136233956,1136216280,3997706,453.298,45.66,95997.5,1.14061
1136394724,1136377069,3997706,453.559,45.65,95994.5,1.14057
1136616685,1136593283,3997706,453.166,45.65,95999.0,1.14063
1136838021,1136819973,3997706,453.211,45.66,95998.5,1.14062
1137018457,1136995758,3997706,453.517,45.67,95995.0,1.14058
1137230358,1137210175,3997706,453.538,45.67,95994.7,1.14058
1137391133,1137370967,3997706,453.713,45.67,95992.7,1.14055
1137603973,1137585367,3997706,453.385,45.67,95996.5,1.1406
1137784117,1137753663,3997706,453.81,45.67,95991.6,1.14054
1138025900,1138002777,3997706,453.863,45.68,95991.0,1.14053
1138236920,1138216732,3997706,453.472,45.68,95995.5,1.14059
1138397683,1138377517,3997706,453.385,45.68,95996.5,1.1406
1138609597,1138591935,3997706,453.256,45.68,95998.0,1.14061
1138830694,1138808010,3997706,453.517,45.68,95995.0,1.14058
1138992410,1138969686,3997706,452.949,45.69,96001.5,1.14066
1139203461,1139183232,3997706,453.298,45.69,95997.5,1.14061
1139417083,1139397729,3997706,453.451,45.7,95995.7,1.14059
1139597371,1139573507,3997706,453.364,45.7,95996.8,1.1406
1139818100,1139800211,3997706,453.406,45.7,95996.2,1.14059
1139978868,1139961208,3997706,453.427,45.72,95996.0,1.14059
1140200018,1140177274,3997706,453.689,45.71,95993.0,1.14056
1140412221,1140391631,3997706,453.406,45.71,95996.2,1.14059
1140602631,1140579954,3997706,453.34,45.72,95997.0,1.1406
1140814545,1140794369,3997706,453.427,45.73,95996.0,1.14059
