timestamp,yaw_composite,yaw_variance,yaw[0],yaw[1],yaw[2],yaw[3],yaw[4],innov_vn[0],innov_vn[1],innov_vn[2],innov_vn[3],innov_vn[4],innov_ve[0],innov_ve[1],innov_ve[2],innov_ve[3],innov_ve[4],weight[0],weight[1],weight[2],weight[3],weight[4]
948884230,2.941,3.73601,-2.51327,-1.25664,0.0,1.25664,2.51327,0.0,0.0,0.0,0.0,0.0,0.0,0.0,0.0,0.0,0.0,0.2,0.2,0.2,0.2,0.2
948894246,-1.48542,3.60558,-2.51288,-1.25624,0.000396422,1.25703,2.51367,0.0,0.0,0.0,0.0,0.0,0.0,0.0,0.0,0.0,0.0,0.2,0.2,0.2,0.2,0.2
949084461,-2.3059,3.59495,-2.5139,-1.25748,-0.000815344,1.25605,2.5128,-0.0407538,-0.0601894,-0.0807444,-0.0740137,-0.0492987,-0.0262744,-0.0109756,-0.0247323,-0.0485318,-0.0494859,0.2001,0.200051,0.199931,0.199906,0.200011
949284697,1.85605,3.9059,-2.5142,-1.25679,0.000614876,1.25695,2.51263,0.0333568,0.136195,0.104202,-0.0184591,-0.0622257,-0.130263,-0.0631998,0.0553549,0.0615476,-0.0531973,0.199864,0.199605,0.199891,0.200328,0.200312
949484933,2.08121,3.73306,-2.5154,-1.2583,-0.00100715,1.25557,2.51152,-0.0259055,0.0465758,0.0457907,-0.0271124,-0.0713858,-0.0452083,-0.0208906,0.055557,0.078402,0.016179,0.199961,0.199707,0.199858,0.200205,0.200269
949685175,2.04137,3.76987,-2.51437,-1.25713,0.000191483,1.25666,2.5125,-0.0259055,0.0465758,0.0457907,-0.0271124,-0.0713858,-0.0452083,-0.0208906,0.055557,0.078402,0.016179,0.199961,0.199707,0.199858,0.200205,0.200269
949885405,2.07263,3.73638,-2.51589,-1.25833,-0.000615847,1.25577,2.51117,-0.0306397,0.0547706,0.0326931,-0.0662258,-0.105264,-0.0817156,-0.0308936,0.0660519,0.0749244,-0.0162787,0.199956,0.199528,0.199752,0.200319,0.200445
950080635,2.59427,3.54842,-2.51441,-1.25727,0.0007173,1.25769,2.51317,0.0126128,0.116151,0.0550254,-0.0861569,-0.112273,-0.101103,-0.0033272,0.125366,0.106918,-0.0329296,0.200235,0.19962,0.199529,0.200089,0.200526
950280871,2.59192,3.54832,-2.5161,-1.25896,-0.000957757,1.25601,2.51149,0.0126128,0.116151,0.0550254,-0.0861569,-0.112273,-0.101103,-0.0033272,0.125366,0.106918,-0.0329296,0.200235,0.19962,0.199529,0.200089,0.200526
950481107,1.81484,3.84937,-2.51724,-1.25861,-0.000255833,1.25545,2.50979,0.00296469,0.108953,0.0899239,-0.0278362,-0.0814163,-0.146999,-0.0926723,0.0250065,0.0431338,-0.063125,0.199696,0.199153,0.199779,0.200712,0.20066
950681343,2.1747,3.64924,-2.51602,-1.25791,0.000766041,1.25719,2.51165,-0.00247007,0.117058,0.077282,-0.0665237,-0.115683,-0.101817,-0.0214006,0.117097,0.121955,-0.0131007,0.200008,0.19923,0.199515,0.20047,0.200776
950881579,2.37477,3.54378,-2.51909,-1.26134,-0.00167351,1.25571,2.50979,0.0144498,0.174432,0.13967,-0.0416087,-0.118688,-0.147118,-0.0589121,0.120601,0.142748,-0.0224886,0.200223,0.198693,0.198967,0.200669,0.201448
951081818,2.83065,3.6251,-2.51408,-1.25775,0.00151458,1.26007,2.51527,-0.0344026,0.109921,0.0809094,-0.0811176,-0.151893,-0.105464,-0.0285473,0.132667,0.154475,0.00760879,0.200747,0.199176,0.198744,0.200046,0.201287
951282050,3.00548,3.74607,-2.51029,-1.2548,0.00600172,1.26634,2.52111,0.0130355,0.175521,0.131726,-0.0579571,-0.130678,-0.123333,-0.0249107,0.160413,0.175489,0.000246786,0.201562,0.19897,0.197805,0.199666,0.201996
951482287,2.95799,3.69582,-2.51297,-1.25675,0.00529944,1.26569,2.51923,0.0106375,0.179785,0.112169,-0.0991216,-0.160761,-0.170341,-0.0449662,0.155347,0.151994,-0.0491603,0.201763,0.198837,0.197523,0.199623,0.202253
951682522,3.10239,3.81025,-2.50923,-1.25458,0.00963649,1.27293,2.52609,0.0596196,0.241705,0.130997,-0.120729,-0.162825,-0.210353,-0.0357493,0.192843,0.156468,-0.092851,0.203102,0.198657,0.196087,0.198899,0.203255
951882758,-3.13529,3.84555,-2.492,-1.23815,0.0252919,1.28889,2.54303,0.0596196,0.241705,0.130997,-0.120729,-0.162825,-0.210353,-0.0357493,0.192843,0.156468,-0.092851,0.203102,0.198657,0.196087,0.198899,0.203255
952083004,2.77251,3.5593,-2.49129,-1.2347,0.0248394,1.28329,2.53818,-0.0138686,0.166788,0.092132,-0.134587,-0.199128,-0.19894,-0.0625229,0.151937,0.146378,-0.0701122,0.200743,0.198986,0.198631,0.200166,0.201475
952283230,2.71166,3.53303,-2.49207,-1.23465,0.0257365,1.28391,2.53776,-0.0138686,0.166788,0.092132,-0.134587,-0.199128,-0.19894,-0.0625229,0.151937,0.146378,-0.0701122,0.200743,0.198986,0.198631,0.200166,0.201475
952483465,2.9636,3.64312,-2.49372,-1.23838,0.0261316,1.28889,2.54146,0.0775876,0.275059,0.167871,-0.0958246,-0.150724,-0.147888,0.0282816,0.270996,0.243292,-0.0152901,0.202779,0.197881,0.195924,0.199574,0.203842
952683720,2.48329,3.49416,-2.49593,-1.23824,0.0220181,1.27981,2.53358,-0.0186201,0.179392,0.0749695,-0.187861,-0.243383,-0.307915,-0.135419,0.107528,0.0813063,-0.174874,0.200438,0.198438,0.198594,0.200693,0.201837
952878931,2.70865,3.51387,-2.48427,-1.22733,0.0330834,1.29172,2.54585,-0.0144978,0.177142,0.122634,-0.102473,-0.186345,-0.174407,-0.0556042,0.163764,0.178962,-0.0296135,0.200852,0.1986,0.198282,0.200335,0.201931
953089179,3.0489,3.69878,-2.46125,-1.20581,0.0555878,1.31633,2.57077,-0.0210785,0.183396,0.131007,-0.106509,-0.198996,-0.198602,-0.0779175,0.154856,0.175675,-0.0427129,0.201911,0.198741,0.197317,0.19959,0.202441
953289415,-2.53499,3.47065,-2.43913,-1.18747,0.0715223,1.33459,2.59283,-0.0975991,0.127369,0.109678,-0.127258,-0.253793,-0.143083,-0.052096,0.191143,0.248144,0.0414209,0.203107,0.20063,0.197296,0.197692,0.201275
953479639,-2.52619,3.4708,-2.43025,-1.17853,0.0804314,1.34344,2.60166,-0.0975991,0.127369,0.109678,-0.127258,-0.253793,-0.143083,-0.052096,0.191143,0.248144,0.0414209,0.203107,0.20063,0.197296,0.197692,0.201275
953679877,-2.22488,3.51628,-2.44724,-1.1952,0.0616877,1.3231,2.58241,-0.0868855,0.170738,0.148628,-0.125369,-0.269351,-0.24973,-0.142694,0.1371,0.201195,-0.0391228,0.20234,0.201194,0.198402,0.197819,0.200245
953880110,-2.18775,3.53068,-2.46815,-1.21708,0.0405302,1.30338,2.56285,0.026112,0.243058,0.102073,-0.204296,-0.249887,-0.245103,-0.0263217,0.249065,0.198927,-0.107529,0.202922,0.201834,0.198215,0.197068,0.199961
954080346,-1.57974,3.58763,-2.47335,-1.22095,0.0339979,1.29386,2.55418,0.0280141,0.22819,0.0862352,-0.204468,-0.238968,-0.297657,-0.0831613,0.175178,0.118744,-0.174813,0.2014,0.202301,0.200013,0.197717,0.19857
954280582,-1.53087,3.55286,-2.47419,-1.22148,0.0334642,1.29302,2.55315,0.0225985,0.212225,0.111555,-0.142407,-0.19702,-0.221113,-0.0529251,0.180265,0.156278,-0.0930494,0.201238,0.202238,0.200136,0.197855,0.198533
954480818,-1.96687,3.69812,-2.47954,-1.2289,0.0274052,1.28988,2.55043,-0.020558,0.167115,0.071053,-0.178053,-0.233602,-0.204249,-0.0421043,0.187717,0.166467,-0.0767716,0.202767,0.202517,0.198783,0.196745,0.199188
954681053,-1.92524,3.75405,-2.48878,-1.23862,0.0163145,1.27842,2.54009,-0.020558,0.167115,0.071053,-0.178053,-0.233602,-0.204249,-0.0421043,0.187717,0.166467,-0.0767716,0.202767,0.202517,0.198783,0.196745,0.199188
954881289,-2.18681,3.52742,-2.4905,-1.23944,0.018233,1.28112,2.54057,0.0388269,0.198017,0.122178,-0.0861327,-0.136879,-0.166112,-0.0341672,0.159132,0.146089,-0.0561346,0.202967,0.201968,0.198251,0.196959,0.199855
955081525,-2.34067,3.43996,-2.4835,-1.23453,0.0233049,1.28837,2.54897,0.0436659,0.146127,0.134175,0.0231938,-0.032318,0.0134463,0.0595162,0.171788,0.194754,0.0962966,0.204461,0.20194,0.196757,0.196057,0.200784
955281764,-2.38408,3.39927,-2.4837,-1.238,0.0224584,1.2924,2.55341,0.0387815,0.131221,0.0912854,-0.0275147,-0.0591692,0.048593,0.120807,0.231999,0.2277,0.113524,0.206677,0.202833,0.19512,0.194151,0.201219
955481996,-2.38527,3.39862,-2.48305,-1.23743,0.0231595,1.29327,2.55426,0.0387815,0.131221,0.0912854,-0.0275147,-0.0591692,0.048593,0.120807,0.231999,0.2277,0.113524,0.206677,0.202833,0.19512,0.194151,0.201219
955682232,-2.7558,3.49977,-2.48348,-1.23104,0.0305092,1.29428,2.55049,0.205944,0.395873,0.134529,-0.222071,-0.173563,-0.358354,-0.0227464,0.265578,0.102379,-0.285109,0.203133,0.20025,0.197028,0.19791,0.201679
955882470,0.232798,3.11506,-2.46054,-1.18004,0.0430296,1.25483,2.5178,-0.049942,0.376034,0.0709094,-0.535221,-0.614931,-0.845015,-0.386044,0.155693,0.0371294,-0.577567,0.173452,0.202605,0.229925,0.214249,0.17977
956082711,0.237654,3.11507,-2.45571,-1.17513,0.0478851,1.25964,2.52267,-0.049942,0.376034,0.0709094,-0.535221,-0.614931,-0.845015,-0.386044,0.155693,0.0371294,-0.577567,0.173452,0.202605,0.229925,0.214249,0.17977
956282940,0.213363,2.35576,-2.43208,-1.10643,0.050227,1.17781,2.45378,-0.391814,0.133205,0.00943878,-0.533406,-0.832458,-0.852433,-0.540016,0.00877893,0.104684,-0.406413,0.120321,0.203693,0.300569,0.240382,0.135035
956483175,0.212691,2.14318,-2.42893,-1.09055,0.0486645,1.15393,2.43218,-0.380192,0.259509,0.238763,-0.308937,-0.765127,-0.744521,-0.506214,0.0994504,0.330847,-0.146963,0.105221,0.201448,0.32349,0.247864,0.121978
956683411,0.215813,2.14615,-2.42855,-1.09068,0.0509548,1.1577,2.43408,-0.380192,0.259509,0.238763,-0.308937,-0.765127,-0.744521,-0.506214,0.0994504,0.330847,-0.146963,0.105221,0.201448,0.32349,0.247864,0.121978
956883649,0.153256,1.89024,-2.41376,-1.07016,0.0401513,1.1233,2.41402,-0.602512,-0.00430205,0.0172509,-0.447149,-0.903099,-0.636015,-0.463128,0.0765567,0.328281,-0.0582345,0.0898381,0.206212,0.354538,0.246874,0.102539
957083883,0.125633,1.73402,-2.39821,-1.05137,0.0383935,1.1074,2.40756,-0.571474,-0.0425367,0.0416688,-0.302788,-0.748366,-0.442786,-0.368516,0.0716343,0.349584,0.0942806,0.080344,0.208952,0.375304,0.244898,0.0905022
957284119,0.150501,1.62679,-2.37207,-1.01745,0.060301,1.11661,2.41855,-0.534041,-0.0817917,0.0459261,-0.194018,-0.604077,-0.372435,-0.381135,-0.03385,0.247072,0.104109,0.0727772,0.206579,0.389926,0.247244,0.0834746
957484355,0.146359,1.54819,-2.34199,-0.988119,0.0758758,1.12675,2.43575,-0.527166,-0.156921,-0.0144151,-0.171375,-0.522824,-0.101853,-0.163035,0.100954,0.358195,0.297027,0.0684674,0.209687,0.401716,0.243298,0.076832
957684590,0.156046,1.49593,-2.31853,-0.961821,0.0922763,1.13651,2.451,-0.411831,-0.086078,0.0184143,-0.131164,-0.434115,-0.170086,-0.197671,0.0381205,0.25255,0.178637,0.065414,0.210327,0.409323,0.241939,0.0729972
957884826,0.15245,1.45469,-2.30695,-0.951514,0.0972816,1.14037,2.45693,-0.379959,-0.104445,-0.0538152,-0.207859,-0.450467,-0.181341,-0.156075,0.0550921,0.212525,0.106542,0.0628981,0.21172,0.416269,0.239709,0.0694034
958085062,0.144545,1.4087,-2.3105,-0.951675,0.090194,1.12754,2.44598,-0.422492,-0.158542,-0.0768984,-0.195117,-0.44084,-0.181426,-0.201612,-0.0135825,0.159977,0.101816,0.0598146,0.211039,0.423412,0.239518,0.0662167
958285300,0.147889,1.36876,-2.31436,-0.94978,0.0870066,1.1179,2.4355,-0.438057,-0.200531,-0.0872163,-0.157034,-0.392493,-0.153474,-0.227435,-0.0757748,0.10712,0.1091,0.0567656,0.208433,0.429464,0.241388,0.0639493
958485533,0.142037,1.34526,-2.31547,-0.949625,0.0831023,1.11157,2.43052,-0.319926,-0.118088,-0.0466948,-0.123668,-0.314235,-0.0875612,-0.11927,0.0171503,0.156543,0.130264,0.0552838,0.208413,0.433327,0.240763,0.0622129
958685769,0.122577,1.33055,-2.32193,-0.957725,0.0710872,1.0997,2.4213,-0.254582,-0.0812591,-0.0207208,-0.0857303,-0.248964,0.0326036,0.00501018,0.121237,0.241045,0.219296,0.0546997,0.210167,0.436006,0.238418,0.0607092
958886004,0.115083,1.31606,-2.33133,-0.965144,0.0616065,1.08811,2.40935,-0.277376,-0.128471,-0.0319508,-0.0487332,-0.204107,-0.0243273,-0.11038,-0.0287846,0.103762,0.14399,0.0536262,0.209277,0.438298,0.238937,0.0598622
959086277,0.113692,1.29323,-2.33721,-0.967129,0.0560645,1.07879,2.39901,-0.37984,-0.241894,-0.140118,-0.144348,-0.292139,0.00160849,-0.0959278,-0.0256067,0.10509,0.159508,0.0518877,0.207576,0.441833,0.240095,0.0586084
959286475,0.104333,1.27377,-2.33842,-0.96609,0.050482,1.06852,2.39322,-0.245623,-0.128974,-0.0300347,-0.0207828,-0.149201,0.143789,0.0412804,0.0946414,0.213679,0.278748,0.050996,0.208187,0.444647,0.238888,0.0572819
959486711,0.102154,1.26331,-2.34125,-0.969805,0.0471953,1.06688,2.38801,-0.282963,-0.174032,-0.100125,-0.106667,-0.220459,0.0294258,-0.0408234,0.0157732,0.115142,0.152479,0.0500603,0.207638,0.446846,0.239028,0.0564275
959681941,0.104463,1.24793,-2.33701,-0.961863,0.04962,1.06397,2.38871,-0.209058,-0.136691,-0.033376,0.0116344,-0.0804068,0.138425,0.0123674,0.0271272,0.128939,0.227958,0.0492659,0.207273,0.44881,0.239005,0.0556465
959882176,0.122482,1.22993,-2.32811,-0.948449,0.0607481,1.07115,2.39328,-0.329786,-0.263744,-0.12717,-0.0487723,-0.14569,0.143325,-0.0320365,-0.0355275,0.0842546,0.231645,0.04775,0.20475,0.451419,0.241135,0.0549452
960082412,0.129625,1.21347,-2.31768,-0.937156,0.068797,1.07683,2.39912,-0.227539,-0.155923,-0.0480642,0.00152484,-0.0904563,0.19999,0.0669611,0.0794553,0.182798,0.289122,0.0467415,0.204548,0.454163,0.240735,0.0538121
960282647,0.126371,1.19009,-2.31494,-0.93379,0.0675755,1.07221,2.39528,-0.277361,-0.172818,-0.0271553,0.0325592,-0.0985606,0.214513,0.0409047,0.0654077,0.206524,0.34436,0.0453588,0.204451,0.458121,0.239908,0.0521608
960482883,0.107173,1.14249,-2.32505,-0.941919,0.050687,1.04759,2.37191,-0.482046,-0.270732,-0.0672737,-0.0305504,-0.269413,0.181981,-0.0315135,0.0568208,0.280337,0.434132,0.042451,0.203572,0.466308,0.238745,0.048923
960683121,0.0891955,1.08235,-2.33125,-0.945897,0.0357787,1.02225,2.34844,-0.581185,-0.262232,-0.0234455,-0.0261818,-0.365896,0.0800263,-0.142596,0.0168239,0.308248,0.452834,0.0388409,0.202307,0.476968,0.237014,0.0448696
960883353,0.0827617,0.954454,-2.3083,-0.921833,0.0370717,1.00208,2.32849,-0.646975,-0.298965,-0.128878,-0.199567,-0.544988,-0.103009,-0.217332,-0.0148549,0.245073,0.297086,0.0311644,0.199247,0.501912,0.231619,0.0360572
961083595,0.0874633,0.954407,-2.30341,-0.91703,0.0417478,1.00682,2.33311,-0.646975,-0.298965,-0.128878,-0.199567,-0.544988,-0.103009,-0.217332,-0.0148549,0.245073,0.297086,0.0311644,0.199247,0.501912,0.231619,0.0360572
961283825,0.0859639,0.927103,-2.28906,-0.904458,0.0472761,1.00777,2.33831,-0.424971,-0.15481,-0.0766952,-0.175013,-0.430839,-0.0724268,-0.0835621,0.0924425,0.26256,0.233633,0.0298421,0.200504,0.507707,0.228021,0.0339262
961484059,0.0920165,0.912542,-2.27127,-0.888356,0.0588783,1.01731,2.35145,-0.32905,-0.153235,-0.129486,-0.215604,-0.377243,-0.0592183,-0.0276074,0.0965302,0.193096,0.137607,0.0292202,0.201914,0.510921,0.225255,0.0326906
961684299,0.106334,0.895439,-2.25923,-0.869471,0.0723181,1.02198,2.3612,-0.405619,-0.278316,-0.207707,-0.218139,-0.344614,0.00355799,-0.0568531,0.00944318,0.110303,0.150291,0.0282597,0.20062,0.51387,0.22539,0.0318597
961879526,0.119196,0.889836,-2.2449,-0.858128,0.0834664,1.0367,2.37018,-0.313542,-0.237042,-0.177385,-0.164908,-0.242864,0.0905296,0.0245933,0.0558519,0.126954,0.178899,0.0276995,0.199814,0.515566,0.225529,0.0313913
962079759,0.111378,0.885587,-2.24099,-0.857215,0.0820994,1.0354,2.37301,-0.113316,-0.077343,-0.171998,-0.278995,-0.294724,-0.145847,0.00863962,0.073888,0.0404976,-0.114899,0.0277693,0.202163,0.516599,0.222677,0.030791
962279994,0.0844906,0.857044,-2.24036,-0.862929,0.0682948,1.01705,2.36247,0.15571,0.154625,-0.138418,-0.410526,-0.360702,-0.405978,0.03961,0.161178,0.00109012,-0.432217,0.0268259,0.205997,0.522525,0.216166,0.0284863
962480229,0.0535363,0.811014,-2.23048,-0.862477,0.0554641,0.995954,2.35302,0.187617,0.156599,-0.181183,-0.481398,-0.401593,-0.52158,-0.0160405,0.104413,-0.0913132,-0.584423,0.025106,0.211333,0.532211,0.206386,0.0249629
962680464,0.0256946,0.780367,-2.24335,-0.872779,0.0351308,0.964228,2.33228,0.222528,0.162865,-0.103423,-0.322658,-0.23255,-0.399377,-0.0132537,0.0578463,-0.108561,-0.488906,0.0238462,0.21304,0.538282,0.201792,0.0230404
962880700,-0.00767537,0.765409,-2.25101,-0.892762,0.0119007,0.942905,2.31214,0.128117,0.0140236,-0.182584,-0.301147,-0.169736,-0.327459,-0.0745944,-0.0748839,-0.228757,-0.475612,0.0233622,0.216892,0.541873,0.196266,0.0216068
963080935,-0.0167894,0.757008,-2.24849,-0.887939,0.0103553,0.936945,2.31769,0.0776887,-0.0517644,-0.201358,-0.265362,-0.124053,-0.188252,-0.0166812,-0.0488701,-0.185312,-0.352482,0.0234215,0.220199,0.542814,0.1926,0.0209662
963281170,-0.0151463,0.755043,-2.23913,-0.880776,0.0162164,0.943035,2.32672,0.016838,-0.0700837,-0.171482,-0.214975,-0.119321,-0.126993,-0.0116693,-0.0328401,-0.124357,-0.238291,0.0235402,0.22214,0.542966,0.190659,0.0206943
963481405,-0.014148,0.749045,-2.22636,-0.871216,0.023146,0.949533,2.33749,-0.124875,-0.116715,-0.186009,-0.258908,-0.259999,-0.163515,-0.0524183,-0.0147991,-0.0441292,-0.159531,0.0234921,0.224719,0.544017,0.187657,0.0201154
963681643,-0.00463428,0.751497,-2.21239,-0.864718,0.032569,0.964105,2.34594,-0.124875,-0.116715,-0.186009,-0.258908,-0.259999,-0.163515,-0.0524183,-0.0147991,-0.0441292,-0.159531,0.0234921,0.224719,0.544017,0.187657,0.0201154
963881876,-0.00371181,0.746797,-2.20472,-0.858917,0.0364089,0.967494,2.35159,-0.165049,-0.126651,-0.17742,-0.251358,-0.284266,-0.164841,-0.0681196,-0.0156169,-0.020848,-0.123459,0.0233588,0.225938,0.54496,0.186015,0.0197282
964082111,-0.000183987,0.74624,-2.20094,-0.855163,0.0399212,0.970969,2.35513,-0.0949044,-0.0797913,-0.0850624,-0.0975092,-0.111045,-0.0892926,-0.0769829,-0.0637371,-0.0575407,-0.0726917,0.0233209,0.225921,0.545099,0.185967,0.0196921
964282348,0.0100214,0.746482,-2.19509,-0.847727,0.0476196,0.978474,2.361,-0.24195,-0.230242,-0.187917,-0.149321,-0.163184,-0.0126145,-0.07851,-0.0902802,-0.0620623,0.00303174,0.0232063,0.224772,0.545163,0.187054,0.0198039
964482583,0.024945,0.732948,-2.19617,-0.842078,0.0515038,0.976524,2.3519,-0.383804,-0.380066,-0.196274,-0.00725806,-0.0240299,0.310429,0.0124911,-0.0718443,0.0230992,0.325316,0.0218733,0.218875,0.548768,0.190953,0.0195308
964682819,0.0574049,0.697417,-2.19177,-0.824811,0.0632591,0.974638,2.33641,-0.544633,-0.554848,-0.210802,0.150227,0.139414,0.522536,-0.0434344,-0.212705,-0.0459225,0.525903,0.0189811,0.206952,0.557483,0.198035,0.0185488
964883051,0.0812623,0.638404,-2.19011,-0.809102,0.0663756,0.955356,2.30221,-0.56303,-0.590465,-0.218362,0.178992,0.195023,0.740653,0.113759,-0.0797068,0.0886926,0.712838,0.0149448,0.192385,0.572302,0.204136,0.016232
965083286,0.0995783,0.607982,-2.19541,-0.802144,0.0680636,0.943559,2.27737,-0.496011,-0.52981,-0.246169,0.063459,0.10491,0.57825,0.0832987,-0.0730145,0.0435506,0.526708,0.0127932,0.181338,0.579775,0.210798,0.0152963
965283521,0.105374,0.577224,-2.19699,-0.796591,0.0656585,0.927681,2.25399,-0.334326,-0.387091,-0.158563,0.103463,0.168929,0.657096,0.241263,0.0981497,0.178166,0.576388,0.0109904,0.173864,0.587959,0.213231,0.0139554
965483756,0.109919,0.57323,-2.21025,-0.802873,0.060925,0.919822,2.23865,-0.340458,-0.414088,-0.276874,-0.0962051,-0.010302,0.312962,0.0387879,-0.077012,-0.0495915,0.207278,0.0105318,0.16884,0.588173,0.218311,0.0141447
965683991,0.109966,0.574663,-2.21827,-0.802657,0.0615642,0.915635,2.2461,0.0162872,-0.0857607,-0.176233,-0.208564,-0.11559,0.116617,0.220052,0.187232,0.102484,-0.00251222,0.0106954,0.169091,0.587056,0.21879,0.0143682
965884241,0.106521,0.573428,-2.20127,-0.798787,0.0641063,0.924439,2.24724,0.0336921,-0.0309206,-0.208923,-0.349028,-0.299559,-0.182476,0.0889975,0.12196,0.0159653,-0.246163,0.0108042,0.172239,0.588291,0.214696,0.0139697
966084461,0.0734035,0.535145,-2.17656,-0.79098,0.0535114,0.903128,2.23867,0.15726,0.0733214,-0.208479,-0.44623,-0.392209,-0.521094,-0.0780138,-0.00892302,-0.166791,-0.598559,0.00971621,0.179382,0.600864,0.198874,0.0111641
966279690,0.0747887,0.533817,-2.18287,-0.788306,0.0557279,0.899657,2.24691,0.15726,0.0733214,-0.208479,-0.44623,-0.392209,-0.521094,-0.0780138,-0.00892302,-0.166791,-0.598559,0.00971621,0.179382,0.600864,0.198874,0.0111641
966479924,0.0627279,0.512742,-2.16168,-0.782931,0.0511862,0.893076,2.23318,0.289797,0.16696,-0.141324,-0.390563,-0.309452,-0.466566,0.00794166,0.0657085,-0.117674,-0.588714,0.00897326,0.181301,0.607916,0.191973,0.0098357
966680159,0.0486401,0.494679,-2.14623,-0.776605,0.0478,0.884334,2.23174,0.263563,0.0768925,-0.204876,-0.396339,-0.253999,-0.411896,-0.0121821,-0.00908971,-0.208776,-0.617997,0.00849039,0.185237,0.613707,0.183883,0.00868218
966880394,0.04687,0.478911,-2.12453,-0.76193,0.0538262,0.885385,2.23824,0.296029,0.0977992,-0.169436,-0.34423,-0.192259,-0.368629,0.00207472,-0.00674093,-0.203839,-0.592114,0.008028,0.187973,0.618741,0.177488,0.00776976
967080631,0.0482306,0.466895,-2.10516,-0.747885,0.0609035,0.888644,2.24577,0.319368,0.0868475,-0.144314,-0.265617,-0.073779,-0.274964,0.0148255,-0.0336106,-0.231942,-0.549973,0.00767475,0.190057,0.622543,0.172615,0.00711014
967280864,0.0435389,0.461558,-2.10333,-0.741549,0.0651793,0.887943,2.26292,0.241319,-0.0913209,-0.255055,-0.25092,0.0622411,-0.0690082,0.0446072,-0.107226,-0.329519,-0.491686,0.00772689,0.194631,0.623425,0.167483,0.00673337
967481099,0.0283076,0.453046,-2.08669,-0.743267,0.0562465,0.882135,2.25242,0.351089,-0.0668157,-0.232691,-0.184535,0.222273,0.0452801,0.113741,-0.0972373,-0.363683,-0.496273,0.00760208,0.198381,0.625398,0.162365,0.00625447
967681334,0.0160159,0.442278,-2.08771,-0.747436,0.0467834,0.868153,2.24073,0.40089,-0.0304566,-0.168137,-0.0826588,0.34922,0.182239,0.189792,-0.0445298,-0.308665,-0.386213,0.00724307,0.199063,0.628551,0.159338,0.00580429
967881568,-0.0031246,0.433535,-2.09198,-0.756861,0.0327733,0.851163,2.2283,0.318475,-0.116294,-0.205929,-0.0670303,0.38386,0.22114,0.137413,-0.123253,-0.372737,-0.363587,0.00705339,0.201541,0.630645,0.155351,0.00540971
968081803,-0.00379991,0.422547,-2.09269,-0.756249,0.0292196,0.841371,2.21562,0.219693,-0.198783,-0.204238,0.0197359,0.482404,0.497629,0.265204,-0.0281408,-0.242486,-0.0835411,0.00652789,0.198427,0.634522,0.155424,0.00509936
968282038,-0.00511688,0.406133,-2.08992,-0.753332,0.0251626,0.827885,2.19937,0.10336,-0.278164,-0.175122,0.148502,0.607498,0.644301,0.230152,-0.0934756,-0.253718,0.0896769,0.00579584,0.194509,0.640661,0.154435,0.00459957
968482279,0.000145975,0.389133,-2.08754,-0.747698,0.0239848,0.815897,2.18071,-0.0341602,-0.373839,-0.215594,0.145031,0.583626,0.730959,0.233555,-0.0889766,-0.212139,0.214778,0.0049882,0.187782,0.647639,0.155431,0.00416008
968682507,0.00998276,0.373808,-2.07854,-0.736315,0.0286525,0.810773,2.17002,-0.0381315,-0.360209,-0.198385,0.153013,0.579525,0.71159,0.213713,-0.0966569,-0.211004,0.209539,0.00432152,0.181915,0.654098,0.155904,0.003761
968882753,0.033485,0.358529,-2.06232,-0.714393,0.0436101,0.8144,2.16415,0.00460619,-0.320401,-0.191417,0.120993,0.542391,0.774983,0.334598,0.0414216,-0.0850271,0.268704,0.00361624,0.173436,0.661145,0.158397,0.00340598
969082983,0.0522707,0.349013,-2.04434,-0.694429,0.0587799,0.823326,2.16892,0.0368802,-0.2818,-0.179302,0.0951288,0.500363,0.605548,0.217734,-0.0542735,-0.184836,0.108068,0.00325356,0.1693,0.665335,0.158935,0.00317569
969283211,0.0728294,0.337997,-2.0461,-0.678786,0.074133,0.82593,2.17823,0.193834,-0.13843,-0.0801579,0.148837,0.549313,0.711368,0.400435,0.144315,-0.0048992,0.204388,0.00275764,0.162363,0.671356,0.160642,0.00288128
969483446,0.0766769,0.329326,-2.02115,-0.666476,0.0756819,0.825088,2.16122,0.123203,-0.204359,-0.138903,0.0917752,0.491816,0.518933,0.195223,-0.0592828,-0.203717,0.010278,0.00253722,0.160107,0.674701,0.159965,0.00268928
969683681,0.0869826,0.319643,-2.01209,-0.654561,0.0819017,0.823127,2.15363,0.140798,-0.171771,-0.0992246,0.130831,0.520112,0.649599,0.319074,0.071498,-0.0641696,0.156552,0.00221071,0.155071,0.679504,0.160751,0.0024635
969883916,0.0887884,0.316689,-2.01266,-0.653731,0.0818561,0.821203,2.14955,0.0311356,-0.27073,-0.224298,-0.0315756,0.33219,0.423048,0.149887,-0.0747757,-0.211204,-0.047935,0.00212339,0.153265,0.680611,0.16158,0.00242108
970084150,0.0930867,0.311159,-2.01459,-0.651366,0.081546,0.815316,2.13779,0.168604,-0.119439,-0.101134,0.0528374,0.384334,0.549307,0.341102,0.141275,0.00529289,0.110639,0.00192485,0.148726,0.683283,0.16374,0.00232645
970284385,0.0954563,0.30664,-2.01352,-0.648645,0.0817635,0.811733,2.13114,0.115065,-0.171509,-0.133209,0.0405548,0.381132,0.468466,0.220819,0.0123731,-0.117431,0.0213646,0.00179446,0.146177,0.685404,0.16439,0.00223455
970484620,0.0919244,0.304565,-2.03618,-0.658271,0.0786565,0.803991,2.1387,0.135929,-0.159376,-0.131523,0.0334622,0.3772,0.408224,0.176085,-0.0317177,-0.167839,-0.0489547,0.00169969,0.144695,0.687236,0.164223,0.00214627
970684854,0.092448,0.299031,-2.02016,-0.651806,0.0747016,0.79779,2.11145,0.224312,-0.0913875,-0.117329,-0.00393194,0.328997,0.433953,0.298715,0.107203,-0.0505992,-0.0297678,0.00158423,0.141522,0.688879,0.165923,0.00209164
970885089,0.0848181,0.295868,-2.02374,-0.656495,0.0676488,0.788419,2.10201,0.322711,-0.00785729,-0.103053,-0.0615319,0.242059,0.16077,0.159083,-0.00374218,-0.182915,-0.291243,0.0015249,0.141139,0.690468,0.164863,0.00200495
971085324,0.092249,0.292168,-2.02087,-0.650242,0.0716797,0.789105,2.098,0.458118,0.116393,-0.0444783,-0.0720999,0.20092,0.17385,0.300324,0.166434,-0.0319145,-0.26273,0.00142274,0.137935,0.692063,0.166622,0.00195697
971285558,0.0942815,0.286829,-2.03392,-0.651277,0.0745167,0.785679,2.10979,0.571529,0.199897,-0.0726617,-0.212758,0.016475,-0.138916,0.2019,0.110059,-0.124855,-0.560909,0.00127943,0.135746,0.696013,0.165182,0.00177984
971480787,0.0964131,0.273564,-1.99648,-0.629627,0.0761799,0.778839,2.0811,0.656256,0.270032,-0.0556617,-0.251933,-0.0502436,-0.304087,0.142057,0.0722005,-0.177719,-0.716374,0.00108295,0.133076,0.702414,0.161916,0.00151139
971681022,0.0975612,0.262689,-1.97953,-0.616485,0.0786364,0.771767,2.07098,0.662617,0.273616,-0.0329474,-0.211989,-0.00721452,-0.328537,0.0822914,0.00454146,-0.238056,-0.750185,0.000906904,0.130695,0.709123,0.158016,0.00125947
971881257,0.0954701,0.259684,-1.99729,-0.623235,0.078767,0.767588,2.0848,0.507032,0.174483,-0.0549029,-0.176224,0.0122621,-0.184842,0.102605,0.0220126,-0.175386,-0.560573,0.000825911,0.129663,0.712664,0.155708,0.00113829
972081492,0.0988088,0.252318,-1.96029,-0.601896,0.0819223,0.765718,2.06308,0.466454,0.192951,0.0170163,-0.070777,0.0898917,-0.22375,-0.0121094,-0.083726,-0.242302,-0.539053,0.000758675,0.128902,0.715863,0.153441,0.00103476
972281744,0.103714,0.251938,-1.97672,-0.605835,0.0884456,0.769797,2.08567,0.412724,0.153647,-0.0046705,-0.0801056,0.0755071,-0.12014,0.063812,-0.00734802,-0.154934,-0.423513,0.000714094,0.128052,0.717946,0.152314,0.000974044
972481961,0.0978028,0.249693,-1.9762,-0.607521,0.0839438,0.763535,2.08026,0.284081,0.0886369,-0.0413915,-0.112058,-0.00596741,-0.204445,-0.0405338,-0.0871854,-0.199213,-0.424265,0.000688468,0.12833,0.719607,0.150454,0.000920873
972682204,0.0940115,0.248263,-1.97765,-0.609494,0.0802934,0.758645,2.07507,0.203035,0.108971,-0.00119641,-0.0922504,-0.0843034,-0.226393,-0.0400212,-0.0341349,-0.0940443,-0.295888,0.000668102,0.127953,0.720634,0.149852,0.000893256
972882441,0.077654,0.24597,-1.9933,-0.62435,0.0625236,0.738884,2.05266,0.116478,0.162117,0.0613898,-0.0776793,-0.219975,-0.428474,-0.171457,-0.0835552,-0.074456,-0.276989,0.000627782,0.126233,0.722136,0.150142,0.000860864
973082664,0.0657694,0.240058,-1.97878,-0.623237,0.0482786,0.71757,2.00819,0.0421409,0.183285,0.0904402,-0.0792883,-0.323584,-0.473662,-0.170685,-0.0279033,0.0286193,-0.170308,0.000583682,0.124183,0.723801,0.150605,0.000826827
973282900,0.0680262,0.236891,-1.97462,-0.618872,0.0491669,0.714384,2.00108,-0.108229,0.0596085,0.00174338,-0.137976,-0.381831,-0.512111,-0.26848,-0.129553,-0.0555234,-0.189028,0.000535418,0.122023,0.725878,0.150781,0.000783524
973483134,0.0902042,0.235642,-1.95116,-0.595262,0.0704603,0.734834,2.01931,-0.25423,-0.117597,-0.108645,-0.157312,-0.305211,-0.275682,-0.201342,-0.120637,-0.0533464,-0.0535243,0.000515277,0.120997,0.726805,0.150917,0.000765906
973683369,0.116213,0.234808,-1.92865,-0.570292,0.0940107,0.758009,2.03855,-0.360014,-0.181091,-0.0862777,-0.0522544,-0.16732,-0.143942,-0.234666,-0.177727,-0.0801676,0.0805396,0.000496075,0.119039,0.727158,0.15254,0.000767363
973883605,0.127464,0.232693,-1.92303,-0.561027,0.101705,0.763478,2.03781,-0.500431,-0.285388,-0.081587,0.0643554,0.0118961,0.0728425,-0.23999,-0.223925,-0.0966623,0.269016,0.00046351,0.115839,0.727979,0.154955,0.000763672
974083841,0.126507,0.229962,-1.93124,-0.564748,0.0964398,0.754502,2.02106,-0.564779,-0.3455,-0.130362,0.0272657,-0.0164478,0.118361,-0.219196,-0.207373,-0.0775543,0.308883,0.000422101,0.111774,0.729046,0.158003,0.000754988
974284076,0.121098,0.229886,-1.9663,-0.585213,0.0901172,0.746091,2.02972,-0.518759,-0.305278,-0.118124,0.00993639,-0.0499651,0.209694,-0.0709403,-0.0470786,0.0757162,0.409218,0.0003816,0.108934,0.731016,0.158951,0.000717298
974484308,0.120066,0.223974,-1.94247,-0.571478,0.0847306,0.7342,1.98835,-0.543386,-0.315232,-0.125772,-3.57628e-06,-0.0694262,0.106735,-0.171851,-0.141269,-0.0127232,0.324931,0.000347557,0.105621,0.732184,0.161148,0.000699656
974684542,0.126511,0.221243,-1.94031,-0.565927,0.0878503,0.733522,1.98063,-0.555809,-0.336149,-0.148003,-0.0198201,-0.0774693,0.135686,-0.147757,-0.122132,0.0011645,0.337094,0.000314222,0.102216,0.733356,0.163433,0.000680422
974884777,0.129607,0.217176,-1.93763,-0.56115,0.088377,0.728474,1.96811,-0.590348,-0.342252,-0.121799,0.0328968,-0.0198573,0.242998,-0.0983454,-0.0746859,0.0639689,0.458512,0.000274803,0.098762,0.735578,0.164748,0.000637892
975085011,0.131926,0.213753,-1.94219,-0.560503,0.086124,0.721046,1.95089,-0.663693,-0.391808,-0.174947,-0.0323303,-0.107884,0.116606,-0.20437,-0.165677,-0.0184504,0.369476,0.000239046,0.0942243,0.736656,0.168263,0.000618497
975285249,0.143041,0.211946,-1.96242,-0.565472,0.0948282,0.726665,1.97179,-0.726529,-0.406659,-0.164533,-0.0105392,-0.105616,0.237564,-0.114333,-0.0624898,0.10726,0.539987,0.000196897,0.089771,0.739471,0.169998,0.000563355
975480479,0.147154,0.203818,-1.93164,-0.541909,0.0937016,0.713627,1.921,-0.779502,-0.404374,-0.174599,-0.0531586,-0.209323,0.0461372,-0.245767,-0.156605,0.0338719,0.445559,0.000161604,0.0847125,0.74115,0.173449,0.000527712
975680709,0.143344,0.20209,-1.96084,-0.559584,0.089786,0.707831,1.9337,-0.741567,-0.337099,-0.118817,-0.0191797,-0.208242,0.136216,-0.114393,-0.00362293,0.195951,0.588867,0.000132996,0.0817933,0.744871,0.17274,0.000463042
975880952,0.141155,0.193807,-1.93092,-0.53868,0.0843932,0.687916,1.87654,-0.787241,-0.395699,-0.190312,-0.0976764,-0.27731,0.0311459,-0.20133,-0.0932888,0.096131,0.47042,0.000108298,0.0776768,0.746983,0.174808,0.000423695
976081179,0.153765,0.194259,-1.94707,-0.543156,0.096899,0.7024,1.91228,-0.653773,-0.342989,-0.192213,-0.130841,-0.279062,0.117771,-0.0409267,0.0502361,0.1974,0.474829,9.39441e-05,0.0757358,0.749469,0.174315,0.000386306
976281413,0.170865,0.193146,-1.93531,-0.528163,0.111768,0.71435,1.91945,-0.539073,-0.373628,-0.269157,-0.20838,-0.255402,0.0138635,-0.131459,-0.0972765,-0.0184862,0.172607,8.7039e-05,0.0736768,0.749191,0.176661,0.000384293
976481655,0.192611,0.189362,-1.88053,-0.482868,0.131882,0.728629,1.90327,-0.29863,-0.272782,-0.223422,-0.176865,-0.143739,0.149263,0.0443785,0.0313199,0.0455905,0.132289,8.5101e-05,0.0729616,0.748853,0.177715,0.000385933
976681882,0.210102,0.189715,-1.86761,-0.467211,0.14779,0.745488,1.91836,-0.247949,-0.332869,-0.30613,-0.247153,-0.127418,0.180127,0.0563858,-0.00600298,-0.0414417,-0.000676289,8.4968e-05,0.0723139,0.747729,0.179476,0.000396469
976882129,0.215372,0.193029,-1.89833,-0.488227,0.154803,0.755233,1.95903,0.0207681,-0.154334,-0.192213,-0.175273,-0.0390868,0.0492226,0.0239264,-0.0522964,-0.130307,-0.207354,8.61309e-05,0.0727269,0.747806,0.178986,0.000395877
977082363,0.213785,0.188932,-1.85681,-0.459995,0.153726,0.752298,1.92726,0.170105,-0.102904,-0.210053,-0.237376,-0.0812157,-0.0131116,0.0656085,-0.0264844,-0.151085,-0.354161,8.77039e-05,0.0738757,0.748739,0.176912,0.00038538
977282589,0.211411,0.19229,-1.89701,-0.489718,0.152776,0.753209,1.95877,0.170105,-0.102904,-0.210053,-0.237376,-0.0812157,-0.0131116,0.0656085,-0.0264844,-0.151085,-0.354161,8.77039e-05,0.0738757,0.748739,0.176912,0.00038538
977482820,0.209076,0.187917,-1.85329,-0.460653,0.151507,0.749614,1.92681,0.200206,-0.12278,-0.262604,-0.309688,-0.140084,-0.0263197,0.0983607,-0.00321348,-0.151463,-0.414875,8.8794e-05,0.0752301,0.750234,0.174078,0.000369238
977683055,0.206076,0.1902,-1.88643,-0.487133,0.152501,0.7519,1.96135,0.239426,-0.0849667,-0.209323,-0.238537,-0.0490953,-0.0337593,0.0512127,-0.0599115,-0.208239,-0.445395,8.86506e-05,0.0764488,0.751956,0.171157,0.000349942
977883290,0.204737,0.185627,-1.84244,-0.457079,0.1513,0.747843,1.92759,0.242359,-0.0721458,-0.182923,-0.200372,-0.00498259,0.0231049,0.0806464,-0.0325342,-0.176021,-0.389703,8.80093e-05,0.0772191,0.75318,0.169177,0.000335855
978083524,0.206298,0.188445,-1.87601,-0.481781,0.155784,0.753826,1.96507,0.2016,-0.0964826,-0.186678,-0.186538,0.016283,0.0632547,0.0808383,-0.034826,-0.170297,-0.347448,8.78427e-05,0.077884,0.754024,0.167678,0.000326014
978283761,0.183212,0.184063,-1.8526,-0.473325,0.13328,0.72836,1.91129,0.159736,-0.119966,-0.189912,-0.173072,0.0350358,0.00767291,-0.0124889,-0.129477,-0.256176,-0.396896,8.88586e-05,0.0791005,0.755148,0.165349,0.000314169
978483995,0.114519,0.187635,-1.95445,-0.565305,0.0669677,0.669188,1.8825,0.138439,-0.148577,-0.196856,-0.152515,0.0901842,0.0855651,0.00601357,-0.12784,-0.25745,-0.360535,8.9895e-05,0.0801503,0.75597,0.163484,0.000305186
978684227,0.0563486,0.182471,-1.97605,-0.601478,0.00939446,0.597995,1.78559,0.0777246,-0.199372,-0.22531,-0.15858,0.101654,0.231382,0.102794,-0.0386564,-0.163523,-0.226453,8.96533e-05,0.0802059,0.755891,0.163509,0.000304171
978884462,0.0337845,0.186742,-2.03004,-0.641513,-0.0137913,0.591681,1.80308,0.150789,-0.151979,-0.184152,-0.115585,0.164042,0.214502,0.0833434,-0.0690359,-0.205587,-0.281168,8.87462e-05,0.0805276,0.756446,0.16264,0.000297046
979084696,0.02327,0.185829,-2.03509,-0.649002,-0.0229282,0.582404,1.79443,0.186065,-0.124022,-0.164332,-0.102592,0.17519,0.163751,0.0471141,-0.104674,-0.244837,-0.335654,8.811e-05,0.0812456,0.757435,0.160945,0.000286203
979284934,0.0213541,0.185272,-2.03318,-0.648993,-0.0236473,0.581592,1.79459,0.15645,-0.125172,-0.185629,-0.157138,0.0666355,0.0997445,0.0522569,-0.0716202,-0.199687,-0.32502,8.83561e-05,0.0819537,0.758056,0.159622,0.000279148
979485165,0.030462,0.184917,-2.02315,-0.639608,-0.0140948,0.590539,1.80389,0.13778,-0.0913203,-0.149804,-0.137459,0.0335493,0.110459,0.0946187,-0.000655204,-0.105165,-0.223933,8.81008e-05,0.082137,0.758266,0.159233,0.000276286
979685399,0.0313927,0.184805,-2.01971,-0.637581,-0.0121934,0.592601,1.80714,0.0545362,-0.104243,-0.143089,-0.132746,-0.0121226,-0.0291354,-0.0441766,-0.111083,-0.18349,-0.262942,8.90939e-05,0.0827874,0.758623,0.158227,0.000272722
979885633,0.0211553,0.179397,-1.99315,-0.628451,-0.0203274,0.564897,1.75751,0.0329854,-0.0852491,-0.10898,-0.0953255,0.00112706,-0.013025,-0.0371308,-0.0899741,-0.143875,-0.193818,8.97361e-05,0.0831556,0.758793,0.157691,0.000271017
980085868,0.0124519,0.179357,-2.00144,-0.637288,-0.0286642,0.556359,1.74979,-0.0220565,-0.137836,-0.123117,-0.0656283,0.0758556,0.0720163,-0.0459717,-0.120148,-0.172285,-0.153336,9.05394e-05,0.0834185,0.758784,0.157436,0.000271068
980286102,0.00936797,0.178844,-2.0064,-0.641208,-0.0324776,0.551807,1.74413,-0.16897,-0.254202,-0.161907,-0.0250692,0.179714,0.252115,-0.0367991,-0.139387,-0.176314,-0.0166838,8.8964e-05,0.0827703,0.758648,0.158221,0.000272367
980481331,0.0139885,0.176707,-2.0015,-0.635329,-0.0289946,0.552298,1.74077,-0.246532,-0.306454,-0.142253,0.0689492,0.335271,0.456416,0.00681553,-0.123597,-0.147669,0.141583,8.1615e-05,0.0810814,0.759644,0.15893,0.000263047
980681565,0.0289725,0.179343,-2.02423,-0.638731,-0.0183617,0.580259,1.78412,-0.328917,-0.392255,-0.195406,0.0546523,0.367151,0.56316,0.0277033,-0.123889,-0.14952,0.196151,7.10969e-05,0.0781801,0.76071,0.160786,0.000251923
980881799,0.0479368,0.176445,-2.00528,-0.61889,-0.000765944,0.592831,1.7915,-0.273918,-0.331779,-0.149317,0.0816126,0.373134,0.562448,0.0635398,-0.0763602,-0.100416,0.217352,6.21514e-05,0.0758413,0.762125,0.161734,0.000237901
981082034,0.0594782,0.168466,-1.95651,-0.584146,0.0105788,0.58027,1.74956,-0.301979,-0.345123,-0.166905,0.0537387,0.327754,0.532864,0.0518162,-0.0774119,-0.0958475,0.213415,5.4742e-05,0.073469,0.763036,0.163212,0.000227817
981282274,0.0625895,0.164884,-1.94436,-0.574587,0.0144123,0.578437,1.74342,-0.178513,-0.22801,-0.0382584,0.197434,0.495417,0.623298,0.105622,-0.0338739,-0.0557512,0.270706,4.69918e-05,0.0721148,0.766179,0.161456,0.000203235
981482502,0.0675332,0.162159,-1.93714,-0.56671,0.0183352,0.577916,1.73744,-0.226823,-0.308428,-0.136,0.0907215,0.405823,0.589969,0.0885413,-0.0592705,-0.0971754,0.193965,4.08826e-05,0.0701024,0.767663,0.162003,0.000190417
981682737,0.0769126,0.16555,-1.9689,-0.581764,0.0247577,0.60014,1.77906,-0.164171,-0.286486,-0.153729,0.0402668,0.347659,0.580848,0.148847,0.00214234,-0.0539789,0.161377,3.60614e-05,0.0681054,0.768384,0.163292,0.000182136
981882971,0.0808935,0.164067,-1.96514,-0.577209,0.0278142,0.600574,1.77605,-0.0839342,-0.234268,-0.134882,0.0291744,0.321551,0.50263,0.134692,-0.00723487,-0.0752573,0.0769197,3.30123e-05,0.0667897,0.768892,0.164109,0.000176291
982083205,0.0810621,0.163415,-1.9663,-0.577275,0.0271046,0.59879,1.77212,-0.0439095,-0.197717,-0.142576,-0.0288123,0.207273,0.37773,0.12121,0.00396352,-0.06468,0.00992748,3.153e-05,0.065964,0.768801,0.165029,0.000174835
982283440,0.0760367,0.157617,-1.93104,-0.555828,0.0230365,0.57397,1.72133,0.00674206,-0.142958,-0.133559,-0.0740267,0.0950186,0.275315,0.14079,0.0531798,-0.0125061,-0.0159092,3.08822e-05,0.0654605,0.768453,0.16588,0.000175514
982483674,0.067256,0.157451,-1.93872,-0.564376,0.0147368,0.565211,1.71343,0.0778264,-0.0985693,-0.152731,-0.15773,-0.0485123,0.0455063,0.0573894,-0.00693636,-0.0826518,-0.197918,3.10628e-05,0.0657256,0.768642,0.165427,0.000174414
982683912,0.0544697,0.156908,-1.94949,-0.576462,0.00273426,0.55216,1.70127,0.200613,-0.0152264,-0.146915,-0.22826,-0.184356,-0.0195032,0.165629,0.125782,0.0346578,-0.217844,3.10477e-05,0.0660066,0.769207,0.164583,0.000171753
982884142,0.0459814,0.160565,-1.98662,-0.603458,-0.00493292,0.565497,1.73712,0.296102,0.0547569,-0.155272,-0.318614,-0.355894,-0.342914,0.0278606,0.0207014,-0.079559,-0.469064,2.91833e-05,0.0668021,0.772689,0.160327,0.000153246
983084378,0.0308444,0.150918,-1.94395,-0.584132,-0.0149044,0.524539,1.67234,0.434554,0.163315,-0.0940519,-0.303854,-0.381148,-0.451947,0.022593,0.0288786,-0.0812724,-0.557681,2.55013e-05,0.0667425,0.777077,0.156025,0.000130834
983284612,0.0340622,0.149472,-1.93317,-0.576607,-0.0101851,0.527531,1.67504,0.30186,0.0643592,-0.120319,-0.258785,-0.276841,-0.216288,0.0954355,0.0784782,-0.0169825,-0.367101,2.44888e-05,0.0670856,0.779021,0.153746,0.000122292
983479839,0.0356793,0.148826,-1.92563,-0.571844,-0.00729324,0.529684,1.67778,0.159084,-0.0110447,-0.103295,-0.156317,-0.112964,-0.209879,-0.0924432,-0.128364,-0.198175,-0.381699,2.41516e-05,0.06765,0.78027,0.151939,0.000116721
983680074,0.0451837,0.148409,-1.91119,-0.559609,0.003257,0.54028,1.68896,0.127135,-0.0490237,-0.132556,-0.173679,-0.111746,-0.133198,-0.0436411,-0.0879874,-0.160758,-0.330982,2.41049e-05,0.0682563,0.781195,0.150412,0.000112773
983880311,0.0509342,0.148015,-1.9034,-0.552496,0.00927888,0.546023,1.69433,0.205804,-0.0111129,-0.0934116,-0.120066,-0.013642,0.0330491,0.0880674,0.0208525,-0.0698871,-0.245021,2.38172e-05,0.0683281,0.781605,0.149932,0.000110734
984080542,0.0470644,0.153693,-1.94822,-0.582598,0.0049375,0.56697,1.73848,0.154774,-0.094741,-0.16769,-0.172953,-0.0187106,-0.0217274,-0.0166346,-0.10727,-0.212836,-0.377616,2.39809e-05,0.0691798,0.782522,0.148168,0.000106741
984280783,0.0327654,0.146998,-1.91338,-0.567252,-0.0065706,0.528478,1.67956,0.165329,-0.0921909,-0.142382,-0.118322,0.0785577,0.106922,0.0443937,-0.0646287,-0.175258,-0.302968,2.38757e-05,0.0695935,0.783092,0.147187,0.00010398
984481010,0.0235857,0.146415,-1.92102,-0.575754,-0.0154873,0.518166,1.66903,0.178564,-0.0715774,-0.106244,-0.0663084,0.146163,0.205271,0.10641,-0.00818033,-0.11661,-0.216919,2.33461e-05,0.0695043,0.783462,0.146908,0.000101876
984681245,0.0230897,0.145538,-1.91507,-0.573061,-0.0145806,0.518007,1.66956,0.196724,-0.0463747,-0.0447668,0.0355216,0.294544,0.184017,-0.00696886,-0.140031,-0.247641,-0.285316,2.29539e-05,0.0701267,0.784784,0.144969,9.66969e-05
984881479,0.0298926,0.144687,-1.90644,-0.56482,-0.00793939,0.523615,1.67352,0.0519786,-0.185946,-0.151825,-0.0347524,0.268766,0.369332,0.0938999,-0.0566168,-0.164496,-0.146358,2.20332e-05,0.06973,0.785203,0.14495,9.4387e-05
985081713,0.0400529,0.143963,-1.89537,-0.553615,0.0018301,0.532837,1.68099,0.0391518,-0.224201,-0.199665,-0.0858495,0.230384,0.370546,0.100553,-0.0578322,-0.176301,-0.179614,2.12773e-05,0.0693113,0.785334,0.145241,9.29602e-05
985281947,0.0431168,0.142202,-1.88662,-0.546872,0.00513511,0.53274,1.67752,0.24123,-0.0412374,-0.0164261,0.103718,0.440551,0.477351,0.191334,0.0224596,-0.10441,-0.111228,1.92033e-05,0.0685148,0.786934,0.144446,8.63941e-05
985482181,0.0436757,0.140556,-1.88147,-0.543376,0.00581891,0.53028,1.67218,0.127881,-0.139514,-0.0899037,0.0542125,0.41361,0.498778,0.155563,-0.0203732,-0.14258,-0.10691,1.75116e-05,0.0677593,0.788223,0.143919,8.12119e-05
985682416,0.0445424,0.139551,-1.8779,-0.540851,0.00680292,0.529605,1.67018,0.0659645,-0.181448,-0.141646,-0.0159122,0.307972,0.392039,0.0895105,-0.0693758,-0.182105,-0.161203,1.66954e-05,0.0674258,0.788877,0.143602,7.84895e-05
985882650,0.0547787,0.144578,-1.91272,-0.559781,0.0156034,0.563849,1.72271,0.195868,-0.047569,-0.0127959,0.105555,0.417816,0.435315,0.14879,-0.00475964,-0.115379,-0.103125,1.53946e-05,0.0669639,0.790332,0.142616,7.35142e-05
986082884,0.0646512,0.137372,-1.84944,-0.515088,0.0273247,0.547035,1.68337,0.107963,-0.142188,-0.12476,-0.0251063,0.267826,0.34419,0.0983725,-0.0478712,-0.160047,-0.179799,1.47879e-05,0.0667246,0.790895,0.142294,7.12941e-05
986283118,0.0916917,0.14295,-1.87424,-0.522937,0.0525734,0.596318,1.75323,0.190984,-0.0730819,-0.0889275,-0.0244352,0.230871,0.350764,0.184667,0.0518708,-0.0633313,-0.142261,1.40117e-05,0.0660586,0.791187,0.142671,6.97062e-05
986483354,0.0999765,0.142218,-1.86199,-0.513057,0.0618266,0.60413,1.7613,0.215646,-0.0420668,-0.0638632,-0.00870293,0.229825,0.185545,0.0406732,-0.0847306,-0.196324,-0.284671,1.36774e-05,0.0663341,0.792147,0.141439,6.67409e-05
986683588,0.0996082,0.141631,-1.86031,-0.512338,0.0616584,0.603044,1.7592,0.196545,-0.0401018,-0.0578519,-0.00459379,0.218435,0.242863,0.102993,-0.0135771,-0.116391,-0.1943,1.3226e-05,0.0661772,0.792711,0.141034,6.48247e-05
986883821,0.100876,0.141006,-1.85516,-0.509246,0.0637445,0.604095,1.76009,0.227196,0.025772,0.0187086,0.0734327,0.276122,0.168611,0.0271086,-0.0771235,-0.165447,-0.218784,1.28919e-05,0.0663804,0.793683,0.139861,6.21804e-05
987079049,0.0995463,0.140773,-1.85584,-0.510224,0.0624603,0.602574,1.75817,0.113859,-0.0815239,-0.103375,-0.0681608,0.104665,0.177838,0.0815617,-0.0100623,-0.0942711,-0.171425,1.27371e-05,0.0663361,0.793835,0.139755,6.15288e-05
987279284,0.0951375,0.134244,-1.80459,-0.4751,0.058911,0.57461,1.70541,0.122696,-0.0413732,-0.0572382,-0.0247903,0.124325,0.173158,0.0854516,0.00695182,-0.0640369,-0.124765,1.25481e-05,0.0662149,0.793994,0.139717,6.09255e-05
987479526,0.0914571,0.133901,-1.80725,-0.478209,0.0553063,0.570128,1.70053,0.0926095,-0.0632918,-0.0567314,-0.000209153,0.176317,0.219877,0.0764438,-0.0117779,-0.0814835,-0.103461,1.23093e-05,0.0660817,0.794247,0.139599,6.00973e-05
987679752,0.0972133,0.133651,-1.80035,-0.471633,0.0611603,0.576058,1.70621,-0.0338186,-0.145032,-0.0971835,-0.00566065,0.190067,0.199678,-0.0223707,-0.112593,-0.166988,-0.111175,1.22277e-05,0.0661151,0.794471,0.139342,5.95366e-05
987879986,0.112548,0.138905,-1.84012,-0.495981,0.0752676,0.611769,1.76406,-0.0514338,-0.178353,-0.12034,-0.0117334,0.217611,0.373882,0.110206,0.0050965,-0.0574097,0.0113673,1.13807e-05,0.0652403,0.794992,0.139699,5.77755e-05
988080235,0.123615,0.138897,-1.82941,-0.485623,0.0864661,0.622288,1.77513,-0.0514338,-0.178353,-0.12034,-0.0117334,0.217611,0.373882,0.110206,0.0050965,-0.0574097,0.0113673,1.13807e-05,0.0652403,0.794992,0.139699,5.77755e-05
988280454,0.151001,0.132245,-1.74265,-0.413092,0.113918,0.629028,1.75288,0.048793,-0.116644,-0.0772895,0.0210915,0.260981,0.325308,0.0818052,-0.0320862,-0.109425,-0.0805628,1.09718e-05,0.064963,0.795461,0.139508,5.63941e-05
988480689,0.179151,0.13193,-1.71153,-0.382383,0.142177,0.658584,1.78087,0.173833,-0.0675771,-0.0983072,-0.0595042,0.147045,0.170603,0.0600629,-0.0502331,-0.153164,-0.257181,1.07902e-05,0.065107,0.795978,0.138849,5.48815e-05
988680923,0.191123,0.131304,-1.69805,-0.368913,0.153938,0.670064,1.79028,0.301457,-0.043232,-0.145154,-0.158718,0.0412877,0.196793,0.200155,0.0795892,-0.0606757,-0.305481,1.03955e-05,0.064796,0.796305,0.138835,5.35456e-05
988881157,0.169099,0.129609,-1.71014,-0.386357,0.133937,0.646124,1.76668,0.423216,0.0314353,-0.129939,-0.199773,-0.0482013,-0.0704769,0.0606318,-0.0472348,-0.201018,-0.554634,9.80735e-06,0.0653341,0.798516,0.136092,4.81926e-05
989081391,0.126274,0.126992,-1.74064,-0.423588,0.0931821,0.598022,1.71747,0.581895,0.138344,-0.0618228,-0.162744,-0.0228674,-0.132431,0.0647554,-0.0452245,-0.216302,-0.647745,8.64634e-06,0.0651726,0.801551,0.133226,4.14709e-05
989281625,0.084994,0.124812,-1.77121,-0.460489,0.0538517,0.552299,1.67149,0.539686,0.0933359,-0.078748,-0.146989,0.0373882,-0.0336895,0.0826631,-0.0450653,-0.219209,-0.608697,7.80583e-06,0.0652193,0.804106,0.130631,3.63295e-05
989481859,0.0584455,0.129822,-1.84446,-0.523125,0.028266,0.553291,1.6923,0.491847,0.100394,-0.0015045,-0.00360674,0.239197,0.0173208,-0.0204811,-0.163143,-0.321792,-0.586338,7.2289e-06,0.0658424,0.806747,0.127372,3.16942e-05
989682093,0.036764,0.121817,-1.79969,-0.500581,0.0094634,0.499947,1.62058,0.308882,-0.069481,-0.131382,-0.0899086,0.208401,0.20804,0.0646142,-0.096632,-0.255313,-0.454557,6.94597e-06,0.0664095,0.808151,0.125403,2.92006e-05
989882327,0.0326428,0.120677,-1.79589,-0.500992,0.00669774,0.495037,1.61562,0.272067,-0.053483,-0.0734325,0.00241423,0.318695,0.260323,0.0395781,-0.12097,-0.262934,-0.381905,6.65016e-06,0.0669371,0.809663,0.123366,2.68645e-05
990082560,0.0381737,0.126234,-1.83883,-0.531047,0.0129949,0.534258,1.67226,0.179763,-0.092293,-0.0436316,0.0991013,0.481815,0.335553,-0.0396443,-0.217074,-0.346791,-0.342104,6.4342e-06,0.0681065,0.81184,0.120022,2.4074e-05
990282795,0.0551817,0.117742,-1.75085,-0.466856,0.0329436,0.517991,1.63784,0.129338,-0.0963028,-0.0190577,0.144603,0.532292,0.434778,0.0140194,-0.158249,-0.273185,-0.210968,6.03122e-06,0.0687018,0.814031,0.11724,2.15535e-05
990483028,0.0643605,0.114882,-1.72759,-0.450132,0.0435071,0.523884,1.63948,0.0416702,-0.153959,-0.0565758,0.12256,0.520274,0.453874,-0.00513744,-0.175652,-0.282335,-0.183388,5.12687e-06,0.0684298,0.817231,0.114316,1.81893e-05
990683261,0.0661797,0.114863,-1.72555,-0.448077,0.0453356,0.525491,1.64128,0.0416702,-0.153959,-0.0565758,0.12256,0.520274,0.453874,-0.00513744,-0.175652,-0.282335,-0.183388,5.12687e-06,0.0684298,0.817231,0.114316,1.81893e-05
990883498,0.0721098,0.119262,-1.76943,-0.482177,0.0523823,0.559822,1.69187,0.0359175,-0.133847,0.00161147,0.21988,0.664744,0.626683,0.0753388,-0.107775,-0.211217,-0.0456276,4.45891e-06,0.0683758,0.820298,0.111307,1.55246e-05
991083728,0.0746002,0.114716,-1.74644,-0.469772,0.0565825,0.554905,1.67898,-0.0302108,-0.18895,-0.0572645,0.153647,0.592647,0.703714,0.162321,-0.0144716,-0.116114,0.0399447,3.27143e-06,0.0670996,0.825507,0.107378,1.1748e-05
991283964,0.0800196,0.108131,-1.67681,-0.415501,0.0622725,0.528369,1.63344,-0.0302108,-0.18895,-0.0572645,0.153647,0.592647,0.703714,0.162321,-0.0144716,-0.116114,0.0399447,3.27143e-06,0.0670996,0.825507,0.107378,1.1748e-05
991484195,0.0925779,0.106994,-1.65789,-0.399089,0.0752036,0.539345,1.64161,0.10271,-0.0825161,-0.0149051,0.124479,0.46982,0.484003,0.106733,-0.0401497,-0.140692,-0.0971936,2.99118e-06,0.0668067,0.826947,0.106233,1.08019e-05
991684428,0.108995,0.112949,-1.70443,-0.43365,0.0917391,0.584645,1.70603,0.28093,-0.00645992,-0.0544884,-0.0278494,0.200289,0.268291,0.145401,0.0246848,-0.0958379,-0.267285,2.83163e-06,0.0664168,0.827505,0.106065,1.03802e-05
991884661,0.107149,0.111538,-1.69802,-0.431596,0.0903659,0.580375,1.69828,0.354397,0.0780391,-0.0276684,-0.0764454,0.019749,-0.0883043,-0.0246205,-0.098392,-0.199627,-0.456818,2.52798e-06,0.0659476,0.829282,0.104759,9.22884e-06
992084895,0.0921652,0.111104,-1.71052,-0.444815,0.0752566,0.565344,1.68085,0.337185,0.116213,0.00964709,-0.0570689,-0.0261663,-0.082444,0.0361999,-0.00711769,-0.0826865,-0.32221,2.41811e-06,0.0656329,0.829907,0.104449,8.88272e-06
992285130,0.0740307,0.111054,-1.72658,-0.461515,0.0573359,0.548409,1.66305,0.0255058,-0.0484254,-0.094848,-0.130739,-0.142275,-0.201318,-0.127941,-0.135213,-0.158534,-0.25407,2.40631e-06,0.0658642,0.830215,0.10391,8.69801e-06
992485362,0.0632568,0.104306,-1.67139,-0.421154,0.0469491,0.50267,1.60088,0.0255058,-0.0484254,-0.094848,-0.130739,-0.142275,-0.201318,-0.127941,-0.135213,-0.158534,-0.25407,2.40631e-06,0.0658642,0.830215,0.10391,8.69801e-06
992685595,0.0637659,0.111136,-1.73746,-0.471746,0.0468507,0.538923,1.65261,-0.120489,-0.0157882,0.0386031,0.0750105,0.0705862,-0.0873933,-0.15485,-0.138215,-0.105282,0.0164178,2.40501e-06,0.0657748,0.830168,0.104046,8.74639e-06
992885845,0.0599757,0.10403,-1.67765,-0.425543,0.0427079,0.497678,1.59387,-0.36608,-0.129312,-0.0134844,0.0600428,0.0336669,-0.161115,-0.292166,-0.24858,-0.170819,0.0916708,2.3191e-06,0.0648005,0.830045,0.105143,8.91447e-06
993081056,0.0830777,0.109276,-1.72574,-0.455528,0.0621329,0.550322,1.65178,-0.607326,-0.214415,-0.0295959,0.0836912,0.0275136,-0.207137,-0.404144,-0.326695,-0.196065,0.225889,1.9082e-06,0.0612168,0.830462,0.10831,8.89659e-06
993281300,0.103387,0.107912,-1.69957,-0.43332,0.0827671,0.566489,1.66494,-0.561256,-0.164262,0.00247294,0.0924788,-0.00228041,0.0284781,-0.110846,-0.0190022,0.117078,0.512011,1.70426e-06,0.060479,0.831906,0.107605,8.09699e-06
993481522,0.126904,0.101446,-1.60875,-0.352798,0.106272,0.559069,1.63694,-0.561256,-0.164262,0.00247294,0.0924788,-0.00228041,0.0284781,-0.110846,-0.0190022,0.117078,0.512011,1.70426e-06,0.060479,0.831906,0.107605,8.09699e-06
993681755,0.141114,0.100878,-1.59473,-0.337562,0.119395,0.571366,1.64395,-0.505371,-0.185108,-0.0672179,-0.0144988,-0.121713,-0.174955,-0.236536,-0.151577,-0.0387328,0.256204,1.55221e-06,0.059151,0.832203,0.108637,7.94328e-06
993881992,0.133157,0.100523,-1.60014,-0.344601,0.111707,0.562164,1.63415,-0.280754,-0.0890582,-0.0527345,-0.0633922,-0.196921,-0.10906,-0.0396404,0.0349664,0.110562,0.237463,1.50518e-06,0.0590736,0.832698,0.10822,7.68881e-06
994082226,0.112913,0.100074,-1.61659,-0.36396,0.0921526,0.540081,1.61274,-0.12872,-0.0762904,-0.126042,-0.202926,-0.362967,-0.287338,-0.0819221,-0.019654,0.015808,-0.0353536,1.46208e-06,0.0592042,0.833446,0.107341,7.37837e-06
994282463,0.0925163,0.099432,-1.63244,-0.382994,0.072436,0.517327,1.59034,0.0760348,0.0413181,-0.0608508,-0.177545,-0.352235,-0.358955,-0.0726496,-0.0188976,-0.00857328,-0.168983,1.39605e-06,0.0592024,0.834394,0.106395,7.00037e-06
994482688,0.0803659,0.105781,-1.70993,-0.450289,0.0599312,0.540027,1.6276,0.0705888,0.0360919,-0.0454673,-0.1368,-0.269787,-0.33821,-0.115603,-0.0760173,-0.0705102,-0.200934,1.34167e-06,0.0590973,0.83503,0.105864,6.74346e-06
994682921,0.0571757,0.0987318,-1.66366,-0.417814,0.0375567,0.477819,1.55099,-0.0363323,-0.013115,-0.0478486,-0.0978024,-0.196257,-0.395847,-0.26414,-0.227354,-0.208152,-0.24841,1.29229e-06,0.0587728,0.835281,0.105938,6.6332e-06
994883154,0.0461416,0.09866,-1.67498,-0.429391,0.0264333,0.465607,1.53895,-0.0736994,-0.0226646,-0.024817,-0.0423262,-0.102598,-0.270273,-0.214052,-0.185779,-0.16273,-0.14529,1.27204e-06,0.0585327,0.83526,0.1062,6.64134e-06
995083387,0.045145,0.105695,-1.74498,-0.483913,0.0237762,0.50549,1.58798,-0.161168,-0.0959135,-0.0637092,-0.0426323,-0.0457868,-0.0976421,-0.135975,-0.124599,-0.104314,-0.0323828,1.26459e-06,0.0583553,0.835182,0.106455,6.68047e-06
995283620,0.0380014,0.0986443,-1.68598,-0.439011,0.0176658,0.456177,1.52917,-0.276653,-0.171188,-0.101231,-0.0448928,-0.0124499,-0.124087,-0.242386,-0.236701,-0.208473,-0.0668319,1.25241e-06,0.0578735,0.834896,0.107223,6.8298e-06
995483853,0.0490055,0.10556,-1.74486,-0.481738,0.0265,0.5081,1.5883,-0.324997,-0.163372,-0.058677,0.0244929,0.0683989,-0.00919918,-0.182461,-0.171939,-0.127806,0.0854843,1.21951e-06,0.0573022,0.834853,0.107837,6.8816e-06
995684088,0.0550718,0.0981525,-1.67169,-0.421732,0.0333174,0.471728,1.54006,-0.421844,-0.213794,-0.0768971,0.0328173,0.0939218,0.0167582,-0.213236,-0.201228,-0.144988,0.132238,1.16191e-06,0.0563675,0.834844,0.10878,6.93156e-06
995884319,0.0646462,0.0975095,-1.66308,-0.411434,0.0418064,0.479168,1.54319,-0.523646,-0.26934,-0.0972123,0.0428997,0.128343,0.0967326,-0.200306,-0.189118,-0.121819,0.22308,1.06457e-06,0.0549999,0.835069,0.109923,6.87883e-06
996084552,0.0733401,0.0968639,-1.65438,-0.401687,0.0497417,0.486097,1.54657,-0.476271,-0.242901,-0.0709038,0.0752892,0.185142,0.138514,-0.180171,-0.180073,-0.122555,0.212533,9.85922e-07,0.0539334,0.835437,0.110622,6.77489e-06
996284784,0.0829097,0.0966473,-1.64565,-0.391656,0.0586791,0.49497,1.55311,-0.351035,-0.21101,-0.103152,-0.00945187,0.0678414,0.0969769,-0.110402,-0.113822,-0.0809445,0.125994,9.46762e-07,0.0532714,0.835416,0.111305,6.7822e-06
996485017,0.088324,0.0966536,-1.64096,-0.386119,0.0637835,0.500256,1.55754,-0.211381,-0.184198,-0.148326,-0.111479,-0.0639287,0.0865103,-0.00230143,-0.0134964,-0.0112346,0.0493874,9.361e-07,0.0530297,0.835278,0.111685,6.82073e-06
996685250,0.0811644,0.0965081,-1.64602,-0.392632,0.0571412,0.492882,1.55119,0.0353639,-0.0821524,-0.138357,-0.17414,-0.164757,-0.118746,-0.0556791,-0.0769466,-0.113815,-0.239957,9.39919e-07,0.0533553,0.835659,0.110978,6.67386e-06
996885483,0.0536563,0.0959178,-1.66831,-0.418964,0.0306837,0.463252,1.52325,0.239751,0.0195335,-0.0893736,-0.16111,-0.152252,-0.192487,-0.0619844,-0.0992371,-0.167192,-0.408654,9.14604e-07,0.053693,0.836677,0.109622,6.26594e-06
997085726,0.0309144,0.0949901,-1.68161,-0.438417,0.00967522,0.43864,1.50028,0.280599,-0.00880557,-0.155605,-0.254844,-0.252657,-0.25745,-0.073784,-0.119804,-0.207676,-0.530595,8.81006e-07,0.0544765,0.838482,0.107035,5.59938e-06
997285948,0.0312345,0.101682,-1.74603,-0.490597,0.00865007,0.484015,1.54884,0.284844,0.0390814,-0.0681292,-0.131186,-0.0937721,-0.156086,-0.0559603,-0.106855,-0.185728,-0.437046,8.53169e-07,0.0547767,0.839478,0.10574,5.23403e-06
997486181,0.0273105,0.0941425,-1.67351,-0.43699,0.00805946,0.434889,1.49767,0.108123,-0.0931772,-0.162684,-0.191739,-0.122387,-0.239272,-0.216115,-0.27054,-0.340038,-0.521412,8.64043e-07,0.055757,0.840444,0.103793,4.88519e-06
997681408,0.0463463,0.100971,-1.71905,-0.471849,0.0266988,0.500306,1.56941,-0.0137241,-0.173964,-0.179303,-0.139975,0.0245477,0.00146288,-0.141994,-0.220942,-0.290704,-0.367889,8.87862e-07,0.0568617,0.841229,0.101904,4.58147e-06
997881640,0.0587708,0.0938916,-1.63597,-0.401366,0.0404368,0.469299,1.53157,-0.0137241,-0.173964,-0.179303,-0.139975,0.0245477,0.00146288,-0.141994,-0.220942,-0.290704,-0.367889,8.87862e-07,0.0568617,0.841229,0.101904,4.58147e-06
998081873,0.0617162,0.100645,-1.7017,-0.456585,0.0425689,0.515132,1.58507,-0.0777977,-0.160967,-0.0884834,0.0263325,0.276665,0.229478,-0.0876975,-0.182449,-0.240475,-0.177941,8.82401e-07,0.0570467,0.841651,0.101297,4.4702e-06
998282107,0.0538767,0.0924991,-1.63415,-0.403834,0.0364758,0.463445,1.52658,-0.266346,-0.340546,-0.180144,0.0424446,0.476426,0.39124,-0.200957,-0.354133,-0.433879,-0.247841,8.61525e-07,0.0571277,0.842661,0.100206,4.2625e-06
998482344,0.0711206,0.0977344,-1.67826,-0.441911,0.0532,0.5204,1.58613,-0.23205,-0.238832,-0.0502528,0.188596,0.612152,0.635158,0.0187721,-0.120079,-0.178637,0.0747402,7.32624e-07,0.0564069,0.844986,0.0986023,3.73254e-06
998682570,0.0879813,0.0896774,-1.58899,-0.362001,0.0700149,0.492512,1.54559,-0.428014,-0.400135,-0.208517,0.0248111,0.423927,0.474209,-0.122681,-0.247041,-0.293215,-0.0239754,6.54193e-07,0.0549618,0.845701,0.0993327,3.63167e-06
998882805,0.0984624,0.0879867,-1.56993,-0.346396,0.0805874,0.499164,1.54672,-0.336815,-0.278579,-0.0710071,0.173738,0.577223,0.628643,0.00768586,-0.112785,-0.150903,0.151012,5.45767e-07,0.0538652,0.84786,0.0982707,3.20944e-06
999083036,0.104391,0.0865406,-1.56156,-0.338101,0.0855555,0.500952,1.54298,-0.494932,-0.415839,-0.195638,0.0596884,0.476283,0.549187,-0.0981837,-0.218367,-0.253407,0.0706449,4.59728e-07,0.0520016,0.848955,0.0990401,3.04342e-06
999283274,0.103787,0.0851781,-1.5589,-0.336522,0.0843434,0.496245,1.53382,-0.450532,-0.383261,-0.173561,0.0719912,0.481838,0.547002,-0.0828142,-0.202012,-0.240208,0.0608335,3.91667e-07,0.0504674,0.850081,0.099448,2.86589e-06
999483500,0.0531451,0.0834813,-1.60163,-0.385497,0.0341255,0.437528,1.47377,-0.344678,-0.286951,-0.0880924,0.146613,0.546004,0.665262,0.0571836,-0.0595687,-0.0996849,0.179501,3.19672e-07,0.0491831,0.851909,0.0989054,2.55104e-06
999683734,-0.0403545,0.0821756,-1.69623,-0.484153,-0.0597544,0.334994,1.37427,-0.540804,-0.468329,-0.256524,-0.00925052,0.41073,0.495915,-0.146445,-0.266255,-0.306145,-0.00819905,2.75239e-07,0.0473132,0.852181,0.100503,2.52182e-06
999883965,-0.0954116,0.0807252,-1.74869,-0.540579,-0.115159,0.272486,1.31043,-0.487793,-0.406689,-0.190803,0.0590096,0.480633,0.614821,-0.0355362,-0.154041,-0.191935,0.112155,2.24094e-07,0.0455185,0.853145,0.101334,2.35917e-06
1000084197,-0.123906,0.0791153,-1.77039,-0.567037,-0.143649,0.237673,1.27192,-0.445481,-0.344777,-0.120716,0.134114,0.558391,0.674611,0.0115143,-0.103755,-0.13726,0.182001,1.7783e-07,0.0440427,0.854869,0.101086,2.10062e-06
1000284430,-0.129776,0.0763519,-1.76458,-0.566903,-0.150014,0.222659,1.24656,-0.456566,-0.359808,-0.152982,0.0820749,0.483665,0.60287,-0.0187704,-0.125592,-0.159145,0.127685,1.16877e-07,0.0413582,0.857642,0.100998,1.72834e-06
1000484662,-0.128462,0.0763459,-1.76305,-0.565135,-0.148704,0.223836,1.24808,-0.456566,-0.359808,-0.152982,0.0820749,0.483665,0.60287,-0.0187704,-0.125592,-0.159145,0.127685,1.16877e-07,0.0413582,0.857642,0.100998,1.72834e-06
1000684894,-0.117921,0.0751271,-1.74465,-0.549664,-0.138241,0.230144,1.24823,-0.29382,-0.241449,-0.06455,0.144776,0.525825,0.719212,0.149069,0.0416783,-0.00162858,0.223453,9.37198e-08,0.0402893,0.859107,0.100602,1.53743e-06
1000885126,-0.104364,0.0742485,-1.72665,-0.53264,-0.125071,0.240517,1.25346,-0.247992,-0.258345,-0.115657,0.0672664,0.436755,0.64621,0.122641,0.00876072,-0.0505705,0.0977753,7.88114e-08,0.0392997,0.859773,0.100926,1.43554e-06
1001085360,-0.083968,0.0733113,-1.70081,-0.507988,-0.105054,0.257724,1.26454,-0.182676,-0.23868,-0.10535,0.077433,0.474428,0.70414,0.160423,0.0305882,-0.0454138,0.0638165,6.50612e-08,0.0383085,0.860512,0.101178,1.32602e-06
1001285614,-0.0629503,0.0789094,-1.74522,-0.534855,-0.0890059,0.341296,1.31319,-0.185003,-0.184103,-0.05464,0.10861,0.439342,0.586828,0.114804,0.0155473,-0.0358393,0.0968199,5.21999e-08,0.0374706,0.862121,0.100408,1.16438e-06
1001485823,-0.0668681,0.0718383,-1.67504,-0.48537,-0.088078,0.270382,1.27021,0.118458,-0.112178,-0.144192,-0.124222,0.0487532,0.339233,0.188593,0.0969018,0.0082669,-0.159663,5.03044e-08,0.0372121,0.861848,0.100938,1.16531e-06
1001681050,-0.08082,0.0714972,-1.68547,-0.498538,-0.10164,0.255178,1.25509,0.324109,0.0324701,-0.0662666,-0.114402,-0.0449873,0.0309328,0.0534628,-0.017663,-0.106372,-0.376844,4.84919e-08,0.0372507,0.862462,0.100287,1.10805e-06
1001881285,-0.0937287,0.0714967,-1.69849,-0.512303,-0.114445,0.241633,1.24277,0.324109,0.0324701,-0.0662666,-0.114402,-0.0449873,0.0309328,0.0534628,-0.017663,-0.106372,-0.376844,4.84919e-08,0.0372507,0.862462,0.100287,1.10805e-06
1002081515,-0.0923004,0.0708206,-1.69371,-0.508938,-0.112893,0.241736,1.24046,0.507977,0.0906816,-0.110387,-0.255018,-0.311137,0.0400863,0.292128,0.236834,0.134483,-0.312228,4.52371e-08,0.0369407,0.863249,0.0998095,1.05908e-06
