timestamp,gyro_rad[0],gyro_rad[1],gyro_rad[2],gyro_integral_dt,accelerometer_timestamp_relative,accelerometer_m_s2[0],accelerometer_m_s2[1],accelerometer_m_s2[2],accelerometer_integral_dt,accelerometer_clipping
304828207,0.325609,-0.325657,-0.272052,5005,0,5.4875,-5.49154,-6.77536,5005,0
304833211,-0.124531,-0.340445,-0.195338,5004,0,-6.09691,-1.79311,-6.07608,5004,0
304838215,-0.816199,-0.052319,0.054357,5004,0,-12.4545,2.50564,-11.9528,5004,0
304843221,0.119025,0.518043,0.14146,5006,0,-7.37721,3.37008,-15.7905,5006,0
304848224,0.610899,0.375721,0.190669,5003,0,4.91441,3.0684,-11.7492,5003,0
304853237,0.0219241,-0.13474,0.0268664,5013,0,11.7564,-3.54354,-9.96766,5013,0
304858231,0.274069,-0.311534,-0.270416,4994,0,5.79622,-5.59292,-6.57926,4994,0
304863238,0.000882586,-0.3775,-0.254386,5007,0,-5.95715,-2.3756,-4.54197,5007,0
304868240,-0.84339,-0.123238,0.0343397,5002,0,-12.5299,2.09158,-12.0181,5002,0
304873247,-0.0126628,0.52112,0.185215,5007,0,-7.23314,3.08036,-17.0894,5007,0
304878258,0.674146,0.358322,0.213661,5011,0,5.46213,2.89262,-12.0545,5011,0
304883256,-0.0192654,-0.159144,0.0291252,4998,0,11.6552,-2.90739,-10.2873,4998,0
304888281,0.201813,-0.274285,-0.284025,5025,0,4.83973,-5.22003,-5.98385,5025,0
304893273,0.0363861,-0.363343,-0.267923,4992,0,-7.0668,-1.81919,-3.49077,4992,0
304898273,-0.831523,-0.115034,0.0795194,5000,0,-12.7344,1.86382,-12.1571,5000,0
304903283,-0.0128113,0.550793,0.209611,5010,0,-5.97515,2.18922,-17.8883,5010,0
304908282,0.66948,0.347784,0.206004,4999,0,6.96825,2.1119,-12.6984,4999,0
304913284,-0.10083,-0.18777,0.0225335,5002,0,11.5202,-2.5614,-10.3277,5002,0
304918285,0.144298,-0.259012,-0.278925,5001,0,3.46455,-4.58132,-5.23745,5001,0
304923291,0.0680665,-0.36771,-0.294318,5006,0,-8.21601,-1.14282,-2.83422,5006,0
304928295,-0.775719,-0.0973423,0.0533439,5004,0,-12.3635,2.01899,-12.6793,5004,0
304933301,0.0673505,0.539462,0.226011,5006,0,-4.11001,2.18117,-17.7404,5006,0
304938306,0.639974,0.274415,0.206564,5005,0,8.0535,0.901318,-13.0812,5005,0
304943313,-0.162856,-0.199678,-0.0373432,5007,0,10.1057,-3.06409,-10.3658,5007,0
304948323,0.0774331,-0.233106,-0.315524,5010,0,1.13877,-3.70644,-4.73274,5010,0
304953319,-0.0590556,-0.284063,-0.236131,4996,0,-9.58574,0.0460193,-4.10629,4996,0
304958321,-0.659456,0.0309395,0.124118,5002,0,-10.4941,2.04052,-12.9351,5002,0
304963328,0.264399,0.409121,0.242952,5007,0,0.00554589,1.77772,-16.7968,5007,0
304968341,0.463809,0.193139,0.168095,5013,0,8.58805,-0.29927,-14.0302,5013,0
304973337,-0.185781,-0.173421,-0.105258,4996,0,7.05075,-3.51948,-8.87012,4996,0
304978339,0.0934374,-0.260226,-0.309315,5002,0,-1.9008,-3.05695,-3.98249,5002,0
304983346,-0.239627,-0.16524,-0.19261,5007,0,-10.2135,0.435693,-6.9364,5007,0
304988350,-0.415016,0.112789,0.136274,5004,0,-7.38868,3.1039,-12.8036,5004,0
304993355,0.4652,0.289567,0.235338,5005,0,3.42966,2.20689,-14.6524,5005,0
304998357,0.243438,0.0881847,0.0799966,5002,0,8.25492,-2.81635,-12.7934,5002,0
305003362,-0.135952,-0.179162,-0.234011,5005,0,2.37364,-3.85901,-8.80082,5005,0
305008366,-0.199514,-0.0807771,-0.227902,5004,0,-6.8506,-0.664267,-7.37497,5004,0
305013371,-0.238906,0.0584638,0.06738,5005,0,-7.70127,2.55704,-8.65721,5005,0
305018375,0.334957,0.132676,0.228294,5004,0,1.06881,2.05698,-9.87134,5004,0
305023382,0.211667,0.0789793,0.0690882,5007,0,6.56066,-2.37046,-12.2384,5007,0
305028384,-0.308432,0.0196085,-0.189683,5002,0,1.30825,-3.69961,-14.4446,5002,0
305033389,-0.217389,0.0176331,-0.187578,5005,0,-5.83392,0.00682006,-10.2817,5005,0
305038393,0.196885,-0.085437,0.0659872,5004,0,-3.73415,3.02765,-6.75995,5004,0
305043398,0.26221,0.0585478,0.184213,5005,0,3.02681,1.01083,-7.81749,5005,0
305048402,0.0813637,0.0684461,-0.0360556,5004,0,3.39005,-3.80283,-9.00327,5004,0
305053407,-0.463562,0.0035275,-0.164785,5005,0,-3.00324,-2.82475,-13.9459,5005,0
305058411,-0.28692,-0.0189634,-0.0125465,5004,0,-5.01715,2.16288,-12.9694,5004,0
305063428,0.460702,0.00100305,0.139331,5017,0,0.626143,2.98081,-9.40958,5017,0
305068420,0.372409,0.10142,0.111065,4992,0,4.61636,-1.76748,-8.09335,4992,0
305073425,-0.291747,-0.00242788,-0.0907201,5005,0,-0.196815,-4.90237,-10.0425,5005,0
305078431,-0.539527,-0.0287563,-0.141718,5006,0,-6.34601,-0.67155,-11.1809,5006,0
305083437,0.0678353,-0.0861764,0.00932895,5006,0,-2.33296,3.10665,-8.59512,5006,0
305088438,0.459181,0.0329702,0.131125,5001,0,4.56434,1.09996,-11.2017,5001,0
305093443,-0.0821117,0.121161,0.038359,5005,0,2.3281,-3.34291,-13.8942,5005,0
305098447,-0.467594,0.093619,-0.104286,5004,0,-4.78152,-2.18933,-10.4551,5004,0
305103453,0.020228,-0.141344,-0.0945213,5006,0,-4.31742,1.78909,-5.4429,5006,0
305108456,0.186583,-0.0723355,0.055049,5003,0,2.17626,1.50577,-8.27798,5003,0
305113464,0.0633193,0.171783,0.0654429,5008,0,3.14853,-2.22424,-15.0284,5008,0
305118465,-0.452574,0.183967,0.0361849,5001,0,-2.19171,-2.73258,-14.5461,5001,0
305123470,-0.00109719,-0.0983919,-0.0686679,5005,0,-3.74869,0.843936,-6.25144,5005,0
305128474,0.0446624,-0.133886,-0.0804649,5004,0,0.0908572,1.81535,-5.82827,5004,0
305133479,0.10001,0.133504,0.0312679,5005,0,1.98741,-0.502188,-12.6182,5005,0
305138483,-0.258891,0.19645,0.151766,5004,0,-0.951046,-2.29361,-14.9607,5004,0
305143498,-0.0817948,-0.0364854,-0.0221831,5015,0,-2.35235,-1.43014,-8.48514,5015,0
305148494,0.0230968,-0.147137,-0.160026,4996,0,-0.193011,0.513089,-5.43038,4996,0
305153499,-0.069985,0.0843628,-0.0762263,5005,0,0.810418,0.963194,-11.4736,5005,0
305158505,-0.234303,0.170562,0.19132,5006,0,-1.19977,0.161709,-14.6301,5006,0
305163506,0.0495584,-0.0744351,0.108906,5001,0,-1.67773,-2.01712,-9.62504,5001,0
305168510,0.0803614,-0.0578145,-0.148843,5004,0,0.143103,-1.41409,-6.33029,5004,0
305173515,-0.263428,0.178557,-0.197224,5005,0,0.0282898,0.0842548,-11.3008,5005,0
305178523,-0.322175,0.145307,0.148291,5008,0,-1.48726,1.71602,-13.997,5008,0
305183523,0.226417,-0.25394,0.230297,5000,0,-0.0960974,-0.879081,-8.80403,5000,0
305188532,0.193044,-0.0195317,-0.105238,5009,0,0.893435,-2.46329,-7.40176,5009,0
305193532,-0.476523,0.277852,-0.253324,5000,0,-1.60966,-0.117678,-10.7164,5000,0
305198537,-0.544925,0.0996006,0.0910822,5005,0,-2.61106,2.32769,-14.0067,5005,0
305203541,0.532128,-0.376632,0.284069,5004,0,0.989881,-0.542952,-10.2663,5004,0
305208551,0.39141,0.0203943,-0.0265884,5010,0,1.97757,-3.26993,-9.35344,5010,0
305213554,-0.775591,0.418955,-0.225593,5003,0,-1.92955,-0.0183931,-8.12338,5003,0
305218555,-0.662631,-0.0786301,-0.010762,5001,0,-3.06152,2.06467,-9.44783,5001,0
305223570,0.735345,-0.569013,0.278254,5015,0,0.92646,0.110366,-12.4702,5015,0
305228564,0.362036,0.189268,0.0837666,4994,0,2.18996,-3.40551,-15.0751,4994,0
305233582,-0.944053,0.675187,-0.155432,5018,0,-1.78608,0.142633,-7.46656,5018,0
305238573,-0.519184,-0.300712,-0.0974079,4991,0,-3.5663,1.70539,-4.02166,4991,0
305243585,0.837626,-0.850181,0.170505,5012,0,1.03988,0.566165,-10.7525,5012,0
305248589,0.330999,0.303039,0.146911,5004,0,3.169,-2.34567,-18.7489,5004,0
305253588,-1.09023,0.961233,-0.0963686,4999,0,-2.05639,-0.20387,-9.24213,4999,0
305258591,-0.475861,-0.488562,-0.139757,5003,0,-4.13994,0.592356,-1.3659,5003,0
305263597,1.09237,-1.16231,0.108258,5006,0,1.13021,0.237183,-11.152,5006,0
305268600,0.196878,0.494237,0.175027,5003,0,3.14686,-1.12144,-21.539,5003,0
305273606,-1.18623,1.16802,-0.067594,5006,0,-2.97698,0.606358,-7.46238,5006,0
305278612,-0.274954,-0.581627,-0.183387,5006,0,-4.43603,0.0667655,1.78096,5006,0
305283615,1.09858,-1.29769,0.0829786,5003,0,1.90191,-0.993366,-12.1628,5003,0
305288618,0.0381359,0.669874,0.211448,5003,0,3.17101,-0.898506,-25.6501,5003,0
305293623,-1.0564,1.22168,-0.0452573,5005,0,-3.45352,0.9595,-6.24126,5005,0
305298627,-0.0725942,-0.62492,-0.260208,5004,0,-4.39505,-0.16033,4.47234,5004,0
305303632,1.00249,-1.22577,0.0602588,5005,0,2.23473,-0.952169,-12.0033,5005,0
305308642,-0.151703,0.691418,0.273326,5010,0,2.79125,-0.322177,-27.0384,5010,0
305313641,-0.891335,1.1153,-0.0492641,4999,0,-3.53823,1.00097,-6.58849,4999,0
305318645,0.236331,-0.628158,-0.307261,5004,0,-4.18201,-0.414803,4.43145,5004,0
305323650,0.87412,-1.01695,0.00727352,5005,0,1.92968,-0.700701,-12.8975,5005,0
305328654,-0.468625,0.736397,0.33177,5004,0,2.57714,0.632147,-25.6185,5004,0
305333659,-0.59288,0.875546,-0.0181134,5005,0,-2.95968,0.095529,-4.75805,5005,0
305338663,0.482713,-0.658275,-0.35645,5004,0,-3.48821,-1.51098,3.56441,5004,0
305343668,0.542903,-0.783995,-0.0510621,5005,0,2.07502,-0.0234049,-15.3584,5005,0
305348672,-0.653068,0.770495,0.359291,5004,0,2.06911,1.62919,-24.481,5004,0
305353680,-0.145532,0.615345,-0.00190154,5008,0,-3.12071,-0.940177,-2.97931,5008,0
305358681,0.541353,-0.661947,-0.366432,5001,0,-3.15525,-2.67136,1.73155,5001,0
305363686,0.117773,-0.511083,-0.034789,5005,0,1.96954,0.97566,-17.3879,5005,0
305368690,-0.595189,0.701044,0.364688,5004,0,1.60944,1.84217,-22.2302,5004,0
305373695,0.254032,0.362887,-0.0586581,5005,0,-2.9967,-1.4902,-3.01293,5005,0
305378699,0.467896,-0.564253,-0.368326,5004,0,-2.66796,-2.47378,-1.04559,5004,0
305383704,-0.250426,-0.329388,0.0216001,5005,0,1.55748,1.79677,-17.9144,5005,0
305388711,-0.299846,0.516592,0.332105,5007,0,1.52908,1.56655,-17.5498,5007,0
305393713,0.487196,0.259755,-0.100448,5002,0,-2.05959,-1.98973,-2.39935,5002,0
305398717,0.110069,-0.408551,-0.329689,5004,0,-2.27134,-2.11554,-3.44904,5004,0
305403722,-0.467539,-0.318638,0.0739026,5005,0,0.111275,2.60152,-19.5734,5005,0
305408727,0.237721,0.357855,0.300771,5005,0,1.29272,1.19665,-15.511,5005,0
305413731,0.499649,0.322721,-0.118905,5004,0,-0.915512,-3.36277,-2.19248,5004,0
305418736,-0.318166,-0.267122,-0.330479,5005,0,-2.338,-2.13655,-4.50329,5005,0
305423740,-0.386152,-0.47598,0.125335,5004,0,-0.467817,3.79289,-18.7192,5004,0
305428744,0.60407,0.189483,0.285378,5004,0,1.93187,0.66902,-15.2097,5004,0
305433753,0.346114,0.480001,-0.187962,5009,0,-0.85353,-4.37474,-3.73649,5009,0
305438753,-0.581363,-0.173665,-0.357087,5000,0,-3.53109,-0.960453,-4.31779,5000,0
305443758,-0.23679,-0.670538,0.202255,5005,0,0.0123584,4.33858,-15.4939,5005,0
305448763,0.832826,0.163724,0.267165,5005,0,3.00953,-0.844715,-16.5343,5005,0
305453767,0.143142,0.748017,-0.22656,5004,0,-1.87832,-4.54181,-6.79776,5004,0
305458772,-0.817569,-0.193023,-0.29954,5005,0,-4.30664,1.15712,-2.7964,5005,0
305463776,0.0724589,-0.85343,0.236217,5004,0,1.47395,3.7677,-12.0979,5004,0
305468780,0.955706,0.217102,0.173316,5004,0,3.38297,-3.1546,-17.7921,5004,0
305473785,-0.227199,0.935986,-0.274611,5005,0,-3.8572,-3.72658,-9.86234,5005,0
305478790,-0.815043,-0.29558,-0.153133,5005,0,-4.09035,3.75378,-2.377,5005,0
305483801,0.487876,-0.979014,0.267395,5011,0,3.2068,3.01981,-10.1607,5011,0
305488798,0.890467,0.32009,0.0418429,4997,0,2.76828,-5.40536,-18.6149,4997,0
305493803,-0.529301,1.03155,-0.280214,5005,0,-4.93389,-2.19062,-9.04167,5005,0
305498808,-0.73332,-0.482434,-0.0134527,5005,0,-2.81622,5.08145,-1.58658,5005,0
305503812,0.849198,-1.09777,0.271843,5004,0,3.65851,1.58343,-11.6541,5004,0
305508820,0.690992,0.587739,-0.0470772,5008,0,0.718102,-6.21063,-21.7627,5008,0
305513821,-0.731694,1.09577,-0.225023,5001,0,-5.1026,-0.285045,-5.77702,5001,0
305518826,-0.54142,-0.764501,0.0464209,5005,0,-0.997957,4.18421,0.565511,5005,0
305523830,1.09766,-1.15495,0.190891,5004,0,4.03593,-1.16789,-14.0065,5004,0
305528834,0.298627,0.969741,-0.115312,5004,0,-0.818038,-4.70799,-24.8362,5004,0
305533839,-0.787499,1.00811,-0.149091,5005,0,-5.35735,2.2426,-2.08859,5005,0
305538844,-0.207505,-1.09651,0.0532279,5005,0,-0.159325,2.86661,2.28492,5005,0
305543848,1.14135,-0.983833,0.095644,5004,0,3.80425,-4.0475,-18.5303,5004,0
305548852,-0.0619759,1.34269,-0.080353,5004,0,-1.73168,-2.90062,-24.8215,5004,0
305553857,-0.715458,0.731247,-0.0939005,5005,0,-4.99566,3.33208,1.79139,5005,0
305558862,0.0909016,-1.36031,-0.00649701,5005,0,0.893521,2.07649,1.55041,5005,0
305563866,1.02407,-0.645154,-0.000323335,5004,0,3.75579,-4.31797,-23.7713,5004,0
305568870,-0.309869,1.55527,-0.00144823,5004,0,-2.88614,-1.03629,-21.8079,5004,0
305573875,-0.545893,0.344152,-0.0522168,5005,0,-5.02037,2.04201,5.53786,5005,0
305578884,0.407293,-1.44619,-0.0663111,5009,0,1.74267,0.0642603,-0.423599,5009,0
305583884,0.669164,-0.147078,-0.025177,5000,0,3.18533,-3.42087,-29.7968,5000,0
305588888,-0.575336,1.56655,0.10623,5004,0,-3.5232,0.884537,-18.4334,5004,0
305593893,-0.152976,-0.0999141,-0.0372938,5005,0,-4.27389,1.64706,8.48304,5005,0
305598899,0.837523,-1.32051,-0.134148,5006,0,2.41852,-0.542999,-1.61057,5006,0
305603902,0.0959274,0.224829,-0.00710901,5003,0,2.41098,-2.64265,-30.0854,5003,0
305608907,-0.766272,1.28549,0.1277,5005,0,-3.45763,0.280811,-14.1962,5005,0
305613911,0.466162,-0.463021,-0.0462998,5004,0,-2.94163,1.00693,6.97665,5004,0
305618928,0.932965,-1.04921,-0.13633,5017,0,2.2736,0.170526,-7.28529,5017,0
305623924,-0.639405,0.677898,0.0245287,4996,0,0.447893,-1.98334,-29.9799,4996,0
305628925,-0.423339,0.914433,0.0792801,5001,0,-3.24878,-0.457901,-5.8238,5001,0
305633931,0.971155,-0.706762,-0.0473857,5006,0,-1.37226,0.960304,5.66849,5006,0
305638941,0.479911,-0.748294,-0.0450979,5010,0,2.60331,0.605651,-12.8086,5010,0
305643938,-0.869235,0.882906,0.0290019,4997,0,-0.487257,-2.04726,-27.7198,4997,0
305648949,0.120921,0.4836,-0.0132752,5011,0,-2.94077,-0.859696,-2.26115,5011,0
305653947,0.959562,-0.765332,-0.0346135,4998,0,-0.517621,0.650704,1.53845,4998,0
305658961,0.0375939,-0.390012,0.0429433,5014,0,1.70303,0.236778,-17.8357,5014,0
305663956,-0.673018,0.893366,0.0313045,4995,0,-1.64312,-1.27613,-22.0031,4995,0
305668961,0.540834,0.171162,-0.0515169,5005,0,-2.2736,-0.210688,-0.0207598,5005,0
305673965,0.798564,-0.715174,-0.0447597,5004,0,0.852423,0.266292,-2.77645,5004,0
305678970,-0.223431,-0.103096,0.0770028,5005,0,0.821583,-0.367966,-21.8697,5005,0
305683974,-0.306989,0.711919,0.0322279,5004,0,-2.42271,-1.06901,-14.3136,5004,0
305688979,0.703464,-0.0728647,-0.081363,5005,0,-1.45616,-0.122228,1.71452,5005,0
305693983,0.56253,-0.55503,-0.0648453,5004,0,1.5664,0.422835,-7.92481,5004,0
305698989,-0.384527,0.154223,0.0969451,5006,0,-0.130192,-0.620091,-24.0967,5006,0
305703992,0.134722,0.429366,0.0460551,5003,0,-1.95943,-0.659038,-8.18733,5003,0
305708997,0.719721,-0.2373,-0.104984,5005,0,-0.531207,-0.736811,1.83433,5005,0
305714023,0.189447,-0.363715,-0.088591,5026,0,1.15996,-0.200093,-12.1126,5026,0
305719011,-0.403804,0.258196,0.107698,4988,0,-0.719081,-0.542998,-22.9066,4988,0
305724010,0.547956,0.135781,0.0620325,4999,0,-1.67871,-0.523308,-5.54971,4999,0
305729015,0.584067,-0.213843,-0.136432,5005,0,-0.620196,-0.591974,-0.789927,5005,0
305734019,-0.116218,-0.0896431,-0.117779,5004,0,-0.137927,0.146589,-15.5056,5004,0
305739024,-0.107519,0.129893,0.137962,5005,0,-0.102357,-0.436531,-16.6687,5005,0
305744031,0.769235,-0.0618514,0.0980456,5007,0,-0.5111,-2.05218,-4.35638,5007,0
305749036,0.291861,-0.0294182,-0.171494,5005,0,-1.52447,-1.16483,-5.51044,5005,0
305754037,-0.328139,0.0804022,-0.124548,5001,0,-1.29193,1.45094,-17.5828,5001,0
305759042,0.273716,-0.141871,0.172656,5005,0,0.832147,-0.328238,-12.3625,5005,0
305764046,0.789257,-0.0419772,0.0607919,5004,0,-0.231989,-3.53243,-5.09381,5004,0
305769051,-0.0384447,0.22957,-0.246574,5005,0,-2.80209,-0.633634,-8.8713,5005,0
305774055,-0.350109,-0.0461753,-0.0550175,5004,0,-0.682081,1.9129,-15.0331,5004,0
305779060,0.575897,-0.304625,0.219773,5005,0,1.97897,-2.01901,-12.1543,5005,0
305784068,0.642465,0.275796,-0.0194706,5008,0,-1.37117,-3.18618,-8.39769,5008,0
305789069,-0.362111,0.355464,-0.227959,5001,0,-3.51207,2.34947,-7.29756,5001,0
305794073,-0.18092,-0.47507,0.0332172,5004,0,1.16225,0.128346,-9.23311,5004,0
305799078,0.904085,-0.201345,0.114593,5005,0,2.51029,-4.60214,-14.7592,5005,0
305804082,0.218246,0.712389,-0.0246831,5004,0,-2.83251,-0.658344,-11.6089,5004,0
305809087,-0.621956,0.200276,-0.119245,5005,0,-3.21674,2.8988,-4.17723,5005,0
305814091,0.417935,-0.857333,-0.0194618,5004,0,2.18025,-1.58712,-7.59705,5004,0
305819103,0.961603,0.0863855,0.0407331,5012,0,2.07639,-3.71898,-19.7136,5012,0
305824100,-0.513196,0.988115,0.0557023,4997,0,-3.74095,0.848232,-10.7991,4997,0
305834111,1.10939,-1.07931,-0.0534636,5004,0,2.35185,-2.29122,-10.3902,5004,0
305839114,0.400282,0.507499,0.0919977,5003,0,1.24533,-1.24417,-23.049,5003,0
305844118,-0.914799,1.04299,0.0593527,5004,0,-3.99432,1.22888,-6.66203,5004,0
305849123,0.0181873,-0.63673,-0.142607,5005,0,-1.76271,-1.28456,1.14732,5005,0
305854128,1.22579,-1.10709,0.0126217,5005,0,2.96535,-2.74256,-15.0981,5005,0
305859132,-0.166482,0.958078,0.184541,5004,0,0.451489,0.0584681,-23.1204,5004,0
305864136,-0.728342,0.919959,0.00470685,5004,0,-4.51185,1.16809,-0.763373,5004,0
305869141,0.24272,-1.08767,-0.191894,5005,0,-0.98376,-2.33989,2.21071,5005,0
305874149,0.984956,-0.863004,0.0630229,5008,0,3.20397,-2.96792,-21.4704,5008,0
305879150,-0.38133,1.27086,0.263684,5001,0,-0.168816,1.03658,-21.0298,5001,0
305884154,-0.46119,0.550685,-0.0694638,5004,0,-3.87881,0.565119,3.48433,5004,0
305889162,0.378336,-1.38159,-0.221393,5008,0,0.64844,-2.97005,0.311835,5008,0
305894164,0.73322,-0.472771,0.0897983,5002,0,2.65428,-2.66026,-26.8596,5002,0
305899168,-0.580575,1.3217,0.298674,5004,0,-1.9098,1.90096,-17.0123,5004,0
305904172,-0.239642,0.151979,-0.0997503,5004,0,-3.49637,-0.299492,4.98267,5004,0
305909179,0.583315,-1.41016,-0.215527,5007,0,1.0355,-3.82435,-4.64989,5007,0
305914182,0.341351,0.0782001,0.13928,5003,0,1.35375,-1.80196,-28.8703,5003,0
305919186,-0.589529,1.20376,0.31097,5004,0,-1.84654,2.43086,-10.254,5004,0
305924191,-0.0265694,-0.222972,-0.147032,5005,0,-1.74013,-1.45467,5.56707,5005,0
305929195,0.68804,-1.23723,-0.199589,5004,0,0.681239,-3.83579,-9.61204,5004,0
305934200,-0.0291173,0.430255,0.211643,5005,0,-0.54801,-0.104252,-26.7459,5005,0
305939204,-0.518557,0.872084,0.248498,5004,0,-1.75232,1.86119,-4.61464,5004,0
305944209,0.218267,-0.460406,-0.230472,5005,0,-0.532694,-2.76717,2.43093,5005,0
305949215,0.614321,-0.818844,-0.14428,5006,0,-0.0919266,-2.64996,-16.1301,5006,0
305954220,-0.298718,0.625886,0.303774,5005,0,-1.34434,1.99118,-22.3036,5005,0
305959226,-0.366841,0.507005,0.150532,5006,0,-0.752558,0.540517,-1.73074,5006,0
305964227,0.37916,-0.571677,-0.308156,5001,0,0.373044,-4.50524,-1.81052,5001,0
305969239,0.408892,-0.451088,-0.0469958,5012,0,-1.04538,-1.73239,-21.5697,5012,0
305974236,-0.464479,0.678642,0.349741,4997,0,-1.71342,2.67495,-16.7063,4997,0
305979243,-0.131433,0.302443,-0.00531465,5007,0,-0.386453,-0.905225,-0.122937,5007,0
305984245,0.459598,-0.566194,-0.34724,5002,0,0.344021,-4.06971,-4.82614,5002,0
305989251,0.0715658,-0.198822,0.123485,5006,0,-1.37413,-0.191265,-22.5489,5006,0
305994254,-0.400565,0.586395,0.333368,5003,0,-1.32221,1.38429,-11.5962,5003,0
305999276,0.165805,0.144392,-0.189184,5022,0,0.212259,-2.10083,0.659344,5022,0
306004269,0.344613,-0.501257,-0.333887,4993,0,0.365075,-2.69816,-8.1096,4993,0
306009279,-0.176298,-0.0619268,0.253408,5010,0,-1.30799,0.839631,-21.7839,5010,0
306014280,-0.17557,0.410472,0.275277,5001,0,-0.627626,0.459648,-7.50727,5001,0
306019282,0.269327,0.0668635,-0.317083,5002,0,0.323925,-3.09759,-0.386953,5002,0
306024282,0.142406,-0.365025,-0.263579,5000,0,-0.384964,-1.6751,-12.2561,5000,0
306029286,-0.325682,-0.017321,0.356063,5004,0,-1.51595,1.3463,-20.4642,5004,0
306034290,0.0977981,0.226605,0.188082,5004,0,-0.673815,-0.137774,-6.31079,5004,0
306039295,0.29796,0.118113,-0.401222,5005,0,0.177484,-3.13946,-3.18959,5005,0
306044299,-0.158036,-0.169751,-0.174878,5004,0,-0.613958,-0.949133,-14.9553,5004,0
306049304,-0.271002,-0.157769,0.352712,5005,0,-0.885983,0.115971,-15.4358,5005,0
306054308,0.37548,0.059102,0.0764826,5004,0,-0.494334,-1.39174,-5.47302,5004,0
306059332,0.0945731,0.282117,-0.387521,5024,0,-0.538302,-2.16503,-6.50505,5024,0
306064317,-0.567334,0.0157039,-0.0827155,4985,0,-1.25118,0.190342,-16.2213,4985,0
306069323,-0.0065553,-0.455455,0.343881,5006,0,-0.0524765,-0.560217,-11.0165,5006,0
306074326,0.615912,0.0365447,0.0162284,5003,0,0.218464,-2.09255,-6.20518,5003,0
306079331,-0.22733,0.62336,-0.350709,5005,0,-1.61099,-1.04888,-9.79156,5005,0
306084335,-0.725387,-0.0727104,-0.013004,5004,0,-1.40113,0.693088,-12.3616,5004,0
306089349,0.290005,-0.856695,0.32834,5014,0,1.57407,-1.79324,-10.0368,5014,0
306094344,0.675562,0.256596,-0.0538373,4995,0,0.252452,-2.69181,-12.4265,4995,0
306099351,-0.737646,1.00268,-0.34398,5007,0,-3.99735,0.155093,-10.0186,5007,0
306104356,-0.677649,-0.466991,0.0527926,5005,0,-0.609832,0.706214,-3.2374,5005,0
306109358,0.719024,-1.02746,0.324536,5002,0,3.51226,-2.91555,-12.222,5002,0
306114366,0.251303,0.765067,-0.058171,5008,0,-0.804573,-2.68697,-20.7087,5008,0
306119367,-1.10881,0.997279,-0.280713,5001,0,-5.12193,0.334214,-5.20597,5001,0
306124371,-0.154336,-0.930023,0.0399758,5004,0,0.634206,1.12781,0.627154,5004,0
306129376,0.907925,-0.85542,0.268459,5005,0,4.57138,-2.01221,-15.2135,5005,0
306134380,-0.597598,1.1265,-0.0366047,5004,0,-1.90999,-2.81275,-20.4424,5004,0
306139385,-0.879422,0.580775,-0.203078,5005,0,-5.50396,0.0424941,-2.14648,5005,0
306144389,0.454066,-1.31356,0.109696,5004,0,1.15423,1.64595,-1.41176,5004,0
306149394,0.47704,-0.347935,0.182995,5005,0,3.91972,-2.8329,-20.4657,5005,0
306154398,-1.00198,1.4124,-0.0996387,5004,0,-3.15584,-2.03125,-16.3988,5004,0
306159403,-0.479285,-0.0546819,-0.132998,5005,0,-4.62552,0.271322,1.91159,5005,0
306164407,0.624487,-1.5206,0.220982,5004,0,2.98447,0.674893,-6.09582,5004,0
306169419,0.113085,0.295227,0.136831,5012,0,3.31107,-3.14218,-26.1896,5012,0
306174416,-1.00556,1.42638,-0.163683,4997,0,-5.47813,-0.651581,-11.1666,4997,0
306179421,-0.332212,-0.636217,-0.099284,5005,0,-3.51737,1.13779,5.28234,5005,0
306184425,0.697329,-1.40897,0.266784,5004,0,4.56342,-0.695288,-11.4526,5004,0
306189430,-0.246316,0.894704,0.0695637,5005,0,1.21692,-3.82986,-28.7857,5005,0
306194434,-0.979657,1.16577,-0.132381,5004,0,-6.21463,0.415797,-3.68515,5004,0
306199439,-0.0309175,-1.0027,0.0069381,5005,0,-1.16002,1.24918,6.09163,5005,0
306204443,0.66499,-1.03254,0.205639,5004,0,4.50474,-1.46974,-15.8457,5004,0
306209450,-0.712622,1.19248,0.0568339,5007,0,-1.65684,-2.45518,-27.8821,5007,0
306214452,-0.667483,0.675692,-0.10935,5002,0,-5.098,0.469675,0.000914691,5002,0
306219457,0.427817,-1.10035,0.0122227,5005,0,1.05284,0.369338,3.2208,5005,0
306224461,0.349755,-0.557775,0.146727,5004,0,3.17434,-1.44619,-19.9958,5004,0
306229466,-1.02131,1.09431,0.0671975,5005,0,-2.87135,-1.17312,-22.4074,5005,0
306234470,-0.178554,0.220298,-0.0851852,5004,0,-3.15246,0.12948,0.328919,5004,0
306239475,0.540285,-0.934981,-0.0242372,5005,0,1.24675,-0.512937,-2.64896,5005,0
306244485,-0.221596,-0.153589,0.13973,5010,0,1.06478,-0.824598,-22.1987,5010,0
306249484,-0.762822,0.852775,0.0438162,4999,0,-2.99894,-0.469176,-15.4835,4999,0
306254488,0.258397,0.0679388,-0.0963621,5004,0,-1.93538,0.234145,0.794769,5004,0
306259493,0.267304,-0.746947,-0.012873,5005,0,1.62187,-0.387394,-5.90971,5005,0
306264504,-0.446261,0.0215396,0.125785,5011,0,0.264777,-0.553679,-22.7911,5011,0
306269502,-0.290191,0.622292,0.021985,4998,0,-2.10708,-0.96851,-10.7232,4998,0
306274506,0.358469,-0.0563949,-0.163752,5004,0,-1.11486,-1.01213,0.536785,5004,0
306279511,-0.0376966,-0.521408,-0.0296295,5005,0,0.995824,0.512892,-9.61909,5005,0
306284521,-0.436598,0.0816676,0.156265,5010,0,-0.550703,0.458175,-20.8245,5010,0
306289520,0.0972987,0.373431,-0.00646866,4999,0,-1.67932,-1.16655,-7.4856,4999,0
306294524,0.376801,-0.0685525,-0.233465,5004,0,-0.683446,-1.2493,-1.6837,5004,0
306299540,-0.327359,-0.29201,-0.0383254,5016,0,0.543197,1.00631,-13.6954,5016,0
306304533,-0.302303,-0.03189,0.13945,4993,0,-0.0299835,-0.536181,-17.2066,4993,0
306309538,0.553672,0.157838,-0.0677642,5005,0,-1.67251,-1.93531,-6.61449,5005,0
306314542,0.153092,0.147414,-0.206536,5004,0,-1.25371,0.605516,-4.45648,5004,0
306319548,-0.608627,-0.0809035,-0.0138601,5006,0,0.0712084,1.77789,-14.6199,5006,0
306324551,0.0799641,-0.256305,0.102704,5003,0,0.172114,-2.12318,-13.717,5003,0
306329556,0.78788,0.0978441,-0.0809303,5005,0,-1.52364,-2.6218,-7.27328,5005,0
306334560,-0.24415,0.457349,-0.156343,5004,0,-2.22512,2.19735,-7.93527,5004,0
306339565,-0.620064,-0.0164785,-0.0307071,5005,0,-0.225203,1.75784,-11.7032,5005,0
306344570,0.47332,-0.484934,0.0346278,5005,0,0.809558,-3.88831,-12.6976,5005,0
306349574,0.706658,0.314342,-0.0381225,5004,0,-1.52293,-2.17968,-12.567,5004,0
306354582,-0.678491,0.732372,-0.0646308,5008,0,-2.92051,3.06937,-7.74477,5008,0
306359589,-0.270531,-0.299307,-0.0372916,5007,0,1.05369,0.580635,-4.57301,5007,0
306364587,0.930843,-0.557037,-0.00612792,4998,0,2.52028,-4.83078,-14.1351,4998,0
306369592,3.49636e-05,0.763971,0.0135671,5005,0,-2.1505,-1.27859,-17.186,5005,0
306374596,-0.831889,0.583408,-0.0157243,5004,0,-3.95076,2.53712,-4.15147,5004,0
306379601,0.599805,-0.734123,-0.0916568,5005,0,0.956727,0.495071,-3.42478,5005,0
306384605,0.881854,-0.257674,0.0251357,5004,0,2.51712,-2.5617,-17.1495,5004,0
306389616,-0.727483,1.09272,0.0834927,5011,0,-1.5723,-0.468503,-14.3018,5011,0
306394614,-0.376772,0.137922,-0.103498,4998,0,-2.70811,0.493191,-0.670387,4998,0
306399630,0.945213,-1.07119,-0.0823126,5016,0,1.61438,-1.26732,-7.28237,5016,0
306404623,0.340151,0.252003,0.112129,4993,0,1.24702,-1.94067,-24.2503,4993,0
306409631,-0.812938,1.24063,0.0982128,5008,0,-3.02067,1.00189,-9.26513,5008,0
306414633,0.00212369,-0.326175,-0.172288,5002,0,-2.15663,0.356757,3.86442,5002,0
306419637,0.7872,-1.14517,-0.0539797,5004,0,2.52602,-1.81076,-11.295,5004,0
306424648,0.0512167,0.656875,0.215665,5011,0,1.13154,-1.19497,-28.485,5011,0
306429646,-0.480671,1.0028,0.094593,4998,0,-2.58672,0.70935,-4.68492,4998,0
306434651,0.159709,-0.707757,-0.212454,5005,0,-0.864744,-1.31013,5.36974,5005,0
306439660,0.714046,-0.910848,-0.0836731,5009,0,1.47108,-1.86303,-14.3521,5009,0
306444665,-0.203226,0.805774,0.316952,5005,0,-0.166044,0.946928,-25.1044,5005,0
306449664,-0.379173,0.474933,0.142588,4999,0,-1.13757,0.188143,-1.97742,4999,0
306454670,0.449842,-0.781624,-0.307456,5006,0,-0.308371,-3.25094,-0.272872,5006,0
306459674,0.534524,-0.482887,-0.0657129,5004,0,-0.107547,0.162674,-19.5759,5004,0
306464686,-0.344596,0.541382,0.423209,5012,0,0.0386373,1.58169,-16.6439,5012,0
306469682,0.0271924,0.101802,0.0427766,4996,0,-0.659445,-2.31736,-1.27592,4996,0
306474693,0.379509,-0.4972,-0.373407,5011,0,-1.1666,-2.80284,-6.57836,5011,0
306479691,-0.194866,-0.235795,0.103801,4998,0,-1.48491,1.96233,-22.3784,4998,0
306484696,0.144498,0.0945051,0.38165,5005,0,0.489983,-0.123827,-11.0223,5005,0
306489700,0.527849,0.137498,-0.0807227,5004,0,0.195775,-2.41115,-0.185889,5004,0
306494705,-0.137958,-0.0609675,-0.32849,5005,0,-1.30887,-0.789487,-6.9554,5005,0
306499709,-0.507424,-0.465913,0.15974,5004,0,-1.36542,0.935999,-18.7345,5004,0
306504714,0.685415,-0.442253,0.309802,5005,0,0.503343,-2.27691,-13.2877,5005,0
306509718,0.62867,0.49231,-0.132398,5004,0,-0.379233,-1.46555,-7.97205,5004,0
306514723,-0.687935,0.54876,-0.325072,5005,0,-3.49186,1.11932,-6.71333,5005,0
306519727,-0.268677,-0.759043,0.111962,5004,0,-0.91026,-0.300235,-7.3622,5004,0
306524732,1.0357,-0.779812,0.313593,5005,0,2.8786,-2.80615,-15.0435,5005,0
306529736,0.17072,1.05277,-0.0950021,5004,0,-1.04043,-2.00627,-19.5189,5004,0
306534746,-0.883494,0.800823,-0.331014,5010,0,-5.20801,1.54595,-2.96844,5010,0
306539745,0.316901,-1.2117,0.0855941,4999,0,0.335937,0.421898,-0.139785,4999,0
306544750,1.10967,-0.64831,0.257258,5005,0,3.99146,-2.68339,-17.6457,5005,0
306549754,-0.541937,1.41104,-0.0973342,5004,0,-2.77813,-2.45463,-20.4926,5004,0
306554759,-0.596416,0.449015,-0.283621,5005,0,-4.46158,0.82719,0.791467,5005,0
306559763,0.899054,-1.50696,0.168841,5004,0,2.30129,0.966494,-1.76083,5004,0
306564768,0.644413,-0.00686671,0.167268,5005,0,2.82873,-3.14802,-23.726,5005,0
306569773,-0.827385,1.52108,-0.144074,5005,0,-4.73722,-0.388886,-14.8359,5005,0
306574777,-0.174083,-0.219332,-0.166577,5004,0,-3.5172,1.05979,3.89694,5004,0
306579782,1.00985,-1.39007,0.203937,5005,0,3.27756,-1.51102,-9.08282,5005,0
306584789,0.199703,0.745818,0.0729553,5007,0,1.41683,-2.78794,-28.1027,5007,0
306589791,-0.728355,1.23873,-0.17397,5002,0,-4.47911,0.669647,-6.19466,5002,0
306594795,0.12087,-0.777289,-0.0677336,5004,0,-1.111,0.761429,5.46563,5004,0
306599799,1.01566,-1.0507,0.189734,5004,0,3.82165,-2.23148,-13.8374,5004,0
306604804,-0.272269,1.09772,0.0646629,5005,0,-1.08536,-2.334,-27.3115,5005,0
306609809,-0.669314,0.686468,-0.134852,5005,0,-3.84014,-0.561478,-0.585764,5005,0
306614827,0.620878,-1.07074,-0.0589382,5018,0,0.473463,-1.14778,2.37202,5018,0
306619817,0.713434,-0.47388,0.12891,4990,0,2.26129,-0.663765,-20.1746,4990,0
306624822,-0.816443,1.13853,0.141311,5005,0,-1.54622,-0.227065,-20.1151,5005,0
306629829,-0.115928,0.153347,-0.0743982,5007,0,-2.40512,-1.42655,0.309399,5007,0
306634831,0.895749,-1.05393,-0.0906826,5002,0,0.512229,-1.6973,-3.97167,5002,0
306639835,0.0119565,-0.035282,0.195277,5004,0,1.15648,0.109477,-23.3871,5004,0
306644840,-0.680136,0.908759,0.124724,5005,0,-1.2216,-1.66621,-12.6178,5005,0
306649845,0.421003,-0.161772,-0.16955,5005,0,-2.23855,-1.90233,2.14948,5005,0
306654849,0.484042,-0.929118,-0.0207829,5004,0,0.937068,0.271208,-8.16535,5004,0
306659859,-0.368491,0.18924,0.25899,5010,0,1.27366,0.0552281,-24.2333,5010,0
306664858,-0.15096,0.616362,-0.00127284,4999,0,-1.83564,-2.02795,-7.42319,4999,0
306669863,0.527164,-0.361118,-0.20143,5005,0,-1.9713,-1.38595,1.50917,5005,0
306674867,-0.0446648,-0.678985,0.0955736,5004,0,0.821666,0.749725,-14.1536,5004,0
306679871,-0.351629,0.400421,0.24797,5004,0,-0.0460687,-1.10521,-21.3512,5004,0
306684876,0.298518,0.336642,-0.0966367,5005,0,-2.32427,-1.99579,-4.01555,5005,0
306689881,0.327161,-0.334119,-0.173588,5005,0,-1.00084,-0.303427,-2.90865,5005,0
306694889,-0.340042,-0.378085,0.19207,5008,0,0.871796,0.911191,-16.4966,5008,0
306699890,-0.0329377,0.190618,0.136995,5001,0,-0.129376,-3.56702,-15.3391,5001,0
306704897,0.458178,0.136701,-0.202303,5007,0,-2.30992,-2.30607,-3.99573,5007,0
306709900,-0.128626,-0.124499,-0.0839944,5003,0,-1.17757,0.708776,-6.57535,5003,0
306714903,-0.414867,-0.237522,0.187658,5003,0,0.362963,0.0118518,-16.135,5003,0
306719908,0.309159,0.0258567,-0.00411627,5005,0,-0.102459,-3.81623,-13.3384,5005,0
306724912,0.353128,0.228886,-0.179031,5004,0,-1.80791,-1.05841,-6.12279,5004,0
306729917,-0.562262,0.0118769,0.00595166,5005,0,-1.33062,1.57272,-7.70824,5005,0
306734921,-0.119523,-0.371962,0.144935,5004,0,0.470422,-0.669432,-12.4912,5004,0
306739926,0.553712,0.0175217,-0.0491056,5005,0,0.0774857,-4.2232,-13.4492,5005,0
306744930,-0.0813297,0.594532,-0.137688,5004,0,-2.74372,-0.560377,-9.35292,5004,0
306749935,-0.743325,0.0477145,-0.00132104,5005,0,-1.98272,2.09011,-5.45182,5005,0
306754939,0.240011,-0.68017,0.0796645,5004,0,2.00914,-1.19221,-10.0138,5004,0
306759944,0.557103,0.187633,-0.0426481,5005,0,0.756341,-4.88702,-17.9199,5005,0
306764948,-0.566411,0.970394,-0.133602,5004,0,-4.28514,-0.917736,-9.58293,5004,0
306769953,-0.601406,-0.188979,-0.0126445,5005,0,-1.56463,2.39632,-1.41365,5005,0
306774957,0.682513,-0.954851,0.0710036,5004,0,3.57072,-1.3394,-10.3158,5004,0
306779962,0.233194,0.574349,-0.0336094,5005,0,-0.465949,-4.03394,-22.3904,5005,0
306784966,-0.812337,1.0265,-0.0755847,5004,0,-4.87488,1.16953,-5.44624,5004,0
306789976,-0.27621,-0.617278,0.011064,5010,0,0.108877,1.5595,-0.328635,5010,0
306794975,0.826799,-0.880904,0.0272933,4999,0,3.7044,-3.84837,-16.4414,4999,0
306799980,-0.147387,1.06378,0.00548319,5005,0,-2.29991,-2.07881,-23.7156,5005,0
306804984,-0.680102,0.768536,-0.0174676,5004,0,-4.7547,2.67296,0.768,5004,0
306809989,0.00182189,-0.909587,-0.0405253,5005,0,1.82298,0.639732,0.664394,5005,0
306814993,0.669772,-0.499191,0.00722543,5004,0,3.71049,-4.10794,-22.4904,5004,0
306820008,-0.376443,1.24646,0.0997961,5015,0,-2.98482,-1.30597,-20.9484,5015,0
306825002,-0.470883,0.218802,-0.0123511,4994,0,-3.87815,1.06754,4.20453,4994,0
306830008,0.294662,-1.00774,-0.164651,5006,0,1.90765,-1.1891,-0.789132,5006,0
306835011,0.386441,0.00392598,-0.0195793,5003,0,1.95493,-1.76825,-26.4422,5003,0
306840016,-0.763704,1.21939,0.269478,5005,0,-3.03277,0.341845,-17.3675,5005,0
306845021,-0.142029,-0.254423,0.0314233,5005,0,-2.69658,-0.664285,5.21184,5005,0
306850026,0.853054,-0.887373,-0.282788,5005,0,1.27154,-1.87216,-4.58692,5005,0
306855033,-0.280306,0.375446,0.080113,5007,0,1.20003,0.296836,-26.3961,5007,0
306860034,-0.883837,0.840878,0.296357,5001,0,-0.833258,-1.96528,-10.9502,5001,0
306865038,0.556206,-0.452345,-0.121656,5004,0,-1.9871,-2.04243,2.29278,5004,0
306870043,0.475179,-0.642109,-0.234492,5005,0,-0.051099,0.572878,-10.2069,5005,0
306875048,-0.671197,0.502202,0.225169,5005,0,0.653377,1.60002,-22.6444,5005,0
306880052,-0.0742151,0.510346,0.201615,5004,0,-0.018812,-2.54198,-5.23743,5004,0
306885059,0.447712,-0.468441,-0.161083,5007,0,-1.10088,-2.02663,0.806759,5007,0
306890064,-0.350647,-0.471889,-0.112188,5005,0,-0.592266,-0.2391,-15.873,5005,0
306895065,-0.181562,0.366755,0.229785,5001,0,-0.19011,0.348295,-19.6476,5001,0
306900070,0.39992,0.233053,0.13104,5005,0,0.0730082,-1.34043,-3.6464,5005,0
306905074,-0.0669553,-0.218538,-0.165195,5004,0,-0.584273,-0.790489,-2.65259,5004,0
306910079,-0.507633,-0.312733,-0.0759571,5005,0,-1.20991,-0.119609,-16.1933,5005,0
306915083,0.214907,-0.149053,0.249733,5004,0,1.03295,-0.986262,-14.8826,5004,0
306920088,0.394767,0.0881028,0.133797,5005,0,1.17927,-1.87824,-5.97152,5005,0
306925103,-0.328303,0.212595,-0.235243,5015,0,-2.05021,-1.13169,-5.87522,5015,0
306930097,-0.544921,-0.339504,-0.113754,4994,0,-2.90999,0.809997,-12.8317,4994,0
306935101,0.393798,-0.713363,0.285538,5004,0,1.88831,-0.936365,-12.9408,5004,0
306940108,0.371988,0.299944,0.174044,5007,0,1.42015,-2.18078,-12.9223,5007,0
306945111,-0.705526,0.797462,-0.24734,5003,0,-4.39797,-1.14191,-8.47057,5003,0
306950115,-0.373881,-0.631579,-0.0788431,5004,0,-2.50525,0.858469,-5.09537,5004,0
306955119,0.729642,-0.96272,0.282715,5004,0,2.87729,-2.37534,-13.5838,5004,0
306960127,-0.0494434,0.90925,0.0772529,5008,0,-0.225802,-2.48864,-18.9807,5008,0
306965132,-0.955542,0.905182,-0.243984,5005,0,-4.90046,0.619754,-5.29033,5005,0
306970133,0.0547887,-1.18666,0.026357,5001,0,-0.121887,2.18398,-1.89189,5001,0
306975138,0.886113,-0.815569,0.282161,5005,0,3.18264,-3.17367,-16.7089,5005,0
306980142,-0.456569,1.49042,-0.0144076,5004,0,-1.84606,-2.35901,-17.2497,5004,0
306985147,-0.898135,0.575352,-0.226997,5005,0,-4.42974,0.38794,0.937152,5005,0
306990151,0.345703,-1.58754,0.126037,5004,0,1.1788,0.9527,-3.83117,5004,0
306995156,0.610788,-0.206343,0.246379,5005,0,2.28233,-2.79243,-24.4763,5005,0
307000160,-0.542076,1.80516,-0.0748515,5004,0,-3.31021,0.450662,-13.1932,5004,0
307005173,-0.688019,0.0171544,-0.202376,5013,0,-3.31715,0.149079,5.32577,5013,0
307010169,0.557639,-1.53964,0.139221,4996,0,2.85789,-1.4199,-7.91926,4996,0
307015174,0.405326,0.394709,0.225389,5005,0,1.70128,-2.13713,-29.9804,5005,0
307020178,-0.852209,1.51591,-0.0692941,5004,0,-4.54256,0.249475,-9.07942,5004,0
307025183,-0.33007,-0.422704,-0.209472,5005,0,-2.39896,-0.161111,5.81367,5005,0
307030191,0.829277,-1.14082,0.0851267,5008,0,3.29776,-0.735614,-10.5806,5008,0
307035192,-0.241378,0.731878,0.267225,5001,0,0.436357,-0.80073,-28.9012,5001,0
307040209,-0.867487,1.0185,-0.0375796,5017,0,-3.87596,-1.23317,-5.11938,5017,0
307045218,0.422503,-0.575605,-0.225787,5009,0,-0.928547,-1.38599,4.03578,5009,0
307050208,0.576201,-0.790071,0.09078,4990,0,2.7319,0.468289,-12.5284,4990,0
307055219,-0.841943,0.79821,0.264392,5011,0,0.0186264,-0.57318,-24.8005,5011,0
307060216,-0.359194,0.508035,-0.0675858,4997,0,-2.13701,-2.03621,-2.72658,4997,0
307065221,0.665517,-0.606172,-0.219263,5005,0,-0.675906,-1.24433,-0.0578323,5005,0
307070228,-0.0723474,-0.508361,0.200585,5007,0,1.14338,1.53098,-15.6301,5007,0
307075228,-0.744019,0.648934,0.204088,5000,0,-0.637751,-1.66193,-19.0976,5000,0
307080232,0.22173,0.280296,-0.152904,5004,0,-1.63725,-2.17064,-3.0542,5004,0
307085237,0.259433,-0.537619,-0.0845447,5005,0,0.186821,0.0678729,-4.36273,5005,0
307090242,-0.461267,-0.313969,0.268014,5005,0,0.629314,0.622327,-18.7482,5005,0
307095246,-0.230304,0.467563,0.0801416,5004,0,-0.465348,-2.53378,-13.5973,5004,0
307100261,0.332528,0.0706861,-0.223607,5015,0,-1.31998,-1.26049,-2.47822,5015,0
307105255,-0.190201,-0.477694,0.0144261,4994,0,-0.0561596,1.44322,-8.26047,4994,0
307110282,-0.355089,-0.264599,0.259855,5027,0,0.518132,-0.271233,-19.65,5027,0
307115270,0.19453,0.25723,-0.0458102,4988,0,-0.44673,-2.64978,-10.506,4988,0
307120276,0.174769,0.0791638,-0.2533,5006,0,-1.51401,-0.535364,-2.64847,5006,0
307125279,-0.540844,-0.376704,0.0633216,5003,0,-0.741785,1.49761,-8.90571,5003,0
307130282,-0.116499,-0.307615,0.215043,5003,0,0.74833,-1.53917,-16.8834,5003,0
307135283,0.3616,0.14756,-0.0756389,5001,0,-0.372079,-2.85743,-9.76807,5001,0
307140287,-0.147635,0.213236,-0.210825,5004,0,-2.47691,0.693892,-5.79701,5004,0
307145291,-0.572257,-0.252577,0.069576,5004,0,-1.25161,2.21196,-10.4184,5004,0
307150296,0.299536,-0.422495,0.1289,5005,0,1.34195,-2.29788,-14.1106,5005,0
307155303,0.360262,0.249123,-0.113422,5007,0,-0.332804,-3.45663,-11.4066,5007,0
307160305,-0.567477,0.453427,-0.170932,5002,0,-3.59176,1.50076,-6.0876,5002,0
307165309,-0.398947,-0.374473,0.0191042,5004,0,-0.693005,1.76183,-8.0203,5004,0
307170314,0.707673,-0.565229,0.0545753,5005,0,2.41362,-2.7314,-14.8838,5005,0
307175318,-0.0324909,0.697023,-0.116782,5004,0,-1.42108,-3.1278,-16.8873,5004,0
307180330,-0.808123,0.553209,-0.108777,5012,0,-4.48223,2.51463,-2.52686,5012,0
307185327,0.105382,-0.803527,-0.00726223,4997,0,-0.033003,0.974624,-4.45728,4997,0
307190332,0.936595,-0.443783,0.0329106,5005,0,2.75639,-3.03787,-18.5793,5005,0
307195336,-0.59754,1.24594,-0.0348901,5004,0,-1.23752,-1.70397,-16.7703,5004,0
307200344,-0.722959,0.351317,-0.109916,5008,0,-3.99142,1.35639,1.10293,5008,0
307205345,0.471463,-1.20947,-0.0831614,5001,0,0.230349,-0.791219,-5.19036,5001,0
307210350,0.655767,-0.104442,0.0741054,5005,0,2.47983,-2.17577,-24.7011,5005,0
307215354,-0.771536,1.5324,0.0750976,5004,0,-1.90144,0.924651,-13.8582,5004,0
307220369,-0.437475,0.136701,-0.173252,5015,0,-4.15192,-0.16041,5.42554,5015,0
307225366,0.503876,-1.30379,-0.139765,4997,0,1.39573,-2.10024,-5.50375,4997,0
307230368,0.227552,0.139084,0.118541,5002,0,2.37772,-1.89841,-30.1406,5002,0
307235375,-0.753737,1.51276,0.142137,5007,0,-3.23529,1.53493,-13.2816,5007,0
307240381,-0.0356501,-0.0309419,-0.163602,5006,0,-3.17408,0.0851021,7.1968,5006,0
307245384,0.566679,-1.16002,-0.19999,5003,0,2.27007,-1.83435,-4.93088,5003,0
307250386,-0.245819,0.272427,0.16849,5002,0,1.60614,-0.424399,-28.0711,5002,0
307255391,-0.637796,1.10193,0.25191,5005,0,-1.66167,0.406582,-9.67,5005,0
307260395,0.408795,-0.246483,-0.212735,5004,0,-1.14825,-2.28175,3.55477,5004,0
307265400,0.353785,-0.8722,-0.264703,5005,0,0.776035,-0.84305,-10.2128,5005,0
307270406,-0.627162,0.352514,0.251644,5006,0,-0.329062,1.91189,-22.9597,5006,0
307275408,-0.143313,0.661876,0.197221,5002,0,-0.554887,-0.885202,-5.08825,5002,0
307280411,0.475131,-0.233584,-0.28621,5003,0,-0.307553,-2.98543,-0.6729,5003,0
307285417,-0.213896,-0.623314,-0.109604,5006,0,0.167121,0.732632,-15.3538,5006,0
307290462,-0.371738,0.138989,0.338275,5045,0,0.639666,2.1697,-17.7827,5045,0
307295426,0.335163,0.321425,0.0288164,4964,0,-0.0335247,-2.63206,-4.25408,4964,0
307300431,0.126525,-0.136528,-0.372695,5005,0,-1.72676,-3.01149,-4.51368,5005,0
307305435,-0.596583,-0.383015,0.0419785,5004,0,-0.946484,2.70985,-17.9381,5004,0
307310440,0.0789169,-0.0843355,0.377975,5005,0,1.40423,1.02977,-12.7272,5005,0
307315452,0.470092,0.168168,-0.113984,5012,0,-0.276779,-4.52211,-3.15312,5012,0
307320449,-0.274985,0.00424414,-0.412092,4997,0,-2.71543,-2.04543,-8.21873,4997,0
307325453,-0.588739,-0.30469,0.113755,5004,0,-0.47233,4.7603,-18.0523,5004,0
307330458,0.435907,-0.283296,0.40314,5005,0,2.27635,-0.309363,-11.4281,5005,0
307335462,0.442356,0.238674,-0.176997,5004,0,-1.41135,-5.65067,-5.31447,5004,0
307340467,-0.664651,0.191307,-0.387789,5005,0,-4.3101,-0.166728,-9.79402,5005,0
307345482,-0.443918,-0.527588,0.189097,5015,0,1.0228,4.65357,-12.4164,5015,0
307350478,0.814254,-0.32415,0.321274,4996,0,3.53418,-2.72084,-11.8462,4996,0
307355480,0.0822737,0.664659,-0.223183,5002,0,-3.33102,-4.7184,-10.7897,5002,0
307360485,-0.987465,0.246705,-0.290249,5005,0,-5.17709,2.05384,-5.9817,5005,0
307365489,0.0486522,-0.993325,0.200677,5004,0,2.62147,3.36279,-6.83433,5004,0
307370494,0.905602,-0.102679,0.193825,5005,0,3.14822,-4.50464,-18.0338,5005,0
307375498,-0.63089,1.32267,-0.202131,5004,0,-4.8582,-3.18222,-15.1139,5004,0
307380503,-0.839017,-0.158687,-0.149479,5005,0,-3.74837,2.41026,1.04932,5005,0
307385507,0.647719,-1.3236,0.187176,5004,0,2.97449,1.52513,-6.83959,5004,0
307390515,0.630204,0.428907,0.133283,5008,0,1.8133,-3.52895,-23.2761,5008,0
307395526,-1.00701,1.5237,-0.159936,5011,0,-4.92163,-0.712238,-11.9433,5011,0
307400521,-0.560226,-0.60789,-0.139527,4995,0,-2.48494,1.80952,3.12902,4995,0
307405526,1.01114,-1.24519,0.170409,5005,0,3.40727,-0.565977,-11.4609,5005,0
307410530,0.101388,1.00818,0.116369,5004,0,0.326999,-3.52786,-28.4915,5004,0
307415535,-1.06239,1.37327,-0.157901,5005,0,-5.18385,0.127607,-4.72946,5005,0
307420539,0.0255014,-0.874208,-0.113971,5004,0,-0.898497,3.03416,7.00809,5004,0
307425547,0.982221,-1.01626,0.134797,5008,0,3.97728,-0.0264137,-12.2989,5008,0
307430550,-0.601701,1.12105,0.0801385,5003,0,-0.807557,-3.83545,-30.2252,5003,0
307435555,-0.66426,0.835475,-0.163405,5005,0,-3.34925,-0.688922,-2.94854,5005,0
307440557,0.737843,-0.839422,-0.0820394,5002,0,-0.300351,2.25999,3.02232,5002,0
307445562,0.346779,-0.555293,0.126736,5005,0,2.00567,0.10585,-13.902,5005,0
307450570,-0.86031,0.935857,0.0473115,5008,0,-1.12662,-3.18828,-23.6861,5008,0
307455571,0.0814259,0.423491,-0.134107,5001,0,-1.3347,0.163836,-3.12773,5001,0
307460579,0.544588,-0.573751,-0.0508269,5008,0,0.492455,1.45071,-1.74704,5008,0
307465580,-0.198514,-0.252888,0.101194,5001,0,0.230425,-0.905924,-17.7131,5001,0
307470584,-0.316394,0.558441,0.004362,5004,0,-1.46572,-2.58386,-17.3463,5004,0
307475589,0.35439,0.184207,-0.0810243,5005,0,-0.707631,0.552391,-1.68125,5005,0
307480593,0.090812,-0.213558,-0.0321959,5004,0,-0.227716,0.927084,-4.52266,5004,0
307485598,-0.377644,-0.117016,0.0315455,5005,0,-0.592498,-0.85327,-18.5884,5005,0
307490602,0.14896,-0.0522456,0.0667326,5004,0,1.08626,-1.09762,-14.6172,5004,0
307495610,0.452965,0.118652,-0.0424438,5008,0,0.218463,0.0877536,-4.86707,5008,0
307500611,-0.23307,0.209694,-0.153648,5001,0,-2.68043,0.34724,-7.14414,5001,0
307505616,-0.393564,-0.30073,-0.00851901,5005,0,-0.744627,-0.992589,-12.6575,5005,0
307510620,0.556759,-0.404629,0.147938,5004,0,2.7375,-1.64276,-14.1209,5004,0
307515625,0.284411,0.498494,0.0233216,5005,0,-1.38588,0.772718,-11.054,5005,0
307520629,-0.652436,0.461681,-0.155114,5004,0,-4.26482,0.81731,-5.74437,5004,0
307525634,0.028714,-0.851033,-0.0442323,5005,0,1.75706,-2.06995,-7.53846,5005,0
307530643,0.889042,-0.317661,0.0953875,5009,0,3.01577,-1.8576,-18.0164,5009,0
307535643,-0.429464,1.10628,0.083199,5000,0,-4.0232,2.02849,-12.7716,5000,0
307540648,-0.71042,0.059085,-0.144881,5005,0,-3.05627,-1.98168,0.765925,5005,0
307545652,0.885457,-1.36772,-0.0804615,5004,0,3.85755,-2.25853,-8.34454,5004,0
307550656,0.37318,0.304621,0.160802,5004,0,1.46341,1.91792,-23.1444,5004,0
307555661,-0.811367,1.18367,0.118759,5005,0,-4.50674,2.17616,-5.54815,5005,0
307560666,-0.108259,-0.703346,-0.21229,5005,0,-1.52476,-4.32477,1.34494,5005,0
307565670,0.909772,-1.15862,-0.0114755,5004,0,3.09779,-2.1231,-19.7141,5004,0
307570676,-0.365002,1.07475,0.310439,5006,0,-0.366599,3.59224,-24.342,5006,0
307575679,-0.390673,0.835753,0.00402292,5003,0,-4.16377,-0.265032,3.02433,5003,0
307580683,0.449242,-1.21257,-0.261868,5004,0,0.63589,-2.79076,2.62626,5004,0
307585691,0.353314,-0.726338,0.147927,5008,0,3.23938,0.887882,-26.2975,5008,0
307590695,-0.506837,1.38288,0.306365,5004,0,-1.49278,0.832024,-21.3198,5004,0
307595697,0.304853,0.264823,-0.190628,5002,0,-4.17947,-3.74193,6.09646,5002,0
307600702,0.432952,-1.26117,-0.214517,5005,0,0.280003,-0.250135,-2.18782,5005,0
307605706,-0.275414,-0.139684,0.297902,5004,0,2.47397,3.52299,-26.1546,5004,0
307610711,-0.100452,0.984827,0.191422,5005,0,-1.12118,-0.850504,-12.129,5005,0
307615715,0.555297,-0.220367,-0.245031,5004,0,-2.78504,-4.08497,2.00239,5004,0
307620719,0.110704,-0.881257,-0.00705724,5004,0,0.014478,1.51283,-11.9586,5004,0
307625724,-0.290295,0.238466,0.315412,5005,0,0.903992,1.24853,-20.9706,5005,0
307630729,0.432264,0.553185,-0.0396832,5005,0,-1.6395,-3.51984,-5.25034,5005,0
307635733,0.18906,-0.205484,-0.211387,5004,0,-1.6971,-1.2743,-2.92094,5004,0
307640738,-0.411468,-0.497758,0.186488,5005,0,0.506985,3.34562,-16.2562,5005,0
307645742,0.437708,0.132774,0.176962,5004,0,0.721463,-1.78342,-16.5907,5004,0
307650748,0.600012,0.378077,-0.151667,5006,0,-1.67829,-3.00457,-4.55779,5006,0
307655751,-0.41339,-0.00104181,-0.142713,5003,0,-2.58351,1.4317,-5.99344,5003,0
307660756,-0.257091,-0.582883,0.161913,5005,0,0.559964,0.648424,-11.3897,5005,0
307665760,0.902426,0.0100039,0.0546435,5004,0,1.37135,-4.96645,-16.6995,5004,0
307670766,0.0578772,0.889043,-0.137383,5006,0,-3.24318,-0.264353,-12.7387,5006,0
307675769,-0.845098,0.0880971,-0.0374535,5003,0,-2.40282,4.09707,-1.92376,5003,0
307680774,0.764144,-0.973455,0.0540355,5005,0,2.8593,-2.05696,-6.90292,5005,0
307685778,0.846889,0.230673,-0.0516648,5004,0,0.340593,-4.28637,-21.0849,5004,0
307690783,-1.12201,1.20447,-0.00178439,5005,0,-4.80181,1.93764,-11.8962,5005,0
307695787,-0.139968,-0.555261,0.0074676,5004,0,0.348425,0.735646,0.962878,5004,0
307700792,1.47634,-1.02343,-0.0395309,5005,0,3.52225,-4.16804,-15.1899,5005,0
307705796,-0.477011,1.09371,0.0180847,5004,0,-2.69834,-0.345663,-23.4501,5004,0
307710801,-0.77883,0.723073,0.0590902,5005,0,-3.47756,2.62325,3.14876,5005,0
307715805,0.788054,-1.19502,-0.0316224,5004,0,2.60218,-2.10377,1.47504,5004,0
307720810,0.465073,-0.378605,0.04054,5005,0,1.18865,-4.17755,-29.0369,5005,0
307725814,-0.799173,1.53325,0.0833763,5004,0,-3.2677,1.37092,-19.6508,5004,0
307730819,0.237796,-0.0763832,-0.0687348,5005,0,-0.365629,2.15709,9.28973,5005,0
307735823,0.824419,-1.34882,-0.121657,5004,0,2.2879,-2.01278,-2.11813,5004,0
307740828,-0.399664,0.313554,0.106127,5005,0,-0.917078,-2.12128,-31.7067,5005,0
307745833,-0.49749,0.868519,0.208399,5005,0,-1.06104,0.838444,-8.70074,5005,0
307750837,0.748661,-0.503456,-0.13179,5004,0,0.261432,-2.13895,2.86196,5004,0
307755841,0.248915,-0.630275,-0.12099,5004,0,-1.32987,-1.72219,-14.1737,5004,0
307760846,-0.694066,0.427827,0.158394,5005,0,-1.43827,0.600695,-17.7116,5005,0
307765850,0.271264,0.193243,0.0861885,5004,0,0.64462,-0.583651,-2.2173,5004,0
307770855,0.462293,-0.234845,-0.138486,5005,0,-0.499915,-1.99522,-6.24246,5005,0
307775859,-0.621996,-0.272883,0.0303714,5004,0,-1.35915,-1.2505,-19.4677,5004,0
307780864,0.0739865,-0.144321,0.121736,5005,0,1.41842,-0.805259,-10.2713,5005,0
307785869,0.562466,0.228148,-0.0751313,5005,0,-0.300158,-0.0199949,-5.58315,5005,0
307790873,-0.541279,0.153288,-0.0812729,5004,0,-3.45738,-0.407561,-11.677,5004,0
307795881,-0.348425,-0.706723,0.0844855,5008,0,0.666096,-2.67197,-10.6876,5008,0
307800885,0.786703,-0.1562,0.0791291,5004,0,1.67916,-0.294319,-12.8875,5004,0
307805886,-0.346614,1.03451,-0.046268,5001,0,-4.73716,0.72354,-12.1433,5001,0
307810891,-0.570261,-0.188331,-0.0944243,5005,0,-1.56193,-1.42328,-0.733383,5005,0
307815895,0.501763,-1.18725,0.0336891,5004,0,4.1838,-2.93326,-11.2414,5004,0
307820900,-0.00436426,0.911492,0.117749,5005,0,-2.62086,0.934668,-23.754,5005,0
307825905,-0.786738,1.08484,-0.0813638,5005,0,-5.71657,-1.23767,-2.68443,5005,0
307830909,0.211003,-1.23259,-0.081884,5004,0,3.09661,-1.90541,0.657763,5004,0
307835914,0.336903,-0.284756,0.129405,5005,0,2.23037,0.576074,-25.3117,5005,0
307840920,-0.509762,1.60178,0.121431,5006,0,-5.03226,1.72881,-13.5792,5006,0
307845923,-0.322153,-0.116011,-0.159571,5003,0,-1.98211,-3.02813,6.98632,5003,0
307850927,0.362141,-1.18792,-0.0233558,5004,0,3.0163,-1.32976,-12.0235,5004,0
307855932,-0.249463,1.11427,0.147981,5005,0,-1.90056,0.699948,-31.4889,5005,0
307860936,-0.525683,0.910263,0.0354268,5004,0,-1.96747,-1.76867,-0.281812,5004,0
307865941,0.140235,-0.905471,-0.176013,5005,0,2.7028,-1.61691,3.18008,5005,0
307870945,0.274929,-0.345242,0.0499616,5004,0,0.140267,1.89342,-18.2074,5004,0
307875950,-0.823364,0.895465,0.150939,5005,0,-3.10576,-1.67957,-16.099,5005,0
307880956,0.00523954,-0.036654,-0.0758644,5006,0,0.40632,-2.58787,-2.31414,5006,0
307885959,0.267877,-0.454663,-0.00193737,5003,0,0.749516,1.74002,-13.8415,5003,0
307890963,-0.436576,0.398563,0.182625,5004,0,-1.79774,-2.00339,-16.6865,5004,0
307895968,-0.0993844,0.35598,-0.0908454,5005,0,-0.489235,-3.27635,-1.71095,5005,0
307900972,-0.15959,-0.139719,-0.122163,5004,0,1.02983,2.63352,-4.24822,5004,0
307905977,-0.393399,-0.362703,0.26902,5005,0,0.894519,1.91687,-15.2104,5005,0
307910981,0.0554201,-0.0228231,0.0254948,5004,0,-0.393634,-6.62164,-17.7774,5004,0
307915986,0.131396,0.357738,-0.208241,5005,0,-1.60392,1.00326,-7.68686,5005,0
307920990,-0.745331,0.212896,0.104067,5004,0,-1.41018,5.57513,-6.52901,5004,0
307926006,-0.0177237,-0.610611,0.146799,5016,0,0.938789,-5.29032,-8.7806,5016,0
307930999,0.324789,-0.0244805,-0.0992788,4993,0,-0.106647,-3.84133,-19.3121,4993,0
307936004,-0.893549,0.796339,0.0796051,5005,0,-2.16268,5.75799,-11.1611,5005,0
307941008,-0.242524,-0.149471,0.0588835,5004,0,1.03178,-1.2411,-0.305843,5004,0
307946013,0.705399,-0.84437,-0.122532,5005,0,2.3906,-5.80022,-10.3158,5005,0
307951017,-0.772277,0.467148,0.123432,5004,0,-1.97125,3.3669,-18.478,5004,0
307956022,-0.817052,0.423565,0.183121,5005,0,-2.41291,1.07129,-3.34428,5005,0
307961042,0.638776,-0.825343,-0.129781,5020,0,1.78012,-6.17539,-4.18458,5020,0
307966031,-0.21145,-0.00354019,-0.0212309,4989,0,0.20997,-0.716617,-24.4153,4989,0
307971035,-1.11977,0.839471,0.266028,5004,0,-1.89359,5.46997,-9.52412,5004,0
307976040,0.251433,-0.350128,-0.0613642,5005,0,-0.327547,-3.52529,3.53665,5005,0
307981045,0.42668,-0.904171,-0.107538,5005,0,0.434867,-2.45231,-12.9653,5005,0
307986049,-1.15237,0.556324,0.228715,5004,0,-1.43856,3.50296,-23.9482,5004,0
307991053,-0.117391,0.442923,0.125516,5004,0,-0.409809,-0.244508,-2.59772,5004,0
307996061,0.599293,-0.646858,-0.19859,5008,0,-0.0766697,-3.23036,-3.48658,5008,0
308001071,-0.704164,-0.363817,0.114626,5010,0,-0.773349,2.35243,-20.1412,5010,0
308006067,-0.498416,0.35838,0.226544,4996,0,0.542946,1.20692,-11.7286,4996,0
308011071,0.628267,0.118914,-0.167785,5004,0,-0.520166,-2.8854,-1.56508,5004,0
308016077,-0.442724,-0.40466,-0.0501623,5006,0,-2.07762,0.806087,-11.2666,5006,0
308021080,-0.845128,-0.424338,0.270537,5003,0,0.5921,0.954198,-16.3267,5003,0
308026085,0.810095,0.193869,-0.00355284,5005,0,0.36167,-2.06488,-9.22951,5005,0
308031093,0.0124569,0.45941,-0.189247,5008,0,-3.07435,0.41552,-6.26956,5008,0
308036094,-1.18387,-0.455458,0.134309,5001,0,-0.381079,1.72746,-7.92832,5001,0
308041099,0.394071,-0.413764,0.0668555,5005,0,1.82316,-2.88667,-16.0711,5005,0
308046103,0.501882,0.697481,-0.122812,5004,0,-3.45434,-0.850013,-15.3106,5004,0
308051108,-1.03333,0.310591,0.0292221,5005,0,-3.0708,3.16541,-4.00927,5005,0
308056114,-0.0683396,-0.938594,0.0439766,5006,0,3.46565,-2.28428,-6.65891,5006,0
308061117,0.751388,0.248803,-0.122869,5003,0,-0.273713,-2.04404,-20.0368,5003,0
308066130,-0.973515,1.12624,-0.00328003,5013,0,-5.36508,3.16044,-12.2111,5013,0
308071128,-0.402391,-0.904468,0.106401,4998,0,2.15162,0.0983066,1.49265,4998,0
308076130,1.15157,-0.661134,-0.0925852,5002,0,3.1782,-3.61001,-15.4614,5002,0
308081135,-0.692618,1.46517,-0.0138851,5005,0,-5.3324,2.47766,-21.2447,5005,0
308086139,-1.04571,-0.0217085,0.0530326,5004,0,-1.51635,0.69779,4.58958,5004,0
308091144,1.02959,-1.445,-0.0237531,5005,0,4.1204,-3.41593,-8.54832,5005,0
308096148,0.0317482,1.04313,-0.00283672,5004,0,-2.84171,0.48874,-29.3796,5004,0
308101153,-1.04556,1.14928,0.0742023,5005,0,-3.27986,2.35512,1.74681,5005,0
308106157,0.3298,-1.34833,-0.0261989,5004,0,4.05938,-1.61286,5.34286,5004,0
308111162,0.57592,-0.199115,0.00787937,5005,0,-0.314683,-1.38475,-27.7781,5005,0
308116166,-0.892852,1.60306,0.116468,5004,0,-4.79,1.64919,-16.4938,5004,0
308121171,-0.0651622,-0.444192,-0.0366436,5005,0,1.97208,-1.14896,7.26747,5005,0
308126176,0.86705,-0.92518,-0.0325963,5005,0,1.91995,0.389857,-12.6686,5005,0
308131180,-0.710732,0.900289,0.0876279,5004,0,-3.85982,0.224623,-24.5482,5004,0
308136180,-0.387883,0.291174,-0.00600282,5000,0,-0.712651,-0.765727,0.0972481,5000,0
308141189,0.769687,-0.668122,-0.0418789,5009,0,2.18152,0.676189,-5.79948,5009,0
308146237,-0.217729,0.291774,0.117773,5048,0,-2.43338,-0.836317,-22.4169,5048,0
308151198,-0.527953,0.443649,-0.0256897,4961,0,-1.20782,-1.08986,-6.9247,4961,0
308156202,0.415533,-0.255884,-0.087148,5004,0,1.86262,2.06852,-2.36077,5004,0
308161207,0.21392,-0.111463,0.144658,5005,0,-0.654004,1.46134,-12.9591,5005,0
308166213,-0.350063,0.133156,0.0277485,5006,0,-1.14369,-3.67374,-14.1036,5006,0
308171218,0.184967,-0.0873123,-0.100335,5005,0,1.27206,1.31275,-7.05503,5005,0
308176235,0.137225,0.089908,0.114292,5017,0,-0.508521,3.87236,-10.303,5017,0
308181226,-0.131069,-0.0519334,0.0966292,4991,0,-2.12029,-4.78589,-12.3564,4991,0
308186240,0.235981,-0.0779907,-0.124491,5014,0,0.417395,-1.34384,-8.97129,5014,0
308191237,-0.170678,0.310691,0.0520395,4997,0,-0.171704,5.5,-10.9282,4997,0
308196256,0.0145958,-0.0767041,0.163627,5019,0,-1.06866,-1.79496,-8.85223,5019,0
308201246,0.444618,-0.343164,-0.137141,4990,0,0.720127,-5.79828,-12.4974,4990,0
308206252,-0.300644,0.523809,0.00224484,5006,0,-1.08645,4.78301,-14.5971,5006,0
308211252,-0.27293,0.383011,0.145508,5000,0,-2.70254,1.7762,-5.13509,5000,0
308216258,0.666759,-0.730258,-0.0437348,5006,0,0.810675,-7.85447,-5.28541,5006,0
308221261,-0.0504553,0.205793,-0.0131323,5003,0,-0.0842422,2.73794,-19.0444,5003,0
308226267,-0.642776,0.96449,0.11141,5006,0,-2.76015,4.24279,-9.27618,5006,0
308231291,0.48809,-0.490725,-0.018583,5024,0,1.34152,-5.28324,-0.790941,5024,0
308236276,0.389424,-0.467167,-0.0519297,4985,0,1.14042,-1.95529,-18.3175,4985,0
308241282,-0.547898,1.03527,0.203681,5006,0,-3.86269,5.8133,-15.9725,5006,0
308246287,0.0596112,0.161064,0.00631067,5005,0,-0.993198,-2.34651,0.344545,5005,0
308251290,0.500271,-0.718123,-0.0848512,5003,0,2.14069,-3.88839,-10.9181,5003,0
308256301,-0.581424,0.73294,0.14904,5011,0,-1.95631,3.91457,-23.9239,5011,0
308261297,-0.0989714,0.514337,0.0937242,4996,0,-1.82559,-0.585567,-2.37731,4996,0
308266313,0.753541,-0.531333,-0.0610216,5016,0,2.22815,-2.77314,-3.17823,5016,0
308271306,-0.466375,0.122381,0.0753588,4993,0,-0.593956,2.13244,-20.8369,4993,0
308276312,-0.652268,0.601694,0.0951899,5006,0,-2.55488,0.281651,-8.30089,5006,0
308281315,0.914855,0.00772682,-0.0631208,5003,0,0.476689,-3.78614,-4.80995,5003,0
308286321,-0.141057,-0.0674021,0.175649,5006,0,0.366632,1.40356,-17.1433,5006,0
308291325,-0.808044,0.380785,0.130128,5004,0,-1.26089,0.715763,-11.9269,5004,0
308296329,0.679005,0.232116,-0.196336,5004,0,-0.207007,-2.67825,-2.81933,5004,0
308301333,0.224234,0.0782481,0.0444585,5004,0,-0.264586,2.07822,-10.4368,5004,0
308306338,-0.908792,-0.0449567,0.310042,5005,0,0.603916,0.274573,-13.6525,5005,0
308311364,0.44528,0.196723,-0.123168,5026,0,0.0768263,-4.4673,-9.55766,5026,0
308316347,0.338936,0.551513,-0.12496,4983,0,-3.43205,2.05146,-10.5265,4983,0
308321352,-0.87419,-0.16738,0.271649,5005,0,0.235979,1.64129,-7.06742,5005,0
308326356,0.25781,-0.0747692,-0.0387134,5004,0,2.92033,-4.23407,-13.0626,5004,0
308331361,0.312106,1.0615,-0.164025,5005,0,-4.3592,1.64606,-16.2478,5005,0
308336365,-0.763766,0.118209,0.152364,5004,0,-2.05107,2.12376,-0.330102,5004,0
308341370,0.327839,-0.760175,-0.0396421,5005,0,5.02207,-5.27115,-8.43256,5005,0
308346376,0.459614,1.07018,-0.178369,5006,0,-2.12561,0.521125,-23.2303,5006,0
308351385,-0.995553,0.781928,0.076392,5009,0,-3.97328,3.27181,-0.580448,5009,0
308356385,0.161309,-1.18591,0.0180496,5000,0,4.51755,-3.70684,-2.49699,5000,0
308361388,0.817001,0.642385,-0.206555,5003,0,-0.852683,-1.11918,-28.7571,5003,0
308366392,-0.874357,1.61681,0.040198,5004,0,-5.44529,4.46564,-4.84351,5004,0
308371397,-0.268726,-0.879672,0.0452995,5005,0,3.58886,-2.35778,7.09718,5005,0
308376401,1.04626,-0.389998,-0.155749,5004,0,3.1571,-2.51095,-23.1466,5004,0
308381405,-0.80141,1.68883,0.0480893,5004,0,-4.30054,3.4828,-19.6818,5004,0
308386410,-0.519482,-0.111949,0.0472833,5005,0,0.712804,-1.4492,6.74795,5005,0
308391418,1.14847,-0.784308,-0.187872,5008,0,3.16565,-2.08824,-11.756,5008,0
308396419,-0.481666,1.12611,-0.00724147,5001,0,-3.84756,2.33136,-27.2124,5001,0
308401424,-0.972647,0.368758,0.136502,5005,0,-0.167076,-0.26991,0.682004,5005,0
308406428,0.999762,-0.423625,-0.105648,5004,0,3.32173,-2.22275,-6.21169,5004,0
308411434,0.0466329,0.546098,-0.05089,5006,0,-2.35578,0.893664,-21.7385,5006,0
308416437,-1.10313,0.210805,0.0631644,5003,0,-1.06571,-0.064422,-5.06502,5003,0
308421442,0.567034,-0.0872767,-0.0632843,5005,0,2.75967,-0.135323,-9.00422,5005,0
308426447,0.39093,0.522851,0.0194568,5005,0,-0.831214,0.403617,-19.3928,5005,0
308431451,-0.987457,0.0663618,0.0340953,5004,0,-1.20057,-2.44604,-7.07589,5004,0
308436455,0.223218,-0.0619937,-0.107515,5004,0,1.1805,1.49978,-7.236,5004,0
308441470,0.488645,0.443249,0.0323089,5015,0,-0.650304,2.35638,-14.5055,5015,0
308446472,-0.85543,-0.0151354,0.026298,5002,0,0.261796,-4.36626,-9.14003,5002,0
308451469,-0.00770761,0.000528251,-0.144246,4997,0,0.821849,1.03272,-11.2175,4997,0
308456473,0.444723,0.638776,0.0134697,5004,0,-2.06348,3.74707,-15.3664,5004,0
308461478,-0.616485,-0.208137,0.0706517,5005,0,0.417957,-5.5975,-5.95416,5005,0
308466482,-0.0873914,-0.116789,-0.169926,5004,0,1.27298,-0.980805,-11.7941,5004,0
308471487,0.16511,0.949085,-0.122881,5005,0,-2.53303,4.65132,-13.5508,5005,0
308476495,-0.570036,-0.166819,0.0954684,5008,0,1.91904,-3.74031,-1.23679,5008,0
308481496,-0.0635833,-0.492998,-0.121709,5001,0,3.01535,-2.41018,-12.0986,5001,0
308486507,0.029276,1.03981,-0.18483,5011,0,-4.00874,4.5732,-18.231,5011,0
308491505,-0.370927,0.00905909,0.0502681,4998,0,0.589826,-0.361415,1.14849,4998,0
308496521,-0.0227511,-0.718155,-0.110511,5016,0,4.56217,-3.91111,-10.8129,5016,0
308501519,-0.11537,1.00146,-0.135191,4998,0,-3.73509,3.64448,-20.912,4998,0
308506518,-0.407657,0.27195,0.00108681,4999,0,-1.86431,-0.0419636,2.02125,4999,0
308511523,0.0646216,-1.05241,-0.0784156,5005,0,5.35026,-4.39379,-7.54257,5005,0
308516527,-0.102327,0.925782,-0.124044,5004,0,-0.433832,3.83921,-25.4684,5004,0
308521532,-0.494408,0.761362,0.0447428,5005,0,-3.64607,1.30528,0.241658,5005,0
308526538,-0.00759874,-1.37614,-0.0279245,5006,0,3.08434,-3.83309,0.140317,5006,0
308531544,0.0363216,0.356305,-0.133604,5006,0,0.189911,0.8189,-28.337,5006,0
308536545,-0.441068,1.59781,-0.00472563,5001,0,-4.11264,1.83828,-7.7423,5001,0
308541550,-0.290336,-0.83242,-0.00447609,5005,0,3.49893,-2.37351,7.29975,5005,0
308546557,0.165241,-0.611027,-0.10786,5007,0,3.18582,-0.121592,-21.6834,5007,0
308551559,-0.352642,1.28954,-0.0501503,5002,0,-4.40395,2.16112,-19.5964,5002,0
308556563,-0.314254,-0.121356,0.01609,5004,0,0.447918,-1.12236,3.88505,5004,0
