timestamp,lat,lon,alt,alt_ellipsoid,delta_alt,eph,epv,terrain_alt,lat_lon_reset_counter,alt_reset_counter,terrain_alt_valid,dead_reckoning
304828207,34.0348369406,108.756494994,427.115,399.506,-0.0,0.653276,0.834876,426.935,2,0,1,0
304838215,34.034836939,108.756494995,427.114,399.505,-0.0,0.65363,0.83517,426.935,2,0,1,0
305028384,34.0348368829,108.756495053,427.115,399.489,-0.0,0.653246,0.835635,426.935,2,0,1,0
305228564,34.0348367733,108.756495152,427.119,399.474,-0.0,0.660947,0.837179,426.935,2,0,1,0
305428744,34.0348366861,108.756495251,427.12,399.459,-0.0,0.653145,0.83495,426.935,2,0,1,0
305628925,34.0348366101,108.756495334,427.118,399.44,-0.0,0.653128,0.835717,426.935,2,0,1,0
305829107,34.0348365396,108.756495452,427.118,399.422,-0.0,0.653103,0.835384,426.935,2,0,1,0
306029286,34.0348364931,108.756495537,427.118,399.404,-0.0,0.653069,0.835054,426.935,2,0,1,0
306229466,34.034836445,108.75649562,427.112,399.38,-0.0,0.653049,0.835817,426.935,2,0,1,0
306429646,34.0348363869,108.756495735,427.106,399.358,-0.0,0.653026,0.835474,426.933,2,0,1,0
306629829,34.0348363444,108.756495844,427.106,399.341,-0.0,0.652995,0.835135,426.933,2,0,1,0
306830008,34.0348363102,108.756495944,427.11,399.327,-0.0,0.652969,0.834799,426.933,2,0,1,0
307030191,34.0348362638,108.756496048,427.114,399.314,-0.0,0.652951,0.835567,426.933,2,0,1,0
307230368,34.0348362119,108.756496126,427.115,399.296,-0.0,0.660821,0.837118,426.933,2,0,1,0
307430550,34.0348361807,108.756496197,427.113,399.279,-0.0,0.652876,0.834898,426.933,2,0,1,0
307630729,34.0348361578,108.756496273,427.11,399.259,-0.0,0.652908,0.835675,426.933,2,0,1,0
307830909,34.0348361328,108.75649636,427.11,399.242,-0.0,0.652911,0.835344,426.933,2,0,1,0
308031093,34.0348360996,108.756496386,427.111,399.225,-0.0,0.652914,0.835004,426.932,2,0,1,0
308231291,34.0348360758,108.756496474,427.108,399.206,-0.0,0.652918,0.835771,426.93,2,0,1,0
308431451,34.034836013,108.756496506,427.101,399.181,-0.0,0.652924,0.835437,426.92,2,0,1,0
308631631,34.0348359584,108.756496527,427.096,399.16,-0.0,0.652929,0.835102,426.906,2,0,1,0
308831812,34.0348359309,108.756496588,427.091,399.138,-0.0,0.652969,0.834772,426.905,2,0,1,0
309032003,34.0348359256,108.75649665,427.103,399.132,-0.0,0.652958,0.835544,426.905,2,0,1,0
309232173,34.0348358643,108.756496692,427.124,399.135,-0.0,0.660881,0.837105,426.905,2,0,1,0
309432354,34.0348358827,108.756496754,427.108,399.102,-0.0,0.652914,0.834891,426.905,2,0,1,0
309632537,34.03483589,108.756496788,427.083,399.06,-0.0,0.652893,0.835672,0.0,2,0,0,0
309832715,34.0348358864,108.756496889,427.065,399.026,-0.0,0.652869,0.83535,0.0,2,0,0,0
310022886,34.034835893,108.756496939,427.049,398.994,-0.0,0.6603,0.836607,0.0,2,0,0,0
310223069,34.0348358991,108.756497005,427.049,398.979,-0.0,0.660262,0.837417,0.0,2,0,0,0
310433257,34.0348358784,108.756497083,427.058,398.971,-0.0,0.652727,0.835496,0.0,2,0,0,0
310633437,34.0348358956,108.756497164,427.06,398.958,-0.0,0.652692,0.835183,0.0,2,0,0,0
310833619,34.0348358468,108.756497218,427.06,398.942,-0.0,0.65265,0.83487,0.0,2,0,0,0
311023790,34.034835823,108.756497294,427.066,398.933,-0.0,0.652243,0.835364,0.0,2,0,0,0
311223970,34.0348358067,108.756497309,427.073,398.923,-0.0,0.659989,0.836919,0.0,2,0,0,0
311424153,34.034835805,108.756497431,427.082,398.916,-0.0,0.659886,0.836578,0.0,2,0,0,0
311624333,34.0348357667,108.756497567,427.105,398.924,-0.0,0.651975,0.835486,0.0,2,0,0,0
311834529,34.0348356976,108.756497779,427.132,398.935,-0.0,0.652279,0.835457,0.0,2,0,0,0
312024693,34.0348356372,108.756498071,427.157,398.943,-0.0,0.65188,0.834843,0.0,2,0,0,0
312224917,34.0348356727,108.756498407,427.18,398.951,-0.0,0.651843,0.835622,0.0,2,0,0,0
312425053,34.0348359158,108.75649885,427.2,398.957,-0.0,0.651823,0.835304,0.0,2,0,0,0
312625237,34.0348365016,108.756499394,427.217,398.96,-0.0,0.659535,0.836871,0.0,2,0,0,0
312825415,34.034837352,108.756500023,427.228,398.959,-0.0,0.651817,0.835764,0.0,2,0,0,0
313025598,34.0348381814,108.756500432,427.233,398.953,-0.0,0.651847,0.835432,0.0,2,0,0,0
313225776,34.034839054,108.7565004,427.224,398.934,-0.0,0.659542,0.83699,0.0,2,0,0,0
313425956,34.0348399058,108.756500191,427.201,398.901,-0.0,0.651931,0.834775,0.0,2,0,0,0
313626137,34.0348408912,108.75650001,427.183,398.874,-0.0,0.652012,0.83555,0.0,2,0,0,0
313826329,34.0348419437,108.756499968,427.209,398.891,-0.0,0.652113,0.835222,0.0,2,0,0,0
314026509,34.0348430975,108.756500046,427.264,398.938,-0.0,0.652233,0.834899,0.0,2,0,0,0
314226678,34.0348443062,108.756500177,427.357,399.022,-0.0,0.652368,0.835679,0.0,2,0,0,0
314426859,34.0348455942,108.756500245,427.479,399.135,-0.0,0.652517,0.835346,0.0,2,0,0,0
314627040,34.0348467894,108.756500239,427.617,399.263,-0.0,0.652677,0.835012,0.0,2,0,0,0
314827222,34.034847922,108.756500075,427.76,399.397,-0.0,0.652856,0.835784,0.0,2,0,0,0
315027401,34.0348490197,108.756499918,427.884,399.514,-0.0,0.653044,0.83545,0.0,2,0,0,0
315227581,34.0348500349,108.756499984,427.972,399.596,-0.0,0.660911,0.837009,0.0,2,0,0,0
315427773,34.034851155,108.756500079,428.021,399.641,-0.0,0.653395,0.834791,0.0,2,0,0,0
315627942,34.0348524566,108.756500339,428.038,399.655,-0.0,0.653587,0.835567,0.0,2,0,0,0
315828123,34.034853908,108.756500736,428.026,399.639,-0.0,0.65376,0.835245,0.0,2,0,0,0
316028304,34.0348555735,108.756501225,427.98,399.589,-0.0,0.653928,0.836016,0.0,2,0,0,0
316228487,34.0348573724,108.756501738,427.927,399.533,-0.0,0.654086,0.835659,0.0,2,0,0,0
316428664,34.0348592141,108.75650222,427.877,399.477,-0.0,0.654233,0.835306,0.0,2,0,0,0
316628853,34.0348611654,108.756502842,427.827,399.421,-0.0,0.654385,0.836067,0.0,2,0,0,0
316829026,34.0348632018,108.756503419,427.77,399.359,-0.0,0.654503,0.835716,0.0,2,0,0,0
317029206,34.0348653671,108.756503957,427.707,399.291,-0.0,0.654586,0.835373,0.0,2,0,0,0
317229389,34.0348675917,108.756504419,427.647,399.226,-0.0,0.662411,0.836909,0.0,2,0,0,0
317429570,34.0348698885,108.756504795,427.617,399.19,-0.0,0.662447,0.837703,0.0,2,0,0,0
317629748,34.0348722648,108.756505078,427.628,399.196,-0.0,0.654637,0.835444,0.0,2,0,0,0
317829928,34.0348747692,108.756505414,427.661,399.223,-0.0,0.654673,0.835097,0.0,2,0,0,0
318030111,34.0348774226,108.756505861,427.695,399.251,-0.0,0.654658,0.835856,0.0,2,0,0,0
318230290,34.0348800424,108.756506282,427.717,399.27,-0.0,0.662558,0.837411,0.0,2,0,0,0
318430470,34.0348825365,108.75650676,427.751,399.301,-0.0,0.654517,0.835166,0.0,2,0,0,0
318630653,34.0348850507,108.756507236,427.796,399.344,-0.0,0.654443,0.834829,0.0,2,0,0,0
318830831,34.0348875019,108.756507673,427.856,399.401,-0.0,0.654341,0.835593,0.0,2,0,0,0
319031011,34.0348899388,108.756508027,427.916,399.458,-0.0,0.654227,0.835258,0.0,2,0,0,0
319231192,34.0348923239,108.756508289,427.98,399.52,-0.0,0.662058,0.836804,0.0,2,0,0,0
319431372,34.034894684,108.756508546,428.053,399.591,-0.0,0.653947,0.8357,0.0,2,0,0,0
319631552,34.0348970001,108.756508922,428.129,399.665,-0.0,0.653818,0.835371,0.0,2,0,0,0
319831733,34.0348992058,108.756509282,428.21,399.742,-0.0,0.653668,0.835048,0.0,2,0,0,0
320021908,34.0349013004,108.756509672,428.287,399.817,-0.0,0.661036,0.837427,0.0,2,0,0,0
320232097,34.0349035289,108.756510186,428.369,399.896,-0.0,0.653359,0.835502,0.0,2,0,0,0
320432281,34.0349055711,108.756510471,428.45,399.975,-0.0,0.653238,0.835183,0.0,2,0,0,0
320632462,34.0349075303,108.75651051,428.523,400.045,-0.0,0.653073,0.834864,0.0,2,0,0,0
320832635,34.0349094537,108.756510437,428.581,400.1,-0.0,0.652936,0.834553,0.0,2,0,0,0
321032816,34.0349113679,108.756510265,428.624,400.141,-0.0,0.652789,0.835327,0.0,2,0,0,0
321222987,34.0349131598,108.756510034,428.65,400.164,-0.0,0.659895,0.836572,0.0,2,0,0,0
321423168,34.0349149882,108.756509797,428.671,400.184,-0.0,0.652079,0.835478,0.0,2,0,0,0
321633357,34.0349168577,108.756509738,428.678,400.189,-0.0,0.652115,0.835446,0.0,2,0,0,0
321833538,34.0349186515,108.756509769,428.673,400.182,-0.0,0.651787,0.835121,0.0,2,0,0,0
322033725,34.0349205309,108.756509951,428.657,400.165,-0.0,0.651425,0.834798,0.0,2,0,0,0
322223890,34.0349223384,108.756510238,428.647,400.154,-0.0,0.657677,0.83718,0.0,2,0,0,0
322424070,34.0349241665,108.75651044,428.635,400.14,-0.0,0.657264,0.836855,0.0,2,0,0,0
322624251,34.0349259541,108.75651048,428.608,400.111,-0.0,0.656903,0.836534,0.0,2,0,0,0
322824431,34.0349277772,108.756510389,428.565,400.066,-0.0,0.656602,0.837361,0.0,2,0,0,0
323034621,34.0349296882,108.756510242,428.509,400.008,-0.0,0.649842,0.835433,0.0,2,0,0,0
323224792,34.0349313628,108.756510303,428.451,399.948,-0.0,0.656218,0.836744,0.0,2,0,0,0
323424973,34.0349330931,108.756510508,428.383,399.878,-0.0,0.649155,0.834534,0.0,2,0,0,0
323625153,34.0349348382,108.756510761,428.296,399.79,-0.0,0.649067,0.835338,0.0,2,0,0,0
323825340,34.0349366275,108.756511028,428.202,399.694,-0.0,0.656094,0.836987,0.0,2,0,0,0
324025514,34.0349383563,108.756511352,428.1,399.59,-0.0,0.648959,0.834758,0.0,2,0,0,0
324225695,34.0349401659,108.756511707,428.002,399.49,-0.0,0.648956,0.835574,0.0,2,0,0,0
324425876,34.0349420691,108.756511931,427.902,399.388,-0.0,0.64896,0.835297,0.0,2,0,0,0
324626056,34.0349440689,108.756511851,427.811,399.295,-0.0,0.65645,0.836999,0.0,2,0,0,0
324826255,34.0349461203,108.75651148,427.733,399.213,-0.0,0.648955,0.834746,0.0,2,0,0,0
325026418,34.0349483218,108.756511115,427.701,399.178,-0.0,0.648965,0.835575,0.0,2,0,0,0
325226606,34.0349505354,108.756510831,427.723,399.197,-0.0,0.656726,0.837326,0.0,2,0,0,0
325426778,34.0349528234,108.756510716,427.763,399.235,-0.0,0.65671,0.837047,0.0,2,0,0,0
325626959,34.0349550744,108.756510675,427.824,399.294,-0.0,0.648929,0.834767,0.0,2,0,0,0
325827139,34.0349572695,108.756510884,427.9,399.369,-0.0,0.648956,0.835608,0.0,2,0,0,0
326027320,34.0349593516,108.756511036,427.974,399.445,-0.0,0.648988,0.83534,0.0,2,0,0,0
326227511,34.0349613761,108.75651108,428.051,399.524,-0.0,0.649017,0.836174,0.0,2,0,0,0
326427681,34.0349633026,108.756511085,428.109,399.585,-0.0,0.649016,0.835894,0.0,2,0,0,0
326627861,34.0349652403,108.756511021,428.141,399.621,-0.0,0.648997,0.835618,0.0,2,0,0,0
326828042,34.0349670958,108.756511071,428.15,399.633,-0.0,0.64896,0.835339,0.0,2,0,0,0
327028224,34.0349689128,108.756511191,428.137,399.623,-0.0,0.648941,0.836178,0.0,2,0,0,0
327228402,34.0349706571,108.756511438,428.098,399.589,-0.0,0.656661,0.837997,0.0,2,0,0,0
327428583,34.0349723708,108.756511803,428.037,399.531,-0.0,0.648859,0.835614,0.0,2,0,0,0
327628775,34.0349740476,108.756512253,427.962,399.461,-0.0,0.648861,0.836433,0.0,2,0,0,0
327828944,34.0349756207,108.756512858,427.91,399.413,-0.0,0.648866,0.836114,0.0,2,0,0,0
328029124,34.0349772302,108.756513382,427.877,399.383,-0.0,0.648924,0.835801,0.0,2,0,0,0
328229307,34.0349788041,108.756513654,427.85,399.361,-0.0,0.648996,0.836615,0.0,2,0,0,0
328429486,34.0349804542,108.756513576,427.824,399.339,-0.0,0.649086,0.8363,0.0,2,0,0,0
328629665,34.0349821178,108.756513544,427.794,399.315,-0.0,0.649159,0.835983,0.0,2,0,0,0
328829846,34.0349838431,108.756513664,427.767,399.296,-0.0,0.649229,0.836793,0.0,2,0,0,0
329030026,34.0349855738,108.756513661,427.757,399.293,-0.0,0.649277,0.836476,0.0,2,0,0,0
329230206,34.0349872914,108.756513752,427.763,399.309,-0.0,0.656931,0.839439,0.0,2,0,0,0
329430387,34.0349891186,108.756513982,427.78,399.334,-0.0,0.649286,0.8369,0.0,2,0,0,0
329630567,34.0349910236,108.756514278,427.81,399.373,-0.0,0.649294,0.836528,0.0,2,0,0,0
329830747,34.0349929002,108.756514683,427.849,399.421,-0.0,0.64929,0.837301,0.0,2,0,0,0
330030938,34.0349947589,108.756515122,427.896,399.476,-0.0,0.649319,0.836934,0.0,2,0,0,0
330231108,34.0349966106,108.756515476,427.948,399.537,-0.0,0.649288,0.836571,0.0,2,0,0,0
330431291,34.0349983993,108.756515608,428.005,399.601,-0.0,0.656922,0.839493,0.0,2,0,0,0
330631469,34.0350002015,108.756515671,428.068,399.671,-0.0,0.649164,0.83698,0.0,2,0,0,0
330831649,34.0350019888,108.756515918,428.146,399.757,-0.0,0.649108,0.836624,0.0,2,0,0,0
331031830,34.0350037533,108.756516229,428.227,399.843,-0.0,0.649061,0.836273,0.0,2,0,0,0
331222021,34.035005376,108.756516535,428.303,399.926,-0.0,0.656267,0.838847,0.0,2,0,0,0
331422182,34.0350069956,108.756516935,428.381,400.012,-0.0,0.656167,0.838475,0.0,2,0,0,0
331632371,34.0350087058,108.756517393,428.446,400.085,-0.0,0.648872,0.836352,0.0,2,0,0,0
331832552,34.0350103591,108.756517929,428.484,400.131,-0.0,0.648819,0.836004,0.0,2,0,0,0
332032746,34.0350119715,108.75651832,428.492,400.147,-0.0,0.648768,0.836785,0.0,2,0,0,0
332232913,34.0350135885,108.756518419,428.464,400.127,-0.0,0.648709,0.836437,0.0,2,0,0,0
332423084,34.0350151223,108.756518035,428.406,400.077,-0.0,0.655823,0.837825,0.0,2,0,0,0
332623273,34.0350167433,108.756517573,428.306,399.983,-0.0,0.648227,0.836573,0.0,2,0,0,0
332833457,34.0350185055,108.75651716,428.162,399.848,-0.0,0.648518,0.836523,0.0,2,0,0,0
333033634,34.0350203219,108.756516797,427.999,399.692,-0.0,0.648458,0.836167,0.0,2,0,0,0
333233815,34.0350223661,108.756516512,427.815,399.515,-0.0,0.648358,0.836936,0.0,2,0,0,0
333423993,34.0350244018,108.756516279,427.629,399.336,-0.0,0.655431,0.838312,0.0,2,0,0,0
333624166,34.0350267243,108.756516063,427.455,399.166,-0.0,0.65535,0.837937,0.0,2,0,0,0
333824347,34.0350287514,108.756516185,427.486,399.198,-0.0,0.647786,0.836687,0.0,2,0,0,0
334024528,34.035030991,108.756516646,427.564,399.279,-0.0,0.655446,0.838384,0.0,2,0,0,0
334234717,34.0350334369,108.756517152,427.63,399.349,-0.0,0.648067,0.83632,0.0,2,0,0,0
334424888,34.0350356807,108.756517585,427.68,399.404,-0.0,0.647734,0.835659,0.0,2,0,0,0
334625068,34.0350380987,108.756517829,427.739,399.469,-0.0,0.647749,0.836403,0.0,2,0,0,0
334825257,34.0350404887,108.756517837,427.797,399.535,-0.0,0.655489,0.837848,0.0,2,0,0,0
335025429,34.0350427991,108.756517683,427.853,399.597,-0.0,0.647664,0.835594,0.0,2,0,0,0
335225609,34.0350451539,108.756517687,427.899,399.65,-0.0,0.655422,0.838056,0.0,2,0,0,0
335425790,34.0350474099,108.756517665,427.942,399.699,-0.0,0.655341,0.837559,0.0,2,0,0,0
335625971,34.0350493913,108.756517628,427.977,399.739,-0.0,0.647476,0.835383,0.0,2,0,0,0
335826150,34.0350510405,108.756517621,427.994,399.762,-0.0,0.647451,0.836018,0.0,2,0,0,0
336026333,34.0350525552,108.75651769,428.0,399.775,-0.0,0.647428,0.835531,0.0,2,0,0,0
336226521,34.0350541303,108.756517813,427.992,399.772,-0.0,0.655261,0.836636,0.0,2,0,0,0
336426691,34.0350555875,108.756518079,427.978,399.764,-0.0,0.647376,0.834555,0.0,2,0,0,0
336626871,34.0350570671,108.756518387,427.959,399.751,-0.0,0.647351,0.835161,0.0,2,0,0,0
336827051,34.0350585407,108.756518732,427.924,399.721,-0.0,0.647338,0.834676,0.0,2,0,0,0
337027253,34.0350600124,108.75651906,427.875,399.678,-0.0,0.647317,0.8342,0.0,2,0,0,0
337227412,34.035061451,108.756519488,427.811,399.62,-0.0,0.655231,0.835253,0.0,2,0,0,0
337427595,34.0350628687,108.756519829,427.73,399.543,-0.0,0.647199,0.834351,0.0,2,0,0,0
337627772,34.0350642497,108.756519911,427.637,399.456,-0.0,0.647171,0.833896,0.0,2,0,0,0
337827963,34.0350656047,108.756519892,427.544,399.369,-0.0,0.647107,0.834529,0.0,2,0,0,0
338028133,34.0350670224,108.756519956,427.475,399.304,-0.0,0.64706,0.8341,0.0,2,0,0,0
338228313,34.0350682955,108.756520063,427.438,399.272,-0.0,0.647022,0.83369,0.0,2,0,0,0
338428504,34.0350693792,108.756520157,427.428,399.266,-0.0,0.646996,0.833299,0.0,2,0,0,0
338628673,34.0350701184,108.756520259,427.437,399.279,-0.0,0.646979,0.833989,0.0,2,0,0,0
338828860,34.0350708649,108.756520445,427.482,399.328,-0.0,0.654904,0.835245,0.0,2,0,0,0
339029033,34.0350717059,108.756520611,427.548,399.398,-0.0,0.646916,0.834353,0.0,2,0,0,0
339229215,34.0350724678,108.756520887,427.651,399.504,-0.0,0.654832,0.835656,0.0,2,0,0,0
339429394,34.0350732878,108.756521214,427.755,399.612,-0.0,0.646896,0.833631,0.0,2,0,0,0
339629574,34.0350742737,108.756521619,427.855,399.715,-0.0,0.654778,0.836089,0.0,2,0,0,0
339829754,34.0350755381,108.756522084,427.941,399.806,-0.0,0.646966,0.834038,0.0,2,0,0,0
340029934,34.035076764,108.756522444,428.018,399.888,-0.0,0.647033,0.833728,0.0,2,0,0,0
340230114,34.0350779821,108.756522641,428.091,399.967,-0.0,0.654821,0.83629,0.0,2,0,0,0
340430294,34.0350791685,108.756522703,428.162,400.045,-0.0,0.647164,0.834212,0.0,2,0,0,0
340630474,34.0350803884,108.756522869,428.235,400.125,-0.0,0.654899,0.835738,0.0,2,0,0,0
340830658,34.0350815939,108.756523215,428.311,400.208,-0.0,0.654935,0.836574,0.0,2,0,0,0
341030834,34.0350827707,108.756523559,428.392,400.296,-0.0,0.65493,0.836284,0.0,2,0,0,0
341231018,34.0350837664,108.756523923,428.476,400.386,-0.0,0.654919,0.836001,0.0,2,0,0,0
341431196,34.0350843101,108.756524255,428.537,400.452,-0.0,0.654901,0.836857,0.0,2,0,0,0
341631374,34.0350844089,108.756524447,428.58,400.499,-0.0,0.647318,0.834674,0.0,2,0,0,0
341831554,34.0350844025,108.756524634,428.605,400.529,-0.0,0.647382,0.834412,0.0,2,0,0,0
342031734,34.0350844669,108.756524619,428.627,400.556,-0.0,0.647386,0.835239,0.0,2,0,0,0
342231913,34.0350845278,108.75652428,428.634,400.569,-0.0,0.647364,0.83498,0.0,2,0,0,0
342422088,34.0350846305,108.756523752,428.632,400.571,-0.0,0.654512,0.836367,0.0,2,0,0,0
342632279,34.0350847942,108.756523312,428.613,400.557,-0.0,0.647293,0.834475,0.0,2,0,0,0
342832453,34.0350850017,108.756522818,428.587,400.535,-0.0,0.647255,0.835316,0.0,2,0,0,0
343032633,34.0350852733,108.756522413,428.545,400.497,-0.0,0.647224,0.835068,0.0,2,0,0,0
343232813,34.0350855647,108.756522066,428.494,400.451,-0.0,0.654726,0.836806,0.0,2,0,0,0
343422984,34.035085888,108.756521699,428.434,400.393,-0.0,0.646787,0.835358,0.0,2,0,0,0
343623164,34.0350863047,108.756521338,428.357,400.317,-0.0,0.64673,0.835109,0.0,2,0,0,0
343823344,34.035086759,108.75652094,428.277,400.237,-0.0,0.646654,0.834858,0.0,2,0,0,0
344033535,34.0350873054,108.756520593,428.173,400.132,-0.0,0.646876,0.836003,0.0,2,0,0,0
344233713,34.0350878591,108.756520294,428.06,400.018,-0.0,0.646673,0.835699,0.0,2,0,0,0
344423883,34.0350884368,108.756519951,427.935,399.892,-0.0,0.646119,0.836185,0.0,2,0,0,0
344624063,34.0350890868,108.756519679,427.782,399.741,-0.0,0.653476,0.837906,0.0,2,0,0,0
344824247,34.0350897851,108.75651929,427.622,399.583,-0.0,0.645594,0.83665,0.0,2,0,0,0
345024423,34.0350905296,108.756518745,427.469,399.431,-0.0,0.652932,0.838388,0.0,2,0,0,0
345224603,34.0350913926,108.756518089,427.385,399.347,-0.0,0.652647,0.838048,0.0,2,0,0,0
345434792,34.0350923279,108.756517417,427.35,399.312,-0.0,0.645069,0.835971,0.0,2,0,0,0
345624963,34.0350929752,108.756516797,427.349,399.309,-0.0,0.652196,0.838536,0.0,2,0,0,0
345825144,34.0350934569,108.756516144,427.369,399.328,-0.0,0.644301,0.836124,0.0,2,0,0,0
346025333,34.035093917,108.756515463,427.413,399.371,-0.0,0.644121,0.83579,0.0,2,0,0,0
346225502,34.0350944672,108.75651473,427.462,399.419,-0.0,0.643935,0.836578,0.0,2,0,0,0
346425684,34.0350948217,108.756513926,427.505,399.463,-0.0,0.643742,0.836243,0.0,2,0,0,0
346625862,34.0350950019,108.756513116,427.555,399.514,-0.0,0.643536,0.835908,0.0,2,0,0,0
346826042,34.0350951977,108.7565122,427.595,399.555,-0.0,0.643318,0.836699,0.0,2,0,0,0
347026231,34.0350954722,108.756511294,427.635,399.597,-0.0,0.643101,0.836361,0.0,2,0,0,0
347226402,34.0350957665,108.756510327,427.664,399.627,-0.0,0.650619,0.838064,0.0,2,0,0,0
347426582,34.0350961155,108.756509367,427.712,399.674,-0.0,0.650288,0.838876,0.0,2,0,0,0
347626762,34.0350964578,108.756508376,427.788,399.75,-0.0,0.650027,0.838505,0.0,2,0,0,0
347826942,34.0350966352,108.756507457,427.872,399.833,-0.0,0.649773,0.838136,0.0,2,0,0,0
348027121,34.0350967105,108.756506618,427.957,399.918,-0.0,0.641897,0.835759,0.0,2,0,0,0
348227302,34.0350967003,108.756505869,428.065,400.025,-0.0,0.641735,0.836536,0.0,2,0,0,0
348427481,34.0350966307,108.756505085,428.182,400.141,-0.0,0.641569,0.836194,0.0,2,0,0,0
348627675,34.0350965196,108.756504271,428.306,400.264,-0.0,0.641428,0.83585,0.0,2,0,0,0
348827848,34.0350963652,108.756503468,428.44,400.398,-0.0,0.641279,0.835511,0.0,2,0,0,0
349028021,34.0350961657,108.756502644,428.591,400.55,-0.0,0.641121,0.836292,0.0,2,0,0,0
349228203,34.03509593,108.756501921,428.747,400.707,-0.0,0.648505,0.837946,0.0,2,0,0,0
349428381,34.0350955027,108.756501784,428.909,400.869,-0.0,0.640795,0.836696,0.0,2,0,0,0
349628564,34.0350949182,108.756502425,429.074,401.036,-0.0,0.64066,0.836324,0.0,2,0,0,0
349828741,34.0350942081,108.756503536,429.23,401.194,-0.0,0.64053,0.835955,0.0,2,0,0,0
350028920,34.0350933701,108.756504711,429.367,401.332,-0.0,0.640419,0.836713,0.0,2,0,0,0
350229100,34.0350922538,108.75650572,429.465,401.433,-0.0,0.640308,0.836349,0.0,2,0,0,0
350429281,34.0350907186,108.756506625,429.529,401.5,-0.0,0.64018,0.835985,0.0,2,0,0,0
350629460,34.0350887134,108.75650734,429.565,401.539,-0.0,0.640048,0.836749,0.0,2,0,0,0
350829642,34.0350865053,108.756507907,429.575,401.551,-0.0,0.639909,0.836363,0.0,2,0,0,0
351029819,34.0350842769,108.756507885,429.539,401.518,-0.0,0.639808,0.8371,0.0,2,0,0,0
351230000,34.0350821321,108.756506999,429.474,401.455,-0.0,0.63971,0.83669,0.0,2,0,0,0
351430179,34.0350800547,108.756505693,429.373,401.356,-0.0,0.639695,0.836291,0.0,2,0,0,0
351630362,34.0350780557,108.756504252,429.244,401.229,-0.0,0.639735,0.837025,0.0,2,0,0,0
351830539,34.0350760703,108.756502961,429.094,401.081,-0.0,0.639765,0.836628,0.0,2,0,0,0
352030719,34.0350740932,108.756501693,428.919,400.907,-0.0,0.639832,0.836238,0.0,2,0,0,0
352230898,34.035072093,108.756500759,428.712,400.701,-0.0,0.639948,0.835856,0.0,2,0,0,0
352431081,34.0350700759,108.756499946,428.478,400.469,-0.0,0.640091,0.836597,0.0,2,0,0,0
352631258,34.0350681081,108.756499164,428.23,400.222,-0.0,0.640208,0.836207,0.0,2,0,0,0
352831438,34.0350661553,108.756498283,427.985,399.978,-0.0,0.64037,0.835822,0.0,2,0,0,0
353031618,34.035064228,108.756497403,427.762,399.756,-0.0,0.640554,0.836567,0.0,2,0,0,0
353231797,34.0350623095,108.756496464,427.574,399.568,-0.0,0.6407,0.836185,0.0,2,0,0,0
353431989,34.0350603794,108.756495491,427.411,399.406,-0.0,0.640885,0.835812,0.0,2,0,0,0
353622148,34.035058429,108.756494496,427.296,399.292,-0.0,0.647767,0.838224,0.0,2,0,0,0
353832336,34.0350561024,108.756493083,427.21,399.208,-0.0,0.641321,0.836196,0.0,2,0,0,0
354032516,34.0350538207,108.756491544,427.156,399.155,-0.0,0.641525,0.835833,0.0,2,0,0,0
354232695,34.0350513987,108.756489989,427.121,399.122,-0.0,0.641719,0.836581,0.0,2,0,0,0
354432875,34.0350488545,108.756488464,427.092,399.095,-0.0,0.641953,0.836211,0.0,2,0,0,0
354623053,34.0350463179,108.756486893,427.091,399.098,-0.0,0.641832,0.83555,0.0,2,0,0,0
354823239,34.0350436538,108.756485143,427.108,399.118,-0.0,0.642036,0.836305,0.0,2,0,0,0
355023405,34.0350410549,108.756483014,427.121,399.135,-0.0,0.642243,0.835949,0.0,2,0,0,0
355233595,34.0350383911,108.756480475,427.124,399.142,-0.0,0.650085,0.837842,0.0,2,0,0,0
355433773,34.0350358616,108.756478103,427.116,399.138,-0.0,0.642942,0.835539,0.0,2,0,0,0
355623944,34.0350335005,108.756475945,427.112,399.138,-0.0,0.642782,0.836007,0.0,2,0,0,0
355824123,34.0350310785,108.756473564,427.112,399.141,-0.0,0.642968,0.835664,0.0,2,0,0,0
356024303,34.0350286831,108.756471175,427.107,399.139,-0.0,0.643143,0.83641,0.0,2,0,0,0
356224482,34.0350263556,108.756468706,427.09,399.127,-0.0,0.643323,0.836034,0.0,2,0,0,0
356424667,34.0350240591,108.756466257,427.082,399.123,-0.0,0.643489,0.835667,0.0,2,0,0,0
356634850,34.035021676,108.756463481,427.096,399.139,-0.0,0.643983,0.835599,0.0,2,0,0,0
356825020,34.0350196548,108.756460989,427.147,399.192,-0.0,0.643775,0.836057,0.0,2,0,0,0
357025200,34.0350177934,108.75645836,427.251,399.297,-0.0,0.643891,0.835699,0.0,2,0,0,0
357225379,34.0350165996,108.75645552,427.361,399.408,-0.0,0.651371,0.837265,0.0,2,0,0,0
357425558,34.0350163336,108.756452214,427.436,399.483,-0.0,0.644135,0.8361,0.0,2,0,0,0
357625738,34.0350171046,108.756448374,427.478,399.526,-0.0,0.644356,0.835734,0.0,2,0,0,0
357825917,34.0350183216,108.756444454,427.52,399.57,-0.0,0.644575,0.835371,0.0,2,0,0,0
358026099,34.0350196602,108.75644067,427.599,399.651,-0.0,0.644792,0.836126,0.0,2,0,0,0
358226277,34.0350209462,108.756437259,427.718,399.77,-0.0,0.652421,0.837698,0.0,2,0,0,0
358426457,34.0350225468,108.756434242,427.824,399.877,-0.0,0.645168,0.835413,0.0,2,0,0,0
358626633,34.0350243704,108.756432039,427.94,399.992,-0.0,0.652826,0.838122,0.0,2,0,0,0
358826812,34.0350262514,108.756430226,428.052,400.105,-0.0,0.645568,0.835824,0.0,2,0,0,0
359026991,34.0350281521,108.75642849,428.157,400.211,-0.0,0.645768,0.835481,0.0,2,0,0,0
359227170,34.0350298311,108.756426828,428.261,400.316,-0.0,0.645954,0.836239,0.0,2,0,0,0
359427349,34.0350311167,108.756425563,428.365,400.422,-0.0,0.646127,0.835868,0.0,2,0,0,0
359627530,34.035031958,108.756424633,428.471,400.529,-0.0,0.646272,0.835497,0.0,2,0,0,0
359827706,34.035032489,108.756423888,428.599,400.657,-0.0,0.646413,0.836245,0.0,2,0,0,0
360027885,34.0350330045,108.756423129,428.743,400.801,-0.0,0.654045,0.837811,0.0,2,0,0,0
360228064,34.0350334819,108.756422311,428.898,400.954,-0.0,0.65416,0.837431,0.0,2,0,0,0
360428243,34.0350338657,108.756421532,429.075,401.13,-0.0,0.654216,0.837059,0.0,2,0,0,0
360628421,34.0350342108,108.756420686,429.276,401.328,-0.0,0.654144,0.837836,0.0,2,0,0,0
360828604,34.0350346221,108.756419731,429.48,401.529,-0.0,0.646492,0.83664,0.0,2,0,0,0
361028782,34.0350349852,108.756418863,429.699,401.747,-0.0,0.646438,0.83624,0.0,2,0,0,0
361228958,34.0350354381,108.756417994,429.925,401.973,-0.0,0.654025,0.837773,0.0,2,0,0,0
361429137,34.0350359521,108.756417209,430.132,402.179,-0.0,0.646202,0.836576,0.0,2,0,0,0
361629316,34.0350363981,108.756416387,430.274,402.321,-0.0,0.646049,0.836191,0.0,2,0,0,0
361829505,34.0350369477,108.756415607,430.345,402.393,-0.0,0.653512,0.837736,0.0,2,0,0,0
362029673,34.0350375086,108.756414762,430.365,402.415,-0.0,0.645621,0.835436,0.0,2,0,0,0
362229852,34.0350380481,108.756413928,430.329,402.38,-0.0,0.645388,0.836184,0.0,2,0,0,0
362430037,34.0350385769,108.756413103,430.232,402.284,-0.0,0.645139,0.835812,0.0,2,0,0,0
362630209,34.035039136,108.756412367,430.067,402.119,-0.0,0.644863,0.836542,0.0,2,0,0,0
362830392,34.0350397522,108.756411654,429.825,401.879,-0.0,0.644607,0.836152,0.0,2,0,0,0
363030567,34.0350404357,108.756410976,429.52,401.575,-0.0,0.644325,0.835769,0.0,2,0,0,0
363230746,34.035041195,108.756410377,429.156,401.211,-0.0,0.651499,0.83846,0.0,2,0,0,0
363430924,34.0350419903,108.756409798,428.769,400.824,-0.0,0.651161,0.838065,0.0,2,0,0,0
363631103,34.0350427541,108.756409316,428.373,400.427,-0.0,0.650854,0.837676,0.0,2,0,0,0
363831282,34.035043571,108.756408949,427.965,400.018,-0.0,0.643221,0.835389,0.0,2,0,0,0
364031471,34.0350445247,108.75640853,427.592,399.644,-0.0,0.643007,0.836144,0.0,2,0,0,0
364231639,34.0350454359,108.756408195,427.398,399.447,-0.0,0.642811,0.835779,0.0,2,0,0,0
364431818,34.0350462861,108.756407968,427.461,399.504,-0.0,0.642635,0.835438,0.0,2,0,0,0
364631997,34.0350476497,108.756407651,427.513,399.554,-0.0,0.642533,0.836179,0.0,2,0,0,0
364822167,34.035048712,108.756407312,427.55,399.59,-0.0,0.649564,0.83741,0.0,2,0,0,0
365032354,34.0350497275,108.756406795,427.541,399.584,-0.0,0.64232,0.835452,0.0,2,0,0,0
365232533,34.0350502255,108.756406018,427.49,399.538,-0.0,0.649604,0.838088,0.0,2,0,0,0
365432729,34.0350505548,108.756405002,427.43,399.484,-0.0,0.649317,0.83767,0.0,2,0,0,0
365632890,34.0350506768,108.756403806,427.403,399.462,-0.0,0.641802,0.835444,0.0,2,0,0,0
365823062,34.0350506905,108.756402629,427.413,399.476,-0.0,0.648552,0.837636,0.0,2,0,0,0
366023241,34.0350508273,108.756401496,427.457,399.524,-0.0,0.648442,0.837157,0.0,2,0,0,0
366223418,34.0350512567,108.756400623,427.536,399.606,-0.0,0.648355,0.837821,0.0,2,0,0,0
366433606,34.035051901,108.756399849,427.631,399.703,-0.0,0.641417,0.835914,0.0,2,0,0,0
366633784,34.0350526473,108.75639906,427.758,399.833,-0.0,0.641337,0.835453,0.0,2,0,0,0
366833964,34.0350536185,108.756398018,427.918,399.994,-0.0,0.641251,0.834987,0.0,2,0,0,0
367024132,34.0350547414,108.756396809,428.089,400.167,-0.0,0.648249,0.836969,0.0,2,0,0,0
367224311,34.0350558874,108.756395441,428.295,400.373,-0.0,0.648194,0.836477,0.0,2,0,0,0
367424489,34.0350571619,108.756394214,428.517,400.596,-0.0,0.648074,0.835992,0.0,2,0,0,0
367624668,34.0350584409,108.756393098,428.774,400.853,-0.0,0.647983,0.835519,0.0,2,0,0,0
367834855,34.0350599646,108.756392056,429.07,401.15,-0.0,0.640706,0.834872,0.0,2,0,0,0
368025025,34.0350614768,108.756391168,429.363,401.443,-0.0,0.647801,0.835715,0.0,2,0,0,0
368225203,34.0350632144,108.756390417,429.671,401.752,-0.0,0.647722,0.835273,0.0,2,0,0,0
368425382,34.0350648283,108.756389638,429.969,402.051,-0.0,0.647645,0.835953,0.0,2,0,0,0
368625590,34.0350665331,108.75638891,430.22,402.303,-0.0,0.647555,0.835536,0.0,2,0,0,0
368825744,34.0350681829,108.756388181,430.424,402.508,-0.0,0.647442,0.835138,0.0,2,0,0,0
369025917,34.0350698741,108.756387501,430.585,402.67,-0.0,0.639896,0.833197,0.0,2,0,0,0
369226095,34.0350715409,108.756386875,430.698,402.783,-0.0,0.647178,0.835491,0.0,2,0,0,0
369426275,34.0350730928,108.756386178,430.775,402.86,-0.0,0.646958,0.835138,0.0,2,0,0,0
369626451,34.0350745407,108.756385467,430.816,402.9,-0.0,0.646786,0.834802,0.0,2,0,0,0
369826630,34.0350758521,108.756384745,430.806,402.889,-0.0,0.646598,0.834482,0.0,2,0,0,0
370026808,34.0350772058,108.756384316,430.75,402.83,-0.0,0.646397,0.835271,0.0,2,0,0,0
370226986,34.0350783744,108.756383963,430.641,402.717,-0.0,0.646198,0.834974,0.0,2,0,0,0
370427169,34.0350794041,108.75638366,430.491,402.563,-0.0,0.638853,0.833027,0.0,2,0,0,0
370627343,34.0350803259,108.75638318,430.297,402.365,-0.0,0.638786,0.83381,0.0,2,0,0,0
370827521,34.0350808632,108.756382529,430.063,402.128,-0.0,0.638769,0.83354,0.0,2,0,0,0
371027699,34.035081101,108.75638161,429.79,401.852,-0.0,0.645784,0.835002,0.0,2,0,0,0
371227877,34.0350811186,108.756380584,429.485,401.543,-0.0,0.645754,0.83585,0.0,2,0,0,0
371428055,34.035081047,108.756379584,429.149,401.204,-0.0,0.63886,0.833815,0.0,2,0,0,0
371628233,34.035081053,108.756378659,428.807,400.857,-0.0,0.645883,0.835361,0.0,2,0,0,0
371828413,34.0350809771,108.756377825,428.452,400.498,-0.0,0.645991,0.835127,0.0,2,0,0,0
372028595,34.035081172,108.75637719,428.1,400.14,-0.0,0.64608,0.836007,0.0,2,0,0,0
372228767,34.035081864,108.756376943,427.756,399.79,-0.0,0.646133,0.83578,0.0,2,0,0,0
372428945,34.0350829472,108.756376703,427.448,399.475,-0.0,0.639082,0.833697,0.0,2,0,0,0
372629123,34.0350840307,108.756376337,427.345,399.363,-0.0,0.646248,0.836462,0.0,2,0,0,0
372829301,34.035084963,108.756376091,427.492,399.5,-0.0,0.639042,0.834341,0.0,2,0,0,0
373029478,34.0350862742,108.756375801,427.611,399.608,-0.0,0.646477,0.835976,0.0,2,0,0,0
373229663,34.0350875648,108.756375444,427.701,399.689,-0.0,0.646478,0.835681,0.0,2,0,0,0
373429834,34.0350887529,108.756375077,427.792,399.775,-0.0,0.63903,0.834691,0.0,2,0,0,0
373630020,34.0350896949,108.756374465,427.885,399.863,-0.0,0.646345,0.836136,0.0,2,0,0,0
373830190,34.0350903141,108.756373672,427.976,399.949,-0.0,0.646307,0.835769,0.0,2,0,0,0
374030368,34.0350906818,108.756372773,428.055,400.023,-0.0,0.646242,0.835387,0.0,2,0,0,0
374230545,34.0350910013,108.756371776,428.124,400.087,-0.0,0.646154,0.836095,0.0,2,0,0,0
374430723,34.0350914332,108.756370767,428.181,400.138,-0.0,0.638717,0.834062,0.0,2,0,0,0
374630904,34.0350919835,108.756369568,428.218,400.169,-0.0,0.638637,0.833666,0.0,2,0,0,0
374831079,34.0350926162,108.756368141,428.228,400.173,-0.0,0.638561,0.834333,0.0,2,0,0,0
375031256,34.0350932715,108.756366621,428.219,400.157,-0.0,0.638485,0.833918,0.0,2,0,0,0
375231434,34.0350939873,108.756365177,428.181,400.113,-0.0,0.6458,0.835021,0.0,2,0,0,0
375431612,34.0350948471,108.756363932,428.124,400.048,-0.0,0.638348,0.834153,0.0,2,0,0,0
375631790,34.0350957771,108.756362678,428.06,399.977,-0.0,0.64568,0.835255,0.0,2,0,0,0
375831968,34.0350967067,108.756361474,428.005,399.914,-0.0,0.63821,0.833333,0.0,2,0,0,0
376022137,34.0350975405,108.756360543,427.974,399.876,-0.0,0.645197,0.835245,0.0,2,0,0,0
376232323,34.0350983244,108.756359848,427.954,399.847,-0.0,0.638132,0.833603,0.0,2,0,0,0
376432501,34.0350990241,108.756359375,427.971,399.855,-0.0,0.638102,0.833225,0.0,2,0,0,0
376632679,34.0350998473,108.756358887,428.014,399.89,-0.0,0.63807,0.83286,0.0,2,0,0,0
376832867,34.0351006609,108.756358444,428.083,399.951,-0.0,0.638036,0.833562,0.0,2,0,0,0
377023029,34.0351013724,108.756357991,428.183,400.043,-0.0,0.64515,0.834506,0.0,2,0,0,0
377223203,34.0351021183,108.756357567,428.329,400.18,-0.0,0.645051,0.834189,0.0,2,0,0,0
377423381,34.0351029171,108.756357217,428.49,400.333,-0.0,0.644901,0.833891,0.0,2,0,0,0
377633582,34.0351038,108.756356815,428.61,400.447,-0.0,0.63771,0.833341,0.0,2,0,0,0
377833745,34.0351047156,108.756356414,428.669,400.5,-0.0,0.637609,0.833044,0.0,2,0,0,0
378023914,34.0351054425,108.756355946,428.668,400.496,-0.0,0.644466,0.835202,0.0,2,0,0,0
378224092,34.0351062027,108.756355455,428.616,400.441,-0.0,0.644254,0.834933,0.0,2,0,0,0
378424279,34.0351069506,108.756354987,428.517,400.339,-0.0,0.644058,0.834679,0.0,2,0,0,0
378624448,34.0351077169,108.756354593,428.393,400.211,-0.0,0.643859,0.834432,0.0,2,0,0,0
378824625,34.0351084664,108.7563541,428.233,400.046,-0.0,0.643665,0.835289,0.0,2,0,0,0
379034819,34.0351092613,108.756353495,428.027,399.836,-0.0,0.636748,0.833593,0.0,2,0,0,0
379224981,34.0351099266,108.756352914,427.811,399.616,-0.0,0.643273,0.835913,0.0,2,0,0,0
379425158,34.0351105747,108.7563522,427.582,399.382,-0.0,0.643007,0.835659,0.0,2,0,0,0
379625336,34.0351110881,108.756351381,427.403,399.199,-0.0,0.636024,0.833605,0.0,2,0,0,0
379825514,34.0351115426,108.756350508,427.345,399.135,-0.0,0.642802,0.836302,0.0,2,0,0,0
380025691,34.035111918,108.756349607,427.375,399.157,-0.0,0.642741,0.836074,0.0,2,0,0,0
380225869,34.0351121626,108.756348741,427.429,399.204,-0.0,0.6358,0.833971,0.0,2,0,0,0
380426046,34.0351124147,108.756348193,427.504,399.274,-0.0,0.635789,0.833746,0.0,2,0,0,0
380626236,34.0351126071,108.756347917,427.614,399.379,-0.0,0.635783,0.834603,0.0,2,0,0,0
380826402,34.0351128084,108.756348013,427.752,399.513,-0.0,0.642716,0.836323,0.0,2,0,0,0
381026579,34.035112889,108.756348328,427.904,399.66,-0.0,0.635779,0.834167,0.0,2,0,0,0
381226757,34.0351128704,108.756348873,428.063,399.816,-0.0,0.642765,0.835886,0.0,2,0,0,0
381426935,34.0351123927,108.756349262,428.24,399.992,-0.0,0.642717,0.836789,0.0,2,0,0,0
381627112,34.0351113379,108.756349637,428.427,400.178,-0.0,0.642722,0.836561,0.0,2,0,0,0
381827290,34.0351098422,108.756350002,428.623,400.375,-0.0,0.635761,0.834361,0.0,2,0,0,0
382027470,34.0351081921,108.756350264,428.829,400.581,-0.0,0.635782,0.835223,0.0,2,0,0,0
382227649,34.0351065367,108.756350461,429.051,400.803,-0.0,0.635831,0.834995,0.0,2,0,0,0
382427831,34.0351049044,108.756350668,429.286,401.039,-0.0,0.63594,0.835853,0.0,2,0,0,0
382628001,34.0351031935,108.756350791,429.52,401.273,-0.0,0.636087,0.83558,0.0,2,0,0,0
382828178,34.0351014293,108.756351034,429.72,401.474,-0.0,0.63623,0.835288,0.0,2,0,0,0
383028373,34.0350996753,108.75635117,429.86,401.615,-0.0,0.636371,0.836111,0.0,2,0,0,0
383228537,34.0350978798,108.756351355,429.937,401.695,-0.0,0.636513,0.835818,0.0,2,0,0,0
383428711,34.035096035,108.756351424,429.963,401.724,-0.0,0.636701,0.835527,0.0,2,0,0,0
383628889,34.0350942078,108.756351478,429.938,401.704,-0.0,0.636851,0.835231,0.0,2,0,0,0
383829074,34.0350924264,108.756351478,429.868,401.636,-0.0,0.636998,0.836047,0.0,2,0,0,0
384029244,34.03509066,108.756351398,429.756,401.528,-0.0,0.637157,0.835748,0.0,2,0,0,0
384229422,34.0350889434,108.756351283,429.599,401.374,-0.0,0.637314,0.835452,0.0,2,0,0,0
384429599,34.0350872895,108.756351123,429.401,401.177,-0.0,0.637442,0.836269,0.0,2,0,0,0
384629777,34.0350856588,108.756350925,429.156,400.934,-0.0,0.637569,0.835967,0.0,2,0,0,0
384829954,34.0350841208,108.756350724,428.871,400.649,-0.0,0.637703,0.835667,0.0,2,0,0,0
385030132,34.0350826046,108.756350454,428.557,400.336,-0.0,0.637852,0.835363,0.0,2,0,0,0
385230313,34.0350811684,108.756350226,428.251,400.03,-0.0,0.644768,0.838222,0.0,2,0,0,0
385430487,34.0350797338,108.756349998,427.963,399.741,-0.0,0.63814,0.835864,0.0,2,0,0,0
385630664,34.0350783201,108.756349877,427.718,399.494,-0.0,0.63833,0.835558,0.0,2,0,0,0
385830842,34.0350767347,108.756349952,427.515,399.289,-0.0,0.638531,0.836349,0.0,2,0,0,0
386031019,34.035075026,108.756350087,427.402,399.173,-0.0,0.638748,0.83713,0.0,2,0,0,0
386231197,34.0350734222,108.756349972,427.422,399.189,-0.0,0.638984,0.836758,0.0,2,0,0,0
386431374,34.0350716022,108.756349754,427.46,399.225,-0.0,0.639248,0.836389,0.0,2,0,0,0
386631552,34.0350697884,108.756349408,427.523,399.287,-0.0,0.639511,0.837125,0.0,2,0,0,0
386831729,34.0350678796,108.75634893,427.613,399.379,-0.0,0.639776,0.8367,0.0,2,0,0,0
387031906,34.0350659235,108.756348499,427.733,399.5,-0.0,0.640026,0.836254,0.0,2,0,0,0
387222078,34.0350640493,108.756348198,427.876,399.647,-0.0,0.646818,0.838395,0.0,2,0,0,0
387432261,34.0350620141,108.756348021,428.057,399.832,-0.0,0.640492,0.836429,0.0,2,0,0,0
387632438,34.0350601411,108.756347799,428.245,400.025,-0.0,0.640736,0.835918,0.0,2,0,0,0
387832615,34.0350583473,108.756347499,428.441,400.226,-0.0,0.640977,0.835396,0.0,2,0,0,0
388032793,34.0350565453,108.756347151,428.641,400.431,-0.0,0.641263,0.835982,0.0,2,0,0,0
388232970,34.0350548521,108.756346937,428.851,400.646,-0.0,0.641513,0.83545,0.0,2,0,0,0
388423138,34.0350531954,108.756346735,429.044,400.844,-0.0,0.64146,0.834654,0.0,2,0,0,0
388623316,34.0350514001,108.756346373,429.229,401.034,-0.0,0.648867,0.836758,0.0,2,0,0,0
388833501,34.0350494848,108.75634599,429.382,401.193,-0.0,0.642353,0.83497,0.0,2,0,0,0
389033679,34.0350475908,108.756345828,429.48,401.297,-0.0,0.642605,0.83446,0.0,2,0,0,0
389233855,34.0350457566,108.756346158,429.538,401.359,-0.0,0.650146,0.836543,0.0,2,0,0,0
389424024,34.0350440124,108.756346423,429.557,401.384,-0.0,0.64994,0.835731,0.0,2,0,0,0
389624201,34.0350421478,108.7563467,429.538,401.37,-0.0,0.650183,0.836334,0.0,2,0,0,0
389824378,34.0350402183,108.756347011,429.484,401.319,-0.0,0.650419,0.83584,0.0,2,0,0,0
390024557,34.0350383451,108.756347329,429.395,401.233,-0.0,0.650653,0.835369,0.0,2,0,0,0
390234741,34.0350363678,108.756347573,429.266,401.107,-0.0,0.643947,0.833681,0.0,2,0,0,0
390424913,34.0350346208,108.756347773,429.154,400.997,-0.0,0.651139,0.835597,0.0,2,0,0,0
390625086,34.0350328535,108.756347923,429.065,400.907,-0.0,0.651366,0.835196,0.0,2,0,0,0
390825269,34.0350311622,108.756348032,428.994,400.836,-0.0,0.651603,0.834805,0.0,2,0,0,0
391025440,34.0350294418,108.756348118,428.92,400.761,-0.0,0.651826,0.835535,0.0,2,0,0,0
391225617,34.0350276687,108.756348123,428.824,400.665,-0.0,0.652039,0.83518,0.0,2,0,0,0
391425794,34.0350259157,108.75634815,428.702,400.543,-0.0,0.64478,0.833229,0.0,2,0,0,0
391625984,34.0350240051,108.756348132,428.553,400.394,-0.0,0.645013,0.833966,0.0,2,0,0,0
391826148,34.0350219027,108.756348027,428.381,400.223,-0.0,0.645238,0.833657,0.0,2,0,0,0
392026325,34.0350197341,108.75634788,428.195,400.038,-0.0,0.645442,0.833363,0.0,2,0,0,0
392226502,34.0350175961,108.756347768,428.006,399.848,-0.0,0.645625,0.833084,0.0,2,0,0,0
392426679,34.0350154003,108.756347481,427.829,399.671,-0.0,0.653291,0.835633,0.0,2,0,0,0
392626856,34.0350131017,108.756346845,427.679,399.518,-0.0,0.645957,0.833609,0.0,2,0,0,0
392827033,34.0350107759,108.756346045,427.547,399.385,-0.0,0.646134,0.833348,0.0,2,0,0,0
393027215,34.0350083175,108.756345333,427.474,399.308,-0.0,0.646316,0.834167,0.0,2,0,0,0
393227387,34.0350060093,108.756344503,427.512,399.342,-0.0,0.6541,0.83576,0.0,2,0,0,0
393427570,34.0350035261,108.756343665,427.548,399.376,-0.0,0.646635,0.833701,0.0,2,0,0,0
393627741,34.0350010364,108.75634306,427.599,399.424,-0.0,0.646811,0.834522,0.0,2,0,0,0
393827918,34.0349984902,108.756342321,427.643,399.468,-0.0,0.654602,0.835986,0.0,2,0,0,0
394028095,34.0349959167,108.756341746,427.688,399.513,-0.0,0.654695,0.835648,0.0,2,0,0,0
394228278,34.034993441,108.756341544,427.711,399.535,-0.0,0.647232,0.834699,0.0,2,0,0,0
394428451,34.0349909286,108.756341332,427.708,399.534,-0.0,0.647391,0.834352,0.0,2,0,0,0
394628626,34.0349883652,108.756341001,427.692,399.519,-0.0,0.647547,0.833991,0.0,2,0,0,0
394828803,34.0349857932,108.756340562,427.666,399.494,-0.0,0.647707,0.833616,0.0,2,0,0,0
395028979,34.0349832195,108.756340119,427.648,399.478,-0.0,0.655457,0.835905,0.0,2,0,0,0
395229160,34.0349807009,108.756339679,427.66,399.49,-0.0,0.655599,0.83549,0.0,2,0,0,0
395429333,34.0349781702,108.75633928,427.693,399.523,-0.0,0.655707,0.835076,0.0,2,0,0,0
395629510,34.0349757005,108.756338933,427.729,399.558,-0.0,0.655882,0.834671,0.0,2,0,0,0
395829687,34.0349732567,108.756338589,427.779,399.607,-0.0,0.656068,0.83537,0.0,2,0,0,0
396029873,34.0349708102,108.756338392,427.85,399.677,-0.0,0.656205,0.834976,0.0,2,0,0,0
396230047,34.0349683745,108.756338814,427.92,399.747,-0.0,0.648642,0.833062,0.0,2,0,0,0
396430220,34.0349659287,108.756339499,427.999,399.826,-0.0,0.656626,0.835315,0.0,2,0,0,0
396630394,34.0349634621,108.756340119,428.088,399.917,-0.0,0.648955,0.833393,0.0,2,0,0,0
396830571,34.034960995,108.756340543,428.174,400.003,-0.0,0.649137,0.833047,0.0,2,0,0,0
397030748,34.0349585693,108.756341272,428.243,400.075,-0.0,0.649309,0.83271,0.0,2,0,0,0
397230924,34.0349561369,108.756341849,428.298,400.131,-0.0,0.657325,0.835032,0.0,2,0,0,0
397431106,34.0349537458,108.756342389,428.333,400.168,-0.0,0.649611,0.833114,0.0,2,0,0,0
397631283,34.0349513739,108.756342737,428.346,400.184,-0.0,0.649775,0.833854,0.0,2,0,0,0
397831455,34.034949002,108.756343017,428.34,400.181,-0.0,0.649938,0.83353,0.0,2,0,0,0
398031632,34.034946661,108.756343103,428.312,400.155,-0.0,0.650098,0.833219,0.0,2,0,0,0
398231808,34.0349443426,108.75634318,428.254,400.098,-0.0,0.65026,0.833983,0.0,2,0,0,0
398421976,34.0349421428,108.756343173,428.176,400.023,-0.0,0.657751,0.835101,0.0,2,0,0,0
398632162,34.0349397322,108.756342901,428.065,399.913,-0.0,0.650567,0.833412,0.0,2,0,0,0
398832351,34.0349374517,108.756342537,427.938,399.787,-0.0,0.650715,0.833143,0.0,2,0,0,0
399032522,34.0349351371,108.756341968,427.817,399.668,-0.0,0.65085,0.833946,0.0,2,0,0,0
399232694,34.0349328407,108.756341419,427.728,399.58,-0.0,0.65874,0.835446,0.0,2,0,0,0
399432869,34.0349304113,108.756340681,427.657,399.51,-0.0,0.651072,0.834468,0.0,2,0,0,0
399623038,34.0349281364,108.756340133,427.609,399.464,-0.0,0.658558,0.835725,0.0,2,0,0,0
399823219,34.0349256807,108.756339647,427.594,399.45,-0.0,0.658709,0.835466,0.0,2,0,0,0
400033400,34.0349229569,108.756339037,427.596,399.453,-0.0,0.651483,0.833683,0.0,2,0,0,0
400233582,34.0349203085,108.756338531,427.61,399.469,-0.0,0.651624,0.834509,0.0,2,0,0,0
400433754,34.0349176717,108.756338084,427.626,399.488,-0.0,0.651769,0.834262,0.0,2,0,0,0
400623922,34.0349154023,108.756337673,427.652,399.516,-0.0,0.659283,0.835604,0.0,2,0,0,0
400824099,34.0349132426,108.756337274,427.7,399.567,-0.0,0.659416,0.836491,0.0,2,0,0,0
401024282,34.0349112793,108.756336808,427.756,399.626,-0.0,0.659514,0.836254,0.0,2,0,0,0
401224452,34.0349095832,108.75633633,427.813,399.686,-0.0,0.65965,0.836019,0.0,2,0,0,0
401434638,34.0349078375,108.756335652,427.885,399.761,-0.0,0.652395,0.834162,0.0,2,0,0,0
401624806,34.0349062445,108.756335114,427.979,399.858,-0.0,0.659886,0.836676,0.0,2,0,0,0
401824983,34.034904518,108.756334603,428.08,399.964,-0.0,0.66,0.83644,0.0,2,0,0,0
402025160,34.0349029233,108.756334236,428.204,400.092,-0.0,0.660047,0.836198,0.0,2,0,0,0
402225340,34.0349012927,108.756333876,428.332,400.224,-0.0,0.660017,0.837091,0.0,2,0,0,0
402425526,34.0348996052,108.756333503,428.457,400.35,-0.0,0.659883,0.836846,0.0,2,0,0,0
402625694,34.0348979442,108.756332966,428.583,400.479,-0.0,0.659703,0.836597,0.0,2,0,0,0
402825867,34.0348962678,108.756332434,428.71,400.607,-0.0,0.65165,0.834373,0.0,2,0,0,0
403026044,34.0348945863,108.756332046,428.837,400.734,-0.0,0.659348,0.837241,0.0,2,0,0,0
403226233,34.0348930054,108.756331593,428.963,400.861,-0.0,0.659102,0.836983,0.0,2,0,0,0
403426398,34.0348913969,108.75633123,429.085,400.983,-0.0,0.658799,0.836722,0.0,2,0,0,0
403626578,34.034889739,108.756330818,429.196,401.095,-0.0,0.658519,0.837602,0.0,2,0,0,0
403826751,34.0348880325,108.756330486,429.301,401.202,-0.0,0.658241,0.837335,0.0,2,0,0,0
404026928,34.0348862901,108.756330263,429.411,401.315,-0.0,0.657955,0.837068,0.0,2,0,0,0
404227105,34.0348845299,108.756330319,429.517,401.424,-0.0,0.657679,0.836797,0.0,2,0,0,0
404427282,34.0348827321,108.756330366,429.586,401.496,-0.0,0.657363,0.837669,0.0,2,0,0,0
404627459,34.0348809274,108.756330429,429.6,401.513,-0.0,0.657098,0.837392,0.0,2,0,0,0
404827635,34.0348790781,108.756330541,429.555,401.471,-0.0,0.649201,0.8351,0.0,2,0,0,0
405027812,34.0348773436,108.756330707,429.457,401.376,-0.0,0.648987,0.834832,0.0,2,0,0,0
405227991,34.0348759884,108.756330901,429.288,401.209,-0.0,0.656316,0.837691,0.0,2,0,0,0
405428166,34.0348749074,108.756331164,429.053,400.976,-0.0,0.648518,0.83538,0.0,2,0,0,0
405628343,34.0348739831,108.75633155,428.747,400.674,-0.0,0.655764,0.837105,0.0,2,0,0,0
405828519,34.034873323,108.756332154,428.392,400.322,-0.0,0.648038,0.835923,0.0,2,0,0,0
406028696,34.0348727917,108.756332792,428.015,399.946,-0.0,0.647823,0.835623,0.0,2,0,0,0
406228873,34.0348725265,108.756333626,427.669,399.6,-0.0,0.655026,0.837325,0.0,2,0,0,0
406429050,34.0348722792,108.756334189,427.449,399.379,-0.0,0.654842,0.838165,0.0,2,0,0,0
406629227,34.0348717286,108.756334823,427.327,399.259,-0.0,0.647143,0.835844,0.0,2,0,0,0
406829403,34.0348709846,108.756335967,427.273,399.212,-0.0,0.646994,0.835543,0.0,2,0,0,0
407029581,34.0348703336,108.756336863,427.259,399.209,-0.0,0.654372,0.837387,0.0,2,0,0,0
407229757,34.0348695503,108.756337384,427.281,399.247,-0.0,0.654178,0.838279,0.0,2,0,0,0
407429934,34.0348686336,108.75633767,427.338,399.321,-0.0,0.646525,0.83586,0.0,2,0,0,0
407630111,34.0348676901,108.756337925,427.415,399.418,-0.0,0.646384,0.836688,0.0,2,0,0,0
407830288,34.0348666717,108.756337934,427.496,399.517,-0.0,0.646239,0.836369,0.0,2,0,0,0
408030465,34.0348656272,108.756337759,427.563,399.603,-0.0,0.64612,0.83604,0.0,2,0,0,0
408230642,34.0348645666,108.756337482,427.615,399.675,-0.0,0.645975,0.83682,0.0,2,0,0,0
408430819,34.0348635237,108.756337176,427.668,399.745,-0.0,0.645825,0.836455,0.0,2,0,0,0
408630996,34.0348627674,108.756336865,427.722,399.817,-0.0,0.645671,0.836075,0.0,2,0,0,0
408831173,34.0348624804,108.756336597,427.755,399.866,-0.0,0.645561,0.835682,0.0,2,0,0,0
409031350,34.0348623702,108.75633626,427.787,399.914,-0.0,0.645454,0.836393,0.0,2,0,0,0
409231527,34.0348622183,108.756335906,427.824,399.969,-0.0,0.653009,0.837768,0.0,2,0,0,0
409431704,34.0348619476,108.756335523,427.857,400.015,-0.0,0.645188,0.835513,0.0,2,0,0,0
409631882,34.0348616848,108.756335163,427.9,400.074,-0.0,0.645123,0.836179,0.0,2,0,0,0
409832062,34.0348613842,108.756334785,427.944,400.131,-0.0,0.645078,0.83572,0.0,2,0,0,0
410032236,34.0348610241,108.756334425,427.991,400.191,-0.0,0.645034,0.835263,0.0,2,0,0,0
410232413,34.0348606112,108.756334096,428.03,400.243,-0.0,0.644991,0.835911,0.0,2,0,0,0
410432590,34.0348601341,108.756333906,428.064,400.288,-0.0,0.644966,0.835452,0.0,2,0,0,0
410632767,34.03485957,108.756334096,428.089,400.324,-0.0,0.644919,0.835003,0.0,2,0,0,0
410822935,34.0348589955,108.756334364,428.103,400.348,-0.0,0.652216,0.837041,0.0,2,0,0,0
411023113,34.0348583191,108.756334391,428.116,400.37,-0.0,0.652123,0.836587,0.0,2,0,0,0
411233299,34.0348575726,108.756334426,428.117,400.38,-0.0,0.652427,0.836435,0.0,2,0,0,0
411433476,34.0348567967,108.756334443,428.112,400.382,-0.0,0.644506,0.834368,0.0,2,0,0,0
411633653,34.0348560047,108.756334427,428.102,400.38,-0.0,0.644402,0.833961,0.0,2,0,0,0
411823821,34.0348551849,108.756334417,428.098,400.382,-0.0,0.651604,0.836017,0.0,2,0,0,0
412023993,34.0348542951,108.756334391,428.103,400.393,-0.0,0.643824,0.833984,0.0,2,0,0,0
412224176,34.0348534014,108.756334265,428.118,400.413,-0.0,0.651283,0.835254,0.0,2,0,0,0
412424353,34.0348524677,108.756334085,428.131,400.431,-0.0,0.643697,0.834328,0.0,2,0,0,0
412634539,34.034851389,108.756333809,428.129,400.434,-0.0,0.644027,0.83426,0.0,2,0,0,0
412824708,34.0348503753,108.756333534,428.147,400.457,-0.0,0.643741,0.833648,0.0,2,0,0,0
413024885,34.0348492652,108.756333285,428.161,400.475,-0.0,0.643829,0.834398,0.0,2,0,0,0
413225064,34.0348482787,108.756333157,428.161,400.477,-0.0,0.643952,0.834085,0.0,2,0,0,0
413425239,34.0348472512,108.75633306,428.152,400.47,-0.0,0.651296,0.835521,0.0,2,0,0,0
413625417,34.0348462122,108.756333037,428.131,400.45,-0.0,0.651408,0.835231,0.0,2,0,0,0
413825597,34.034845091,108.756333143,428.112,400.43,-0.0,0.651479,0.836063,0.0,2,0,0,0
414025772,34.0348441883,108.756333412,428.073,400.389,-0.0,0.651536,0.835794,0.0,2,0,0,0
414225949,34.0348435541,108.756333779,428.031,400.344,-0.0,0.651523,0.835523,0.0,2,0,0,0
414426126,34.0348433488,108.756334203,427.982,400.291,-0.0,0.651513,0.836363,0.0,2,0,0,0
414626308,34.0348435672,108.756334701,427.936,400.242,-0.0,0.644382,0.834251,0.0,2,0,0,0
414826481,34.0348441251,108.756335198,427.902,400.204,-0.0,0.651641,0.83583,0.0,2,0,0,0
415026658,34.0348449028,108.756335641,427.878,400.177,-0.0,0.651634,0.836691,0.0,2,0,0,0
415226836,34.0348459708,108.756336064,427.855,400.149,-0.0,0.651671,0.836431,0.0,2,0,0,0
415427013,34.034847177,108.756336545,427.835,400.125,-0.0,0.651653,0.836175,0.0,2,0,0,0
415627191,34.0348484269,108.756337087,427.819,400.105,-0.0,0.651662,0.835924,0.0,2,0,0,0
415827369,34.0348495517,108.756337822,427.818,400.099,-0.0,0.65166,0.83679,0.0,2,0,0,0
416027546,34.0348506331,108.75633876,427.839,400.115,-0.0,0.651644,0.836505,0.0,2,0,0,0
416227726,34.0348517106,108.756339806,427.872,400.142,-0.0,0.644241,0.835391,0.0,2,0,0,0
416427901,34.0348527119,108.756340741,427.921,400.184,-0.0,0.651578,0.837083,0.0,2,0,0,0
416628093,34.0348537109,108.756341544,427.976,400.231,-0.0,0.651484,0.836801,0.0,2,0,0,0
416828278,34.0348545597,108.75634226,428.038,400.284,-0.0,0.65136,0.837666,0.0,2,0,0,0
417028437,34.0348553553,108.756343059,428.107,400.344,-0.0,0.643824,0.835386,0.0,2,0,0,0
417228611,34.034856099,108.756343854,428.192,400.417,-0.0,0.651156,0.837106,0.0,2,0,0,0
417428788,34.0348567261,108.756344763,428.293,400.509,-0.0,0.651056,0.836829,0.0,2,0,0,0
417628966,34.0348572605,108.756345772,428.422,400.627,-0.0,0.650943,0.837699,0.0,2,0,0,0
417829143,34.0348578414,108.756346842,428.562,400.756,-0.0,0.650847,0.837418,0.0,2,0,0,0
418029321,34.0348583151,108.756347863,428.715,400.898,-0.0,0.64333,0.835134,0.0,2,0,0,0
418229498,34.0348587866,108.756348667,428.886,401.059,-0.0,0.650654,0.836858,0.0,2,0,0,0
418429676,34.0348591812,108.756349126,429.049,401.211,-0.0,0.64312,0.835692,0.0,2,0,0,0
418629854,34.034859628,108.756349485,429.193,401.347,-0.0,0.64304,0.835415,0.0,2,0,0,0
418830035,34.0348598788,108.756349967,429.301,401.445,-0.0,0.642956,0.835141,0.0,2,0,0,0
419030209,34.0348600871,108.756350437,429.35,401.485,-0.0,0.642852,0.835972,0.0,2,0,0,0
419230387,34.0348602657,108.756350892,429.337,401.464,-0.0,0.650044,0.837714,0.0,2,0,0,0
419430564,34.0348604979,108.756351384,429.272,401.39,-0.0,0.649815,0.8374,0.0,2,0,0,0
419630742,34.0348607508,108.756351948,429.154,401.263,-0.0,0.642346,0.836193,0.0,2,0,0,0
419830919,34.0348610033,108.75635255,429.02,401.12,-0.0,0.642184,0.835891,0.0,2,0,0,0
420031100,34.0348612503,108.756352958,428.876,400.965,-0.0,0.642029,0.835592,0.0,2,0,0,0
420231280,34.0348614929,108.7563531,428.731,400.809,-0.0,0.649088,0.837301,0.0,2,0,0,0
420431452,34.0348616894,108.756353187,428.588,400.654,-0.0,0.648896,0.838142,0.0,2,0,0,0
420631640,34.0348618958,108.756353356,428.445,400.501,-0.0,0.641473,0.83579,0.0,2,0,0,0
420831807,34.034862017,108.756353517,428.311,400.356,-0.0,0.641347,0.83549,0.0,2,0,0,0
421031985,34.034862069,108.756353659,428.194,400.228,-0.0,0.641243,0.835189,0.0,2,0,0,0
421232163,34.0348620975,108.756353809,428.115,400.138,-0.0,0.648353,0.838038,0.0,2,0,0,0
421432341,34.034862071,108.756354021,428.066,400.079,-0.0,0.640992,0.835688,0.0,2,0,0,0
421632518,34.0348619498,108.756354279,428.034,400.037,-0.0,0.640922,0.835386,0.0,2,0,0,0
421832696,34.0348617338,108.756354548,428.022,400.015,-0.0,0.640857,0.836192,0.0,2,0,0,0
422022865,34.0348615071,108.756354749,428.03,400.014,-0.0,0.64768,0.837595,0.0,2,0,0,0
422223043,34.0348613091,108.756354653,428.043,400.019,-0.0,0.64762,0.837279,0.0,2,0,0,0
422433232,34.0348610773,108.756354408,428.074,400.042,-0.0,0.640655,0.835283,0.0,2,0,0,0
422633407,34.0348608488,108.756354303,428.127,400.087,-0.0,0.640538,0.836093,0.0,2,0,0,0
422833602,34.0348605618,108.756354208,428.195,400.146,-0.0,0.640397,0.835789,0.0,2,0,0,0
423023757,34.0348601855,108.756354179,428.275,400.217,-0.0,0.647173,0.837168,0.0,2,0,0,0
423223932,34.0348596518,108.756354211,428.355,400.288,-0.0,0.647012,0.838005,0.0,2,0,0,0
423424110,34.034859067,108.756354327,428.445,400.37,-0.0,0.6468,0.837679,0.0,2,0,0,0
423624313,34.0348584894,108.756354573,428.543,400.459,-0.0,0.646653,0.837356,0.0,2,0,0,0
423834474,34.0348580001,108.7563548,428.651,400.56,-0.0,0.639785,0.835362,0.0,2,0,0,0
424024644,34.0348574367,108.75635508,428.763,400.664,-0.0,0.639441,0.835863,0.0,2,0,0,0
424224821,34.0348569079,108.756355526,428.88,400.774,-0.0,0.646442,0.837539,0.0,2,0,0,0
424425000,34.0348563328,108.756356089,429.006,400.893,-0.0,0.646395,0.838357,0.0,2,0,0,0
424625178,34.0348558479,108.756356722,429.125,401.005,-0.0,0.646351,0.838012,0.0,2,0,0,0
424825356,34.0348555725,108.756357528,429.244,401.118,-0.0,0.646354,0.837672,0.0,2,0,0,0
425025535,34.0348555777,108.756358399,429.372,401.239,-0.0,0.646321,0.837329,0.0,2,0,0,0
425225712,34.0348558355,108.756359374,429.505,401.365,-0.0,0.646357,0.838149,0.0,2,0,0,0
425425890,34.0348562041,108.756360572,429.641,401.496,-0.0,0.646365,0.837808,0.0,2,0,0,0
425626068,34.0348566893,108.756361785,429.776,401.625,-0.0,0.646419,0.837472,0.0,2,0,0,0
425826252,34.0348571609,108.756363036,429.888,401.733,-0.0,0.646404,0.838283,0.0,2,0,0,0
426026424,34.0348576775,108.756364321,429.961,401.803,-0.0,0.646423,0.837905,0.0,2,0,0,0
426226602,34.034858246,108.756365499,430.0,401.839,-0.0,0.646431,0.837536,0.0,2,0,0,0
426426780,34.0348589414,108.756366422,430.011,401.846,-0.0,0.64645,0.838332,0.0,2,0,0,0
426626959,34.0348598403,108.756367012,429.97,401.801,-0.0,0.646444,0.837964,0.0,2,0,0,0
426827137,34.0348609642,108.756367235,429.869,401.696,-0.0,0.646416,0.837598,0.0,2,0,0,0
427027315,34.0348621965,108.756367231,429.719,401.54,-0.0,0.646373,0.8384,0.0,2,0,0,0
427227493,34.0348634779,108.756366972,429.523,401.338,-0.0,0.646334,0.838039,0.0,2,0,0,0
427427671,34.0348648354,108.756366695,429.276,401.087,-0.0,0.646142,0.837671,0.0,2,0,0,0
427627853,34.0348663805,108.756366552,429.011,400.815,-0.0,0.64609,0.838467,0.0,2,0,0,0
427828028,34.0348681654,108.756366654,428.753,400.552,-0.0,0.63921,0.836105,0.0,2,0,0,0
428028206,34.0348701052,108.756366893,428.538,400.33,-0.0,0.639221,0.835756,0.0,2,0,0,0
428228384,34.0348721919,108.756367383,428.395,400.179,-0.0,0.639268,0.83541,0.0,2,0,0,0
428428569,34.0348742956,108.756367805,428.325,400.099,-0.0,0.639353,0.836183,0.0,2,0,0,0
428628740,34.0348764163,108.756368279,428.319,400.083,-0.0,0.63946,0.835839,0.0,2,0,0,0
428828918,34.0348785812,108.756368922,428.356,400.11,-0.0,0.646657,0.837469,0.0,2,0,0,0
429029096,34.0348808902,108.756369516,428.378,400.123,-0.0,0.646804,0.838268,0.0,2,0,0,0
429229284,34.034883235,108.756370131,428.387,400.128,-0.0,0.646939,0.83788,0.0,2,0,0,0
429429452,34.0348854282,108.756370561,428.405,400.147,-0.0,0.647016,0.838661,0.0,2,0,0,0
429629631,34.0348875284,108.756370861,428.429,400.171,-0.0,0.647129,0.838278,0.0,2,0,0,0
429829809,34.0348896364,108.756371201,428.447,400.19,-0.0,0.647233,0.837895,0.0,2,0,0,0
430029994,34.0348916764,108.756371502,428.461,400.204,-0.0,0.647301,0.837522,0.0,2,0,0,0
430230170,34.0348935953,108.756371914,428.46,400.206,-0.0,0.647383,0.838314,0.0,2,0,0,0
430430343,34.0348953934,108.756372239,428.447,400.195,-0.0,0.640384,0.835964,0.0,2,0,0,0
430630521,34.0348972087,108.756372576,428.411,400.16,-0.0,0.640476,0.835619,0.0,2,0,0,0
430830699,34.0348990186,108.756372876,428.358,400.107,-0.0,0.640552,0.836384,0.0,2,0,0,0
431030881,34.034900802,108.756373307,428.312,400.062,-0.0,0.640612,0.836024,0.0,2,0,0,0
431231059,34.0349025469,108.75637377,428.29,400.039,-0.0,0.647794,0.83764,0.0,2,0,0,0
431431237,34.0349042949,108.756374248,428.269,400.017,-0.0,0.647825,0.838435,0.0,2,0,0,0
431631412,34.0349060214,108.756374896,428.249,399.995,-0.0,0.64074,0.836064,0.0,2,0,0,0
431831590,34.034907735,108.756375585,428.247,399.993,-0.0,0.640826,0.835697,0.0,2,0,0,0
432031768,34.0349094034,108.756376225,428.274,400.02,-0.0,0.640877,0.836457,0.0,2,0,0,0
432231946,34.0349110453,108.756376869,428.322,400.069,-0.0,0.640926,0.836102,0.0,2,0,0,0
432432125,34.0349126167,108.756377584,428.38,400.128,-0.0,0.64094,0.836861,0.0,2,0,0,0
432632303,34.0349140541,108.756378322,428.442,400.193,-0.0,0.640921,0.836473,0.0,2,0,0,0
432832481,34.0349154512,108.756379187,428.502,400.256,-0.0,0.640888,0.836091,0.0,2,0,0,0
433032668,34.0349166901,108.756380151,428.57,400.329,-0.0,0.640858,0.836843,0.0,2,0,0,0
433222830,34.0349176928,108.756381072,428.641,400.405,-0.0,0.6476,0.838148,0.0,2,0,0,0
433423006,34.0349186843,108.756382141,428.7,400.47,-0.0,0.647533,0.837766,0.0,2,0,0,0
433633193,34.0349195958,108.756383241,428.776,400.552,-0.0,0.640758,0.835733,0.0,2,0,0,0
433833373,34.0349199897,108.756384484,428.839,400.622,-0.0,0.640734,0.836495,0.0,2,0,0,0
434033550,34.0349200389,108.756385853,428.891,400.679,-0.0,0.640727,0.836111,0.0,2,0,0,0
434223719,34.0349200097,108.756387284,428.933,400.728,-0.0,0.647399,0.838532,0.0,2,0,0,0
434423897,34.0349200437,108.756388789,428.971,400.774,-0.0,0.647388,0.838109,0.0,2,0,0,0
434624080,34.0349199515,108.75639036,429.005,400.815,-0.0,0.647389,0.838873,0.0,2,0,0,0
434824262,34.0349197903,108.75639189,429.031,400.848,-0.0,0.64742,0.838463,0.0,2,0,0,0
435034444,34.0349196098,108.756393523,429.039,400.865,-0.0,0.640917,0.836388,0.0,2,0,0,0
435224620,34.0349194391,108.756395093,429.032,400.866,-0.0,0.647653,0.837666,0.0,2,0,0,0
435424788,34.0349193161,108.756396729,429.005,400.848,-0.0,0.647776,0.838445,0.0,2,0,0,0
435624966,34.0349192003,108.756398328,428.969,400.823,-0.0,0.640988,0.836085,0.0,2,0,0,0
435825144,34.0349190999,108.756399842,428.933,400.798,-0.0,0.641185,0.835726,0.0,2,0,0,0
436025322,34.0349189971,108.756401421,428.902,400.779,-0.0,0.648378,0.838483,0.0,2,0,0,0
436225514,34.0349189637,108.756403037,428.873,400.761,-0.0,0.648583,0.838111,0.0,2,0,0,0
436425680,34.0349189819,108.756404737,428.832,400.733,-0.0,0.648793,0.837747,0.0,2,0,0,0
436625857,34.034918981,108.756406627,428.781,400.694,-0.0,0.649006,0.837383,0.0,2,0,0,0
436826035,34.0349190185,108.756408724,428.731,400.656,-0.0,0.649235,0.838182,0.0,2,0,0,0
437026218,34.0349190817,108.756410973,428.669,400.607,-0.0,0.649479,0.837825,0.0,2,0,0,0
437226392,34.0349191561,108.756413183,428.601,400.552,-0.0,0.649747,0.837472,0.0,2,0,0,0
437426570,34.0349192446,108.756415382,428.522,400.485,-0.0,0.650006,0.838275,0.0,2,0,0,0
437626748,34.0349193142,108.756417576,428.464,400.439,-0.0,0.643166,0.835921,0.0,2,0,0,0
437826928,34.0349193448,108.75641979,428.422,400.408,-0.0,0.643456,0.835558,0.0,2,0,0,0
438027104,34.0349194861,108.756421989,428.41,400.407,-0.0,0.643738,0.836315,0.0,2,0,0,0
438227283,34.0349195996,108.756424164,428.437,400.446,-0.0,0.651275,0.837932,0.0,2,0,0,0
