timestamp,q[0],q[1],q[2],q[3],delta_q_reset[0],delta_q_reset[1],delta_q_reset[2],delta_q_reset[3],quat_reset_counter
304828207,-0.999187,-0.0295986,0.0197219,0.018971,0.999973,-6.22403e-12,2.80544e-11,-0.00736015,3
304833211,-0.999171,-0.0292741,0.0205502,0.0194565,0.999973,-6.22403e-12,2.80544e-11,-0.00736015,3
304883256,-0.999226,-0.0292468,0.019005,0.0182026,0.999973,-6.22403e-12,2.80544e-11,-0.00736015,3
304928295,-0.999212,-0.0276806,0.0208223,0.0193762,0.999973,-6.22403e-12,2.80544e-11,-0.00736015,3
304978339,-0.999196,-0.0289876,0.0200705,0.0190798,0.999973,-6.22403e-12,2.80544e-11,-0.00736015,3
305033389,-0.999249,-0.0277008,0.0190663,0.0192431,0.999973,-6.22403e-12,2.80544e-11,-0.00736015,3
305078431,-0.999278,-0.0271341,0.0187801,0.0188023,0.999973,-6.22403e-12,2.80544e-11,-0.00736015,3
305128474,-0.999301,-0.026682,0.0185524,0.0184947,0.999973,-6.22403e-12,2.80544e-11,-0.00736015,3
305183523,-0.999385,-0.024752,0.0176371,0.017487,0.999973,-6.22403e-12,2.80544e-11,-0.00736015,3
305233582,-0.999487,-0.021756,0.0159415,0.0172526,0.999973,-6.22403e-12,2.80544e-11,-0.00736015,3
305278612,-0.999532,-0.0189701,0.0170096,0.0169557,0.999973,-6.22403e-12,2.80544e-11,-0.00736015,3
305328654,-0.999506,-0.0204023,0.0179156,0.015827,0.999973,-6.22403e-12,2.80544e-11,-0.00736015,3
305383704,-0.999476,-0.0207748,0.0183126,0.016736,0.999973,-6.22403e-12,2.80544e-11,-0.00736015,3
305428744,-0.999476,-0.021886,0.0178667,0.0158058,0.999973,-6.22403e-12,2.80544e-11,-0.00736015,3
305478790,-0.999492,-0.02104,0.0168814,0.0169911,0.999973,-6.22403e-12,2.80544e-11,-0.00736015,3
305533839,-0.999467,-0.0234681,0.0155499,0.0165285,0.999973,-6.22403e-12,2.80544e-11,-0.00736015,3
305578884,-0.99935,-0.0254101,0.019449,0.0166325,0.999973,-6.22403e-12,2.80544e-11,-0.00736015,3
305628925,-0.999396,-0.0265348,0.0154732,0.0162807,0.999973,-6.22403e-12,2.80544e-11,-0.00736015,3
305678970,-0.999202,-0.031797,0.0180334,0.0160693,0.999973,-6.22403e-12,2.80544e-11,-0.00736015,3
305734019,-0.999015,-0.0373261,0.0176863,0.0162165,0.999973,-6.22403e-12,2.80544e-11,-0.00736015,3
305779060,-0.998832,-0.0419508,0.0182126,0.0156131,0.999973,-6.22403e-12,2.80544e-11,-0.00736015,3
305834111,-0.998581,-0.04724,0.0187433,0.0159277,0.999973,-6.22403e-12,2.80544e-11,-0.00736015,3
305884154,-0.998639,-0.0477717,0.0148942,0.0146792,0.999973,-6.22403e-12,2.80544e-11,-0.00736015,3
305929195,-0.998401,-0.0508596,0.0198504,0.0146586,0.999973,-6.22403e-12,2.80544e-11,-0.00736015,3
305979243,-0.998503,-0.0503415,0.0171177,0.0128601,0.999973,-6.22403e-12,2.80544e-11,-0.00736015,3
306029286,-0.998437,-0.0512017,0.0183526,0.0128374,0.999973,-6.22403e-12,2.80544e-11,-0.00736015,3
306079331,-0.998424,-0.0518156,0.0168385,0.0134552,0.999973,-6.22403e-12,2.80544e-11,-0.00736015,3
306129376,-0.998458,-0.0503062,0.0198027,0.0125975,0.999973,-6.22403e-12,2.80544e-11,-0.00736015,3
306179421,-0.998817,-0.0437189,0.0172791,0.0124465,0.999973,-6.22403e-12,2.80544e-11,-0.00736015,3
306229466,-0.998996,-0.0398336,0.0174789,0.0106996,0.999973,-6.22403e-12,2.80544e-11,-0.00736015,3
306279511,-0.999022,-0.0384842,0.0190123,0.0106488,0.999973,-6.22403e-12,2.80544e-11,-0.00736015,3
306329556,-0.998991,-0.0393774,0.0186546,0.0108989,0.999973,-6.22403e-12,2.80544e-11,-0.00736015,3
306379601,-0.999014,-0.0395219,0.0166946,0.0114513,0.999973,-6.22403e-12,2.80544e-11,-0.00736015,3
306429646,-0.999023,-0.0410278,0.0127623,0.0103684,0.999973,-6.22403e-12,2.80544e-11,-0.00736015,3
306479691,-0.998844,-0.0437801,0.0170051,0.0101994,0.999973,-6.22403e-12,2.80544e-11,-0.00736015,3
306529736,-0.998669,-0.0476717,0.017508,0.00900747,0.999973,-6.22403e-12,2.80544e-11,-0.00736015,3
306579782,-0.998519,-0.0499763,0.0194933,0.00905076,0.999973,-6.22403e-12,2.80544e-11,-0.00736015,3
306629829,-0.998593,-0.0501122,0.015276,0.00826226,0.999973,-6.22403e-12,2.80544e-11,-0.00736015,3
306679871,-0.998466,-0.0518612,0.0180966,0.00693657,0.999973,-6.22403e-12,2.80544e-11,-0.00736015,3
306729917,-0.998427,-0.0524745,0.0184158,0.00713956,0.999973,-6.22403e-12,2.80544e-11,-0.00736015,3
306779962,-0.99842,-0.0528088,0.0178965,0.00703341,0.999973,-6.22403e-12,2.80544e-11,-0.00736015,3
306830008,-0.998566,-0.0503364,0.0168169,0.00705585,0.999973,-6.22403e-12,2.80544e-11,-0.00736015,3
306880052,-0.998692,-0.0489224,0.0138074,0.00546606,0.999973,-6.22403e-12,2.80544e-11,-0.00736015,3
306930097,-0.998719,-0.0475497,0.0164107,0.00557538,0.999973,-6.22403e-12,2.80544e-11,-0.00736015,3
306980142,-0.998746,-0.0472007,0.0162216,0.00385065,0.999973,-6.22403e-12,2.80544e-11,-0.00736015,3
307030191,-0.998792,-0.04572,0.0176693,0.00347955,0.999973,-6.22403e-12,2.80544e-11,-0.00736015,3
307080232,-0.998995,-0.0425428,0.0139054,0.00221934,0.999973,-6.22403e-12,2.80544e-11,-0.00736015,3
307130282,-0.999042,-0.0401267,0.017417,0.00133482,0.999973,-6.22403e-12,2.80544e-11,-0.00736015,3
307180330,-0.99915,-0.0380949,0.0155855,0.00226605,0.999973,-6.22403e-12,2.80544e-11,-0.00736015,3
307230368,-0.999098,-0.0389592,0.0166802,0.00255866,0.999973,-6.22403e-12,2.80544e-11,-0.00736015,3
307280411,-0.999213,-0.0373056,0.0132445,0.00241367,0.999973,-6.22403e-12,2.80544e-11,-0.00736015,3
307330458,-0.99923,-0.0357118,0.0162004,0.0014603,0.999973,-6.22403e-12,2.80544e-11,-0.00736015,3
307380503,-0.999361,-0.0324789,0.0147293,0.00241866,0.999973,-6.22403e-12,2.80544e-11,-0.00736015,3
307430550,-0.999366,-0.0328204,0.0137562,0.00138403,0.999973,-6.22403e-12,2.80544e-11,-0.00736015,3
307480593,-0.999375,-0.0330516,0.0124588,0.00166774,0.999973,-6.22403e-12,2.80544e-11,-0.00736015,3
307530643,-0.999292,-0.0347468,0.0143263,0.00145908,0.999973,-6.22403e-12,2.80544e-11,-0.00736015,3
307580683,-0.999317,-0.0341849,0.0140038,0.00118637,0.999973,-6.22403e-12,2.80544e-11,-0.00736015,3
307630729,-0.999237,-0.0366353,0.0135466,-0.000601235,0.999973,-6.22403e-12,2.80544e-11,-0.00736015,3
307680774,-0.999115,-0.0391332,0.0154253,-0.000795795,0.999973,-6.22403e-12,2.80544e-11,-0.00736015,3
307730819,-0.99912,-0.0403093,0.0115168,-0.00135995,0.999973,-6.22403e-12,2.80544e-11,-0.00736015,3
307780864,-0.999035,-0.0412857,0.0148434,-0.00206304,0.999973,-6.22403e-12,2.80544e-11,-0.00736015,3
307830909,-0.99909,-0.039889,0.0149612,-0.00202798,0.999973,-6.22403e-12,2.80544e-11,-0.00736015,3
307880956,-0.999269,-0.0365258,0.0108543,-0.00299567,0.999973,-6.22403e-12,2.80544e-11,-0.00736015,3
307930999,-0.999355,-0.0337766,0.0115853,-0.00380283,0.999973,-6.22403e-12,2.80544e-11,-0.00736015,3
307981045,-0.999494,-0.028636,0.0129855,-0.0047278,0.999973,-6.22403e-12,2.80544e-11,-0.00736015,3
308031093,-0.999612,-0.0242838,0.012279,-0.00592373,0.999973,-6.22403e-12,2.80544e-11,-0.00736015,3
308081135,-0.999712,-0.0203255,0.0110827,-0.00631847,0.999973,-6.22403e-12,2.80544e-11,-0.00736015,3
308131180,-0.99976,-0.0179422,0.0103038,-0.00720372,0.999973,-6.22403e-12,2.80544e-11,-0.00736015,3
308181226,-0.999751,-0.0181575,0.0101053,-0.00814978,0.999973,-6.22403e-12,2.80544e-11,-0.00736015,3
308231291,-0.999742,-0.0191244,0.00840868,-0.00887372,0.999973,-6.22403e-12,2.80544e-11,-0.00736015,3
308281315,-0.999743,-0.0196973,0.00474112,-0.0101859,0.999973,-6.22403e-12,2.80544e-11,-0.00736015,3
308331361,-0.999767,-0.018386,-0.000624202,-0.0113288,0.999973,-6.22403e-12,2.80544e-11,-0.00736015,3
308381405,-0.99978,-0.0160195,-0.00739991,-0.0113123,0.999973,-6.22403e-12,2.80544e-11,-0.00736015,3
308431451,-0.999781,-0.0136459,-0.0109916,-0.0114554,0.999973,-6.22403e-12,2.80544e-11,-0.00736015,3
308481496,-0.999787,-0.0113533,-0.0134363,-0.0107974,0.999973,-6.22403e-12,2.80544e-11,-0.00736015,3
308531544,-0.999789,-0.00776498,-0.0164909,-0.00948931,0.999973,-6.22403e-12,2.80544e-11,-0.00736015,3
308581601,-0.999729,-0.0033194,-0.0211422,-0.00911414,0.999973,-6.22403e-12,2.80544e-11,-0.00736015,3
308631631,-0.999682,-0.00126073,-0.0238237,-0.00822065,0.999973,-6.22403e-12,2.80544e-11,-0.00736015,3
308681676,-0.999629,0.00106252,-0.0261974,-0.00737516,0.999973,-6.22403e-12,2.80544e-11,-0.00736015,3
308731722,-0.999618,0.00537766,-0.0259763,-0.00778582,0.999973,-6.22403e-12,2.80544e-11,-0.00736015,3
308781767,-0.999619,0.00787496,-0.0249848,-0.00868697,0.999973,-6.22403e-12,2.80544e-11,-0.00736015,3
308831812,-0.999726,0.00625922,-0.0207122,-0.00894225,0.999973,-6.22403e-12,2.80544e-11,-0.00736015,3
308881857,-0.999862,-0.000194374,-0.0144317,-0.00826268,0.999973,-6.22403e-12,2.80544e-11,-0.00736015,3
308931902,-0.999904,-0.00609777,-0.0102785,-0.00704943,0.999973,-6.22403e-12,2.80544e-11,-0.00736015,3
308981947,-0.999915,-0.0105617,-0.00494546,-0.00579301,0.999973,-6.22403e-12,2.80544e-11,-0.00736015,3
309032003,-0.999915,-0.0112457,-0.00342581,-0.00571311,0.999973,-6.22403e-12,2.80544e-11,-0.00736015,3
309082038,-0.999911,-0.011143,-0.00281129,-0.00677504,0.999973,-6.22403e-12,2.80544e-11,-0.00736015,3
309132083,-0.999889,-0.0126399,-0.00487151,-0.0062495,0.999973,-6.22403e-12,2.80544e-11,-0.00736015,3
309177123,-0.999864,-0.0125126,-0.00837289,-0.00673073,0.999973,-6.22403e-12,2.80544e-11,-0.00736015,3
309232173,-0.999829,-0.013921,-0.0108507,-0.00547222,0.999973,-6.22403e-12,2.80544e-11,-0.00736015,3
309282220,-0.999811,-0.0121536,-0.013962,-0.00591362,0.999973,-6.22403e-12,2.80544e-11,-0.00736015,3
309332271,-0.999814,-0.0132293,-0.0122271,-0.00690412,0.999973,-6.22403e-12,2.80544e-11,-0.00736015,3
309382309,-0.999873,-0.00975469,-0.0101975,-0.00736378,0.999973,-6.22403e-12,2.80544e-11,-0.00736015,3
309432354,-0.999936,-0.00503247,-0.00804552,-0.00615014,0.999973,-6.22403e-12,2.80544e-11,-0.00736015,3
309482410,-0.999944,0.00528741,-0.00715506,-0.00568243,0.999973,-6.22403e-12,2.80544e-11,-0.00736015,3
309527439,-0.999911,0.0103078,-0.00590215,-0.00604633,0.999973,-6.22403e-12,2.80544e-11,-0.00736015,3
309582489,-0.99988,0.0126124,-0.00632063,-0.00644381,0.999973,-6.22403e-12,2.80544e-11,-0.00736015,3
309632537,-0.99987,0.0126398,-0.00877118,-0.0047576,0.999973,-6.22403e-12,2.80544e-11,-0.00736015,3
309677575,-0.999843,0.0134569,-0.0111504,-0.00279717,0.999973,-6.22403e-12,2.80544e-11,-0.00736015,3
309732627,-0.99983,0.014559,-0.0112979,-0.000339191,0.999973,-6.22403e-12,2.80544e-11,-0.00736015,3
309782670,-0.999806,0.0151902,-0.0123999,0.00168705,0.999973,-6.22403e-12,2.80544e-11,-0.00736015,3
309832715,-0.999829,0.0138648,-0.011853,0.00297627,0.999973,-6.22403e-12,2.80544e-11,-0.00736015,3
309877755,-0.99984,0.0137315,-0.0106376,0.00422405,0.999973,-6.22403e-12,2.80544e-11,-0.00736015,3
309932805,-0.999865,0.0113475,-0.0103301,0.00585394,0.999973,-6.22403e-12,2.80544e-11,-0.00736015,3
309982850,-0.99987,0.00894285,-0.0101676,0.00875425,0.999973,-6.22403e-12,2.80544e-11,-0.00736015,3
310027891,-0.999878,0.00660118,-0.00960059,0.0103804,0.999973,-6.22403e-12,2.80544e-11,-0.00736015,3
310082940,-0.999883,0.00438428,-0.0075289,0.012614,0.999973,-6.22403e-12,2.80544e-11,-0.00736015,3
310132987,-0.999904,0.00226944,-0.00235682,0.0135097,0.999973,-6.22403e-12,2.80544e-11,-0.00736015,3
310178026,-0.999873,-0.000881256,-0.00207628,0.015788,0.999973,-6.22403e-12,2.80544e-11,-0.00736015,3
310228071,-0.99986,-0.00319898,-0.00301676,0.0161588,0.999973,-6.22403e-12,2.80544e-11,-0.00736015,3
310283121,-0.999826,-0.00290238,-0.00709444,0.0169852,0.999973,-6.22403e-12,2.80544e-11,-0.00736015,3
310333166,-0.999803,-0.00174024,-0.00934602,0.0173998,0.999973,-6.22403e-12,2.80544e-11,-0.00736015,3
310378207,-0.999791,0.000644887,-0.0108515,0.0173005,0.999973,-6.22403e-12,2.80544e-11,-0.00736015,3
310433257,-0.999808,0.00100982,-0.00872696,0.0175314,0.999973,-6.22403e-12,2.80544e-11,-0.00736015,3
310483304,-0.999818,0.00119457,-0.00590949,0.0181062,0.999973,-6.22403e-12,2.80544e-11,-0.00736015,3
310528343,-0.999829,0.00159545,-0.00385189,0.0180346,0.999973,-6.22403e-12,2.80544e-11,-0.00736015,3
310578388,-0.999833,0.000151442,-0.0019099,0.0182047,0.999973,-6.22403e-12,2.80544e-11,-0.00736015,3
310633437,-0.99982,-0.00288752,0.000206487,0.0187521,0.999973,-6.22403e-12,2.80544e-11,-0.00736015,3
310678478,-0.99981,-0.00404784,0.000767053,0.0190409,0.999973,-6.22403e-12,2.80544e-11,-0.00736015,3
310728523,-0.999799,-0.00566406,-0.000309169,0.0192396,0.999973,-6.22403e-12,2.80544e-11,-0.00736015,3
310783582,-0.999796,-0.00377781,-0.00447019,0.0193144,0.999973,-6.22403e-12,2.80544e-11,-0.00736015,3
310833619,-0.999781,-0.0031597,-0.00781139,0.0191741,0.999973,-6.22403e-12,2.80544e-11,-0.00736015,3
310878658,-0.999742,-0.0042498,-0.0108484,0.0194935,0.999973,-6.22403e-12,2.80544e-11,-0.00736015,3
310928704,-0.999724,-0.00557409,-0.0116949,0.0196027,0.999973,-6.22403e-12,2.80544e-11,-0.00736015,3
310983753,-0.999713,-0.00891345,-0.0104851,0.0195941,0.999973,-6.22403e-12,2.80544e-11,-0.00736015,3
311028794,-0.999721,-0.00941728,-0.00893246,0.0197616,0.999973,-6.22403e-12,2.80544e-11,-0.00736015,3
311078839,-0.999744,-0.00754432,-0.00915162,0.019263,0.999973,-6.22403e-12,2.80544e-11,-0.00736015,3
311133889,-0.999789,-0.00371557,-0.00632786,0.0191783,0.999973,-6.22403e-12,2.80544e-11,-0.00736015,3
311178933,-0.99982,-0.00141374,-0.00390904,0.018539,0.999973,-6.22403e-12,2.80544e-11,-0.00736015,3
311228974,-0.999836,-0.00173485,-0.00272288,0.0178386,0.999973,-6.22403e-12,2.80544e-11,-0.00736015,3
311279023,-0.999833,-0.00316648,-0.00164248,0.0179195,0.999973,-6.22403e-12,2.80544e-11,-0.00736015,3
311334072,-0.999813,-0.00614548,-0.000139681,0.0183196,0.999973,-6.22403e-12,2.80544e-11,-0.00736015,3
311379110,-0.999801,-0.00703483,5.49922e-05,0.0186917,0.999973,-6.22403e-12,2.80544e-11,-0.00736015,3
311429155,-0.999809,-0.00546691,-0.000682489,0.0187598,0.999973,-6.22403e-12,2.80544e-11,-0.00736015,3
311484205,-0.999818,-0.00480235,-0.00165193,0.0183917,0.999973,-6.22403e-12,2.80544e-11,-0.00736015,3
311529246,-0.999802,-0.00585585,-0.0033675,0.0186939,0.999973,-6.22403e-12,2.80544e-11,-0.00736015,3
311579291,-0.999799,-0.00433162,-0.00489543,0.0189538,0.999973,-6.22403e-12,2.80544e-11,-0.00736015,3
311629336,-0.999801,-0.00250207,-0.00625978,0.0187841,0.999973,-6.22403e-12,2.80544e-11,-0.00736015,3
311679381,-0.999793,-0.00167722,-0.00804304,0.0186132,0.999973,-6.22403e-12,2.80544e-11,-0.00736015,3
311729426,-0.999778,-0.0024314,-0.00967774,0.0185633,0.999973,-6.22403e-12,2.80544e-11,-0.00736015,3
311779471,-0.999807,-0.000760524,-0.00648539,0.0185558,0.999973,-6.22403e-12,2.80544e-11,-0.00736015,3
311834529,-0.999808,-0.00355806,0.00015006,0.0192794,0.999973,-6.22403e-12,2.80544e-11,-0.00736015,3
311879563,-0.999757,-0.00952392,0.00373712,0.019546,0.999973,-6.22403e-12,2.80544e-11,-0.00736015,3
311929607,-0.999688,-0.0146546,0.00559041,0.0194446,0.999973,-6.22403e-12,2.80544e-11,-0.00736015,3
311979652,-0.999671,-0.0156223,0.0069701,0.0190929,0.999973,-6.22403e-12,2.80544e-11,-0.00736015,3
312029703,-0.999679,-0.0155569,0.00426932,0.0195632,0.999973,-6.22403e-12,2.80544e-11,-0.00736015,3
312079742,-0.999724,-0.0126675,0.001219,0.019764,0.999973,-6.22403e-12,2.80544e-11,-0.00736015,3
312129787,-0.999754,-0.00946844,-0.000730461,0.020025,0.999973,-6.22403e-12,2.80544e-11,-0.00736015,3
312179832,-0.99976,-0.00880273,0.00229452,0.0199324,0.999973,-6.22403e-12,2.80544e-11,-0.00736015,3
312229878,-0.999698,-0.00776537,0.0121377,0.0198941,0.999973,-6.22403e-12,2.80544e-11,-0.00736015,3
312279923,-0.99942,-0.00792143,0.0266978,0.0196223,0.999973,-6.22403e-12,2.80544e-11,-0.00736015,3
312329971,-0.998809,-0.0113782,0.0435901,0.0187431,0.999973,-6.22403e-12,2.80544e-11,-0.00736015,3
312380013,-0.998136,-0.0133924,0.0567338,0.0180483,0.999973,-6.22403e-12,2.80544e-11,-0.00736015,3
312430058,-0.997725,-0.012474,0.0639768,0.0172061,0.999973,-6.22403e-12,2.80544e-11,-0.00736015,3
312480103,-0.9977,-0.0106218,0.0647618,0.0169474,0.999973,-6.22403e-12,2.80544e-11,-0.00736015,3
312530148,-0.997805,-0.010801,0.06317,0.0166927,0.999973,-6.22403e-12,2.80544e-11,-0.00736015,3
312580202,-0.998007,-0.0111595,0.0598491,0.0165971,0.999973,-6.22403e-12,2.80544e-11,-0.00736015,3
312630239,-0.998301,-0.0149058,0.0537462,0.0168829,0.999973,-6.22403e-12,2.80544e-11,-0.00736015,3
312680287,-0.998698,-0.0169021,0.0451792,0.016585,0.999973,-6.22403e-12,2.80544e-11,-0.00736015,3
312730329,-0.999211,-0.00668058,0.0355531,0.0163831,0.999973,-6.22403e-12,2.80544e-11,-0.00736015,3
312780374,-0.999441,0.0128628,0.0262296,0.0162372,0.999973,-6.22403e-12,2.80544e-11,-0.00736015,3
312830419,-0.999247,0.031361,0.0162597,0.0160528,0.999973,-6.22403e-12,2.80544e-11,-0.00736015,3
312880464,-0.998894,0.043411,0.00731186,0.016491,0.999973,-6.22403e-12,2.80544e-11,-0.00736015,3
312930516,-0.998499,0.0520871,0.00242368,0.0167317,0.999973,-6.22403e-12,2.80544e-11,-0.00736015,3
312980555,-0.998178,0.0579505,0.00149286,0.0167513,0.999973,-6.22403e-12,2.80544e-11,-0.00736015,3
313030600,-0.998191,0.0575806,0.00309041,0.0170485,0.999973,-6.22403e-12,2.80544e-11,-0.00736015,3
313080645,-0.998329,0.0549153,0.003328,0.0176489,0.999973,-6.22403e-12,2.80544e-11,-0.00736015,3
313130690,-0.998505,0.0514438,0.00265235,0.0182959,0.999973,-6.22403e-12,2.80544e-11,-0.00736015,3
313180735,-0.998776,0.0456591,0.00225959,0.0188765,0.999973,-6.22403e-12,2.80544e-11,-0.00736015,3
313230780,-0.998889,0.0428203,-7.89503e-05,0.0196694,0.999973,-6.22403e-12,2.80544e-11,-0.00736015,3
313280825,-0.999038,0.0383277,-0.00385489,0.0209382,0.999973,-6.22403e-12,2.80544e-11,-0.00736015,3
313330871,-0.999269,0.0306099,-0.00586035,0.0221597,0.999973,-6.22403e-12,2.80544e-11,-0.00736015,3
313380916,-0.999415,0.024527,-0.00444849,0.0234359,0.999973,-6.22403e-12,2.80544e-11,-0.00736015,3
313430961,-0.999518,0.0186636,-0.00394374,0.0245109,0.999973,-6.22403e-12,2.80544e-11,-0.00736015,3
313481006,-0.999605,0.011869,-0.00319209,0.0252851,0.999973,-6.22403e-12,2.80544e-11,-0.00736015,3
313531051,-0.999632,0.00605797,-0.00125542,0.0264123,0.999973,-6.22403e-12,2.80544e-11,-0.00736015,3
313581096,-0.999616,0.00287456,0.0031658,0.0273776,0.999973,-6.22403e-12,2.80544e-11,-0.00736015,3
313631149,-0.999561,-0.00164489,0.00858672,0.0283145,0.999973,-6.22403e-12,2.80544e-11,-0.00736015,3
313681186,-0.999559,0.00146856,0.00622265,0.0289939,0.999973,-6.22403e-12,2.80544e-11,-0.00736015,3
313731232,-0.99956,0.00550542,0.000498103,0.0291324,0.999973,-6.22403e-12,2.80544e-11,-0.00736015,3
313781283,-0.999541,0.00739158,-0.00379779,0.0291407,0.999973,-6.22403e-12,2.80544e-11,-0.00736015,3
313831322,-0.999546,0.00796784,-0.00434025,0.0287315,0.999973,-6.22403e-12,2.80544e-11,-0.00736015,3
313881367,-0.999585,0.00382114,-0.00172121,0.0284963,0.999973,-6.22403e-12,2.80544e-11,-0.00736015,3
313931412,-0.999601,-0.00125917,0.00235909,0.0281277,0.999973,-6.22403e-12,2.80544e-11,-0.00736015,3
313981465,-0.999591,-0.00469865,0.00474478,0.0278202,0.999973,-6.22403e-12,2.80544e-11,-0.00736015,3
314031503,-0.999581,-0.00670812,0.0051214,0.0277073,0.999973,-6.22403e-12,2.80544e-11,-0.00736015,3
314081548,-0.999588,-0.00559634,0.00576698,0.0275441,0.999973,-6.22403e-12,2.80544e-11,-0.00736015,3
314131600,-0.999622,-0.00412353,0.0045322,0.0267865,0.999973,-6.22403e-12,2.80544e-11,-0.00736015,3
314181638,-0.999632,-0.000252248,0.00171454,0.0270908,0.999973,-6.22403e-12,2.80544e-11,-0.00736015,3
314231683,-0.999612,0.000518335,-0.000157555,0.0278527,0.999973,-6.22403e-12,2.80544e-11,-0.00736015,3
314281728,-0.999585,-0.00375119,0.000331312,0.0285548,0.999973,-6.22403e-12,2.80544e-11,-0.00736015,3
314331775,-0.999548,-0.00667071,-0.00109702,0.0292975,0.999973,-6.22403e-12,2.80544e-11,-0.00736015,3
314381818,-0.9995,-0.0109047,-0.00195972,0.0296136,0.999973,-6.22403e-12,2.80544e-11,-0.00736015,3
314431864,-0.999447,-0.0136247,-0.00221012,0.0302481,0.999973,-6.22403e-12,2.80544e-11,-0.00736015,3
314481909,-0.999443,-0.0134856,-0.00234175,0.0304258,0.999973,-6.22403e-12,2.80544e-11,-0.00736015,3
314531954,-0.999502,-0.00695512,-0.00485308,0.030405,0.999973,-6.22403e-12,2.80544e-11,-0.00736015,3
314581999,-0.999535,0.000523881,-0.00723985,0.0296233,0.999973,-6.22403e-12,2.80544e-11,-0.00736015,3
314632047,-0.999525,0.00183601,-0.00886296,0.0294692,0.999973,-6.22403e-12,2.80544e-11,-0.00736015,3
314682089,-0.999532,-0.000309069,-0.0100392,0.0288801,0.999973,-6.22403e-12,2.80544e-11,-0.00736015,3
314732134,-0.999566,-0.000921249,-0.0106153,0.0274503,0.999973,-6.22403e-12,2.80544e-11,-0.00736015,3
314777175,-0.999587,-0.0017845,-0.0108899,0.0265339,0.999973,-6.22403e-12,2.80544e-11,-0.00736015,3
314832237,-0.999619,-0.00666196,-0.00966022,0.024982,0.999973,-6.22403e-12,2.80544e-11,-0.00736015,3
314882279,-0.999583,-0.0146075,-0.00664304,0.0240264,0.999973,-6.22403e-12,2.80544e-11,-0.00736015,3
314927311,-0.999521,-0.0201032,-0.00369842,0.0232601,0.999973,-6.22403e-12,2.80544e-11,-0.00736015,3
314982360,-0.999693,-0.0127706,-0.00431408,0.0208111,0.999973,-6.22403e-12,2.80544e-11,-0.00736015,3
315032407,-0.999769,-0.00699809,-0.00649534,0.0192549,0.999973,-6.22403e-12,2.80544e-11,-0.00736015,3
315082451,-0.999786,-0.00292937,-0.00912015,0.018341,0.999973,-6.22403e-12,2.80544e-11,-0.00736015,3
315127491,-0.999806,-0.00399014,-0.00763147,0.0177279,0.999973,-6.22403e-12,2.80544e-11,-0.00736015,3
315182541,-0.999821,-0.00590038,0.000197261,0.0179983,0.999973,-6.22403e-12,2.80544e-11,-0.00736015,3
315232587,-0.999696,-0.00635438,0.0154484,0.0181146,0.999973,-6.22403e-12,2.80544e-11,-0.00736015,3
315277626,-0.999357,-0.00862961,0.0296364,0.0182623,0.999973,-6.22403e-12,2.80544e-11,-0.00736015,3
315332676,-0.998955,-0.0092802,0.0408099,0.0183394,0.999973,-6.22403e-12,2.80544e-11,-0.00736015,3
315382721,-0.998807,-0.0100303,0.0440915,0.018453,0.999973,-6.22403e-12,2.80544e-11,-0.00736015,3
315432766,-0.998834,-0.00982864,0.0434881,0.0185445,0.999973,-6.22403e-12,2.80544e-11,-0.00736015,3
315477807,-0.998878,-0.00931377,0.0424998,0.0187158,0.999973,-6.22403e-12,2.80544e-11,-0.00736015,3
315532856,-0.998882,-0.0108014,0.042057,0.0187044,0.999973,-6.22403e-12,2.80544e-11,-0.00736015,3
315582905,-0.998888,-0.0127783,0.0412352,0.0189708,0.999973,-6.22403e-12,2.80544e-11,-0.00736015,3
315627942,-0.998922,-0.0136394,0.0400573,0.0190684,0.999973,-6.22403e-12,2.80544e-11,-0.00736015,3
315682992,-0.99901,-0.0111744,0.0383784,0.0195067,0.999973,-6.22403e-12,2.80544e-11,-0.00736015,3
315733037,-0.999079,-0.00950532,0.0368229,0.0198877,0.999973,-6.22403e-12,2.80544e-11,-0.00736015,3
315778078,-0.999089,-0.00999976,0.0364425,0.0198388,0.999973,-6.22403e-12,2.80544e-11,-0.00736015,3
315828123,-0.999156,-0.0083903,0.0347027,0.0203202,0.999973,-6.22403e-12,2.80544e-11,-0.00736015,3
315883172,-0.999237,-0.00510402,0.0329642,0.0203032,0.999973,-6.22403e-12,2.80544e-11,-0.00736015,3
315933220,-0.999341,-0.00324154,0.029522,0.0208942,0.999973,-6.22403e-12,2.80544e-11,-0.00736015,3
315978260,-0.999448,-0.00223109,0.0255031,0.0211637,0.999973,-6.22403e-12,2.80544e-11,-0.00736015,3
316033308,-0.999579,0.00288857,0.0196706,0.0211532,0.999973,-6.22403e-12,2.80544e-11,-0.00736015,3
316083353,-0.999639,0.00715426,0.0148749,0.0212054,0.999973,-6.22403e-12,2.80544e-11,-0.00736015,3
316128394,-0.999657,0.00580676,0.0143204,0.0211482,0.999973,-6.22403e-12,2.80544e-11,-0.00736015,3
316178439,-0.999609,0.00196955,0.0184296,0.0209375,0.999973,-6.22403e-12,2.80544e-11,-0.00736015,3
316233491,-0.999516,-0.00134576,0.0234016,0.0204674,0.999973,-6.22403e-12,2.80544e-11,-0.00736015,3
316278529,-0.99947,-0.00299282,0.0257181,0.0197211,0.999973,-6.22403e-12,2.80544e-11,-0.00736015,3
316328574,-0.999486,-0.00421801,0.02532,0.0191885,0.999973,-6.22403e-12,2.80544e-11,-0.00736015,3
316383624,-0.999605,-0.00230095,0.0207209,0.0188651,0.999973,-6.22403e-12,2.80544e-11,-0.00736015,3
316433669,-0.999714,-0.00245711,0.0140951,0.0191809,0.999973,-6.22403e-12,2.80544e-11,-0.00736015,3
316478710,-0.999781,-0.00366722,0.0065561,0.0195367,0.999973,-6.22403e-12,2.80544e-11,-0.00736015,3
316528763,-0.999783,-0.00208961,-0.0012616,0.0206788,0.999973,-6.22403e-12,2.80544e-11,-0.00736015,3
316583804,-0.999765,-0.00100188,-0.00269974,0.0214723,0.999973,-6.22403e-12,2.80544e-11,-0.00736015,3
316628853,-0.999768,0.000927532,-0.00111557,0.021488,0.999973,-6.22403e-12,2.80544e-11,-0.00736015,3
316678890,-0.999763,0.000948731,-0.000562063,0.0217652,0.999973,-6.22403e-12,2.80544e-11,-0.00736015,3
316733940,-0.999768,0.00105686,0.000142418,0.0215112,0.999973,-6.22403e-12,2.80544e-11,-0.00736015,3
316778980,-0.99978,0.000898991,-0.000330003,0.0209403,0.999973,-6.22403e-12,2.80544e-11,-0.00736015,3
316829026,-0.999778,0.00159664,-0.00213487,0.0209248,0.999973,-6.22403e-12,2.80544e-11,-0.00736015,3
316879087,-0.99977,0.00397119,-0.00376065,0.0207522,0.999973,-6.22403e-12,2.80544e-11,-0.00736015,3
316934120,-0.99977,0.00751875,-0.00265929,0.0199086,0.999973,-6.22403e-12,2.80544e-11,-0.00736015,3
316979161,-0.999751,0.0118292,0.000526998,0.0189083,0.999973,-6.22403e-12,2.80544e-11,-0.00736015,3
317029206,-0.999745,0.0102384,0.00912796,0.017937,0.999973,-6.22403e-12,2.80544e-11,-0.00736015,3
317084256,-0.99971,0.00604056,0.0168575,0.0161238,0.999973,-6.22403e-12,2.80544e-11,-0.00736015,3
317129310,-0.999693,-0.00123399,0.0198439,0.0147605,0.999973,-6.22403e-12,2.80544e-11,-0.00736015,3
317179342,-0.999719,-0.00754109,0.0179206,0.0135427,0.999973,-6.22403e-12,2.80544e-11,-0.00736015,3
317229389,-0.999761,-0.0102872,0.0150656,0.012092,0.999973,-6.22403e-12,2.80544e-11,-0.00736015,3
317279433,-0.999789,-0.00780677,0.0156198,0.0107889,0.999973,-6.22403e-12,2.80544e-11,-0.00736015,3
317329477,-0.999846,-0.000909695,0.0144674,0.0098568,0.999973,-6.22403e-12,2.80544e-11,-0.00736015,3
317379528,-0.999859,0.00519641,0.0132887,0.00885614,0.999973,-6.22403e-12,2.80544e-11,-0.00736015,3
317434572,-0.999853,0.0127255,0.008173,0.00803354,0.999973,-6.22403e-12,2.80544e-11,-0.00736015,3
317479612,-0.999885,0.0122038,0.00441897,0.00785658,0.999973,-6.22403e-12,2.80544e-11,-0.00736015,3
317529660,-0.999945,0.00708217,-6.85164e-05,0.00779093,0.999973,-6.22403e-12,2.80544e-11,-0.00736015,3
317579703,-0.999963,-0.00279248,0.000357862,0.00810051,0.999973,-6.22403e-12,2.80544e-11,-0.00736015,3
317629748,-0.999926,-0.00765433,0.00488121,0.00811664,0.999973,-6.22403e-12,2.80544e-11,-0.00736015,3
317679793,-0.99987,-0.0118907,0.00668693,0.00863491,0.999973,-6.22403e-12,2.80544e-11,-0.00736015,3
317729838,-0.999799,-0.0160972,0.00764326,0.00916322,0.999973,-6.22403e-12,2.80544e-11,-0.00736015,3
317779886,-0.999717,-0.0202725,0.00784422,0.00970584,0.999973,-6.22403e-12,2.80544e-11,-0.00736015,3
317829928,-0.999735,-0.0183154,0.00856534,0.0110045,0.999973,-6.22403e-12,2.80544e-11,-0.00736015,3
317879974,-0.999788,-0.0134843,0.00997174,0.0119154,0.999973,-6.22403e-12,2.80544e-11,-0.00736015,3
317930018,-0.999881,-0.00247053,0.00841603,0.0127063,0.999973,-6.22403e-12,2.80544e-11,-0.00736015,3
317980065,-0.99988,0.00455558,0.0050092,0.013958,0.999973,-6.22403e-12,2.80544e-11,-0.00736015,3
318030111,-0.999875,-0.00058541,0.00230854,0.0156558,0.999973,-6.22403e-12,2.80544e-11,-0.00736015,3
318080154,-0.999846,-0.00438459,0.000350159,0.0169856,0.999973,-6.22403e-12,2.80544e-11,-0.00736015,3
318130199,-0.999832,-0.00420349,0.00171845,0.0177578,0.999973,-6.22403e-12,2.80544e-11,-0.00736015,3
318180244,-0.999831,-0.000696875,0.00390615,0.0179489,0.999973,-6.22403e-12,2.80544e-11,-0.00736015,3
318230290,-0.99982,-0.000220722,0.00526225,0.0182515,0.999973,-6.22403e-12,2.80544e-11,-0.00736015,3
318280344,-0.999806,-0.00595796,0.00270304,0.018556,0.999973,-6.22403e-12,2.80544e-11,-0.00736015,3
318330380,-0.999761,-0.00969882,-0.00169139,0.0195184,0.999973,-6.22403e-12,2.80544e-11,-0.00736015,3
318380425,-0.999766,-0.00746061,-0.00497209,0.0197124,0.999973,-6.22403e-12,2.80544e-11,-0.00736015,3
318430470,-0.999788,-0.00230523,-0.00643311,0.0194378,0.999973,-6.22403e-12,2.80544e-11,-0.00736015,3
318480515,-0.999771,0.00447245,-0.00817722,0.0192559,0.999973,-6.22403e-12,2.80544e-11,-0.00736015,3
318530560,-0.99972,0.00946772,-0.00996092,0.019243,0.999973,-6.22403e-12,2.80544e-11,-0.00736015,3
318580605,-0.999708,0.0108087,-0.0108276,0.0186845,0.999973,-6.22403e-12,2.80544e-11,-0.00736015,3
318630653,-0.999731,0.00901517,-0.0101694,0.0188183,0.999973,-6.22403e-12,2.80544e-11,-0.00736015,3
318680699,-0.999788,0.00444147,-0.00632039,0.0190841,0.999973,-6.22403e-12,2.80544e-11,-0.00736015,3
318730741,-0.999808,-0.00147291,-0.00446674,0.0190403,0.999973,-6.22403e-12,2.80544e-11,-0.00736015,3
318780785,-0.999805,-0.00130788,-0.00599218,0.0187942,0.999973,-6.22403e-12,2.80544e-11,-0.00736015,3
318830831,-0.999806,0.00423663,-0.00709907,0.017877,0.999973,-6.22403e-12,2.80544e-11,-0.00736015,3
318880876,-0.999724,0.0145668,-0.00767678,0.016786,0.999973,-6.22403e-12,2.80544e-11,-0.00736015,3
318930921,-0.999685,0.0188989,-0.00487574,0.0157998,0.999973,-6.22403e-12,2.80544e-11,-0.00736015,3
318980966,-0.999684,0.0200657,-0.00161615,0.015042,0.999973,-6.22403e-12,2.80544e-11,-0.00736015,3
319031011,-0.999779,0.0150751,-0.000750165,0.0146727,0.999973,-6.22403e-12,2.80544e-11,-0.00736015,3
319081056,-0.999864,0.00594664,-0.00290135,0.0151048,0.999973,-6.22403e-12,2.80544e-11,-0.00736015,3
319131101,-0.999873,-0.00370108,-0.00485666,0.0147503,0.999973,-6.22403e-12,2.80544e-11,-0.00736015,3
319181146,-0.999829,-0.00763475,-0.00826623,0.0146911,0.999973,-6.22403e-12,2.80544e-11,-0.00736015,3
319231192,-0.999815,-0.00962431,-0.00830827,0.0144404,0.999973,-6.22403e-12,2.80544e-11,-0.00736015,3
319281237,-0.999856,-0.00585391,-0.0076442,0.0139916,0.999973,-6.22403e-12,2.80544e-11,-0.00736015,3
319331282,-0.999861,-0.00824568,-0.00394163,0.0139257,0.999973,-6.22403e-12,2.80544e-11,-0.00736015,3
319381330,-0.999834,-0.0115893,-0.000811185,0.0140591,0.999973,-6.22403e-12,2.80544e-11,-0.00736015,3
319431372,-0.999804,-0.0141885,0.000827907,0.0138024,0.999973,-6.22403e-12,2.80544e-11,-0.00736015,3
319481417,-0.99986,-0.0112084,0.000227996,0.0124219,0.999973,-6.22403e-12,2.80544e-11,-0.00736015,3
319531462,-0.999916,-0.00781185,-0.000845751,0.0102826,0.999973,-6.22403e-12,2.80544e-11,-0.00736015,3
319581521,-0.999948,-0.00675902,-0.001891,0.00746246,0.999973,-6.22403e-12,2.80544e-11,-0.00736015,3
319631552,-0.999962,-0.00660693,-0.00434783,0.00375578,0.999973,-6.22403e-12,2.80544e-11,-0.00736015,3
319681597,-0.999971,-0.00509588,-0.00558365,-0.00126289,0.999973,-6.22403e-12,2.80544e-11,-0.00736015,3
319731646,-0.999894,-0.0113938,-0.00427378,-0.00798111,0.999973,-6.22403e-12,2.80544e-11,-0.00736015,3
319781688,-0.999752,-0.01631,-0.00468546,-0.0144623,0.999973,-6.22403e-12,2.80544e-11,-0.00736015,3
319831733,-0.999654,-0.0159638,-0.00685335,-0.0197644,0.999973,-6.22403e-12,2.80544e-11,-0.00736015,3
319881778,-0.99956,-0.0164797,-0.00772148,-0.0234304,0.999973,-6.22403e-12,2.80544e-11,-0.00736015,3
319931823,-0.999524,-0.0148918,-0.00760817,-0.0259415,0.999973,-6.22403e-12,2.80544e-11,-0.00736015,3
319981868,-0.9995,-0.0139342,-0.00561769,-0.0278325,0.999973,-6.22403e-12,2.80544e-11,-0.00736015,3
320026914,-0.999485,-0.0126662,-0.00267112,-0.029365,0.999973,-6.22403e-12,2.80544e-11,-0.00736015,3
320081958,-0.999485,-0.0102157,0.000353146,-0.0304063,0.999973,-6.22403e-12,2.80544e-11,-0.00736015,3
320132003,-0.999515,-0.00273711,0.00109823,-0.0310087,0.999973,-6.22403e-12,2.80544e-11,-0.00736015,3
320182049,-0.999483,0.00669467,0.000901153,-0.0314435,0.999973,-6.22403e-12,2.80544e-11,-0.00736015,3
320232097,-0.999305,0.0182276,0.00200232,-0.0324467,0.999973,-6.22403e-12,2.80544e-11,-0.00736015,3
320282151,-0.99905,0.0287361,0.00182285,-0.0327055,0.999973,-6.22403e-12,2.80544e-11,-0.00736015,3
320332184,-0.998871,0.0339811,0.00404232,-0.0329386,0.999973,-6.22403e-12,2.80544e-11,-0.00736015,3
320377227,-0.99876,0.037192,0.00451113,-0.0327922,0.999973,-6.22403e-12,2.80544e-11,-0.00736015,3
320432281,-0.998752,0.0377505,0.0049561,-0.032309,0.999973,-6.22403e-12,2.80544e-11,-0.00736015,3
320482320,-0.998729,0.039163,0.00403579,-0.0314777,0.999973,-6.22403e-12,2.80544e-11,-0.00736015,3
320527360,-0.998839,0.0372491,0.00184311,-0.0304997,0.999973,-6.22403e-12,2.80544e-11,-0.00736015,3
320582410,-0.998969,0.0346369,-0.000915938,-0.0293191,0.999973,-6.22403e-12,2.80544e-11,-0.00736015,3
320632462,-0.998934,0.0364027,-0.00303621,-0.0282172,0.999973,-6.22403e-12,2.80544e-11,-0.00736015,3
320682500,-0.999016,0.0347996,-0.00308817,-0.0273356,0.999973,-6.22403e-12,2.80544e-11,-0.00736015,3
320727548,-0.99908,0.0336467,-0.000713091,-0.0265988,0.999973,-6.22403e-12,2.80544e-11,-0.00736015,3
320782590,-0.999261,0.0280041,0.00423889,-0.0259934,0.999973,-6.22403e-12,2.80544e-11,-0.00736015,3
320832635,-0.999413,0.0221587,0.00509245,-0.0256313,0.999973,-6.22403e-12,2.80544e-11,-0.00736015,3
320877676,-0.999535,0.0168109,0.00381431,-0.0251672,0.999973,-6.22403e-12,2.80544e-11,-0.00736015,3
320932725,-0.999568,0.0155446,0.000888689,-0.024949,0.999973,-6.22403e-12,2.80544e-11,-0.00736015,3
320982773,-0.999573,0.0157206,-0.00149053,-0.0245668,0.999973,-6.22403e-12,2.80544e-11,-0.00736015,3
321032816,0.999106,-0.0135107,0.00153425,0.0400331,-0.999865,6.2192e-09,5.04809e-10,-0.0164283,4
321077864,0.999221,-0.00863304,0.000730503,0.0384933,-0.999865,6.2192e-09,5.04809e-10,-0.0164283,4
321132906,0.999333,-0.00381785,-0.000545296,0.0363105,-0.999865,6.2192e-09,5.04809e-10,-0.0164283,4
321182951,0.999394,0.00145402,-0.000910803,0.0347583,-0.999865,6.2192e-09,5.04809e-10,-0.0164283,4
321227992,0.999448,0.00381333,0.000592899,0.0330106,-0.999865,6.2192e-09,5.04809e-10,-0.0164283,4
321283041,0.999481,0.00220494,0.00236365,0.0320417,-0.999865,6.2192e-09,5.04809e-10,-0.0164283,4
321333087,0.999507,0.000974962,0.00472627,0.0310131,-0.999865,6.2192e-09,5.04809e-10,-0.0164283,4
321378127,0.99953,0.0032762,0.00415385,0.0301849,-0.999865,6.2192e-09,5.04809e-10,-0.0164283,4
321428172,0.999535,0.00848837,0.00230138,0.029205,-0.999865,6.2192e-09,5.04809e-10,-0.0164283,4
321483224,0.999497,0.0131598,-0.000235704,0.0288708,-0.999865,6.2192e-09,5.04809e-10,-0.0164283,4
321533283,0.999449,0.0167284,-0.00339909,0.0284697,-0.999865,6.2192e-09,5.04809e-10,-0.0164283,4
321578308,0.999421,0.018187,-0.00542694,0.0282503,-0.999865,6.2192e-09,5.04809e-10,-0.0164283,4
321633357,0.999425,0.0171508,-0.00701337,0.028401,-0.999865,6.2192e-09,5.04809e-10,-0.0164283,4
321683410,0.999415,0.0155644,-0.00917049,0.0290468,-0.999865,6.2192e-09,5.04809e-10,-0.0164283,4
321728443,0.999388,0.0154383,-0.0109035,0.0294347,-0.999865,6.2192e-09,5.04809e-10,-0.0164283,4
321778491,0.999343,0.0153299,-0.0138962,0.0297647,-0.999865,6.2192e-09,5.04809e-10,-0.0164283,4
321833538,0.999237,0.0157507,-0.0188459,0.0303753,-0.999865,6.2192e-09,5.04809e-10,-0.0164283,4
321878580,0.999103,0.0159229,-0.0238883,0.0311246,-0.999865,6.2192e-09,5.04809e-10,-0.0164283,4
321928623,0.999046,0.0135189,-0.0267066,0.0318014,-0.999865,6.2192e-09,5.04809e-10,-0.0164283,4
321983673,0.999087,0.0110904,-0.0252663,0.0326254,-0.999865,6.2192e-09,5.04809e-10,-0.0164283,4
322033725,0.999252,0.00944431,-0.0171791,0.0333482,-0.999865,6.2192e-09,5.04809e-10,-0.0164283,4
322078759,0.999335,0.0100106,-0.00697106,0.0343772,-0.999865,6.2192e-09,5.04809e-10,-0.0164283,4
322128804,0.999346,0.00853038,0.00263563,0.0350397,-0.999865,6.2192e-09,5.04809e-10,-0.0164283,4
322183854,0.999336,0.00356704,0.00796487,0.0353699,-0.999865,6.2192e-09,5.04809e-10,-0.0164283,4
322228894,0.999301,-0.00552421,0.00756246,0.0361898,-0.999865,6.2192e-09,5.04809e-10,-0.0164283,4
322278939,0.999174,-0.0152987,0.00521815,0.0372919,-0.999865,6.2192e-09,5.04809e-10,-0.0164283,4
322333989,0.999048,-0.0223229,0.00310014,0.0373416,-0.999865,6.2192e-09,5.04809e-10,-0.0164283,4
322379030,0.998854,-0.0296432,0.0016835,0.0375308,-0.999865,6.2192e-09,5.04809e-10,-0.0164283,4
322429075,0.998726,-0.0340139,-8.22936e-05,0.0372824,-0.999865,6.2192e-09,5.04809e-10,-0.0164283,4
322479124,0.998646,-0.0365269,-0.00126947,0.0370233,-0.999865,6.2192e-09,5.04809e-10,-0.0164283,4
322534169,0.998556,-0.0392052,-0.0025234,0.0366489,-0.999865,6.2192e-09,5.04809e-10,-0.0164283,4
322579210,0.9984,-0.0432283,-0.00301495,0.0363289,-0.999865,6.2192e-09,5.04809e-10,-0.0164283,4
322629255,0.998271,-0.0465032,-0.00349697,0.0357721,-0.999865,6.2192e-09,5.04809e-10,-0.0164283,4
322684305,0.99847,-0.0419319,-0.00319092,0.035918,-0.999865,6.2192e-09,5.04809e-10,-0.0164283,4
322729346,0.998913,-0.0302619,-0.00195461,0.0354141,-0.999865,6.2192e-09,5.04809e-10,-0.0164283,4
322779391,0.999274,-0.0157261,-0.000932449,0.0347011,-0.999865,6.2192e-09,5.04809e-10,-0.0164283,4
322829436,0.999392,-0.00304105,-0.00116775,0.0347243,-0.999865,6.2192e-09,5.04809e-10,-0.0164283,4
322879481,0.999389,0.00571178,-0.00175955,0.034443,-0.999865,6.2192e-09,5.04809e-10,-0.0164283,4
322929526,0.999362,0.00896181,-0.0020404,0.0345155,-0.999865,6.2192e-09,5.04809e-10,-0.0164283,4
322979575,0.999381,0.00751249,-0.00104244,0.0343646,-0.999865,6.2192e-09,5.04809e-10,-0.0164283,4
323034621,0.999402,0.00411218,0.000512318,0.0343376,-0.999865,6.2192e-09,5.04809e-10,-0.0164283,4
323079661,0.999401,0.00501898,0.00208173,0.0341709,-0.999865,6.2192e-09,5.04809e-10,-0.0164283,4
323129707,0.999385,0.00652371,0.00362749,0.0342766,-0.999865,6.2192e-09,5.04809e-10,-0.0164283,4
323179754,0.999337,0.0111313,0.00397886,0.0344484,-0.999865,6.2192e-09,5.04809e-10,-0.0164283,4
323229798,0.999241,0.0183635,0.000554674,0.0343608,-0.999865,6.2192e-09,5.04809e-10,-0.0164283,4
323279842,0.999184,0.0203856,-0.00444312,0.0345848,-0.999865,6.2192e-09,5.04809e-10,-0.0164283,4
323329887,0.999246,0.0151214,-0.00802184,0.0348563,-0.999865,6.2192e-09,5.04809e-10,-0.0164283,4
323379945,0.999296,0.00858655,-0.00995294,0.0351356,-0.999865,6.2192e-09,5.04809e-10,-0.0164283,4
323429977,0.999299,0.00401158,-0.0118424,0.0352775,-0.999865,6.2192e-09,5.04809e-10,-0.0164283,4
323480028,0.999281,0.00368698,-0.0133079,0.035299,-0.999865,6.2192e-09,5.04809e-10,-0.0164283,4
323530068,0.99926,0.00392946,-0.0139127,0.0356487,-0.999865,6.2192e-09,5.04809e-10,-0.0164283,4
323580113,0.999288,0.00305986,-0.0116154,0.0357555,-0.999865,6.2192e-09,5.04809e-10,-0.0164283,4
323630158,0.999318,0.00337721,-0.00734292,0.0360303,-0.999865,6.2192e-09,5.04809e-10,-0.0164283,4
323680203,0.999346,0.00401545,-0.00219648,0.035859,-0.999865,6.2192e-09,5.04809e-10,-0.0164283,4
323730254,0.999316,0.0082513,-1.65228e-06,0.0360359,-0.999865,6.2192e-09,5.04809e-10,-0.0164283,4
323780294,0.999291,0.00881161,-0.00233289,0.0365165,-0.999865,6.2192e-09,5.04809e-10,-0.0164283,4
323830339,0.999291,0.00679728,-0.00555488,0.0366249,-0.999865,6.2192e-09,5.04809e-10,-0.0164283,4
323880384,0.999292,0.00504787,-0.00709685,0.0365938,-0.999865,6.2192e-09,5.04809e-10,-0.0164283,4
323930429,0.999261,0.00597184,-0.00784065,0.0371487,-0.999865,6.2192e-09,5.04809e-10,-0.0164283,4
323980474,0.999198,0.0111503,-0.00871339,0.0374661,-0.999865,6.2192e-09,5.04809e-10,-0.0164283,4
324030519,0.999175,0.0123041,-0.00761378,0.0379575,-0.999865,6.2192e-09,5.04809e-10,-0.0164283,4
324080571,0.999189,0.00749045,-0.00644081,0.0390301,-0.999865,6.2192e-09,5.04809e-10,-0.0164283,4
324130610,0.99918,0.00254227,-0.00773274,0.0396588,-0.999865,6.2192e-09,5.04809e-10,-0.0164283,4
324180654,0.999134,-0.00254825,-0.0103762,0.0402231,-0.999865,6.2192e-09,5.04809e-10,-0.0164283,4
324230700,0.99902,-0.0127887,-0.0117782,0.0407028,-0.999865,6.2192e-09,5.04809e-10,-0.0164283,4
324280745,0.998787,-0.0241093,-0.0119801,0.0412308,-0.999865,6.2192e-09,5.04809e-10,-0.0164283,4
324330790,0.998548,-0.0314547,-0.0129855,0.0417584,-0.999865,6.2192e-09,5.04809e-10,-0.0164283,4
324380835,0.998146,-0.0427621,-0.0117174,0.0416937,-0.999865,6.2192e-09,5.04809e-10,-0.0164283,4
324430880,0.99783,-0.0496325,-0.011443,0.0417193,-0.999865,6.2192e-09,5.04809e-10,-0.0164283,4
324480925,0.997572,-0.0547413,-0.0122009,0.0412961,-0.999865,6.2192e-09,5.04809e-10,-0.0164283,4
324530970,0.997501,-0.0560252,-0.013783,0.0407902,-0.999865,6.2192e-09,5.04809e-10,-0.0164283,4
324581016,0.99768,-0.0530385,-0.0148084,0.0400198,-0.999865,6.2192e-09,5.04809e-10,-0.0164283,4
324631061,0.998036,-0.0466498,-0.01543,0.0388658,-0.999865,6.2192e-09,5.04809e-10,-0.0164283,4
324681106,0.99829,-0.0405206,-0.0167401,0.0386535,-0.999865,6.2192e-09,5.04809e-10,-0.0164283,4
324731160,0.998352,-0.0417983,-0.011164,0.0376914,-0.999865,6.2192e-09,5.04809e-10,-0.0164283,4
324781196,0.99844,-0.0418744,-0.00747304,0.0361625,-0.999865,6.2192e-09,5.04809e-10,-0.0164283,4
324831245,0.998623,-0.0394224,-0.00576048,0.0341264,-0.999865,6.2192e-09,5.04809e-10,-0.0164283,4
324881287,0.999042,-0.0280848,-0.00678118,0.0328757,-0.999865,6.2192e-09,5.04809e-10,-0.0164283,4
324931332,0.99941,-0.00971144,-0.00818996,0.0319083,-0.999865,6.2192e-09,5.04809e-10,-0.0164283,4
324981377,0.999446,0.00579615,-0.0114828,0.0306916,-0.999865,6.2192e-09,5.04809e-10,-0.0164283,4
325031422,0.999426,0.0119141,-0.0101871,0.0300481,-0.999865,6.2192e-09,5.04809e-10,-0.0164283,4
325081467,0.999511,0.00755678,-0.00679726,0.0295583,-0.999865,6.2192e-09,5.04809e-10,-0.0164283,4
325131513,0.999552,-0.00172273,-0.00400093,0.0296011,-0.999865,6.2192e-09,5.04809e-10,-0.0164283,4
325181557,0.999525,-0.00799165,-0.00288372,0.0296246,-0.999865,6.2192e-09,5.04809e-10,-0.0164283,4
325231602,0.999494,-0.0103502,-0.000200877,0.030063,-0.999865,6.2192e-09,5.04809e-10,-0.0164283,4
325281648,0.999556,-0.00265284,0.00204096,0.0296229,-0.999865,6.2192e-09,5.04809e-10,-0.0164283,4
325331693,0.99953,0.00747096,0.00484672,0.0293212,-0.999865,6.2192e-09,5.04809e-10,-0.0164283,4
325381738,0.99943,0.0145122,0.00723987,0.0296257,-0.999865,6.2192e-09,5.04809e-10,-0.0164283,4
325431783,0.999406,0.0155159,0.00661138,0.0300525,-0.999865,6.2192e-09,5.04809e-10,-0.0164283,4
325481831,0.999335,0.0188379,0.00475109,0.0308663,-0.999865,6.2192e-09,5.04809e-10,-0.0164283,4
325531873,0.999157,0.0257266,0.0050643,0.0315851,-0.999865,6.2192e-09,5.04809e-10,-0.0164283,4
325581918,0.99886,0.0332666,0.00868256,0.0331271,-0.999865,6.2192e-09,5.04809e-10,-0.0164283,4
325626959,0.998825,0.0320495,0.0107874,0.0347038,-0.999865,6.2192e-09,5.04809e-10,-0.0164283,4
325682009,0.998894,0.0281121,0.0098204,0.0363885,-0.999865,6.2192e-09,5.04809e-10,-0.0164283,4
325732054,0.999081,0.0166363,0.0083942,0.0386103,-0.999865,6.2192e-09,5.04809e-10,-0.0164283,4
325782099,0.999147,0.00362671,0.00682811,0.0405684,-0.999865,6.2192e-09,5.04809e-10,-0.0164283,4
325832150,0.99907,-0.00457287,0.00691303,0.0423036,-0.999865,6.2192e-09,5.04809e-10,-0.0164283,4
325882189,0.999001,-0.0070505,0.00810238,0.0433757,-0.999865,6.2192e-09,5.04809e-10,-0.0164283,4
325932234,0.998955,-0.00561194,0.0081581,0.0446172,-0.999865,6.2192e-09,5.04809e-10,-0.0164283,4
325977281,0.998915,-0.00255721,0.00906143,0.0456006,-0.999865,6.2192e-09,5.04809e-10,-0.0164283,4
326032325,0.998836,-0.000419768,0.0107125,0.0470235,-0.999865,6.2192e-09,5.04809e-10,-0.0164283,4
326082370,0.998779,0.000795549,0.0106121,0.0482438,-0.999865,6.2192e-09,5.04809e-10,-0.0164283,4
326127410,0.998747,-0.00211523,0.00914834,0.0491604,-0.999865,6.2192e-09,5.04809e-10,-0.0164283,4
326182460,0.998636,-0.0131153,0.0048703,0.0502995,-0.999865,6.2192e-09,5.04809e-10,-0.0164283,4
326232505,0.998358,-0.0259066,0.000154112,0.0510826,-0.999865,6.2192e-09,5.04809e-10,-0.0164283,4
326282550,0.997946,-0.0383909,-0.00339912,0.051166,-0.999865,6.2192e-09,5.04809e-10,-0.0164283,4
326327591,0.997681,-0.0449177,-0.00529419,0.0508544,-0.999865,6.2192e-09,5.04809e-10,-0.0164283,4
326382640,0.99792,-0.0403804,-0.00433413,0.0500623,-0.999865,6.2192e-09,5.04809e-10,-0.0164283,4
326432685,0.998473,-0.0254177,-0.00152419,0.0490164,-0.999865,6.2192e-09,5.04809e-10,-0.0164283,4
326477738,0.998799,-0.00819351,0.000474971,0.0483027,-0.999865,6.2192e-09,5.04809e-10,-0.0164283,4
326532776,0.998833,0.00985451,0.00246238,0.0472269,-0.999865,6.2192e-09,5.04809e-10,-0.0164283,4
326582821,0.998802,0.0144873,0.00309366,0.0466481,-0.999865,6.2192e-09,5.04809e-10,-0.0164283,4
326632866,0.998869,0.011132,0.0038999,0.0460686,-0.999865,6.2192e-09,5.04809e-10,-0.0164283,4
326677906,0.998922,0.00438293,0.00404167,0.0460325,-0.999865,6.2192e-09,5.04809e-10,-0.0164283,4
326732956,0.998931,0.000456072,0.00393633,0.0460558,-0.999865,6.2192e-09,5.04809e-10,-0.0164283,4
326783001,0.998935,-0.000501737,0.00332332,0.0460299,-0.999865,6.2192e-09,5.04809e-10,-0.0164283,4
326828042,0.998933,0.00321464,0.00263928,0.0460052,-0.999865,6.2192e-09,5.04809e-10,-0.0164283,4
326883091,0.998894,0.00924796,0.0015135,0.0460844,-0.999865,6.2192e-09,5.04809e-10,-0.0164283,4
326933136,0.998871,0.0112383,0.00121211,0.0461379,-0.999865,6.2192e-09,5.04809e-10,-0.0164283,4
326978177,0.998868,0.0108847,0.00121544,0.0462885,-0.999865,6.2192e-09,5.04809e-10,-0.0164283,4
327028224,0.998868,0.011481,0.00215238,0.0461119,-0.999865,6.2192e-09,5.04809e-10,-0.0164283,4
327083278,0.998879,0.0106715,0.00304619,0.0460059,-0.999865,6.2192e-09,5.04809e-10,-0.0164283,4
327128313,0.998897,0.00916954,0.0034677,0.0459106,-0.999865,6.2192e-09,5.04809e-10,-0.0164283,4
327178360,0.998896,0.0097272,0.00467465,0.0457246,-0.999865,6.2192e-09,5.04809e-10,-0.0164283,4
327233408,0.9989,0.00861218,0.00470018,0.0458445,-0.999865,6.2192e-09,5.04809e-10,-0.0164283,4
327283452,0.998877,0.0109498,0.00416676,0.0459018,-0.999865,6.2192e-09,5.04809e-10,-0.0164283,4
327328493,0.998858,0.0133627,0.00268599,0.0458005,-0.999865,6.2192e-09,5.04809e-10,-0.0164283,4
327378542,0.998846,0.0146421,6.58502e-05,0.0457415,-0.999865,6.2192e-09,5.04809e-10,-0.0164283,4
327433589,0.998878,0.0129767,-0.00412538,0.0453688,-0.999865,6.2192e-09,5.04809e-10,-0.0164283,4
327478628,0.998894,0.0123593,-0.00745365,0.0447442,-0.999865,6.2192e-09,5.04809e-10,-0.0164283,4
327528673,0.998937,0.00865471,-0.00908811,0.0443478,-0.999865,6.2192e-09,5.04809e-10,-0.0164283,4
327583723,0.998984,0.00417088,-0.00717268,0.0442853,-0.999865,6.2192e-09,5.04809e-10,-0.0164283,4
327633768,0.998989,0.00580759,-0.00411224,0.0443827,-0.999865,6.2192e-09,5.04809e-10,-0.0164283,4
327678808,0.998948,0.0107598,-0.00157109,0.0445457,-0.999865,6.2192e-09,5.04809e-10,-0.0164283,4
327728858,0.998883,0.012572,0.00199957,0.0455149,-0.999865,6.2192e-09,5.04809e-10,-0.0164283,4
327783905,0.998777,0.0169013,0.00364746,0.0463286,-0.999865,6.2192e-09,5.04809e-10,-0.0164283,4
327828944,0.998734,0.0149753,0.00438428,0.0478191,-0.999865,6.2192e-09,5.04809e-10,-0.0164283,4
327878989,0.998772,0.00207933,0.00405101,0.0493285,-0.999865,6.2192e-09,5.04809e-10,-0.0164283,4
327934038,0.998691,-0.00906241,0.00480749,0.0501091,-0.999865,6.2192e-09,5.04809e-10,-0.0164283,4
327979079,0.998451,-0.0223202,0.00333997,0.0508631,-0.999865,6.2192e-09,5.04809e-10,-0.0164283,4
328029124,0.998077,-0.0345366,-0.00112387,0.0514656,-0.999865,6.2192e-09,5.04809e-10,-0.0164283,4
328079171,0.997606,-0.0461487,-0.00384171,0.0513603,-0.999865,6.2192e-09,5.04809e-10,-0.0164283,4
328134221,0.99705,-0.05663,-0.00705367,0.0513255,-0.999865,6.2192e-09,5.04809e-10,-0.0164283,4
328179259,0.996523,-0.0655302,-0.00626985,0.0510767,-0.999865,6.2192e-09,5.04809e-10,-0.0164283,4
328229307,0.996287,-0.0690373,-0.00527625,0.0511596,-0.999865,6.2192e-09,5.04809e-10,-0.0164283,4
328284355,0.996744,-0.062777,-0.00265007,0.0505311,-0.999865,6.2192e-09,5.04809e-10,-0.0164283,4
328329395,0.997649,-0.0477272,-0.00119361,0.0491639,-0.999865,6.2192e-09,5.04809e-10,-0.0164283,4
328379440,0.998643,-0.0208113,-0.00190507,0.0476945,-0.999865,6.2192e-09,5.04809e-10,-0.0164283,4
328429486,0.998916,0.00474968,-0.00438005,0.0461063,-0.999865,6.2192e-09,5.04809e-10,-0.0164283,4
328479530,0.998762,0.0213768,-0.0056028,0.044571,-0.999865,6.2192e-09,5.04809e-10,-0.0164283,4
328529575,0.998822,0.0203012,-0.00652158,0.0435902,-0.999865,6.2192e-09,5.04809e-10,-0.0164283,4
328579627,0.998965,0.0147725,-0.00699046,0.0424394,-0.999865,6.2192e-09,5.04809e-10,-0.0164283,4
328629665,0.999087,0.00617598,-0.00690281,0.0417091,-0.999865,6.2192e-09,5.04809e-10,-0.0164283,4
328679711,0.999141,-0.00139397,-0.00664973,0.0408712,-0.999865,6.2192e-09,5.04809e-10,-0.0164283,4
328729755,0.99918,-0.000837616,-0.00528196,0.0401256,-0.999865,6.2192e-09,5.04809e-10,-0.0164283,4
328779801,0.999206,-0.00145597,-0.00391498,0.039623,-0.999865,6.2192e-09,5.04809e-10,-0.0164283,4
328829846,0.999199,-0.00295201,-0.00200553,0.0398481,-0.999865,6.2192e-09,5.04809e-10,-0.0164283,4
328879891,0.999198,-0.00316583,0.00105654,0.0399038,-0.999865,6.2192e-09,5.04809e-10,-0.0164283,4
328929936,0.999188,-0.00162172,0.000372282,0.0402514,-0.999865,6.2192e-09,5.04809e-10,-0.0164283,4
328979981,0.999188,0.00392825,-0.000209021,0.0401049,-0.999865,6.2192e-09,5.04809e-10,-0.0164283,4
329030026,0.999125,0.0105309,-0.00338629,0.0403391,-0.999865,6.2192e-09,5.04809e-10,-0.0164283,4
329080074,0.999027,0.0185146,-0.00384656,0.039843,-0.999865,6.2192e-09,5.04809e-10,-0.0164283,4
329130116,0.999059,0.0161041,-0.00392398,0.0400695,-0.999865,6.2192e-09,5.04809e-10,-0.0164283,4
329180161,0.999116,0.0121066,-0.00651587,0.0397387,-0.999865,6.2192e-09,5.04809e-10,-0.0164283,4
329230206,0.999098,0.00731394,-0.013047,0.0397399,-0.999865,6.2192e-09,5.04809e-10,-0.0164283,4
329280252,0.998981,0.00682409,-0.0205041,0.0396135,-0.999865,6.2192e-09,5.04809e-10,-0.0164283,4
329330297,0.998849,0.00711836,-0.0256128,0.0399313,-0.999865,6.2192e-09,5.04809e-10,-0.0164283,4
329380342,0.998795,0.0115998,-0.0259119,0.0400456,-0.999865,6.2192e-09,5.04809e-10,-0.0164283,4
329430387,0.998853,0.0121143,-0.0220432,0.0407467,-0.999865,6.2192e-09,5.04809e-10,-0.0164283,4
329480432,0.998876,0.0155456,-0.0163531,0.0416964,-0.999865,6.2192e-09,5.04809e-10,-0.0164283,4
329530477,0.99895,0.0151728,-0.00918676,0.0422328,-0.999865,6.2192e-09,5.04809e-10,-0.0164283,4
329580528,0.998982,0.0136058,-0.00201197,0.042951,-0.999865,6.2192e-09,5.04809e-10,-0.0164283,4
329630567,0.999036,0.00867607,0.00392229,0.0428598,-0.999865,6.2192e-09,5.04809e-10,-0.0164283,4
329680612,0.999035,0.0070475,0.00690278,0.0428103,-0.999865,6.2192e-09,5.04809e-10,-0.0164283,4
329730657,0.999071,0.0044951,0.00707153,0.0422798,-0.999865,6.2192e-09,5.04809e-10,-0.0164283,4
329780702,0.999098,0.00696447,0.00353232,0.0417441,-0.999865,6.2192e-09,5.04809e-10,-0.0164283,4
329830747,0.999129,0.00459643,-0.000751606,0.0414689,-0.999865,6.2192e-09,5.04809e-10,-0.0164283,4
329880792,0.999125,0.00292831,-0.0027758,0.0416274,-0.999865,6.2192e-09,5.04809e-10,-0.0164283,4
329930838,0.999112,-0.00369556,-0.000576678,0.0419723,-0.999865,6.2192e-09,5.04809e-10,-0.0164283,4
329980886,0.999067,-0.0070102,0.00195165,0.0425661,-0.999865,6.2192e-09,5.04809e-10,-0.0164283,4
330030938,0.998995,-0.0128615,0.00460396,0.0427014,-0.999865,6.2192e-09,5.04809e-10,-0.0164283,4
330080975,0.998917,-0.0176584,0.00392869,0.0428786,-0.999865,6.2192e-09,5.04809e-10,-0.0164283,4
330131018,0.998766,-0.0251078,0.00139672,0.0428236,-0.999865,6.2192e-09,5.04809e-10,-0.0164283,4
330181063,0.998537,-0.0330865,-0.00156127,0.0427511,-0.999865,6.2192e-09,5.04809e-10,-0.0164283,4
330231108,0.998341,-0.0387727,-0.00220216,0.0425119,-0.999865,6.2192e-09,5.04809e-10,-0.0164283,4
330281154,0.99816,-0.0431224,-0.00243242,0.0425507,-0.999865,6.2192e-09,5.04809e-10,-0.0164283,4
330331204,0.998393,-0.0378091,-0.000958848,0.0421927,-0.999865,6.2192e-09,5.04809e-10,-0.0164283,4
330381253,0.998721,-0.0277516,-0.000272858,0.0422572,-0.999865,6.2192e-09,5.04809e-10,-0.0164283,4
330431291,0.999082,-0.00959688,2.22393e-05,0.0417472,-0.999865,6.2192e-09,5.04809e-10,-0.0164283,4
330481334,0.999138,0.00325466,0.000656201,0.041375,-0.999865,6.2192e-09,5.04809e-10,-0.0164283,4
330531379,0.999094,0.0104384,0.0013753,0.04124,-0.999865,6.2192e-09,5.04809e-10,-0.0164283,4
330581424,0.999072,0.0112531,0.00365215,0.0414202,-0.999865,6.2192e-09,5.04809e-10,-0.0164283,4
330631469,0.999057,0.0123478,0.00391214,0.041436,-0.999865,6.2192e-09,5.04809e-10,-0.0164283,4
330681514,0.999085,0.00973073,0.00441776,0.0414237,-0.999865,6.2192e-09,5.04809e-10,-0.0164283,4
330731562,0.99911,0.00765157,0.0028708,0.0413735,-0.999865,6.2192e-09,5.04809e-10,-0.0164283,4
330781604,0.999119,0.00805558,0.00147256,0.0411504,-0.999865,6.2192e-09,5.04809e-10,-0.0164283,4
330831649,0.99908,0.0128682,0.001076,0.0409073,-0.999865,6.2192e-09,5.04809e-10,-0.0164283,4
330881695,0.999034,0.0151602,-0.000422392,0.0412565,-0.999865,6.2192e-09,5.04809e-10,-0.0164283,4
330931740,0.999045,0.0123248,-0.00152873,0.04188,-0.999865,6.2192e-09,5.04809e-10,-0.0164283,4
330981785,0.999092,0.00455272,-0.00186799,0.0423171,-0.999865,6.2192e-09,5.04809e-10,-0.0164283,4
331031830,0.999089,0.0031164,-0.000304859,0.0425659,-0.999865,6.2192e-09,5.04809e-10,-0.0164283,4
331081885,0.999082,0.0037893,0.000308991,0.0426765,-0.999865,6.2192e-09,5.04809e-10,-0.0164283,4
331131920,0.999027,0.00954709,-0.00029489,0.0430463,-0.999865,6.2192e-09,5.04809e-10,-0.0164283,4
331181965,0.999017,0.0109344,0.00108538,0.042958,-0.999865,6.2192e-09,5.04809e-10,-0.0164283,4
331227006,0.999017,0.0104365,0.00205044,0.0430304,-0.999865,6.2192e-09,5.04809e-10,-0.0164283,4
331282055,0.999001,0.0109135,0.00185084,0.0432904,-0.999865,6.2192e-09,5.04809e-10,-0.0164283,4
331332101,0.999009,0.0113524,0.000349733,0.0430309,-0.999865,6.2192e-09,5.04809e-10,-0.0164283,4
331382146,0.999046,0.00689449,-0.00264637,0.0430397,-0.999865,6.2192e-09,5.04809e-10,-0.0164283,4
331427186,0.999075,-0.000686448,-0.00403078,0.0428075,-0.999865,6.2192e-09,5.04809e-10,-0.0164283,4
331482236,0.999059,-0.00816032,-0.00337639,0.0424719,-0.999865,6.2192e-09,5.04809e-10,-0.0164283,4
331532282,0.999027,-0.012603,-0.00167391,0.0422301,-0.999865,6.2192e-09,5.04809e-10,-0.0164283,4
331577322,0.999069,-0.0106414,0.0003697,0.0418011,-0.999865,6.2192e-09,5.04809e-10,-0.0164283,4
331632371,0.99914,-0.000682694,8.03366e-05,0.0414608,-0.999865,6.2192e-09,5.04809e-10,-0.0164283,4
331682419,0.999109,0.0107218,-7.03715e-05,0.0408255,-0.999865,6.2192e-09,5.04809e-10,-0.0164283,4
331727457,0.999009,0.018442,-0.0015524,0.0404864,-0.999865,6.2192e-09,5.04809e-10,-0.0164283,4
331782514,0.998899,0.0233935,-0.00357715,0.040515,-0.999865,6.2192e-09,5.04809e-10,-0.0164283,4
331832552,0.999067,0.0150339,-0.00346148,0.0403297,-0.999865,6.2192e-09,5.04809e-10,-0.0164283,4
331882597,0.999167,-0.00510417,-0.0027266,0.0403974,-0.999865,6.2192e-09,5.04809e-10,-0.0164283,4
331927637,0.998665,-0.0319315,-0.00297914,0.0404843,-0.999865,6.2192e-09,5.04809e-10,-0.0164283,4
331982687,0.997456,-0.0588682,-0.0023008,0.0401251,-0.999865,6.2192e-09,5.04809e-10,-0.0164283,4
332032746,0.996785,-0.0698888,-0.000584229,0.0391728,-0.999865,6.2192e-09,5.04809e-10,-0.0164283,4
332077778,0.996771,-0.0705407,-0.00151909,0.038326,-0.999865,6.2192e-09,5.04809e-10,-0.0164283,4
332132822,0.997185,-0.065103,-0.00229281,0.0371389,-0.999865,6.2192e-09,5.04809e-10,-0.0164283,4
332182867,0.997361,-0.0626109,-0.00318322,0.0366309,-0.999865,6.2192e-09,5.04809e-10,-0.0164283,4
332232913,0.997158,-0.0659047,-0.00392961,0.0362803,-0.999865,6.2192e-09,5.04809e-10,-0.0164283,4
332277953,0.996818,-0.0711859,-0.00353703,0.0356852,-0.999865,6.2192e-09,5.04809e-10,-0.0164283,4
332333003,0.99666,-0.0737825,-0.00217046,0.0349434,-0.999865,6.2192e-09,5.04809e-10,-0.0164283,4
332383048,0.997187,-0.0665751,-0.000862906,0.0344298,-0.999865,6.2192e-09,5.04809e-10,-0.0164283,4
332428089,0.998301,-0.0478894,0.00113501,0.03317,-0.999865,6.2192e-09,5.04809e-10,-0.0164283,4
332483149,0.999232,-0.0218626,0.000735611,0.0325067,-0.999865,6.2192e-09,5.04809e-10,-0.0164283,4
332533183,0.999485,-0.00352288,0.000390637,0.031906,-0.999865,6.2192e-09,5.04809e-10,-0.0164283,4
332578226,0.999485,0.00379057,-0.000275414,0.0318683,-0.999865,6.2192e-09,5.04809e-10,-0.0164283,4
332628275,0.999482,0.00447864,-0.00199589,0.0318187,-0.999865,6.2192e-09,5.04809e-10,-0.0164283,4
332683320,0.999456,0.00192556,-0.00714162,0.0321355,-0.999865,6.2192e-09,5.04809e-10,-0.0164283,4
332728363,0.999374,0.00211191,-0.014062,0.0323868,-0.999865,6.2192e-09,5.04809e-10,-0.0164283,4
332778404,0.999212,0.00470299,-0.022373,0.0324397,-0.999865,6.2192e-09,5.04809e-10,-0.0164283,4
332833457,0.999043,0.00678761,-0.0282255,0.0327175,-0.999865,6.2192e-09,5.04809e-10,-0.0164283,4
332883499,0.998948,0.0109154,-0.0295475,0.0333134,-0.999865,6.2192e-09,5.04809e-10,-0.0164283,4
332928544,0.998882,0.0127478,-0.0297619,0.034441,-0.999865,6.2192e-09,5.04809e-10,-0.0164283,4
332978585,0.998761,0.0139698,-0.0319469,0.0355064,-0.999865,6.2192e-09,5.04809e-10,-0.0164283,4
333033634,0.998665,0.0123067,-0.0353323,0.0356099,-0.999865,6.2192e-09,5.04809e-10,-0.0164283,4
333078675,0.998622,0.0109269,-0.036846,0.0357434,-0.999865,6.2192e-09,5.04809e-10,-0.0164283,4
333128720,0.998632,0.00954696,-0.0364403,0.0362535,-0.999865,6.2192e-09,5.04809e-10,-0.0164283,4
333183771,0.998607,0.0111666,-0.0362377,0.0366852,-0.999865,6.2192e-09,5.04809e-10,-0.0164283,4
333233815,0.998605,0.0122037,-0.0358371,0.0368002,-0.999865,6.2192e-09,5.04809e-10,-0.0164283,4
333278855,0.998641,0.0104339,-0.035229,0.0369545,-0.999865,6.2192e-09,5.04809e-10,-0.0164283,4
333328904,0.998736,0.00889975,-0.0325109,0.0372804,-0.999865,6.2192e-09,5.04809e-10,-0.0164283,4
333383950,0.998877,0.00845433,-0.0275102,0.0376475,-0.999865,6.2192e-09,5.04809e-10,-0.0164283,4
333428991,0.998942,0.00373934,-0.0237838,0.0391793,-0.999865,6.2192e-09,5.04809e-10,-0.0164283,4
333479036,0.998938,0.00254693,-0.0198533,0.0415025,-0.999865,6.2192e-09,5.04809e-10,-0.0164283,4
333534086,0.998897,0.0109818,-0.0137423,0.0435449,-0.999865,6.2192e-09,5.04809e-10,-0.0164283,4
333579126,0.998697,0.022302,-0.011353,0.0444674,-0.999865,6.2192e-09,5.04809e-10,-0.0164283,4
333629171,0.998495,0.029436,-0.0131502,0.0443745,-0.999865,6.2192e-09,5.04809e-10,-0.0164283,4
333679218,0.998359,0.022763,-0.0270643,0.045043,-0.999865,6.2192e-09,5.04809e-10,-0.0164283,4
333734274,0.997766,0.0164943,-0.0457264,0.0458242,-0.999865,6.2192e-09,5.04809e-10,-0.0164283,4
333779307,0.997721,0.0094737,-0.0454095,0.049001,-0.999865,6.2192e-09,5.04809e-10,-0.0164283,4
333829352,0.99727,0.0172404,-0.0490373,0.0524454,-0.999865,6.2192e-09,5.04809e-10,-0.0164283,4
333884401,0.996892,0.0280851,-0.0475017,0.0562322,-0.999865,6.2192e-09,5.04809e-10,-0.0164283,4
333929442,0.997347,0.0276366,-0.0339638,0.0581474,-0.999865,6.2192e-09,5.04809e-10,-0.0164283,4
333979487,0.99788,0.0178427,-0.0164649,0.0603806,-0.999865,6.2192e-09,5.04809e-10,-0.0164283,4
334029532,0.998066,0.00637441,-0.00207622,0.0617927,-0.999865,6.2192e-09,5.04809e-10,-0.0164283,4
334079577,0.998021,-0.00117348,0.00424829,0.0627224,-0.999865,6.2192e-09,5.04809e-10,-0.0164283,4
334129622,0.997992,-0.005271,0.00347599,0.0630272,-0.999865,6.2192e-09,5.04809e-10,-0.0164283,4
334179667,0.998001,-0.00827012,0.000766009,0.0626512,-0.999865,6.2192e-09,5.04809e-10,-0.0164283,4
334234717,0.997987,-0.0118317,-0.00176269,0.0622861,-0.999865,6.2192e-09,5.04809e-10,-0.0164283,4
334279757,0.997969,-0.0152547,-0.00430141,0.0616917,-0.999865,6.2192e-09,5.04809e-10,-0.0164283,4
334329802,0.997935,-0.0202253,-0.00798634,0.0604373,-0.999865,6.2192e-09,5.04809e-10,-0.0164283,4
334379854,0.997985,-0.0209596,-0.00760532,0.0593988,-0.999865,6.2192e-09,5.04809e-10,-0.0164283,4
334429893,0.998022,-0.0224675,-0.00332861,0.05862,-0.999865,6.2192e-09,5.04809e-10,-0.0164283,4
334479938,0.997848,-0.0314342,0.00214674,0.0575016,-0.999865,6.2192e-09,5.04809e-10,-0.0164283,4
334529985,0.997419,-0.0445086,0.00431243,0.0561688,-0.999865,6.2192e-09,5.04809e-10,-0.0164283,4
334580028,0.996699,-0.0593899,0.00441683,0.0551761,-0.999865,6.2192e-09,5.04809e-10,-0.0164283,4
334630073,0.995999,-0.071154,0.00489917,0.0538453,-0.999865,6.2192e-09,5.04809e-10,-0.0164283,4
334680119,0.996215,-0.0689727,0.00512799,0.0526496,-0.999865,6.2192e-09,5.04809e-10,-0.0164283,4
334730163,0.997183,-0.0544572,0.0044076,0.0513927,-0.999865,6.2192e-09,5.04809e-10,-0.0164283,4
