timestamp,ref_timestamp,ref_lat,ref_lon,x,y,z,delta_xy[0],delta_xy[1],delta_z,vx,vy,vz,z_deriv,delta_vxy[0],delta_vxy[1],delta_vz,ax,ay,az,heading,delta_heading,ref_alt,dist_bottom,eph,epv,evh,evv,vxy_max,vz_max,hagl_min,hagl_max,xy_valid,z_valid,v_xy_valid,v_z_valid,xy_reset_counter,z_reset_counter,vxy_reset_counter,vz_reset_counter,heading_reset_counter,xy_global,z_global,dist_bottom_valid
304828207,73175492,34.034884,108.7565137,-5.23277,-1.7237,-1.71571,-1.11881,0.258865,0.0,0.0583071,0.00994889,-0.314522,-0.0196202,0.560528,0.191663,0.779537,5.75447,-5.47963,3.33007,-0.0391173,-0.0147204,425.399,0.179936,0.286705,0.386545,0.131381,0.100266,inf,inf,inf,inf,1,1,1,1,2,0,2,1,3,1,1,1
304838215,73175492,34.034884,108.7565137,-5.23295,-1.72361,-1.71466,-1.11881,0.258865,0.0,-0.0284937,0.0201789,-0.304573,-0.00868467,0.560528,0.191663,0.779537,-11.6333,3.45484,-2.08089,-0.039801,-0.0147204,425.399,0.178887,0.287512,0.38718,0.131851,0.100444,inf,inf,inf,inf,1,1,1,1,2,0,2,1,3,1,1,1
304928295,73175492,34.034884,108.7565137,-5.23597,-1.72118,-1.71202,-1.11881,0.258865,0.0,-0.040464,0.0221429,-0.296525,0.00242775,0.560528,0.191663,0.779537,-11.525,3.01707,-2.83046,-0.0399181,-0.0147204,425.399,0.176241,0.294998,0.390564,0.136118,0.101788,inf,inf,inf,inf,1,1,1,1,2,0,2,1,3,1,1,1
305028384,73175492,34.034884,108.7565137,-5.23918,-1.71828,-1.71564,-1.11881,0.258865,0.0,0.0192515,0.0154862,-0.344323,-0.0481047,0.560528,0.191663,0.779537,1.942,-3.11864,-4.36625,-0.0386865,-0.0147204,425.399,0.179859,0.286637,0.388183,0.13189,0.100448,inf,inf,inf,inf,1,1,1,1,2,0,2,1,3,1,1,1
305128474,73175492,34.034884,108.7565137,-5.24611,-1.71318,-1.71394,-1.11881,0.258865,0.0,-0.0134552,0.030239,-0.310101,-0.0109386,0.560528,0.191663,0.779537,0.581312,1.93462,4.49114,-0.0379874,-0.0147204,425.399,0.178163,0.294944,0.389815,0.136662,0.101716,inf,inf,inf,inf,1,1,1,1,2,0,2,1,3,1,1,1
305228564,73175492,34.034884,108.7565137,-5.25136,-1.70911,-1.71992,-1.11881,0.258865,0.0,0.00579447,0.0142517,-0.356008,-0.0616203,0.560528,0.191663,0.779537,2.82556,-2.93636,-4.93143,-0.0346519,-0.0147204,425.399,0.184144,0.303779,0.391495,0.141726,0.102974,inf,inf,inf,inf,1,1,1,1,2,0,2,1,3,1,1,1
305328654,73175492,34.034884,108.7565137,-5.25657,-1.70469,-1.71899,-1.11881,0.258865,0.0,0.00632892,0.0350134,-0.37072,-0.0738278,0.560528,0.191663,0.779537,3.73269,1.40397,-15.2563,-0.0323951,-0.0147204,425.399,0.183213,0.294741,0.389059,0.137266,0.101626,inf,inf,inf,inf,1,1,1,1,2,0,2,1,3,1,1,1
305428744,73175492,34.034884,108.7565137,-5.26107,-1.7,-1.72116,-1.11881,0.258865,0.0,0.000518312,0.0477797,-0.356641,-0.0608753,0.560528,0.191663,0.779537,2.70897,1.08663,-4.87883,-0.0324026,-0.0147204,425.399,0.185387,0.286409,0.386707,0.132891,0.100292,inf,inf,inf,inf,1,1,1,1,2,0,2,1,3,1,1,1
305528834,73175492,34.034884,108.7565137,-5.2655,-1.6963,-1.71598,-1.11881,0.258865,0.0,0.00298589,0.0254607,-0.36989,-0.0684306,0.560528,0.191663,0.779537,0.159055,-3.6046,-14.8525,-0.0333637,-0.0147204,425.399,0.180206,0.294736,0.388321,0.137709,0.101559,inf,inf,inf,inf,1,1,1,1,2,0,2,1,3,1,1,1
305628925,73175492,34.034884,108.7565137,-5.26951,-1.69239,-1.71907,-1.11881,0.258865,0.0,-0.0226518,0.0390806,-0.351279,-0.052421,0.560528,0.191663,0.779537,-2.86798,-0.222421,4.2715,-0.0333842,-0.0147204,425.399,0.183294,0.286368,0.388359,0.133473,0.100478,inf,inf,inf,inf,1,1,1,1,2,0,2,1,3,1,1,1
305729015,73175492,34.034884,108.7565137,-5.27389,-1.68681,-1.71615,-1.11881,0.258865,0.0,-0.0190648,0.0483584,-0.282701,0.0189106,0.560528,0.191663,0.779537,-0.403847,-0.698562,9.34834,-0.0331946,-0.0147204,425.399,0.180374,0.294717,0.390004,0.138298,0.101755,inf,inf,inf,inf,1,1,1,1,2,0,2,1,3,1,1,1
305829107,73175492,34.034884,108.7565137,-5.27736,-1.68149,-1.71876,-1.11881,0.258865,0.0,-0.0322536,0.047604,-0.295444,0.00344561,0.560528,0.191663,0.779537,-2.47596,0.351847,9.39372,-0.0329132,-0.0147204,425.399,0.182978,0.286312,0.387643,0.134067,0.100418,inf,inf,inf,inf,1,1,1,1,2,0,2,1,3,1,1,1
305929195,73175492,34.034884,108.7565137,-5.2801,-1.67712,-1.71633,-1.11881,0.258865,0.0,-0.0141776,0.020108,-0.276009,0.0251621,0.560528,0.191663,0.779537,1.17511,-3.06312,0.276863,-0.0313174,-0.0147204,425.399,0.180551,0.294682,0.38928,0.139126,0.101691,inf,inf,inf,inf,1,1,1,1,2,0,2,1,3,1,1,1
306029286,73175492,34.034884,108.7565137,-5.28252,-1.67365,-1.71914,-1.11881,0.258865,0.0,-0.0182889,0.0356062,-0.342202,-0.0440936,0.560528,0.191663,0.779537,-0.499864,3.2655,-10.0596,-0.0275346,-0.0147204,425.399,0.183366,0.286235,0.386931,0.134744,0.100354,inf,inf,inf,inf,1,1,1,1,2,0,2,1,3,1,1,1
306129376,73175492,34.034884,108.7565137,-5.28559,-1.66903,-1.71358,-1.11881,0.258865,0.0,0.0014102,0.0151245,-0.295639,0.00763052,0.560528,0.191663,0.779537,5.34534,-0.801466,-4.95508,-0.0271718,-0.0147204,425.399,0.177801,0.294625,0.388544,0.139513,0.101618,inf,inf,inf,inf,1,1,1,1,2,0,2,1,3,1,1,1
306229466,73175492,34.034884,108.7565137,-5.28788,-1.66599,-1.71284,-1.11881,0.258865,0.0,-0.0142459,0.0141494,-0.359653,-0.0569869,0.560528,0.191663,0.779537,-1.88346,0.483328,-12.3118,-0.0227854,-0.0147204,425.399,0.177066,0.286189,0.388574,0.134899,0.100527,inf,inf,inf,inf,1,1,1,1,2,0,2,1,3,1,1,1
306329556,73175492,34.034884,108.7565137,-5.29119,-1.66109,-1.70632,-1.11881,0.258865,0.0,-0.0205184,0.0229456,-0.306802,0.00104732,0.560528,0.191663,0.779537,-1.09178,-2.19584,2.69281,-0.0232625,-0.0147204,425.399,0.172489,0.294603,0.390209,0.139833,0.101797,inf,inf,inf,inf,1,1,1,1,2,0,2,1,3,1,1,1
306429646,73175492,34.034884,108.7565137,-5.29433,-1.6554,-1.70714,-1.11881,0.258865,0.0,-0.0178272,0.0486159,-0.327306,-0.0223618,0.560528,0.191663,0.779537,-2.23635,0.956775,5.52731,-0.0217721,-0.0147204,425.399,0.17331,0.286135,0.387837,0.135183,0.100457,inf,inf,inf,inf,1,1,1,1,2,0,2,1,3,1,1,1
306529736,73175492,34.034884,108.7565137,-5.29658,-1.65035,-1.70413,-1.11881,0.258865,0.0,-0.00544343,0.0385653,-0.349343,-0.0439523,0.560528,0.191663,0.779537,-0.165007,-0.317436,-9.44755,-0.019673,-0.0147204,425.399,0.170297,0.294571,0.389463,0.14016,0.101728,inf,inf,inf,inf,1,1,1,1,2,0,2,1,3,1,1,1
306629829,73175492,34.034884,108.7565137,-5.29906,-1.64538,-1.70697,-1.11881,0.258865,0.0,-0.0225648,0.0400491,-0.295766,0.00502436,0.560528,0.191663,0.779537,-2.22462,-1.60179,10.2907,-0.0180412,-0.0147204,425.399,0.173139,0.286065,0.387105,0.135501,0.10039,inf,inf,inf,inf,1,1,1,1,2,0,2,1,3,1,1,1
306729917,73175492,34.034884,108.7565137,-5.30061,-1.64013,-1.7056,-1.11881,0.258865,0.0,-0.0217273,0.0352591,-0.292702,0.00801467,0.560528,0.191663,0.779537,-0.81285,2.19474,2.65309,-0.0162006,-0.0147204,425.399,0.17177,0.294521,0.388723,0.140277,0.101657,inf,inf,inf,inf,1,1,1,1,2,0,2,1,3,1,1,1
306830008,73175492,34.034884,108.7565137,-5.30286,-1.63614,-1.71052,-1.11881,0.258865,0.0,-0.0236701,0.0249687,-0.255303,0.0399008,0.560528,0.191663,0.779537,2.12804,-1.32875,9.35652,-0.0157937,-0.0147204,425.399,0.17669,0.286007,0.386379,0.135778,0.100321,inf,inf,inf,inf,1,1,1,1,2,0,2,1,3,1,1,1
306930097,73175492,34.034884,108.7565137,-5.30551,-1.63097,-1.70992,-1.11881,0.258865,0.0,-0.0185856,0.0341274,-0.293964,0.00158036,0.560528,0.191663,0.779537,-2.26233,1.86734,-2.58534,-0.0127041,-0.0147204,425.399,0.176092,0.29448,0.390403,0.140664,0.101841,inf,inf,inf,inf,1,1,1,1,2,0,2,1,3,1,1,1
307030191,73175492,34.034884,108.7565137,-5.30803,-1.62659,-1.71442,-1.11881,0.258865,0.0,-0.0185162,0.0298466,-0.270134,0.0207213,0.560528,0.191663,0.779537,3.87838,0.0144164,-0.281163,-0.00857171,-0.0147204,425.399,0.180586,0.285964,0.388036,0.135887,0.1005,inf,inf,inf,inf,1,1,1,1,2,0,2,1,3,1,1,1
307130282,73175492,34.034884,108.7565137,-5.31107,-1.62281,-1.71167,-1.11881,0.258865,0.0,-0.00384163,0.0298963,-0.311489,-0.0183906,0.560528,0.191663,0.779537,1.5463,-0.368882,-6.71547,-0.00406731,-0.0147204,425.399,0.177839,0.294453,0.389676,0.140765,0.101772,inf,inf,inf,inf,1,1,1,1,2,0,2,1,3,1,1,1
307230368,73175492,34.034884,108.7565137,-5.31379,-1.61942,-1.7157,-1.11881,0.258865,0.0,-0.0107714,0.0233717,-0.349934,-0.0615937,0.560528,0.191663,0.779537,3.59096,0.251807,-19.9005,-0.00641597,-0.0147204,425.399,0.181869,0.303505,0.391364,0.145603,0.103031,inf,inf,inf,inf,1,1,1,1,2,0,2,1,3,1,1,1
307330458,73175492,34.034884,108.7565137,-5.31563,-1.61591,-1.71254,-1.11881,0.258865,0.0,0.00331898,0.0439356,-0.307819,-0.0171707,0.560528,0.191663,0.779537,2.85784,0.31608,-1.1398,-0.00407757,-0.0147204,425.399,0.178704,0.294275,0.388934,0.140412,0.10168,inf,inf,inf,inf,1,1,1,1,2,0,2,1,3,1,1,1
307430550,73175492,34.034884,108.7565137,-5.31727,-1.61285,-1.71371,-1.11881,0.258865,0.0,-0.012399,0.0287172,-0.35378,-0.0655812,0.560528,0.191663,0.779537,0.233638,-2.02183,-20.2188,-0.00367066,-0.0147204,425.399,0.17988,0.285793,0.386594,0.135492,0.100346,inf,inf,inf,inf,1,1,1,1,2,0,2,1,3,1,1,1
307530643,73175492,34.034884,108.7565137,-5.31892,-1.60976,-1.71003,-1.11881,0.258865,0.0,0.00284789,0.0319386,-0.313768,-0.0229291,0.560528,0.191663,0.779537,3.74223,-0.794981,-7.80735,-0.00391329,-0.0147204,425.399,0.176196,0.294293,0.388216,0.140361,0.101614,inf,inf,inf,inf,1,1,1,1,2,0,2,1,3,1,1,1
307630729,73175492,34.034884,108.7565137,-5.31981,-1.60586,-1.71026,-1.11881,0.258865,0.0,-0.00995004,0.0412412,-0.307132,-0.017289,0.560528,0.191663,0.779537,-1.27409,-3.30741,4.66394,0.000209064,-0.0147204,425.399,0.176429,0.285867,0.388269,0.135474,0.100543,inf,inf,inf,inf,1,1,1,1,2,0,2,1,3,1,1,1
307730819,73175492,34.034884,108.7565137,-5.32143,-1.60112,-1.70747,-1.11881,0.258865,0.0,-0.0193929,0.0507017,-0.285497,0.0073201,0.560528,0.191663,0.779537,-0.369099,1.21719,19.6205,0.00178952,-0.0147204,425.399,0.173638,0.294389,0.389922,0.14023,0.10182,inf,inf,inf,inf,1,1,1,1,2,0,2,1,3,1,1,1
307830909,73175492,34.034884,108.7565137,-5.32259,-1.59782,-1.71075,-1.11881,0.258865,0.0,-0.0217374,0.0120738,-0.26552,0.0241383,0.560528,0.191663,0.779537,3.30023,-2.1264,10.7983,0.00285999,-0.0147204,425.399,0.176912,0.285875,0.387555,0.135456,0.100478,inf,inf,inf,inf,1,1,1,1,2,0,2,1,3,1,1,1
307930999,73175492,34.034884,108.7565137,-5.32529,-1.59638,-1.7086,-1.11881,0.258865,0.0,-0.010638,-0.00285847,-0.342303,-0.0497893,0.560528,0.191663,0.779537,0.586169,-2.70579,-9.32281,0.00682005,-0.0147204,425.399,0.174771,0.294408,0.389184,0.140381,0.101748,inf,inf,inf,inf,1,1,1,1,2,0,2,1,3,1,1,1
308031093,73175492,34.034884,108.7565137,-5.32628,-1.59541,-1.71134,-1.11881,0.258865,0.0,-0.013513,0.014725,-0.302519,-0.0121847,0.560528,0.191663,0.779537,-2.70829,0.51658,3.88961,0.0112502,-0.0147204,425.399,0.178288,0.285881,0.386823,0.13544,0.100405,inf,inf,inf,inf,1,1,1,1,2,0,2,1,3,1,1,1
308131180,73175492,34.034884,108.7565137,-5.32755,-1.59161,-1.70728,-1.11881,0.258865,0.0,-0.0222186,0.0285978,-0.360635,-0.0650331,0.560528,0.191663,0.779537,-3.14239,0.891086,-14.3939,0.0140377,-0.0147204,425.399,0.174227,0.294421,0.388443,0.139987,0.101672,inf,inf,inf,inf,1,1,1,1,2,0,2,1,3,1,1,1
308231291,73175492,34.034884,108.7565137,-5.32893,-1.58731,-1.70873,-1.11881,0.258865,0.0,-0.0206208,0.0227442,-0.280242,0.0142836,0.560528,0.191663,0.779537,1.6711,-5.3883,9.23666,0.0174247,-0.0147204,425.399,0.177585,0.28589,0.388475,0.135265,0.100582,inf,inf,inf,inf,1,1,1,1,2,0,2,1,3,1,1,1
308331361,73175492,34.034884,108.7565137,-5.33207,-1.58539,-1.70241,-1.11881,0.258865,0.0,-0.0421815,0.0208519,-0.352005,-0.0501804,0.560528,0.191663,0.779537,-4.19221,1.98073,-5.97211,0.0226773,-0.0147204,425.399,0.175272,0.294434,0.390125,0.139858,0.101859,inf,inf,inf,inf,1,1,1,1,2,0,2,1,3,1,1,1
308431451,73175492,34.034884,108.7565137,-5.33591,-1.58439,-1.70157,-1.11881,0.258865,0.0,-0.0396524,0.00716859,-0.344431,-0.0418607,0.560528,0.191663,0.779537,-1.06376,-2.43925,3.08638,0.0232133,-0.0147204,425.399,0.180784,0.285903,0.387756,0.135002,0.100513,inf,inf,inf,inf,1,1,1,1,2,0,2,1,3,1,1,1
308531544,73175492,34.034884,108.7565137,-5.33908,-1.58328,-1.69758,-1.11881,0.258865,0.0,-0.0262319,0.00331109,-0.361763,-0.0531702,0.560528,0.191663,0.779537,-0.521937,1.09912,-18.115,0.0192423,-0.0147204,425.399,0.176797,0.294449,0.38939,0.139808,0.101783,inf,inf,inf,inf,1,1,1,1,2,0,2,1,3,1,1,1
308631631,73175492,34.034884,108.7565137,-5.34198,-1.58244,-1.69723,-1.11881,0.258865,0.0,-0.0351104,-0.0126165,-0.317415,-0.00794902,0.560528,0.191663,0.779537,0.0566648,-7.86693,2.63123,0.0165156,-0.0147204,425.399,0.190319,0.285914,0.387034,0.13485,0.100439,inf,inf,inf,inf,1,1,1,1,2,0,2,1,3,1,1,1
308731722,73175492,34.034884,108.7565137,-5.34475,-1.57981,-1.69238,-1.11881,0.258865,0.0,-0.0115179,0.00303216,-0.38695,-0.0709207,0.560528,0.191663,0.779537,-1.33782,1.58411,-13.7454,0.0153076,-0.0147204,425.399,0.185468,0.294461,0.388659,0.139398,0.101703,inf,inf,inf,inf,1,1,1,1,2,0,2,1,3,1,1,1
308831812,73175492,34.034884,108.7565137,-5.34504,-1.5768,-1.69185,-1.11881,0.258865,0.0,-0.0107651,0.0312765,-0.331504,-0.0150909,0.560528,0.191663,0.779537,0.187014,-0.202355,15.1206,0.0176364,-0.0147204,425.399,0.185864,0.286006,0.386322,0.134611,0.100371,inf,inf,inf,inf,1,1,1,1,2,0,2,1,3,1,1,1
308931902,73175492,34.034884,108.7565137,-5.34513,-1.57306,-1.69415,-1.11881,0.258865,0.0,-0.00228674,0.0421266,-0.42345,-0.103428,0.560528,0.191663,0.779537,0.0263388,-0.7809,-4.52288,0.0142263,-0.0147204,425.399,0.188172,0.294561,0.390353,0.139325,0.101889,inf,inf,inf,inf,1,1,1,1,2,0,2,1,3,1,1,1
309032003,73175492,34.034884,108.7565137,-5.34563,-1.57112,-1.70418,-1.11881,0.258865,0.0,-0.0148479,0.0210292,-0.434436,-0.118122,0.560528,0.191663,0.779537,-0.360875,2.68997,-12.1592,0.0115028,-0.0147204,425.399,0.198196,0.285981,0.387987,0.134491,0.100541,inf,inf,inf,inf,1,1,1,1,2,0,2,1,3,1,1,1
309132083,73175492,34.034884,108.7565137,-5.34878,-1.5691,-1.70977,-1.11881,0.258865,0.0,-0.0331442,0.00861671,-0.460868,-0.140271,0.560528,0.191663,0.779537,1.26378,-2.18837,-15.7395,0.0126217,-0.0147204,425.399,0.20379,0.294537,0.389634,0.139175,0.101811,inf,inf,inf,inf,1,1,1,1,2,0,2,1,3,1,1,1
309232173,73175492,34.034884,108.7565137,-5.35245,-1.56725,-1.72515,-1.11881,0.258865,0.0,-0.0265215,0.0282823,-0.406352,-0.0915311,0.560528,0.191663,0.779537,-0.320249,3.30048,-3.72705,0.0112475,-0.0147204,425.399,0.219169,0.303636,0.391337,0.144027,0.10307,inf,inf,inf,inf,1,1,1,1,2,0,2,1,3,1,1,1
309332271,73175492,34.034884,108.7565137,-5.3524,-1.56335,-1.71494,-1.11881,0.258865,0.0,-0.00107746,0.0154233,-0.267882,0.0558083,0.560528,0.191663,0.779537,1.68683,-2.636,4.29503,0.0141338,-0.0147204,425.399,0.208962,0.294426,0.38892,0.138918,0.101727,inf,inf,inf,inf,1,1,1,1,2,0,2,1,3,1,1,1
309432354,73175492,34.034884,108.7565137,-5.3504,-1.56155,-1.70894,-1.11881,0.258865,0.0,0.0087277,-0.0255049,-0.30649,0.0162347,0.560528,0.191663,0.779537,-1.76872,-2.30937,-12.2239,0.0123824,-0.0147204,425.399,0.202957,0.285881,0.386579,0.133895,0.100388,inf,inf,inf,inf,1,1,1,1,2,0,2,1,3,1,1,1
309522435,73175492,34.034884,108.7565137,-5.34932,-1.56145,-1.69359,-1.11881,0.258865,0.0,0.00818505,-0.0104014,-0.231293,0.0977745,0.560528,0.191663,0.779537,1.43811,2.23096,-6.32403,0.0115986,-0.0147204,425.399,0.187611,0.293524,0.389976,0.137774,0.101735,inf,inf,inf,inf,1,1,1,1,2,0,2,1,3,1,1,0
309632537,73175492,34.034884,108.7565137,-5.34959,-1.55835,-1.68336,-1.11881,0.258865,0.0,-0.0125836,0.0177729,-0.229275,0.0966897,0.560528,0.191663,0.779537,-1.04722,0.177032,-2.11856,0.00929383,-0.0147204,425.399,0.177381,0.285833,0.388262,0.1334,0.100566,inf,inf,inf,inf,1,1,1,1,2,0,2,1,3,1,1,0
309732627,73175492,34.034884,108.7565137,-5.3506,-1.55336,-1.67305,-1.11881,0.258865,0.0,0.0114328,0.00980767,-0.208473,0.118423,0.560528,0.191663,0.779537,3.22221,-6.18943,3.61071,0.000349388,-0.0147204,425.399,0.167066,0.294336,0.389921,0.13783,0.10184,inf,inf,inf,inf,1,1,1,1,2,0,2,1,3,1,1,0
309832715,73175492,34.034884,108.7565137,-5.34999,-1.54909,-1.66541,-1.11881,0.258865,0.0,0.008534,0.0311772,-0.205276,0.115535,0.560528,0.191663,0.779537,0.237864,-3.74304,8.43907,-0.00628199,-0.0147204,425.399,0.159424,0.285779,0.387568,0.133164,0.100495,inf,inf,inf,inf,1,1,1,1,2,0,2,1,3,1,1,0
309932805,73175492,34.034884,108.7565137,-5.34966,-1.54692,-1.65322,-1.11881,0.258865,0.0,0.0112319,0.0379754,-0.179519,0.140409,0.560528,0.191663,0.779537,-0.200643,-3.27104,9.05498,-0.0119435,-0.0147204,425.399,0.147234,0.294275,0.389225,0.137395,0.101766,inf,inf,inf,inf,1,1,1,1,2,0,2,1,3,1,1,0
310022886,73175492,34.034884,108.7565137,-5.34926,-1.54451,-1.65011,-1.11881,0.258865,0.0,0.022047,0.0283187,-0.218839,0.0931318,0.560528,0.191663,0.779537,3.17687,-2.65841,-6.93787,-0.0202213,-0.0147204,425.399,0.144128,0.30237,0.39027,0.141638,0.102846,inf,inf,inf,inf,1,1,1,1,2,0,2,1,3,1,1,0
310132987,73175492,34.034884,108.7565137,-5.34874,-1.54151,-1.64618,-1.11881,0.258865,0.0,0.0280251,0.0303061,-0.199106,0.10491,0.560528,0.191663,0.779537,2.57842,-3.4656,-0.630895,-0.0270311,-0.0147204,425.399,0.140197,0.294199,0.388525,0.137377,0.101692,inf,inf,inf,inf,1,1,1,1,2,0,2,1,3,1,1,0
310223069,73175492,34.034884,108.7565137,-5.34857,-1.53835,-1.65016,-1.11881,0.258865,0.0,-0.0101007,0.0406598,-0.231077,0.0607254,0.560528,0.191663,0.779537,-1.32241,0.79591,1.29216,-0.0329099,-0.0147204,425.399,0.14418,0.302287,0.392005,0.141613,0.103037,inf,inf,inf,inf,1,1,1,1,2,0,2,1,3,1,1,0
310333166,73175492,34.034884,108.7565137,-5.35085,-1.53432,-1.65275,-1.11881,0.258865,0.0,-0.00308919,0.00977772,-0.248165,0.0340785,0.560528,0.191663,0.779537,0.397102,-0.812294,-4.41031,-0.0347733,-0.0147204,425.399,0.146773,0.294071,0.387834,0.137297,0.101623,inf,inf,inf,inf,1,1,1,1,2,0,2,1,3,1,1,0
310433257,73175492,34.034884,108.7565137,-5.35088,-1.53121,-1.65904,-1.11881,0.258865,0.0,0.0215929,0.0454531,-0.234066,0.036778,0.560528,0.191663,0.779537,-0.206222,3.77151,4.03683,-0.0350862,-0.0147204,425.399,0.153062,0.285452,0.387884,0.132529,0.100535,inf,inf,inf,inf,1,1,1,1,2,0,2,1,3,1,1,0
310523338,73175492,34.034884,108.7565137,-5.34978,-1.52826,-1.65871,-1.11881,0.258865,0.0,0.0255645,0.0275945,-0.263913,0.0039171,0.560528,0.191663,0.779537,0.0986605,2.69856,-6.67126,-0.0362973,-0.0147204,425.399,0.152729,0.29305,0.388896,0.136579,0.101632,inf,inf,inf,inf,1,1,1,1,2,0,2,1,3,1,1,0
310633437,73175492,34.034884,108.7565137,-5.34897,-1.52376,-1.66105,-1.11881,0.258865,0.0,0.0158544,0.0484015,-0.257628,0.00503685,0.560528,0.191663,0.779537,-1.17918,2.53546,2.22322,-0.0375075,-0.0147204,425.399,0.155065,0.285374,0.387208,0.132416,0.10048,inf,inf,inf,inf,1,1,1,1,2,0,2,1,3,1,1,0
310723518,73175492,34.034884,108.7565137,-5.35087,-1.52061,-1.6588,-1.11881,0.258865,0.0,-0.00369797,0.0293343,-0.239972,0.0233003,0.560528,0.191663,0.779537,-0.857943,-2.94377,7.16376,-0.038266,-0.0147204,425.399,0.152821,0.29297,0.388212,0.136527,0.101575,inf,inf,inf,inf,1,1,1,1,2,0,2,1,3,1,1,0
310833619,73175492,34.034884,108.7565137,-5.35439,-1.51872,-1.66112,-1.11881,0.258865,0.0,-0.00602979,0.0220966,-0.273606,-0.0135947,0.560528,0.191663,0.779537,1.94636,-1.45346,-2.33858,-0.0383045,-0.0147204,425.399,0.15514,0.285277,0.386534,0.132373,0.100425,inf,inf,inf,inf,1,1,1,1,2,0,2,1,3,1,1,0
310923706,73175492,34.034884,108.7565137,-5.35633,-1.51567,-1.66214,-1.11881,0.258865,0.0,-0.00159461,0.0267058,-0.264935,-0.00565994,0.560528,0.191663,0.779537,0.901073,-4.75712,-0.23643,-0.0387818,-0.0147204,425.399,0.156158,0.292872,0.387539,0.136449,0.101517,inf,inf,inf,inf,1,1,1,1,2,0,2,1,3,1,1,0
311023790,73175492,34.034884,108.7565137,-5.35704,-1.5118,-1.66724,-1.11881,0.258865,0.0,0.00611543,0.0389712,-0.266842,-0.0116025,0.560528,0.191663,0.779537,-0.998184,-3.10173,3.20347,-0.038808,-0.0147204,425.399,0.161263,0.284344,0.387599,0.131915,0.10044,inf,inf,inf,inf,1,1,1,1,2,0,2,1,3,1,1,0
311133889,73175492,34.034884,108.7565137,-5.35892,-1.51108,-1.66718,-1.11881,0.258865,0.0,0.0158619,0.0187261,-0.284164,-0.0269693,0.560528,0.191663,0.779537,0.791028,1.66826,-4.63167,-0.0383141,-0.0147204,425.399,0.161201,0.293625,0.389895,0.136926,0.10189,inf,inf,inf,inf,1,1,1,1,2,0,2,1,3,1,1,0
311223970,73175492,34.034884,108.7565137,-5.35885,-1.51037,-1.67377,-1.11881,0.258865,0.0,0.0247884,0.0170484,-0.302845,-0.0508706,0.560528,0.191663,0.779537,1.36539,-0.960966,-3.67887,-0.0356423,-0.0147204,425.399,0.167788,0.30169,0.390938,0.141024,0.102968,inf,inf,inf,inf,1,1,1,1,2,0,2,1,3,1,1,0
311334072,73175492,34.034884,108.7565137,-5.35873,-1.5047,-1.6736,-1.11881,0.258865,0.0,0.00818185,0.0587522,-0.29506,-0.0395782,0.560528,0.191663,0.779537,-1.71609,3.13655,6.07036,-0.0366388,-0.0147204,425.399,0.167623,0.29341,0.389175,0.13672,0.10181,inf,inf,inf,inf,1,1,1,1,2,0,2,1,3,1,1,0
311424153,73175492,34.034884,108.7565137,-5.35904,-1.49912,-1.68274,-1.11881,0.258865,0.0,0.00352599,0.0571925,-0.338371,-0.0867619,0.560528,0.191663,0.779537,0.0996532,-1.66037,-0.233565,-0.0368485,-0.0147204,425.399,0.176763,0.301463,0.390209,0.140917,0.102887,inf,inf,inf,inf,1,1,1,1,2,0,2,1,3,1,1,0
311524241,73175492,34.034884,108.7565137,-5.36086,-1.49373,-1.6886,-1.11881,0.258865,0.0,-0.00878077,0.0729697,-0.387383,-0.1323,0.560528,0.191663,0.779537,-0.411089,-0.0432077,-2.66909,-0.0374556,-0.0147204,425.399,0.18262,0.292291,0.390221,0.136298,0.101811,inf,inf,inf,inf,1,1,1,1,2,0,2,1,3,1,1,0
311624333,73175492,34.034884,108.7565137,-5.3633,-1.48661,-1.70601,-1.11881,0.258865,0.0,-0.0229282,0.099878,-0.394316,-0.143689,0.560528,0.191663,0.779537,0.169143,3.91439,5.90295,-0.0377676,-0.0147204,425.399,0.200031,0.28373,0.387862,0.13175,0.100473,inf,inf,inf,inf,1,1,1,1,2,0,2,1,3,1,1,0
311724422,73175492,34.034884,108.7565137,-5.36668,-1.47805,-1.71586,-1.11881,0.258865,0.0,-0.042673,0.0792606,-0.426823,-0.171965,0.560528,0.191663,0.779537,-0.660004,-4.7959,-7.04077,-0.036993,-0.0147204,425.399,0.209876,0.292125,0.38951,0.136352,0.101746,inf,inf,inf,inf,1,1,1,1,2,0,2,1,3,1,1,0
311834529,73175492,34.034884,108.7565137,-5.37098,-1.46705,-1.73308,-1.11881,0.258865,0.0,-0.0352048,0.127356,-0.426585,-0.172209,0.560528,0.191663,0.779537,-0.473883,2.5614,0.756325,-0.0385619,-0.0147204,425.399,0.227095,0.284428,0.3878,0.132289,0.100586,inf,inf,inf,inf,1,1,1,1,2,0,2,1,3,1,1,0
311924602,73175492,34.034884,108.7565137,-5.37518,-1.45502,-1.74211,-1.11881,0.258865,0.0,-0.0309388,0.13566,-0.436575,-0.177059,0.560528,0.191663,0.779537,0.360208,-1.20173,-6.72953,-0.0393256,-0.0147204,425.399,0.236132,0.292009,0.388811,0.136309,0.101683,inf,inf,inf,inf,1,1,1,1,2,0,2,1,3,1,1,0
312024693,73175492,34.034884,108.7565137,-5.37769,-1.44021,-1.75752,-1.11881,0.258865,0.0,-0.0114134,0.183658,-0.439211,-0.179495,0.560528,0.191663,0.779537,0.46739,5.04081,-1.38326,-0.0393277,-0.0147204,425.399,0.251536,0.283511,0.386475,0.131854,0.100349,inf,inf,inf,inf,1,1,1,1,2,0,2,1,3,1,1,0
312124783,73175492,34.034884,108.7565137,-5.37765,-1.4265,-1.76611,-1.11881,0.258865,0.0,0.0184517,0.191778,-0.433146,-0.165768,0.560528,0.191663,0.779537,1.01118,-3.81897,0.380891,-0.039295,-0.0147204,425.399,0.260124,0.291909,0.388106,0.13626,0.101617,inf,inf,inf,inf,1,1,1,1,2,0,2,1,3,1,1,0
312224917,73175492,34.034884,108.7565137,-5.37375,-1.40916,-1.7809,-1.11881,0.258865,0.0,0.0717262,0.228792,-0.415951,-0.147862,0.560528,0.191663,0.779537,1.51984,1.15178,3.92221,-0.0398069,-0.0147204,425.399,0.274922,0.283426,0.388156,0.131776,0.100533,inf,inf,inf,inf,1,1,1,1,2,0,2,1,3,1,1,0
312324969,73175492,34.034884,108.7565137,-5.36446,-1.39048,-1.78836,-1.11881,0.258865,0.0,0.135848,0.259309,-0.434624,-0.159912,0.560528,0.191663,0.779537,-0.0261123,3.8836,0.0756698,-0.0391386,-0.0147204,425.399,0.282376,0.291824,0.389816,0.136291,0.101812,inf,inf,inf,inf,1,1,1,1,2,0,2,1,3,1,1,0
312425053,73175492,34.034884,108.7565137,-5.34672,-1.36837,-1.80102,-1.11881,0.258865,0.0,0.238945,0.254569,-0.420544,-0.145675,0.560528,0.191663,0.779537,0.742452,-2.07532,-1.00144,-0.0361439,-0.0147204,425.399,0.295039,0.283379,0.387469,0.131751,0.100474,inf,inf,inf,inf,1,1,1,1,2,0,2,1,3,1,1,0
312525144,73175492,34.034884,108.7565137,-5.3206,-1.34464,-1.80708,-1.11881,0.258865,0.0,0.360623,0.282402,-0.394644,-0.114398,0.560528,0.191663,0.779537,1.79875,2.67986,-3.14545,-0.035158,-0.0147204,425.399,0.301103,0.291777,0.389129,0.136262,0.101749,inf,inf,inf,inf,1,1,1,1,2,0,2,1,3,1,1,0
312625237,73175492,34.034884,108.7565137,-5.28159,-1.31826,-1.81782,-1.11881,0.258865,0.0,0.470763,0.302682,-0.349157,-0.0719676,0.560528,0.191663,0.779537,0.56435,-0.6339,4.65809,-0.034858,-0.0147204,425.399,0.311842,0.300696,0.390836,0.140793,0.103005,inf,inf,inf,inf,1,1,1,1,2,0,2,1,3,1,1,0
312725325,73175492,34.034884,108.7565137,-5.23768,-1.28791,-1.8218,-1.11881,0.258865,0.0,0.552264,0.275956,-0.347005,-0.0674583,0.560528,0.191663,0.779537,0.675779,-5.33064,0.0245644,-0.0332275,-0.0147204,425.399,0.315815,0.291707,0.388421,0.135977,0.101659,inf,inf,inf,inf,1,1,1,1,2,0,2,1,3,1,1,0
312825415,73175492,34.034884,108.7565137,-5.18703,-1.26032,-1.82874,-1.11881,0.258865,0.0,0.594354,0.262283,-0.306295,-0.0309291,0.560528,0.191663,0.779537,0.212517,2.72698,-1.17592,-0.0318387,-0.0147204,425.399,0.322759,0.283366,0.38846,0.131473,0.100569,inf,inf,inf,inf,1,1,1,1,2,0,2,1,3,1,1,0
312925505,73175492,34.034884,108.7565137,-5.14346,-1.2369,-1.83063,-1.11881,0.258865,0.0,0.62282,0.167783,-0.251737,0.0208829,0.560528,0.191663,0.779537,0.881078,-3.98538,2.18107,-0.0324742,-0.0147204,425.399,0.324651,0.291752,0.390115,0.135885,0.101843,inf,inf,inf,inf,1,1,1,1,2,0,2,1,3,1,1,0
313025598,73175492,34.034884,108.7565137,-5.09479,-1.2226,-1.83326,-1.11881,0.258865,0.0,0.629021,0.101313,-0.243028,0.0237485,0.560528,0.191663,0.779537,0.0188619,2.00341,0.384022,-0.0336479,-0.0147204,425.399,0.327276,0.283436,0.387745,0.131263,0.100495,inf,inf,inf,inf,1,1,1,1,2,0,2,1,3,1,1,0
313125685,73175492,34.034884,108.7565137,-5.04832,-1.2195,-1.82936,-1.11881,0.258865,0.0,0.632751,-0.0270217,-0.186591,0.0775983,0.560528,0.191663,0.779537,0.496499,-7.1963,-1.4171,-0.0357119,-0.0147204,425.399,0.323382,0.291816,0.38939,0.135632,0.10176,inf,inf,inf,inf,1,1,1,1,2,0,2,1,3,1,1,0
313225776,73175492,34.034884,108.7565137,-4.99777,-1.22553,-1.82471,-1.11881,0.258865,0.0,0.626057,-0.0879195,-0.123925,0.133344,0.560528,0.191663,0.779537,1.61055,3.26609,7.82564,-0.0394387,-0.0147204,425.399,0.318726,0.30071,0.391092,0.140089,0.103008,inf,inf,inf,inf,1,1,1,1,2,0,2,1,3,1,1,0
313325866,73175492,34.034884,108.7565137,-4.95235,-1.23276,-1.8127,-1.11881,0.258865,0.0,0.616772,-0.159084,-0.116577,0.13827,0.560528,0.191663,0.779537,0.219328,-0.536232,-1.48483,-0.0448985,-0.0147204,425.399,0.306715,0.291843,0.388671,0.135225,0.10166,inf,inf,inf,inf,1,1,1,1,2,0,2,1,3,1,1,0
313425956,73175492,34.034884,108.7565137,-4.90305,-1.24485,-1.80155,-1.11881,0.258865,0.0,0.606111,-0.198304,-0.099597,0.149657,0.560528,0.191663,0.779537,-1.28088,-3.40148,-1.44635,-0.0487742,-0.0147204,425.399,0.295564,0.283629,0.386327,0.130797,0.100317,inf,inf,inf,inf,1,1,1,1,2,0,2,1,3,1,1,0
313526050,73175492,34.034884,108.7565137,-4.85002,-1.25255,-1.78778,-1.11881,0.258865,0.0,0.611814,-0.197161,-0.127295,0.120285,0.560528,0.191663,0.779537,-0.0248515,1.11691,-0.567201,-0.0527463,-0.0147204,425.399,0.281798,0.291992,0.390366,0.135104,0.101839,inf,inf,inf,inf,1,1,1,1,2,0,2,1,3,1,1,0
313626137,73175492,34.034884,108.7565137,-4.79348,-1.26147,-1.78376,-1.11881,0.258865,0.0,0.617888,-0.184345,-0.240103,0.00293675,0.560528,0.191663,0.779537,-2.78772,-1.99083,-6.3276,-0.0570531,-0.0147204,425.399,0.277778,0.283815,0.387999,0.130676,0.100496,inf,inf,inf,inf,1,1,1,1,2,0,2,1,3,1,1,0
313726238,73175492,34.034884,108.7565137,-4.73604,-1.2633,-1.78984,-1.11881,0.258865,0.0,0.623041,-0.158827,-0.352496,-0.111157,0.560528,0.191663,0.779537,0.484348,-3.18241,0.273258,-0.0585876,-0.0147204,425.399,0.283855,0.292186,0.389646,0.135389,0.101768,inf,inf,inf,inf,1,1,1,1,2,0,2,1,3,1,1,0
313826329,73175492,34.034884,108.7565137,-4.67645,-1.26536,-1.80948,-1.11881,0.258865,0.0,0.631052,-0.141154,-0.454233,-0.216528,0.560528,0.191663,0.779537,0.365137,-1.23178,2.50369,-0.0578107,-0.0147204,425.399,0.303503,0.284047,0.387292,0.131322,0.100429,inf,inf,inf,inf,1,1,1,1,2,0,2,1,3,1,1,0
313926410,73175492,34.034884,108.7565137,-4.613,-1.26109,-1.83074,-1.11881,0.258865,0.0,0.642869,-0.123793,-0.547808,-0.305593,0.560528,0.191663,0.779537,0.0597678,-2.25824,-3.73845,-0.056674,-0.0147204,425.399,0.324754,0.292451,0.388938,0.136219,0.1017,inf,inf,inf,inf,1,1,1,1,2,0,2,1,3,1,1,0
314026509,73175492,34.034884,108.7565137,-4.54815,-1.25816,-1.86522,-1.11881,0.258865,0.0,0.647951,-0.100599,-0.666158,-0.423612,0.560528,0.191663,0.779537,-0.503351,-1.95089,-7.42536,-0.0558206,-0.0147204,425.399,0.359235,0.284321,0.386596,0.132079,0.100365,inf,inf,inf,inf,1,1,1,1,2,0,2,1,3,1,1,0
314126588,73175492,34.034884,108.7565137,-4.48167,-1.25091,-1.90377,-1.11881,0.258865,0.0,0.66474,-0.0680078,-0.762986,-0.513576,0.560528,0.191663,0.779537,0.29802,2.41965,-2.46544,-0.0539456,-0.0147204,425.399,0.39779,0.292755,0.388234,0.136873,0.101634,inf,inf,inf,inf,1,1,1,1,2,0,2,1,3,1,1,0
314226678,73175492,34.034884,108.7565137,-4.41374,-1.24611,-1.95769,-1.11881,0.258865,0.0,0.675393,-0.0408345,-0.866901,-0.615803,0.560528,0.191663,0.779537,-0.71926,3.79901,-3.81414,-0.0555464,-0.0147204,425.399,0.451705,0.284632,0.388278,0.132647,0.100548,inf,inf,inf,inf,1,1,1,1,2,0,2,1,3,1,1,0
314326769,73175492,34.034884,108.7565137,-4.34148,-1.24249,-2.01308,-1.11881,0.258865,0.0,0.683703,-0.0345433,-0.930489,-0.671059,0.560528,0.191663,0.779537,0.824993,-0.242616,-1.04019,-0.0579014,-0.0147204,425.399,0.507096,0.293096,0.38993,0.137575,0.101822,inf,inf,inf,inf,1,1,1,1,2,0,2,1,3,1,1,0
314426859,73175492,34.034884,108.7565137,-4.27053,-1.23988,-2.07925,-1.11881,0.258865,0.0,0.679771,-0.0172406,-1.0035,-0.741763,0.560528,0.191663,0.779537,-0.971461,-3.51855,-7.28003,-0.0598613,-0.0147204,425.399,0.573267,0.284972,0.387561,0.133242,0.100479,inf,inf,inf,inf,1,1,1,1,2,0,2,1,3,1,1,0
314526950,73175492,34.034884,108.7565137,-4.20324,-1.23989,-2.14274,-1.11881,0.258865,0.0,0.662195,-0.0217407,-1.04129,-0.769515,0.560528,0.191663,0.779537,-1.42325,-2.99325,-1.83026,-0.0604089,-0.0147204,425.399,0.636762,0.293463,0.389195,0.137981,0.101747,inf,inf,inf,inf,1,1,1,1,2,0,2,1,3,1,1,0
314627040,73175492,34.034884,108.7565137,-4.13763,-1.24043,-2.21744,-1.11881,0.258865,0.0,0.644836,0.00510578,-1.09566,-0.820086,0.560528,0.191663,0.779537,-1.12995,-3.86583,-0.349129,-0.0592223,-0.0147204,425.399,0.711461,0.285338,0.38684,0.133548,0.100406,inf,inf,inf,inf,1,1,1,1,2,0,2,1,3,1,1,0
314727136,73175492,34.034884,108.7565137,-4.07355,-1.24856,-2.28582,-1.11881,0.258865,0.0,0.619994,0.00022684,-1.10963,-0.820909,0.560528,0.191663,0.779537,-0.755399,-1.40031,2.63417,-0.0558204,-0.0147204,425.399,0.779836,0.293843,0.388465,0.138262,0.10167,inf,inf,inf,inf,1,1,1,1,2,0,2,1,3,1,1,0
314827222,73175492,34.034884,108.7565137,-4.01169,-1.25549,-2.36087,-1.11881,0.258865,0.0,0.599148,0.0159881,-1.08445,-0.790424,0.560528,0.191663,0.779537,0.754626,-0.231491,4.60554,-0.050439,-0.0147204,425.399,0.854889,0.285748,0.388503,0.133657,0.100581,inf,inf,inf,inf,1,1,1,1,2,0,2,1,3,1,1,0
314927311,73175492,34.034884,108.7565137,-3.94917,-1.2644,-2.42194,-1.11881,0.258865,0.0,0.582574,0.0467509,-1.01178,-0.703878,0.560528,0.191663,0.779537,1.20939,3.80305,6.20565,-0.0463675,-0.0147204,425.399,0.915961,0.294262,0.390157,0.138154,0.101853,inf,inf,inf,inf,1,1,1,1,2,0,2,1,3,1,1,0
315027401,73175492,34.034884,108.7565137,-3.88963,-1.27001,-2.48439,-1.11881,0.258865,0.0,0.561168,0.0434991,-0.930527,-0.619153,0.560528,0.191663,0.779537,-0.0753394,1.42296,2.72907,-0.0393322,-0.0147204,425.399,0.978408,0.286177,0.387785,0.133326,0.100507,inf,inf,inf,inf,1,1,1,1,2,0,2,1,3,1,1,0
315127491,73175492,34.034884,108.7565137,-3.83378,-1.26802,-2.53213,-1.11881,0.258865,0.0,0.558159,0.056746,-0.78012,-0.463203,0.560528,0.191663,0.779537,1.0695,-2.29799,4.11244,-0.0353996,-0.0147204,425.399,1.02615,0.294682,0.389431,0.137569,0.101775,inf,inf,inf,inf,1,1,1,1,2,0,2,1,3,1,1,0
315227581,73175492,34.034884,108.7565137,-3.77675,-1.26389,-2.57276,-1.11881,0.258865,0.0,0.585811,0.07819,-0.634909,-0.320559,0.560528,0.191663,0.779537,1.29359,3.18754,1.10557,-0.0363406,-0.0147204,425.399,1.06678,0.303701,0.391132,0.141707,0.103033,inf,inf,inf,inf,1,1,1,1,2,0,2,1,3,1,1,0
315327671,73175492,34.034884,108.7565137,-3.7164,-1.26088,-2.60025,-1.11881,0.258865,0.0,0.609708,0.0836978,-0.50014,-0.190168,0.560528,0.191663,0.779537,0.0019458,-0.746387,1.1656,-0.0373923,-0.0147204,425.399,1.09427,0.295012,0.38871,0.136441,0.101691,inf,inf,inf,inf,1,1,1,1,2,0,2,1,3,1,1,0
315427773,73175492,34.034884,108.7565137,-3.6522,-1.25514,-2.62218,-1.11881,0.258865,0.0,0.663524,0.0836608,-0.371276,-0.0724549,0.560528,0.191663,0.779537,0.353222,-2.57135,-0.944688,-0.0378208,-0.0147204,425.399,1.1162,0.286977,0.386364,0.131332,0.100351,inf,inf,inf,inf,1,1,1,1,2,0,2,1,3,1,1,0
315527852,73175492,34.034884,108.7565137,-3.58287,-1.24429,-2.63601,-1.11881,0.258865,0.0,0.732794,0.131699,-0.245061,0.0391717,0.560528,0.191663,0.779537,0.853628,4.08108,1.152,-0.0382624,-0.0147204,425.399,1.13003,0.295408,0.390405,0.135331,0.101873,inf,inf,inf,inf,1,1,1,1,2,0,2,1,3,1,1,0
315627942,73175492,34.034884,108.7565137,-3.50746,-1.23116,-2.63846,-1.11881,0.258865,0.0,0.793501,0.133613,-0.10149,0.168313,0.560528,0.191663,0.779537,0.890005,-0.343816,3.74475,-0.0393229,-0.0147204,425.399,1.13248,0.287415,0.388036,0.130452,0.100526,inf,inf,inf,inf,1,1,1,1,2,0,2,1,3,1,1,0
315728032,73175492,34.034884,108.7565137,-3.43016,-1.2136,-2.63782,-1.11881,0.258865,0.0,0.852337,0.163317,0.0276791,0.275074,0.560528,0.191663,0.779537,1.69474,3.58292,1.90692,-0.0404992,-0.0147204,425.399,1.13184,0.295815,0.389692,0.134464,0.101797,inf,inf,inf,inf,1,1,1,1,2,0,2,1,3,1,1,0
315828123,73175492,34.034884,108.7565137,-3.34608,-1.19455,-2.62642,-1.11881,0.258865,0.0,0.900356,0.168658,0.119952,0.346406,0.560528,0.191663,0.779537,0.167106,1.89652,-4.12578,-0.0412986,-0.0147204,425.399,1.12044,0.287807,0.387343,0.12977,0.100456,inf,inf,inf,inf,1,1,1,1,2,0,2,1,3,1,1,0
315928215,73175492,34.034884,108.7565137,-3.25563,-1.17185,-2.60743,-1.11881,0.258865,0.0,0.947574,0.175004,0.227974,0.433356,0.560528,0.191663,0.779537,1.01266,-2.45621,2.98471,-0.0417486,-0.0147204,425.399,1.10145,0.296175,0.388982,0.133716,0.101725,inf,inf,inf,inf,1,1,1,1,2,0,2,1,3,1,1,0
316028304,73175492,34.034884,108.7565137,-3.16088,-1.14956,-2.58053,-1.11881,0.258865,0.0,0.981209,0.189147,0.257051,0.444831,0.560528,0.191663,0.779537,0.301441,3.319,-0.535685,-0.0422343,-0.0147204,425.399,1.07455,0.288188,0.389003,0.129139,0.10063,inf,inf,inf,inf,1,1,1,1,2,0,2,1,3,1,1,0
316128394,73175492,34.034884,108.7565137,-3.06291,-1.12559,-2.55501,-1.11881,0.258865,0.0,1.0191,0.179084,0.256494,0.425986,0.560528,0.191663,0.779537,0.919512,-1.68212,-1.50893,-0.0421456,-0.0147204,425.399,1.04903,0.296531,0.390639,0.13331,0.1019,inf,inf,inf,inf,1,1,1,1,2,0,2,1,3,1,1,0
316228487,73175492,34.034884,108.7565137,-2.96086,-1.10229,-2.52784,-1.11881,0.258865,0.0,1.05574,0.195623,0.269251,0.424373,0.560528,0.191663,0.779537,0.256035,4.30251,1.6943,-0.041267,-0.0147204,425.399,1.02185,0.288548,0.388235,0.129109,0.100546,inf,inf,inf,inf,1,1,1,1,2,0,2,1,3,1,1,0
316328574,73175492,34.034884,108.7565137,-2.86076,-1.08021,-2.50195,-1.11881,0.258865,0.0,1.08454,0.191909,0.204407,0.348725,0.560528,0.191663,0.779537,1.07245,4.09641,3.36644,-0.0386296,-0.0147204,425.399,0.995969,0.296888,0.389863,0.133531,0.101816,inf,inf,inf,inf,1,1,1,1,2,0,2,1,3,1,1,0
316428664,73175492,34.034884,108.7565137,-2.75606,-1.05784,-2.47779,-1.11881,0.258865,0.0,1.11072,0.191162,0.127521,0.266728,0.560528,0.191663,0.779537,1.14806,-1.12727,1.49759,-0.0381011,-0.0147204,425.399,0.971803,0.288881,0.387475,0.129479,0.100466,inf,inf,inf,inf,1,1,1,1,2,0,2,1,3,1,1,0
316528763,73175492,34.034884,108.7565137,-2.6489,-1.02807,-2.45106,-1.11881,0.258865,0.0,1.11902,0.206556,0.0754112,0.217951,0.560528,0.191663,0.779537,-0.884933,3.17447,-2.85084,-0.0413553,-0.0147204,425.399,0.945074,0.297231,0.389093,0.134157,0.101731,inf,inf,inf,inf,1,1,1,1,2,0,2,1,3,1,1,0
316628853,73175492,34.034884,108.7565137,-2.53909,-1.00055,-2.42739,-1.11881,0.258865,0.0,1.12807,0.203265,0.0432756,0.189544,0.560528,0.191663,0.779537,0.546241,-0.667363,-2.0356,-0.0429814,-0.0147204,425.399,0.921406,0.289224,0.389111,0.13018,0.100636,inf,inf,inf,inf,1,1,1,1,2,0,2,1,3,1,1,0
316728935,73175492,34.034884,108.7565137,-2.42588,-0.973418,-2.39638,-1.11881,0.258865,0.0,1.12258,0.200318,0.00846214,0.168639,0.560528,0.191663,0.779537,-0.133166,-4.1155,-2.82051,-0.042533,-0.0147204,425.399,0.890401,0.297593,0.390751,0.134739,0.101907,inf,inf,inf,inf,1,1,1,1,2,0,2,1,3,1,1,0
316829026,73175492,34.034884,108.7565137,-2.31266,-0.947324,-2.3704,-1.11881,0.258865,0.0,1.11133,0.207851,-0.00612591,0.164395,0.560528,0.191663,0.779537,-0.067774,-0.425368,1.55352,-0.0418596,-0.0147204,425.399,0.864421,0.28949,0.388357,0.130624,0.100556,inf,inf,inf,inf,1,1,1,1,2,0,2,1,3,1,1,0
316929116,73175492,34.034884,108.7565137,-2.1922,-0.921346,-2.33879,-1.11881,0.258865,0.0,1.11157,0.203359,-0.00916451,0.177098,0.560528,0.191663,0.779537,-0.868467,1.09021,0.586723,-0.0404205,-0.0147204,425.399,0.83281,0.297871,0.389996,0.135211,0.101826,inf,inf,inf,inf,1,1,1,1,2,0,2,1,3,1,1,0
317029206,73175492,34.034884,108.7565137,-2.07189,-0.89777,-2.30758,-1.11881,0.258865,0.0,1.14228,0.171641,-0.00449196,0.193201,0.560528,0.191663,0.779537,-0.689293,-6.67255,-4.01548,-0.0356918,-0.0147204,425.399,0.801601,0.289678,0.387617,0.131052,0.100477,inf,inf,inf,inf,1,1,1,1,2,0,2,1,3,1,1,0
317129310,73175492,34.034884,108.7565137,-1.94888,-0.87588,-2.27255,-1.11881,0.258865,0.0,1.17124,0.17017,-0.0414663,0.172022,0.560528,0.191663,0.779537,0.900575,-4.07574,-1.2987,-0.0295885,-0.0147204,425.399,0.766573,0.298062,0.38924,0.135442,0.101744,inf,inf,inf,inf,1,1,1,1,2,0,2,1,3,1,1,0
317229389,73175492,34.034884,108.7565137,-1.82452,-0.855234,-2.24809,-1.11881,0.258865,0.0,1.20613,0.182683,-0.105978,0.117216,0.560528,0.191663,0.779537,0.871147,1.92342,-1.21091,-0.0245016,-0.0147204,425.399,0.742113,0.306952,0.390918,0.14001,0.102998,inf,inf,inf,inf,1,1,1,1,2,0,2,1,3,1,1,0
317329477,73175492,34.034884,108.7565137,-1.69783,-0.836503,-2.22449,-1.11881,0.258865,0.0,1.24093,0.169339,-0.212555,0.0264243,0.560528,0.191663,0.779537,0.605512,3.77869,-3.58417,-0.0197464,-0.0147204,425.399,0.71851,0.29813,0.388491,0.135768,0.101654,inf,inf,inf,inf,1,1,1,1,2,0,2,1,3,1,1,0
317429570,73175492,34.034884,108.7565137,-1.56913,-0.820548,-2.21804,-1.11881,0.258865,0.0,1.27427,0.140319,-0.345811,-0.0975135,0.560528,0.191663,0.779537,1.47699,-0.646699,-0.273184,-0.0155675,-0.0147204,425.399,0.712055,0.307029,0.392614,0.140639,0.103175,inf,inf,inf,inf,1,1,1,1,2,0,2,1,3,1,1,0
317529660,73175492,34.034884,108.7565137,-1.43791,-0.807078,-2.21545,-1.11881,0.258865,0.0,1.29192,0.131487,-0.479877,-0.213329,0.560528,0.191663,0.779537,0.766346,0.375318,-0.664153,-0.0155826,-0.0147204,425.399,0.709471,0.298138,0.390157,0.136572,0.101825,inf,inf,inf,inf,1,1,1,1,2,0,2,1,3,1,1,0
317629748,73175492,34.034884,108.7565137,-1.30489,-0.794471,-2.22923,-1.11881,0.258865,0.0,1.30369,0.11613,-0.601941,-0.324539,0.560528,0.191663,0.779537,-0.313668,-2.8808,-1.1183,-0.0163083,-0.0147204,425.399,0.723243,0.289793,0.387771,0.132542,0.100479,inf,inf,inf,inf,1,1,1,1,2,0,2,1,3,1,1,0
317729838,73175492,34.034884,108.7565137,-1.16676,-0.780767,-2.24116,-1.11881,0.258865,0.0,1.31622,0.154017,-0.661563,-0.363529,0.560528,0.191663,0.779537,-0.113439,1.20796,0.20311,-0.018572,-0.0147204,425.399,0.735181,0.298217,0.389388,0.137578,0.101746,inf,inf,inf,inf,1,1,1,1,2,0,2,1,3,1,1,0
317829928,73175492,34.034884,108.7565137,-1.02642,-0.763548,-2.26218,-1.11881,0.258865,0.0,1.33624,0.174718,-0.702284,-0.389766,0.560528,0.191663,0.779537,-0.757181,-0.752539,-2.65936,-0.022322,-0.0147204,425.399,0.756199,0.289874,0.387023,0.133461,0.100413,inf,inf,inf,inf,1,1,1,1,2,0,2,1,3,1,1,0
317930018,73175492,34.034884,108.7565137,-0.877979,-0.743686,-2.27676,-1.11881,0.258865,0.0,1.35618,0.191398,-0.687132,-0.353913,0.560528,0.191663,0.779537,-0.491732,-1.31024,-0.606674,-0.0254574,-0.0147204,425.399,0.770777,0.298327,0.391058,0.138304,0.101936,inf,inf,inf,inf,1,1,1,1,2,0,2,1,3,1,1,0
318030111,73175492,34.034884,108.7565137,-0.731369,-0.722343,-2.29592,-1.11881,0.258865,0.0,1.36821,0.221399,-0.643715,-0.299413,0.560528,0.191663,0.779537,0.16404,-2.14964,-1.10025,-0.0313158,-0.0147204,425.399,0.789935,0.28984,0.388658,0.133661,0.100585,inf,inf,inf,inf,1,1,1,1,2,0,2,1,3,1,1,0
318130199,73175492,34.034884,108.7565137,-0.584718,-0.702994,-2.30435,-1.11881,0.258865,0.0,1.37881,0.220041,-0.572981,-0.213994,0.560528,0.191663,0.779537,0.790132,2.78351,2.3091,-0.0355318,-0.0147204,425.399,0.798367,0.298293,0.390297,0.138151,0.101857,inf,inf,inf,inf,1,1,1,1,2,0,2,1,3,1,1,0
318230290,73175492,34.034884,108.7565137,-0.440069,-0.683578,-2.31786,-1.11881,0.258865,0.0,1.36874,0.224586,-0.544866,-0.182878,0.560528,0.191663,0.779537,-0.803288,1.09255,2.32889,-0.0365089,-0.0147204,425.399,0.811875,0.307269,0.391992,0.142539,0.103117,inf,inf,inf,inf,1,1,1,1,2,0,2,1,3,1,1,0
318330380,73175492,34.034884,108.7565137,-0.300698,-0.661862,-2.33181,-1.11881,0.258865,0.0,1.36289,0.23023,-0.55396,-0.190338,0.560528,0.191663,0.779537,-0.238528,-3.10741,-1.11473,-0.0390049,-0.0147204,425.399,0.825829,0.298094,0.389543,0.137456,0.101767,inf,inf,inf,inf,1,1,1,1,2,0,2,1,3,1,1,0
318430470,73175492,34.034884,108.7565137,-0.162738,-0.639498,-2.35182,-1.11881,0.258865,0.0,1.35256,0.232438,-0.555564,-0.195408,0.560528,0.191663,0.779537,0.983661,-3.2448,2.07949,-0.0388506,-0.0147204,425.399,0.845834,0.289522,0.387172,0.132763,0.100423,inf,inf,inf,inf,1,1,1,1,2,0,2,1,3,1,1,0
318530560,73175492,34.034884,108.7565137,-0.0212449,-0.616859,-2.37043,-1.11881,0.258865,0.0,1.32831,0.220304,-0.587402,-0.227437,0.560528,0.191663,0.779537,-0.92973,0.718722,-1.27291,-0.0386809,-0.0147204,425.399,0.864446,0.297933,0.388793,0.137289,0.101689,inf,inf,inf,inf,1,1,1,1,2,0,2,1,3,1,1,0
318630653,73175492,34.034884,108.7565137,0.116832,-0.595661,-2.39703,-1.11881,0.258865,0.0,1.31515,0.215168,-0.600719,-0.24689,0.560528,0.191663,0.779537,-0.632935,2.75336,0.910665,-0.0378264,-0.0147204,425.399,0.891053,0.289355,0.386444,0.132713,0.100349,inf,inf,inf,inf,1,1,1,1,2,0,2,1,3,1,1,0
318730741,73175492,34.034884,108.7565137,0.255327,-0.574154,-2.4238,-1.11881,0.258865,0.0,1.29043,0.201866,-0.614661,-0.26428,0.560528,0.191663,0.779537,-0.968951,0.495044,4.19468,-0.0380708,-0.0147204,425.399,0.917819,0.297763,0.390472,0.137321,0.10187,inf,inf,inf,inf,1,1,1,1,2,0,2,1,3,1,1,0
318830831,73175492,34.034884,108.7565137,0.389395,-0.555385,-2.45667,-1.11881,0.258865,0.0,1.26237,0.169825,-0.632078,-0.288529,0.560528,0.191663,0.779537,-0.292996,2.08836,2.4504,-0.0358184,-0.0147204,425.399,0.950684,0.289124,0.388093,0.13271,0.100523,inf,inf,inf,inf,1,1,1,1,2,0,2,1,3,1,1,0
318930921,73175492,34.034884,108.7565137,0.526645,-0.537506,-2.48314,-1.11881,0.258865,0.0,1.25653,0.141104,-0.641722,-0.297313,0.560528,0.191663,0.779537,0.532741,0.834438,1.64743,-0.0317807,-0.0147204,425.399,0.97716,0.297528,0.389736,0.137323,0.101793,inf,inf,inf,inf,1,1,1,1,2,0,2,1,3,1,1,0
319031011,73175492,34.034884,108.7565137,0.660367,-0.522788,-2.51637,-1.11881,0.258865,0.0,1.2394,0.122109,-0.654018,-0.313686,0.560528,0.191663,0.779537,0.563582,0.651107,-0.811511,-0.0293658,-0.0147204,425.399,1.01038,0.288866,0.38737,0.132699,0.100449,inf,inf,inf,inf,1,1,1,1,2,0,2,1,3,1,1,0
319131101,73175492,34.034884,108.7565137,0.795628,-0.510344,-2.54457,-1.11881,0.258865,0.0,1.2217,0.11047,-0.656377,-0.314366,0.560528,0.191663,0.779537,1.87604,-0.981203,1.06386,-0.0294666,-0.0147204,425.399,1.03859,0.297265,0.389004,0.137285,0.101718,inf,inf,inf,inf,1,1,1,1,2,0,2,1,3,1,1,0
319231192,73175492,34.034884,108.7565137,0.925576,-0.498577,-2.58106,-1.11881,0.258865,0.0,1.20468,0.122182,-0.698874,-0.361599,0.560528,0.191663,0.779537,1.83438,0.306396,1.26572,-0.0287235,-0.0147204,425.399,1.07508,0.30619,0.390693,0.141855,0.102974,inf,inf,inf,inf,1,1,1,1,2,0,2,1,3,1,1,0
319331282,73175492,34.034884,108.7565137,1.05904,-0.488484,-2.61209,-1.11881,0.258865,0.0,1.18793,0.13512,-0.725931,-0.384473,0.560528,0.191663,0.779537,0.180779,-0.503556,-1.22801,-0.027787,-0.0147204,425.399,1.1061,0.296893,0.388278,0.137067,0.101634,inf,inf,inf,inf,1,1,1,1,2,0,2,1,3,1,1,0
319431372,73175492,34.034884,108.7565137,1.18801,-0.474956,-2.65374,-1.11881,0.258865,0.0,1.17112,0.165936,-0.733844,-0.396746,0.560528,0.191663,0.779537,-0.461077,0.0307285,-1.04662,-0.0276265,-0.0147204,425.399,1.14776,0.288233,0.388323,0.132581,0.100548,inf,inf,inf,inf,1,1,1,1,2,0,2,1,3,1,1,0
319531462,73175492,34.034884,108.7565137,1.3191,-0.458514,-2.68901,-1.11881,0.258865,0.0,1.1574,0.187367,-0.7429,-0.403213,0.560528,0.191663,0.779537,-0.936274,0.494505,0.556826,-0.0205518,-0.0147204,425.399,1.18303,0.296619,0.389977,0.137231,0.101823,inf,inf,inf,inf,1,1,1,1,2,0,2,1,3,1,1,0
319631552,73175492,34.034884,108.7565137,1.44555,-0.440315,-2.73022,-1.11881,0.258865,0.0,1.1441,0.213623,-0.750176,-0.413849,0.560528,0.191663,0.779537,-1.26731,1.32989,0.547135,-0.00745418,-0.0147204,425.399,1.22424,0.28794,0.387615,0.132563,0.10048,inf,inf,inf,inf,1,1,1,1,2,0,2,1,3,1,1,0
319731646,73175492,34.034884,108.7565137,1.57006,-0.425225,-2.76636,-1.11881,0.258865,0.0,1.14309,0.231985,-0.771703,-0.432143,0.560528,0.191663,0.779537,1.56803,-1.35461,-3.43153,0.0160592,-0.0147204,425.399,1.26038,0.296324,0.389261,0.137195,0.101753,inf,inf,inf,inf,1,1,1,1,2,0,2,1,3,1,1,0
319831733,73175492,34.034884,108.7565137,1.69081,-0.407059,-2.81027,-1.11881,0.258865,0.0,1.11403,0.247257,-0.805873,-0.467788,0.560528,0.191663,0.779537,-1.39218,0.419506,-0.978688,0.0397479,-0.0147204,425.399,1.30429,0.287598,0.386918,0.13247,0.100416,inf,inf,inf,inf,1,1,1,1,2,0,2,1,3,1,1,0
319931823,73175492,34.034884,108.7565137,1.81574,-0.390218,-2.84752,-1.11881,0.258865,0.0,1.10169,0.262619,-0.809461,-0.463956,0.560528,0.191663,0.779537,-0.471915,-2.24956,-0.502695,0.0521139,-0.0147204,425.399,1.34154,0.295979,0.388555,0.137124,0.101685,inf,inf,inf,inf,1,1,1,1,2,0,2,1,3,1,1,0
320021908,73175492,34.034884,108.7565137,1.92372,-0.371178,-2.88815,-1.11881,0.258865,0.0,1.09125,0.302956,-0.780773,-0.437138,0.560528,0.191663,0.779537,0.449299,3.25693,3.07516,0.0583241,-0.0147204,425.399,1.38217,0.303974,0.392025,0.141396,0.103027,inf,inf,inf,inf,1,1,1,1,2,0,2,1,3,1,1,0
320132003,73175492,34.034884,108.7565137,2.05577,-0.346431,-2.9266,-1.11881,0.258865,0.0,1.07716,0.284447,-0.790503,-0.43894,0.560528,0.191663,0.779537,-0.0639765,-3.21356,-4.22372,0.0620213,-0.0147204,425.399,1.42062,0.295646,0.390257,0.137082,0.101873,inf,inf,inf,inf,1,1,1,1,2,0,2,1,3,1,1,0
320232097,73175492,34.034884,108.7565137,2.17152,-0.323781,-2.96933,-1.11881,0.258865,0.0,1.07182,0.276255,-0.746366,-0.397511,0.560528,0.191663,0.779537,1.1367,-1.7989,6.0195,0.0649672,-0.0147204,425.399,1.46335,0.286895,0.387896,0.1324,0.100529,inf,inf,inf,inf,1,1,1,1,2,0,2,1,3,1,1,0
320332184,73175492,34.034884,108.7565137,2.28635,-0.30893,-3.0085,-1.11881,0.258865,0.0,1.06481,0.241329,-0.734806,-0.387536,0.560528,0.191663,0.779537,-0.962859,2.65794,-1.04455,0.066127,-0.0147204,425.399,1.50251,0.295267,0.389554,0.136747,0.101804,inf,inf,inf,inf,1,1,1,1,2,0,2,1,3,1,1,0
320432281,73175492,34.034884,108.7565137,2.39859,-0.297511,-3.05036,-1.11881,0.258865,0.0,1.06466,0.179005,-0.688573,-0.348427,0.560528,0.191663,0.779537,-0.243286,1.24762,2.40527,0.0649591,-0.0147204,425.399,1.54437,0.286619,0.38721,0.132205,0.100474,inf,inf,inf,inf,1,1,1,1,2,0,2,1,3,1,1,0
320522356,73175492,34.034884,108.7565137,2.4977,-0.29405,-3.08259,-1.11881,0.258865,0.0,1.05859,0.119908,-0.657837,-0.321268,0.560528,0.191663,0.779537,-0.481797,1.20963,3.39698,0.0609479,-0.0147204,425.399,1.57661,0.294129,0.388211,0.136087,0.101566,inf,inf,inf,inf,1,1,1,1,2,0,2,1,3,1,1,0
320632462,73175492,34.034884,108.7565137,2.61645,-0.293931,-3.12358,-1.11881,0.258865,0.0,1.05081,0.0299178,-0.62777,-0.300717,0.560528,0.191663,0.779537,-0.38562,-2.25945,-5.95939,0.0561846,-0.0147204,425.399,1.6176,0.286245,0.386521,0.131837,0.1004,inf,inf,inf,inf,1,1,1,1,2,0,2,1,3,1,1,0
320722536,73175492,34.034884,108.7565137,2.71328,-0.295498,-3.14989,-1.11881,0.258865,0.0,1.04833,-0.0122428,-0.590369,-0.266264,0.560528,0.191663,0.779537,0.260629,-1.47696,0.3199,0.0537655,-0.0147204,425.399,1.64391,0.293741,0.38992,0.135799,0.101745,inf,inf,inf,inf,1,1,1,1,2,0,2,1,3,1,1,0
320832635,73175492,34.034884,108.7565137,2.83032,-0.300655,-3.18188,-1.11881,0.258865,0.0,1.03417,-0.0513719,-0.571037,-0.253025,0.560528,0.191663,0.779537,-0.244223,-2.74955,-4.45327,0.051483,-0.0147204,425.399,1.67589,0.285932,0.385848,0.131492,0.100341,inf,inf,inf,inf,1,1,1,1,2,0,2,1,3,1,1,0
320932725,73175492,34.034884,108.7565137,2.93764,-0.307442,-3.20348,-1.11881,0.258865,0.0,1.02849,-0.0688361,-0.513248,-0.19652,0.560528,0.191663,0.779537,-0.0342551,3.59579,0.675867,0.0499248,-0.0147204,425.399,1.6975,0.29428,0.389885,0.135956,0.101863,inf,inf,inf,inf,1,1,1,1,2,0,2,1,3,1,1,0
321032816,73175492,34.034884,108.7565137,3.04318,-0.316479,-3.22501,-1.11881,0.258865,0.0,1.02565,-0.086006,-0.454161,-0.143281,0.560528,0.191663,0.779537,0.22524,0.401876,2.56435,0.0800393,0.0328581,425.399,1.71903,0.285594,0.387518,0.129667,0.100517,inf,inf,inf,inf,1,1,1,1,2,0,2,1,4,1,1,0
321132906,73175492,34.034884,108.7565137,3.14938,-0.328152,-3.2366,-1.11881,0.258865,0.0,1.00945,-0.0825014,-0.41644,-0.10644,0.560528,0.191663,0.779537,-1.27146,4.02755,-0.705115,0.0726407,0.0328581,425.399,1.73061,0.293804,0.389164,0.130827,0.101811,inf,inf,inf,inf,1,1,1,1,2,0,2,1,4,1,1,0
321222987,73175492,34.034884,108.7565137,3.24242,-0.337848,-3.25105,-1.11881,0.258865,0.0,0.996666,-0.0927056,-0.40546,-0.102153,0.560528,0.191663,0.779537,-1.45147,2.96681,2.65051,0.0656877,0.0328581,425.399,1.74507,0.301484,0.390196,0.132131,0.102929,inf,inf,inf,inf,1,1,1,1,2,0,2,1,4,1,1,0
321333087,73175492,34.034884,108.7565137,3.35542,-0.351565,-3.26238,-1.11881,0.258865,0.0,0.981307,-0.0733184,-0.391494,-0.0905715,0.560528,0.191663,0.779537,-0.98122,2.05063,-2.9646,0.0620475,0.0328581,425.399,1.7564,0.293181,0.388438,0.126265,0.101844,inf,inf,inf,inf,1,1,1,1,2,0,2,1,4,1,1,0
321423168,73175492,34.034884,108.7565137,3.44574,-0.359651,-3.27205,-1.11881,0.258865,0.0,0.970633,-0.0483452,-0.34667,-0.0505998,0.560528,0.191663,0.779537,-0.862705,1.889,1.23774,0.058748,0.0328581,425.399,1.76606,0.283969,0.387844,0.120962,0.100653,inf,inf,inf,inf,1,1,1,1,2,0,2,1,4,1,1,0
321533283,73175492,34.034884,108.7565137,3.55541,-0.364303,-3.27502,-1.11881,0.258865,0.0,0.964135,-0.00568971,-0.298296,-0.00314888,0.560528,0.191663,0.779537,-0.141725,2.75109,1.45349,0.0568267,0.0328581,425.399,1.76904,0.292449,0.390141,0.123848,0.102224,inf,inf,inf,inf,1,1,1,1,2,0,2,1,4,1,1,0
321633357,73175492,34.034884,108.7565137,3.65361,-0.365103,-3.27831,-1.11881,0.258865,0.0,0.962522,0.0162829,-0.272633,0.0170147,0.560528,0.191663,0.779537,-1.04461,-0.755109,-1.77236,0.0565652,0.0328581,425.399,1.77233,0.284051,0.387776,0.119709,0.100972,inf,inf,inf,inf,1,1,1,1,2,0,2,1,4,1,1,0
321723445,73175492,34.034884,108.7565137,3.74303,-0.36655,-3.27548,-1.11881,0.258865,0.0,0.969175,0.0610691,-0.236033,0.0519248,0.560528,0.191663,0.779537,-0.0932513,2.44833,-0.12807,0.0577929,0.0328581,425.399,1.7695,0.290812,0.388778,0.122693,0.102196,inf,inf,inf,inf,1,1,1,1,2,0,2,1,4,1,1,0
321833538,73175492,34.034884,108.7565137,3.85307,-0.362226,-3.27326,-1.11881,0.258865,0.0,0.994006,0.0913505,-0.215323,0.0661655,0.560528,0.191663,0.779537,-0.829326,-1.91056,-4.41512,0.0601918,0.0328581,425.399,1.76728,0.283296,0.387074,0.1197,0.101155,inf,inf,inf,inf,1,1,1,1,2,0,2,1,4,1,1,0
321923619,73175492,34.034884,108.7565137,3.94656,-0.357131,-3.26412,-1.11881,0.258865,0.0,1.01902,0.136137,-0.19268,0.0899169,0.560528,0.191663,0.779537,0.37886,3.68071,0.292785,0.0626272,0.0328581,425.399,1.75814,0.289917,0.38807,0.123214,0.102402,inf,inf,inf,inf,1,1,1,1,2,0,2,1,4,1,1,0
322033725,73175492,34.034884,108.7565137,4.06205,-0.345504,-3.25791,-1.11881,0.258865,0.0,1.02922,0.171203,-0.206876,0.0719336,0.560528,0.191663,0.779537,-0.534117,-0.651529,-0.320748,0.0664114,0.0328581,425.399,1.75193,0.282463,0.386377,0.120811,0.101375,inf,inf,inf,inf,1,1,1,1,2,0,2,1,4,1,1,0
322123799,73175492,34.034884,108.7565137,4.15776,-0.334236,-3.24993,-1.11881,0.258865,0.0,1.03588,0.196224,-0.207505,0.0720053,0.560528,0.191663,0.779537,-0.130739,2.71347,-0.438457,0.0698525,0.0328581,425.399,1.74395,0.288988,0.389779,0.124896,0.102907,inf,inf,inf,inf,1,1,1,1,2,0,2,1,4,1,1,0
322223890,73175492,34.034884,108.7565137,4.26303,-0.318978,-3.24767,-1.11881,0.258865,0.0,1.03276,0.205082,-0.199429,0.0744197,0.560528,0.191663,0.779537,1.33063,3.68033,3.02685,0.0724732,0.0328581,425.399,1.74169,0.296598,0.391498,0.129743,0.104395,inf,inf,inf,inf,1,1,1,1,2,0,2,1,4,1,1,0
322333989,73175492,34.034884,108.7565137,4.37623,-0.308525,-3.23775,-1.11881,0.258865,0.0,1.00269,0.167427,-0.206488,0.0690652,0.560528,0.191663,0.779537,-0.309455,-1.39016,0.209444,0.0745451,0.0328581,425.399,1.73177,0.288832,0.389729,0.127904,0.103392,inf,inf,inf,inf,1,1,1,1,2,0,2,1,4,1,1,0
322424070,73175492,34.034884,108.7565137,4.46631,-0.300436,-3.23558,-1.11881,0.258865,0.0,0.987931,0.138207,-0.207214,0.0630861,0.560528,0.191663,0.779537,-0.247753,0.000672871,-2.15067,0.0747709,0.0328581,425.399,1.7296,0.29568,0.390802,0.132468,0.104698,inf,inf,inf,inf,1,1,1,1,2,0,2,1,4,1,1,0
322534169,73175492,34.034884,108.7565137,4.57636,-0.295902,-3.21937,-1.11881,0.258865,0.0,0.980496,0.0615052,-0.160324,0.115432,0.560528,0.191663,0.779537,0.0258316,-1.56827,1.16341,0.0734561,0.0328581,425.399,1.71339,0.288005,0.389043,0.130579,0.103691,inf,inf,inf,inf,1,1,1,1,2,0,2,1,4,1,1,0
322624251,73175492,34.034884,108.7565137,4.66508,-0.296741,-3.20846,-1.11881,0.258865,0.0,0.979789,-0.00210418,-0.150301,0.124351,0.560528,0.191663,0.779537,0.938435,-4.71607,-1.09619,0.0728853,0.0328581,425.399,1.70248,0.294876,0.390114,0.135374,0.10501,inf,inf,inf,inf,1,1,1,1,2,0,2,1,4,1,1,0
322724341,73175492,34.034884,108.7565137,4.76754,-0.299729,-3.18456,-1.11881,0.258865,0.0,0.968172,-0.032777,-0.116009,0.166763,0.560528,0.191663,0.779537,0.199159,-1.57093,2.69347,0.0713338,0.0328581,425.399,1.67858,0.28653,0.387721,0.132719,0.103787,inf,inf,inf,inf,1,1,1,1,2,0,2,1,4,1,1,0
322824431,73175492,34.034884,108.7565137,4.86781,-0.305096,-3.16573,-1.11881,0.258865,0.0,0.961397,-0.0633975,-0.106929,0.176157,0.560528,0.191663,0.779537,-1.32085,-1.66838,0.529589,0.0688426,0.0328581,425.399,1.65975,0.294206,0.391884,0.138202,0.105585,inf,inf,inf,inf,1,1,1,1,2,0,2,1,4,1,1,0
322924522,73175492,34.034884,108.7565137,4.97035,-0.312837,-3.13745,-1.11881,0.258865,0.0,0.953274,-0.0591421,-0.0736168,0.216838,0.560528,0.191663,0.779537,-0.545348,0.840058,4.02856,0.0684026,0.0328581,425.399,1.63147,0.285905,0.389454,0.135429,0.104346,inf,inf,inf,inf,1,1,1,1,2,0,2,1,4,1,1,0
323034621,73175492,34.034884,108.7565137,5.0803,-0.318608,-3.1098,-1.11881,0.258865,0.0,0.939447,-0.0315122,-0.0757483,0.217183,0.560528,0.191663,0.779537,-0.97077,0.313001,-1.50566,0.0686923,0.0328581,425.399,1.60382,0.278792,0.387747,0.1329,0.103298,inf,inf,inf,inf,1,1,1,1,2,0,2,1,4,1,1,0
323124702,73175492,34.034884,108.7565137,5.16987,-0.317592,-3.07956,-1.11881,0.258865,0.0,0.924416,0.00122255,-0.049294,0.250713,0.560528,0.191663,0.779537,-1.27498,4.57665,1.24913,0.0678118,0.0328581,425.399,1.57358,0.285437,0.3888,0.13802,0.104671,inf,inf,inf,inf,1,1,1,1,2,0,2,1,4,1,1,0
323224792,73175492,34.034884,108.7565137,5.26651,-0.312997,-3.05172,-1.11881,0.258865,0.0,0.924658,0.0404522,-0.0220302,0.277308,0.560528,0.191663,0.779537,0.36672,0.110938,-0.930248,0.0685907,0.0328581,425.399,1.54574,0.293348,0.390564,0.143714,0.106241,inf,inf,inf,inf,1,1,1,1,2,0,2,1,4,1,1,0
323324883,73175492,34.034884,108.7565137,5.36337,-0.304765,-3.01718,-1.11881,0.258865,0.0,0.913934,0.0710254,0.0112926,0.313659,0.560528,0.191663,0.779537,-0.72139,3.5129,1.5143,0.0691964,0.0328581,425.399,1.5112,0.284984,0.38814,0.140077,0.104955,inf,inf,inf,inf,1,1,1,1,2,0,2,1,4,1,1,0
323424973,73175492,34.034884,108.7565137,5.4589,-0.294168,-2.9833,-1.11881,0.258865,0.0,0.922554,0.109281,0.0531383,0.354306,0.560528,0.191663,0.779537,0.803625,2.86023,0.153356,0.0703889,0.0328581,425.399,1.47732,0.277188,0.385806,0.136269,0.103664,inf,inf,inf,inf,1,1,1,1,2,0,2,1,4,1,1,0
323525063,73175492,34.034884,108.7565137,5.55605,-0.28321,-2.93947,-1.11881,0.258865,0.0,0.931109,0.131473,0.110273,0.415523,0.560528,0.191663,0.779537,0.0672655,3.35644,4.09361,0.0706408,0.0328581,425.399,1.43349,0.284788,0.389906,0.141881,0.105504,inf,inf,inf,inf,1,1,1,1,2,0,2,1,4,1,1,0
323625153,73175492,34.034884,108.7565137,5.65295,-0.270821,-2.89652,-1.11881,0.258865,0.0,0.934964,0.146171,0.129362,0.433594,0.560528,0.191663,0.779537,-0.0264167,2.80126,-0.169696,0.0715771,0.0328581,425.399,1.39054,0.276981,0.387542,0.137677,0.104181,inf,inf,inf,inf,1,1,1,1,2,0,2,1,4,1,1,0
323725244,73175492,34.034884,108.7565137,5.75295,-0.259707,-2.84792,-1.11881,0.258865,0.0,0.940189,0.152976,0.167073,0.472332,0.560528,0.191663,0.779537,-1.35638,-1.30838,-3.90229,0.0717579,0.0328581,425.399,1.34194,0.284719,0.38928,0.143226,0.105783,inf,inf,inf,inf,1,1,1,1,2,0,2,1,4,1,1,0
323825340,73175492,34.034884,108.7565137,5.85191,-0.246241,-2.80287,-1.11881,0.258865,0.0,0.948138,0.161124,0.199049,0.498368,0.560528,0.191663,0.779537,-0.589289,-0.87299,-0.160971,0.0732581,0.0328581,425.399,1.29689,0.29307,0.391084,0.148805,0.107374,inf,inf,inf,inf,1,1,1,1,2,0,2,1,4,1,1,0
323925424,73175492,34.034884,108.7565137,5.948,-0.232922,-2.74944,-1.11881,0.258865,0.0,0.94751,0.182303,0.195434,0.496417,0.560528,0.191663,0.779537,0.469845,-2.71792,-0.119055,0.0740916,0.0328581,425.399,1.24346,0.28465,0.388645,0.144078,0.106024,inf,inf,inf,inf,1,1,1,1,2,0,2,1,4,1,1,0
324025514,73175492,34.034884,108.7565137,6.04415,-0.216335,-2.70083,-1.11881,0.258865,0.0,0.954889,0.197254,0.178667,0.477763,0.560528,0.191663,0.779537,0.594458,-0.57517,1.00139,0.0757684,0.0328581,425.399,1.19485,0.276728,0.38629,0.139497,0.104671,inf,inf,inf,inf,1,1,1,1,2,0,2,1,4,1,1,0
324125605,73175492,34.034884,108.7565137,6.14421,-0.200438,-2.64866,-1.11881,0.258865,0.0,0.96851,0.204008,0.161173,0.463819,0.560528,0.191663,0.779537,-0.28873,-0.628881,-2.25549,0.0793243,0.0328581,425.399,1.14268,0.284725,0.388033,0.145058,0.106282,inf,inf,inf,inf,1,1,1,1,2,0,2,1,4,1,1,0
324225695,73175492,34.034884,108.7565137,6.24537,-0.18368,-2.60279,-1.11881,0.258865,0.0,0.992249,0.201013,0.130827,0.432534,0.560528,0.191663,0.779537,0.306412,3.59913,-0.916664,0.0819339,0.0328581,425.399,1.09681,0.276721,0.388052,0.140336,0.105161,inf,inf,inf,inf,1,1,1,1,2,0,2,1,4,1,1,0
324325785,73175492,34.034884,108.7565137,6.35056,-0.170826,-2.54923,-1.11881,0.258865,0.0,1.01184,0.154949,0.100551,0.411588,0.560528,0.191663,0.779537,-1.03998,2.24644,-2.59901,0.0838792,0.0328581,425.399,1.04324,0.284848,0.389839,0.145784,0.106781,inf,inf,inf,inf,1,1,1,1,2,0,2,1,4,1,1,0
324425876,73175492,34.034884,108.7565137,6.45699,-0.163,-2.50295,-1.11881,0.258865,0.0,1.04361,0.0631858,0.0638439,0.379072,0.560528,0.191663,0.779537,-0.965901,-1.87143,-0.205026,0.0843263,0.0328581,425.399,0.996968,0.27673,0.387454,0.140851,0.105386,inf,inf,inf,inf,1,1,1,1,2,0,2,1,4,1,1,0
324525966,73175492,34.034884,108.7565137,6.56705,-0.163425,-2.45278,-1.11881,0.258865,0.0,1.0797,-0.0145961,0.0277143,0.355102,0.560528,0.191663,0.779537,0.0382642,-2.59502,1.96405,0.0831687,0.0328581,425.399,0.946797,0.284975,0.389243,0.146297,0.107006,inf,inf,inf,inf,1,1,1,1,2,0,2,1,4,1,1,0
324626056,73175492,34.034884,108.7565137,6.67936,-0.170409,-2.41215,-1.11881,0.258865,0.0,1.1197,-0.0870008,-0.0188253,0.31361,0.560528,0.191663,0.779537,0.652491,-6.29079,-2.21736,0.0799634,0.0328581,425.399,0.906171,0.293866,0.391111,0.151947,0.108623,inf,inf,inf,inf,1,1,1,1,2,0,2,1,4,1,1,0
