timestamp,yaw_composite,yaw_variance,yaw[0],yaw[1],yaw[2],yaw[3],yaw[4],innov_vn[0],innov_vn[1],innov_vn[2],innov_vn[3],innov_vn[4],innov_ve[0],innov_ve[1],innov_ve[2],innov_ve[3],innov_ve[4],weight[0],weight[1],weight[2],weight[3],weight[4]
304828207,-0.0736567,3.55814,-2.51321,-1.25656,2.46178e-05,1.25661,2.51327,-0.0379908,-0.0326121,-0.0263874,-0.0279192,-0.0350905,0.015697,0.0108997,0.0145328,0.0215754,0.022295,0.199978,0.200011,0.200028,0.200007,0.199976
304838215,0.912929,3.66978,-2.51345,-1.25661,2.0804e-05,1.25645,2.51296,0.023033,0.0365712,0.027358,0.00812566,0.00545148,-0.0379175,-0.0238304,-0.00660221,-0.0100398,-0.029394,0.199909,0.199946,0.200058,0.20009,0.199997
305028384,0.918754,3.66645,-2.51251,-1.25565,0.000984533,1.2574,2.5139,0.023033,0.0365712,0.027358,0.00812566,0.00545148,-0.0379175,-0.0238304,-0.00660221,-0.0100398,-0.029394,0.199909,0.199946,0.200058,0.20009,0.199997
305228564,-1.18081,3.55674,-2.51267,-1.25626,0.000101129,1.25679,2.51374,0.0290296,-0.00335213,-0.0113386,0.0160991,0.0410485,-0.0149158,-0.0170364,-0.0484856,-0.0658001,-0.0450578,0.200038,0.200148,0.200053,0.199885,0.199875
305428744,-1.82997,3.88366,-2.50993,-1.25353,0.00298936,1.25979,2.51665,0.0171265,0.0387095,0.0352738,0.0115625,0.00033937,-0.0105351,9.8221e-05,0.0239083,0.0280049,0.00671211,0.200092,0.200092,0.199965,0.199887,0.199965
305628925,-1.82735,3.87795,-2.50949,-1.25355,0.00277818,1.25992,2.51717,-0.0143131,0.0173433,0.0405332,0.023199,-0.0107038,0.0128382,-0.00125013,0.0245034,0.0545216,0.0473038,0.200238,0.200244,0.199913,0.199702,0.199902
305829107,-2.03238,3.77527,-2.50731,-1.25128,0.00516141,1.26229,2.51943,-0.00257032,0.0260498,0.0341258,0.0104676,-0.0122171,-0.0335623,-0.0327367,-0.00525566,0.0109216,-0.00659338,0.200212,0.200152,0.199882,0.199775,0.199979
306029286,-2.05017,3.75786,-2.5081,-1.25211,0.00454359,1.26185,2.51887,-0.000957884,-0.00849436,-0.0328076,-0.0403,-0.0206108,-0.0166302,0.00648295,0.00646105,-0.0166734,-0.0309442,0.200288,0.200245,0.199864,0.199671,0.199932
306229466,-1.62745,3.68973,-2.50448,-1.24878,0.00739494,1.26469,2.5222,0.0150785,0.00132424,-0.0219939,-0.0226465,0.000273582,-0.0482986,-0.0282575,-0.035143,-0.0594548,-0.067579,0.200308,0.200463,0.199978,0.199524,0.199727
306429646,-1.62003,3.6888,-2.49861,-1.24282,0.0133955,1.27061,2.52803,0.00792693,0.0105389,0.00987461,0.00685154,0.00564651,-0.00379413,-0.00224538,0.000716558,0.00100085,-0.00178667,0.200307,0.200459,0.199976,0.199527,0.199731
306629829,-1.47805,3.60161,-2.49893,-1.24306,0.0130296,1.2701,2.52755,0.00368721,0.00161616,0.00851535,0.0148716,0.0118785,0.0453288,0.0373992,0.0329671,0.0381663,0.0458186,0.200266,0.200494,0.200039,0.199531,0.199671
306830008,-1.19395,3.54783,-2.49235,-1.23632,0.0195249,1.27628,2.53378,-0.0217129,-0.00130245,-0.00652533,-0.0302133,-0.0395916,-0.0400894,-0.0279481,-0.00476464,-0.00257554,-0.0244351,0.200164,0.200543,0.200171,0.199563,0.199559
307030191,-1.18704,3.5483,-2.4888,-1.23272,0.0231658,1.27991,2.53735,0.00251426,0.00381317,0.00462415,0.00383124,0.00252248,-0.0272897,-0.0277179,-0.0266194,-0.0255056,-0.025916,0.200161,0.200535,0.20017,0.19957,0.199564
307230368,-1.09698,3.56262,-2.48189,-1.22574,0.0300756,1.28669,2.54414,0.0164384,0.0103704,0.0135417,0.0215922,0.0233747,0.0262542,0.0209447,0.013521,0.0142484,0.0221328,0.200132,0.200555,0.20021,0.199575,0.199527
307430550,-1.0823,3.56586,-2.4814,-1.22525,0.0304715,1.28703,2.54454,-0.0167546,-0.00545215,0.00256774,-0.00376179,-0.0157129,0.0158645,0.0111052,0.0203731,0.0308708,0.0280951,0.200143,0.200611,0.200234,0.199535,0.199478
307630729,-1.12192,3.5557,-2.48038,-1.22426,0.0314864,1.2881,2.54561,0.00440735,0.00297662,0.00117802,0.00148932,0.00348614,-0.00207261,-0.00064143,-0.00155729,-0.00355371,-0.0038731,0.200169,0.200634,0.200222,0.199504,0.199471
307830909,-1.11392,3.55643,-2.47544,-1.21928,0.0364918,1.29308,2.55056,0.00440735,0.00297662,0.00117802,0.00148932,0.00348614,-0.00207261,-0.00064143,-0.00155729,-0.00355371,-0.0038731,0.200169,0.200634,0.200222,0.199504,0.199471
308031093,-1.09451,3.55981,-2.47076,-1.21453,0.0412501,1.29777,2.55519,0.00936682,0.0069076,0.00654542,0.00877991,0.0105221,-0.00419736,-0.00461168,-0.00707963,-0.00818772,-0.00640311,0.20017,0.200639,0.200225,0.1995,0.199466
308231291,-1.28231,3.54849,-2.46342,-1.20874,0.0463475,1.30398,2.56278,-0.00792638,-0.0104234,0.000834828,0.0103448,0.00491124,-0.0104144,-0.0230721,-0.0293868,-0.0206175,-0.00885744,0.200204,0.200618,0.200177,0.199492,0.199509
308431451,-1.0753,3.55927,-2.45653,-1.20165,0.0532909,1.31063,2.56939,-0.00320159,-0.0128318,-0.00806846,0.00453862,0.00753179,0.0681252,0.0599864,0.0482933,0.0492198,0.0614984,0.200058,0.200577,0.200299,0.199608,0.199459
308631631,-0.871836,3.6518,-2.45394,-1.1974,0.0583696,1.31458,2.57182,0.017278,0.00559319,0.0011682,0.0101016,0.0200591,-0.00480643,-0.00393996,-0.0147799,-0.0223422,-0.016183,0.200063,0.200616,0.200317,0.19958,0.199424
308831812,-0.543023,3.88669,-2.46071,-1.20549,0.0480175,1.30414,2.56359,-0.00477859,-0.0363864,-0.0108523,0.0367266,0.0404412,0.0942246,0.0570509,0.0154195,0.0268686,0.0756902,0.199511,0.200848,0.201014,0.199777,0.198851
309032003,-0.355877,3.70251,-2.45968,-1.20259,0.0519278,1.3068,2.56447,-0.00477859,-0.0363864,-0.0108523,0.0367266,0.0404412,0.0942246,0.0570509,0.0154195,0.0268686,0.0756902,0.199511,0.200848,0.201014,0.199777,0.198851
309232173,-0.53413,3.87141,-2.46385,-1.20871,0.0445643,1.30062,2.56025,-0.00682634,0.00770129,-0.00139109,-0.0216211,-0.0249784,-0.028677,-0.0143547,0.00391521,0.000907336,-0.0192818,0.199469,0.200878,0.201074,0.199784,0.198795
309432354,-0.490629,3.82293,-2.46544,-1.20867,0.0457312,1.30084,2.55879,-0.00685532,-0.0270323,-0.039533,-0.027193,-0.00697044,-0.0217978,-0.0151732,-0.0322663,-0.0494643,-0.0430506,0.199626,0.200983,0.200982,0.199623,0.198787
309632537,-0.536059,3.87301,-2.46534,-1.2087,0.0456172,1.30081,2.55889,0.0097205,-0.00232356,0.00902091,0.0281549,0.0285893,0.0111038,-0.00477168,-0.0211575,-0.015438,0.00455983,0.199663,0.201043,0.200982,0.199562,0.19875
309832715,-0.395969,3.72342,-2.47007,-1.21309,0.0409336,1.29559,2.55364,-0.0616868,-0.0430257,0.00616231,0.0182619,-0.0237306,0.0224437,-0.0233322,-0.0198789,0.0280143,0.054394,0.199429,0.201038,0.201213,0.19971,0.19861
310022886,-0.440009,3.74934,-2.48475,-1.22786,0.0260698,1.28076,2.53892,0.0137245,0.0170254,0.0206413,0.0195903,0.015312,0.0512446,0.0485156,0.0508042,0.0549481,0.0552372,0.199454,0.201085,0.201216,0.199665,0.19858
310223069,-0.442324,3.73553,-2.49976,-1.24286,0.0107951,1.2653,2.52363,0.0104236,0.0416902,0.00804485,-0.0443206,-0.0428618,-0.0524078,-0.00671529,0.0372338,0.0188201,-0.0367749,0.19939,0.20115,0.201321,0.199664,0.198475
310433257,-0.473245,3.74554,-2.51103,-1.25588,-0.00416779,1.25091,2.51149,-0.0183386,0.0231276,0.00255585,-0.051823,-0.0647793,-0.082398,-0.0471638,0.00320309,-0.000767285,-0.0538059,0.199005,0.201291,0.201795,0.199813,0.198096
310633437,-0.383347,3.67224,-2.51179,-1.25468,-0.00149199,1.2525,2.51099,0.00452854,0.0594333,0.0570028,0.000630202,-0.0319389,-0.0291024,-0.00861357,0.0498522,0.0657182,0.0169085,0.199182,0.201213,0.201569,0.199753,0.198283
310833619,-0.545142,3.80943,-2.5145,-1.25977,-0.00857926,1.24658,2.50776,-0.014037,0.0387639,0.00523995,-0.0685785,-0.0805829,-0.0756216,-0.0230025,0.0435246,0.0322696,-0.0415808,0.199042,0.201547,0.201916,0.199632,0.197864
311023790,-0.429873,3.69986,-2.5149,-1.25805,-0.00584363,1.24781,2.50707,-0.014037,0.0387639,0.00523995,-0.0685785,-0.0805829,-0.0756216,-0.0230025,0.0435246,0.0322696,-0.0415808,0.199042,0.201547,0.201916,0.199632,0.197864
311223970,-0.328231,3.62579,-2.51682,-1.26098,-0.00892454,1.24567,2.50563,0.0630449,0.103448,0.0421061,-0.0368597,-0.0240195,-0.0675259,0.0104878,0.0731809,0.0342931,-0.0531152,0.198794,0.201017,0.201837,0.200114,0.198238
311424153,-0.186178,3.54788,-2.513,-1.25638,-0.00528124,1.24794,2.508,0.00561696,0.0520728,0.0164947,-0.05219,-0.0590409,-0.101927,-0.0492081,0.011277,-0.00376752,-0.0739188,0.198198,0.201062,0.202467,0.200452,0.197821
311624333,-0.352812,3.63392,-2.51488,-1.2592,-0.00836145,1.24563,2.50643,-0.016115,0.0468819,0.0263279,-0.0493479,-0.0758367,-0.0426761,-0.000406049,0.0724283,0.0755979,0.00440259,0.198532,0.201387,0.202329,0.200044,0.197707
311834529,0.0560524,3.47843,-2.51216,-1.25049,-0.00260453,1.2435,2.50243,0.111652,0.137409,0.0362915,-0.0532174,-0.0070438,-0.138558,-0.0229691,0.0374491,-0.0397168,-0.149434,0.195734,0.201401,0.205173,0.201752,0.19594
312024693,0.00147391,3.47558,-2.51496,-1.2554,-0.00856067,1.23907,2.49991,0.111652,0.137409,0.0362915,-0.0532174,-0.0070438,-0.138558,-0.0229691,0.0374491,-0.0397168,-0.149434,0.195734,0.201401,0.205173,0.201752,0.19594
312224917,0.094068,3.47091,-2.51531,-1.25402,-0.00784751,1.23764,2.49781,0.113308,0.152633,0.00637131,-0.124991,-0.0601999,-0.131929,0.0363948,0.125676,0.0152497,-0.145434,0.19477,0.201102,0.20597,0.202531,0.195627
312425053,0.163303,3.41975,-2.51249,-1.24552,-0.00599079,1.22972,2.4904,0.107719,0.206396,0.0387107,-0.164565,-0.124352,-0.271597,-0.0609168,0.0970913,-0.0115191,-0.240769,0.190343,0.201301,0.210662,0.205104,0.19259
312625237,0.254797,3.30214,-2.50023,-1.21919,0.00713544,1.22087,2.48071,0.0130182,0.22487,0.0917862,-0.199183,-0.254107,-0.426004,-0.213945,0.0488103,0.00865908,-0.284688,0.180119,0.200711,0.221161,0.21165,0.186359
312825415,0.281184,2.92513,-2.48322,-1.16903,0.0219163,1.18212,2.44162,-0.263163,0.18462,0.145579,-0.301538,-0.571652,-0.644723,-0.456194,0.0105114,0.132265,-0.261836,0.154042,0.199307,0.250209,0.227777,0.168665
313025598,0.333326,2.44114,-2.46741,-1.10684,0.0477845,1.14081,2.39049,-0.41666,0.253082,0.29085,-0.266113,-0.750943,-0.763258,-0.588771,0.0459205,0.318147,-0.137202,0.1195,0.1913,0.290725,0.252389,0.146086
313225776,0.174048,1.88221,-2.42144,-1.05075,0.0328797,1.07168,2.35298,-0.705413,0.0284496,0.148448,-0.34118,-0.9319,-0.594378,-0.50741,0.121581,0.485526,0.136694,0.0885613,0.202269,0.349365,0.253795,0.106009
313425956,0.181257,1.51721,-2.40764,-1.0072,0.0362265,1.02613,2.30743,-0.797133,-0.135926,0.15045,-0.101282,-0.734427,-0.388157,-0.536966,-0.071734,0.394901,0.336402,0.0634521,0.193197,0.394258,0.266049,0.0830444
313626137,0.192903,1.16853,-2.39224,-0.95397,0.0422235,0.974475,2.25,-0.9752,-0.393561,-0.0116413,-0.0818219,-0.672697,-0.109401,-0.442777,-0.108989,0.378896,0.549353,0.0403918,0.177635,0.442914,0.278399,0.0606606
313826329,0.195032,0.961033,-2.38341,-0.919721,0.0415822,0.936394,2.20752,-0.877861,-0.345241,0.00631243,-0.0044592,-0.520402,-0.032074,-0.381693,-0.105579,0.327632,0.561232,0.0276659,0.164144,0.476178,0.285163,0.0468485
314026509,0.199053,0.811457,-2.36829,-0.884291,0.0522692,0.909036,2.177,-0.838049,-0.321945,-0.0419351,-0.0720771,-0.543172,-0.0586147,-0.332648,-0.0593872,0.31493,0.506779,0.019404,0.153658,0.504161,0.286577,0.0362013
314226678,0.189302,0.722035,-2.35233,-0.860117,0.0518739,0.889332,2.16181,-0.710516,-0.222623,-0.0187992,-0.0752032,-0.502992,-0.0971385,-0.278893,-0.0106364,0.303448,0.435518,0.014971,0.148443,0.524624,0.282758,0.0292048
314426859,0.150827,0.643017,-2.33064,-0.841711,0.0404762,0.857866,2.14681,-0.719377,-0.238048,-0.0846764,-0.167468,-0.58412,-0.0308797,-0.139056,0.135464,0.417432,0.499759,0.0117688,0.15068,0.548122,0.267419,0.02201
314627040,0.119933,0.600817,-2.31795,-0.836347,0.031218,0.836172,2.13937,-0.541863,-0.0999725,0.0042749,-0.0892447,-0.475472,-0.0697233,-0.110889,0.146446,0.388515,0.427714,0.0103093,0.154728,0.563005,0.253886,0.0180719
314827222,0.0816245,0.571286,-2.29872,-0.83002,0.0179505,0.819021,2.1438,-0.493038,-0.127771,-0.0740587,-0.173201,-0.499401,0.0216518,0.0414287,0.263551,0.452104,0.441287,0.00957518,0.163372,0.575349,0.236764,0.0149397
315027401,0.0672691,0.553973,-2.28077,-0.818256,0.0177626,0.815831,2.15458,-0.393515,-0.132814,-0.124087,-0.215527,-0.456691,-0.0396069,0.0219808,0.190646,0.317713,0.266014,0.00913849,0.168605,0.582228,0.22675,0.0132787
315227581,0.0743273,0.546544,-2.26699,-0.805278,0.02813,0.823373,2.16561,-0.142828,0.0019356,-0.0487136,-0.144665,-0.288325,-0.208933,-0.0865731,0.0305232,0.0837023,-0.0328308,0.00888029,0.169193,0.584944,0.224254,0.0127291
315427773,0.0628791,0.545485,-2.26361,-0.804731,0.0215189,0.822017,2.17171,-0.0776485,-0.0248305,-0.116277,-0.211084,-0.274588,-0.0806598,0.0780399,0.152605,0.148862,-0.00925065,0.00901996,0.172487,0.5857,0.22034,0.0124534
315627942,0.055971,0.538008,-2.26035,-0.803826,0.0190518,0.816654,2.17035,-0.0452769,0.0303997,-0.0696493,-0.186142,-0.274301,-0.237012,-0.048543,0.0456055,0.0478095,-0.135252,0.00881551,0.173855,0.588238,0.217188,0.0119039
315828123,0.0489928,0.521987,-2.25626,-0.801436,0.0156887,0.806869,2.16252,-0.0716901,0.110069,-0.00342989,-0.184452,-0.381308,-0.382685,-0.117569,0.0537543,0.0971309,-0.145194,0.00821148,0.173617,0.593424,0.213787,0.0109604
316028304,0.0299637,0.487834,-2.24151,-0.793674,0.00699076,0.783608,2.1474,-0.324761,-0.0117784,-0.102988,-0.322892,-0.648472,-0.490847,-0.20202,0.0459964,0.156206,-0.0897078,0.00699884,0.174782,0.604926,0.204392,0.00890077
316228487,0.00929795,0.448228,-2.2221,-0.782913,-0.00326598,0.755258,2.12711,-0.386044,0.00571382,-0.0802552,-0.328868,-0.744106,-0.556377,-0.230958,0.0655493,0.215618,-0.0446413,0.00563663,0.175304,0.618908,0.193376,0.00677508
316428664,-0.001968,0.419288,-2.20202,-0.770293,-0.0069312,0.73865,2.11655,-0.343275,0.0778619,0.0114115,-0.226422,-0.681243,-0.509862,-0.195562,0.108466,0.282315,0.0524252,0.00472263,0.175732,0.629696,0.184454,0.00539523
316628853,0.00152774,0.382213,-2.17841,-0.745678,-0.00438608,0.716671,2.0907,-0.507477,-0.0561146,-0.0906158,-0.30523,-0.79047,-0.649963,-0.373519,-0.0681938,0.13187,-0.0431466,0.0033989,0.168496,0.644707,0.179408,0.00399049
316829026,-0.0201118,0.348999,-2.15224,-0.733232,-0.0146458,0.679637,2.06379,-0.591623,-0.139284,-0.183775,-0.399633,-0.899676,-0.541861,-0.236906,0.0681276,0.266025,0.0886429,0.00253473,0.169354,0.659301,0.166103,0.00270676
317029206,-0.037944,0.32286,-2.12154,-0.716217,-0.0239514,0.649838,2.0454,-0.631648,-0.250048,-0.293996,-0.475658,-0.917825,-0.500623,-0.220043,0.0372356,0.207874,0.0542713,0.00192581,0.170698,0.671507,0.154019,0.00184946
317229389,-0.0438233,0.310384,-2.09945,-0.700826,-0.0270296,0.642239,2.04453,-0.417841,-0.133286,-0.176119,-0.31554,-0.66516,-0.391052,-0.154725,0.040077,0.170721,0.0421963,0.00166518,0.171583,0.677522,0.147728,0.00150147
317429570,-0.0398618,0.300941,-2.07565,-0.682651,-0.0199449,0.641658,2.04951,-0.408059,-0.133769,-0.155527,-0.266235,-0.593828,-0.311433,-0.121704,0.0534069,0.184127,0.102687,0.00148063,0.172338,0.682142,0.142773,0.0012657
317629748,-0.0369157,0.290174,-2.05391,-0.667588,-0.0131233,0.632973,2.04542,-0.499928,-0.182884,-0.179525,-0.276236,-0.635603,-0.294725,-0.131835,0.052629,0.207177,0.174434,0.00127222,0.172337,0.687633,0.137725,0.00103236
317829928,-0.045725,0.268665,-2.02146,-0.642922,-0.0231401,0.604279,2.01784,-0.663962,-0.36106,-0.327848,-0.379622,-0.697352,-0.228777,-0.137304,0.015555,0.16614,0.211803,0.000863907,0.168247,0.699659,0.130562,0.000667942
318030111,-0.0514872,0.268702,-2.02725,-0.648696,-0.0289133,0.598606,2.01212,-0.663962,-0.36106,-0.327848,-0.379622,-0.697352,-0.228777,-0.137304,0.015555,0.16614,0.211803,0.000863907,0.168247,0.699659,0.130562,0.000667942
318230290,-0.0728042,0.261774,-2.02469,-0.655379,-0.0465165,0.574322,1.99481,-0.445341,-0.186824,-0.19956,-0.288417,-0.608016,-0.22445,-0.0454735,0.108531,0.23429,0.189546,0.000781286,0.170426,0.702969,0.125269,0.000554787
318430470,-0.0815745,0.257126,-2.02071,-0.655725,-0.0537816,0.561883,1.98558,-0.311745,-0.112432,-0.138807,-0.224621,-0.495561,-0.275524,-0.0951672,0.0335815,0.132108,0.0622144,0.000722228,0.170961,0.70533,0.122496,0.000491771
318630653,-0.090486,0.252472,-2.01216,-0.655889,-0.0576519,0.546104,1.97886,-0.380511,-0.251845,-0.29977,-0.38917,-0.605237,-0.248699,-0.0564318,0.0463927,0.111507,-0.00226663,0.000680816,0.173828,0.706998,0.118068,0.000424557
318830831,-0.0980903,0.25001,-2.00718,-0.655876,-0.062743,0.538096,1.97752,-0.271373,-0.212646,-0.263104,-0.333936,-0.471624,-0.207253,-0.0508356,0.0145734,0.0478085,-0.0692551,0.000664447,0.176109,0.707548,0.115289,0.000389712
319031011,-0.100991,0.249337,-2.00312,-0.654193,-0.0635865,0.536667,1.98283,-0.27022,-0.292832,-0.334176,-0.368302,-0.392652,-0.105794,-0.0258443,-0.0122815,-0.0172009,-0.10965,0.000674138,0.178456,0.706877,0.113615,0.000377808
319231192,-0.0965337,0.249861,-2.00084,-0.649787,-0.0590614,0.542559,1.99104,-0.199589,-0.294049,-0.317281,-0.306301,-0.213295,0.101346,0.0860391,0.0467665,0.00738555,-0.0388443,0.000692967,0.179091,0.705861,0.113967,0.000388912
319431372,-0.0942071,0.250536,-2.00435,-0.647016,-0.0599687,0.550172,1.99643,-0.185569,-0.338894,-0.350328,-0.306071,-0.121062,0.231822,0.146323,0.0658904,-0.00201662,-0.0162759,0.000707047,0.177964,0.705018,0.115897,0.000413014
319631552,-0.0901969,0.250777,-2.00523,-0.64471,-0.0565026,0.555249,2.00235,-0.0883559,-0.313562,-0.339456,-0.290732,-0.0365165,0.207787,0.112805,0.00229082,-0.0998471,-0.143279,0.000731233,0.17807,0.703797,0.116967,0.000433882
319831733,-0.057641,0.249739,-1.98176,-0.617905,-0.0246074,0.580256,2.02392,0.0983821,-0.187038,-0.248929,-0.22645,0.0522443,0.29308,0.253175,0.133709,0.00269037,-0.121399,0.000725259,0.176258,0.703831,0.118736,0.000448821
320031913,-0.0126205,0.249568,-1.93906,-0.573798,0.0209199,0.628476,2.07461,0.0564166,-0.282675,-0.375225,-0.374567,-0.0735109,0.233366,0.239305,0.111133,-0.0453519,-0.2385,0.000763139,0.177485,0.702212,0.11907,0.000470564
320232097,-0.0055472,0.246333,-1.92021,-0.558679,0.0285656,0.641039,2.09037,0.244295,-0.157864,-0.280139,-0.29635,0.0436022,0.150044,0.192329,0.0488553,-0.138425,-0.396001,0.000763053,0.179413,0.702126,0.117247,0.000450495
320432281,0.00625262,0.236854,-1.90295,-0.545092,0.03966,0.638064,2.08011,0.389785,-0.0610707,-0.192707,-0.20755,0.177881,0.216057,0.251165,0.0884728,-0.121237,-0.402958,0.00066958,0.176362,0.705575,0.116992,0.000402444
320632462,0.00484796,0.236866,-1.90433,-0.54648,0.0382562,0.636627,2.07867,0.389785,-0.0610707,-0.192707,-0.20755,0.177881,0.216057,0.251165,0.0884728,-0.121237,-0.402958,0.00066958,0.176362,0.705575,0.116992,0.000402444
320832635,-0.00353141,0.229196,-1.90202,-0.548973,0.0294267,0.62133,2.0605,0.0862423,-0.25744,-0.250101,-0.126295,0.32736,0.422107,0.159386,-0.0379753,-0.198399,-0.162068,0.000607469,0.175183,0.707924,0.115925,0.000360784
321032816,-0.0079257,0.229209,-1.9064,-0.553365,0.025038,0.61689,2.05607,0.0862423,-0.25744,-0.250101,-0.126295,0.32736,0.422107,0.159386,-0.0379753,-0.198399,-0.162068,0.000607469,0.175183,0.707924,0.115925,0.000360784
321222987,0.00159354,0.223368,-1.90217,-0.544777,0.0288901,0.613517,2.0395,0.0479425,-0.277132,-0.233136,-0.069997,0.415341,0.592306,0.243322,0.0314923,-0.120849,-0.00109898,0.000517363,0.168453,0.71182,0.11887,0.000339942
321423168,0.0103209,0.217591,-1.89624,-0.533386,0.0303986,0.613908,2.02582,0.0454299,-0.265695,-0.214571,-0.0495964,0.426908,0.615692,0.255824,0.0485872,-0.0963949,0.0319828,0.00043205,0.161382,0.715891,0.121977,0.000317208
321633357,0.0196016,0.212758,-1.88525,-0.522239,0.0370386,0.614843,2.01944,0.11306,-0.217118,-0.187707,-0.047331,0.415764,0.504792,0.190109,-0.0103273,-0.162083,-0.0928407,0.000380892,0.157745,0.718677,0.122904,0.000293506
321833538,0.0371855,0.208495,-1.87574,-0.506826,0.0490965,0.621037,2.01283,0.1942,-0.177554,-0.191612,-0.0956221,0.347038,0.550421,0.326309,0.135123,-0.0330823,-0.0709867,0.000325905,0.151243,0.72165,0.126497,0.000283408
322033725,0.0487556,0.205521,-1.86716,-0.495797,0.0579724,0.62661,2.01212,0.242317,-0.141576,-0.194261,-0.145828,0.240442,0.386719,0.264126,0.0956696,-0.0739676,-0.207262,0.000298427,0.14799,0.72324,0.128196,0.000275684
322223890,0.0555999,0.203513,-1.8603,-0.488527,0.0637879,0.630626,2.01357,0.277823,-0.0711803,-0.162738,-0.174543,0.0991289,0.21349,0.226202,0.104675,-0.0459514,-0.269605,0.000284891,0.146622,0.724128,0.128696,0.000269255
322424070,0.0665979,0.201491,-1.8532,-0.481177,0.0747271,0.63355,2.01298,0.326032,0.00127274,-0.120073,-0.17695,0.0140898,0.140843,0.255705,0.168497,0.0310293,-0.260773,0.000272235,0.144942,0.724928,0.129593,0.000265872
322624251,0.0674552,0.199321,-1.84697,-0.477582,0.0760614,0.633047,2.01233,0.303955,-0.0310463,-0.149745,-0.200962,0.00481808,0.0705394,0.171984,0.0780149,-0.0637296,-0.350756,0.000262312,0.14497,0.725905,0.12861,0.000252582
322824431,0.0619374,0.197951,-1.84632,-0.480393,0.0719871,0.628482,2.01029,0.184661,-0.137363,-0.214996,-0.219159,0.0407919,0.117932,0.111735,-0.00375032,-0.142078,-0.336597,0.000262166,0.14624,0.72618,0.127074,0.000243143
323034621,0.0605337,0.195338,-1.84712,-0.478773,0.0673267,0.627651,2.0051,0.0629998,-0.174215,-0.160064,-0.0737657,0.24238,0.278727,0.0699649,-0.0651988,-0.171852,-0.153794,0.00024279,0.143783,0.727469,0.128269,0.000235703
323224792,0.0604352,0.195363,-1.84724,-0.478892,0.0672288,0.627573,2.00502,0.0629998,-0.174215,-0.160064,-0.0737657,0.24238,0.278727,0.0699649,-0.0651988,-0.171852,-0.153794,0.00024279,0.143783,0.727469,0.128269,0.000235703
323424973,0.0662386,0.193395,-1.84285,-0.475467,0.0733925,0.625191,1.99955,0.145108,-0.128925,-0.144251,-0.084875,0.224626,0.303616,0.153062,0.0194712,-0.101607,-0.153636,0.000230878,0.142457,0.728394,0.128689,0.000229114
323625153,0.0677357,0.192063,-1.84076,-0.471135,0.0721736,0.628672,1.99983,0.236747,-0.0756099,-0.132687,-0.115546,0.165657,0.269773,0.212301,0.088549,-0.046209,-0.196953,0.000218175,0.140637,0.729348,0.129572,0.000224262
323825340,0.0712971,0.190954,-1.83826,-0.467868,0.0749724,0.630731,2.00024,0.222624,-0.089968,-0.173849,-0.190921,0.0406266,0.198093,0.218443,0.114104,-0.0181126,-0.230822,0.000212812,0.139726,0.729733,0.130106,0.000222956
324025514,0.0746827,0.18915,-1.83346,-0.463333,0.077488,0.630859,1.99731,0.342465,0.0523723,-0.0474275,-0.0910289,0.083529,0.0853812,0.168106,0.0870451,-0.0336548,-0.281029,0.000199981,0.138316,0.730924,0.130346,0.00021411
324225695,0.0760605,0.187831,-1.82693,-0.459576,0.0798394,0.63227,1.99974,0.23668,-0.0452363,-0.152957,-0.209411,-0.0615132,0.0233793,0.135751,0.0651828,-0.0505825,-0.316419,0.000196957,0.138976,0.731522,0.129099,0.00020543
324425876,0.0827911,0.186236,-1.8169,-0.453309,0.0886611,0.633446,2.00103,0.235558,-0.015554,-0.122268,-0.186384,-0.0747211,-0.0157772,0.115492,0.0605426,-0.041441,-0.303449,0.00019312,0.139484,0.732181,0.127945,0.000196829
324626056,0.0839002,0.1856,-1.8129,-0.450822,0.0902605,0.634449,2.00247,0.160058,-0.00610799,-0.0805536,-0.127914,-0.0615336,-0.0342231,0.0637139,0.0302868,-0.036542,-0.219289,0.000191144,0.139805,0.732533,0.127278,0.000192141
324826255,0.0786504,0.185565,-1.8182,-0.456065,0.0849522,0.629001,1.99683,-0.00614268,-0.021235,-0.0129209,0.00215733,0.0362633,0.074723,0.0392602,0.0253993,0.0182713,0.0356021,0.000190645,0.139722,0.732577,0.127318,0.000191959
325026418,0.0713382,0.184659,-1.82844,-0.464318,0.0757864,0.618051,1.98133,-0.336167,-0.223132,-0.139923,-0.0658441,-0.0500989,0.108666,-0.0536998,-0.0544425,-0.0114932,0.186488,0.000180217,0.137537,0.733355,0.128738,0.000190551
325226606,0.0625124,0.182747,-1.83121,-0.46793,0.0649355,0.610222,1.96926,-0.375601,-0.176996,-0.0581503,0.0372663,0.0158676,0.212794,0.00671689,0.0248331,0.102175,0.387928,0.000163118,0.135817,0.735335,0.128509,0.000175932
325426778,0.0707038,0.180649,-1.82547,-0.461995,0.0722703,0.607227,1.95935,-0.43607,-0.255467,-0.163324,-0.0960592,-0.141916,0.0934775,-0.0484259,-0.0212045,0.0497937,0.274715,0.000148346,0.133026,0.736784,0.129872,0.000169591
325626959,0.0707754,0.179715,-1.82006,-0.459332,0.0729687,0.606237,1.95773,-0.287203,-0.156305,-0.117249,-0.103108,-0.187303,0.140177,0.118549,0.157925,0.211954,0.313209,0.000143299,0.133206,0.737691,0.128798,0.000160956
325827139,0.0809361,0.179381,-1.80761,-0.448073,0.0833926,0.61612,1.96735,-0.211709,-0.160094,-0.164261,-0.183149,-0.253882,-0.0777991,-0.0282713,0.00135196,0.0250074,0.0213398,0.000141441,0.133313,0.73805,0.128337,0.000157606
326027320,0.0917744,0.179335,-1.79482,-0.436478,0.0950377,0.628374,1.98125,0.0351902,-0.0533516,-0.120015,-0.180096,-0.201191,0.0106776,0.144561,0.147189,0.115933,-0.0432349,0.000144218,0.134218,0.737885,0.127596,0.000157017
326227511,0.0986462,0.17908,-1.78579,-0.428806,0.102853,0.636852,1.99169,0.110994,-0.0678717,-0.163637,-0.236151,-0.202997,0.0321619,0.186716,0.16377,0.0956909,-0.138926,0.000147498,0.135258,0.737694,0.126744,0.00015637
326427681,0.103708,0.177651,-1.77408,-0.420573,0.108838,0.64116,1.99603,0.256434,0.0112815,-0.0868097,-0.144327,-0.0338228,-0.0545529,0.0582312,0.00258559,-0.0948951,-0.34226,0.000142669,0.135739,0.738651,0.12532,0.000147072
326627861,0.0971999,0.177165,-1.77945,-0.426552,0.102628,0.634902,1.99026,0.127226,-0.113627,-0.177113,-0.192381,-0.0203955,0.120674,0.133403,0.0550765,-0.0443868,-0.214815,0.00014297,0.136028,0.738683,0.125,0.000146075
326828042,0.0877783,0.176931,-1.785,-0.432965,0.0926646,0.630863,1.9875,0.141163,-0.0675673,-0.0902762,-0.0625331,0.150151,0.13507,0.0495733,-0.0419512,-0.132173,-0.2074,0.000140784,0.136332,0.739121,0.124265,0.000141626
327028224,0.0907206,0.174902,-1.78053,-0.428898,0.0946647,0.630391,1.98342,0.243661,-0.0302222,-0.0902283,-0.0925326,0.126267,0.154907,0.132906,0.0352185,-0.0792111,-0.246655,0.000131323,0.134811,0.740339,0.124583,0.000135532
327228402,0.0909017,0.174926,-1.78036,-0.428729,0.0948459,0.630585,1.98362,0.243661,-0.0302222,-0.0902283,-0.0925326,0.126267,0.154907,0.132906,0.0352185,-0.0792111,-0.246655,0.000131323,0.134811,0.740339,0.124583,0.000135532
327428583,0.08955,0.173608,-1.7785,-0.428451,0.093591,0.627868,1.97979,0.255608,-0.0441683,-0.12149,-0.139175,0.0761669,0.131389,0.142274,0.0442298,-0.0792211,-0.28958,0.000126645,0.134536,0.741123,0.124085,0.000130186
327628775,0.0895822,0.171613,-1.77504,-0.426448,0.0930571,0.624585,1.97316,0.368923,0.03223,-0.0718929,-0.114123,0.0920158,0.108911,0.173164,0.076129,-0.0599033,-0.335934,0.000117483,0.133286,0.742547,0.123927,0.0001226
327828944,0.0905217,0.168781,-1.76807,-0.422077,0.0930738,0.619844,1.96271,0.490786,0.157128,0.0347021,-0.0323677,0.129913,-0.014284,0.108313,0.0271401,-0.104149,-0.422361,0.000103166,0.131188,0.744957,0.123641,0.000110462
328029124,0.0985641,0.164365,-1.74765,-0.407757,0.101289,0.62185,1.95958,0.456271,0.136879,-0.000980675,-0.0933028,0.0114367,-0.102035,0.0805755,0.0201577,-0.100251,-0.454664,8.80757e-05,0.129769,0.748205,0.121845,9.36067e-05
328229307,0.105952,0.162661,-1.73634,-0.399356,0.110072,0.62236,1.95836,0.261771,0.000264347,-0.0914407,-0.141013,-0.0146329,0.0171838,0.102753,0.0384287,-0.0623651,-0.307818,8.5376e-05,0.129844,0.74894,0.12104,8.9453e-05
328429486,0.102459,0.162227,-1.73628,-0.401276,0.107451,0.6194,1.95666,0.032356,-0.056122,-0.0212333,0.0461142,0.230945,0.115055,-0.0602352,-0.13174,-0.176999,-0.114833,8.55681e-05,0.13066,0.749124,0.120044,8.71393e-05
328629665,0.0888246,0.162967,-1.75016,-0.414448,0.0928722,0.612051,1.95066,0.032356,-0.056122,-0.0212333,0.0461142,0.230945,0.115055,-0.0602352,-0.13174,-0.176999,-0.114833,8.55681e-05,0.13066,0.749124,0.120044,8.71393e-05
328829846,0.0800893,0.162518,-1.75874,-0.423055,0.0839193,0.602743,1.94051,-0.114655,-0.14861,-0.0859286,0.0030058,0.181096,0.179658,-0.0405901,-0.105429,-0.131397,0.00147275,8.43759e-05,0.13034,0.74934,0.120149,8.64881e-05
329030026,0.0791991,0.161898,-1.75964,-0.423733,0.0822632,0.599717,1.93475,-0.068286,-0.0932266,-0.0485,0.01509,0.143135,0.306308,0.148563,0.101933,0.083081,0.177607,8.06963e-05,0.12922,0.750006,0.120609,8.47723e-05
329230206,0.0812333,0.161631,-1.75734,-0.421517,0.0840992,0.601025,1.93519,-0.0158448,-0.0561761,-0.0277487,0.0188822,0.13079,0.178548,0.0594178,0.0172989,-0.0055797,0.0499741,7.94072e-05,0.128884,0.750263,0.12069,8.39664e-05
329430387,0.080672,0.161609,-1.75841,-0.422299,0.0833766,0.600261,1.9341,-0.00404787,-0.0695252,-0.069509,-0.0527866,0.0282888,0.106426,0.0564651,0.0230902,-0.00593376,-0.017394,7.91594e-05,0.128706,0.750277,0.120854,8.41559e-05
329630567,0.0843629,0.161648,-1.755,-0.418769,0.0870707,0.604035,1.93798,0.0396693,-0.00585747,-0.0319442,-0.0537531,-0.0544984,0.0437875,0.0904916,0.0870901,0.0715732,0.00612665,7.9368e-05,0.128723,0.750229,0.120884,8.44017e-05
329830747,0.0863493,0.161393,-1.7517,-0.416203,0.0892381,0.605867,1.93981,0.0462405,0.0367072,-0.0101437,-0.0677674,-0.158441,-0.118656,0.0203136,0.0509912,0.0551354,-0.0497635,7.88189e-05,0.128817,0.750419,0.120603,8.33231e-05
330030938,0.0803808,0.160265,-1.75065,-0.419069,0.0843282,0.599379,1.93358,0.0533112,0.00382578,-0.0613823,-0.132357,-0.214532,-0.185762,-0.0198905,0.00454241,-0.00556506,-0.157974,7.63696e-05,0.129471,0.75134,0.119035,7.79162e-05
330231108,0.0856612,0.159432,-1.74467,-0.413716,0.0905485,0.59776,1.93064,0.0533112,0.00382578,-0.0613823,-0.132357,-0.214532,-0.185762,-0.0198905,0.00454241,-0.00556506,-0.157974,7.63696e-05,0.129471,0.75134,0.119035,7.79162e-05
330431291,0.0850033,0.159126,-1.74445,-0.413884,0.0898361,0.596518,1.92885,0.121563,0.0592033,0.00516355,-0.0482821,-0.0904158,-0.112951,0.0082839,0.0177741,5.52833e-05,-0.130198,7.53001e-05,0.129293,0.751603,0.118951,7.6927e-05
330631469,0.0803588,0.160046,-1.7504,-0.419022,0.0841566,0.598807,1.93233,-0.0733352,-0.0876979,-0.0753532,-0.0559262,-0.010805,0.0442985,-0.00526948,-0.0219845,-0.0306203,-0.00614529,7.52519e-05,0.129184,0.751584,0.11908,7.717e-05
330831649,0.0811538,0.160076,-1.75055,-0.418691,0.0847861,0.599621,1.93304,-0.114565,-0.12583,-0.0920456,-0.045891,0.042917,0.0397412,-0.0746141,-0.106118,-0.117363,-0.0451443,7.54454e-05,0.129054,0.751486,0.119307,7.78121e-05
331031830,0.0816048,0.160012,-1.75084,-0.418553,0.0849665,0.599701,1.93255,-0.0453127,-0.102037,-0.0875458,-0.0544679,0.0481455,0.13133,0.0422827,0.00234176,-0.0255498,-0.00389786,7.4983e-05,0.12875,0.751526,0.119571,7.80371e-05
331222021,0.0843977,0.159875,-1.74876,-0.416029,0.0874251,0.601884,1.93392,0.0999831,-0.0145637,-0.0363248,-0.0349047,0.0593778,0.13004,0.109842,0.06809,0.0211888,-0.0472468,7.41585e-05,0.128336,0.751647,0.119865,7.8057e-05
331432193,0.0863462,0.159472,-1.74613,-0.413675,0.0891428,0.602834,1.93375,0.20931,0.0629977,0.0165404,-0.00557035,0.0734079,0.0314493,0.0641163,0.0250326,-0.0313881,-0.159803,7.24721e-05,0.127909,0.752025,0.119916,7.68502e-05
331632371,0.0846621,0.158945,-1.74582,-0.41443,0.0876192,0.600601,1.93108,0.196192,0.0117871,-0.0563568,-0.0965964,-0.0187947,0.00164223,0.0729771,0.0311385,-0.0380614,-0.221139,7.11901e-05,0.127885,0.752417,0.119552,7.50563e-05
331832552,0.0800095,0.158304,-1.74649,-0.417329,0.0836056,0.595781,1.92649,0.186168,-0.00415236,-0.0764348,-0.120583,-0.0450687,-0.0512739,0.0285331,-0.0130382,-0.0839645,-0.277495,7.00548e-05,0.128322,0.752901,0.118635,7.22265e-05
332032746,0.0803615,0.157562,-1.74527,-0.416428,0.0835095,0.594489,1.92323,0.279792,0.0785987,-0.0047484,-0.0604934,0.00334883,8.50856e-05,0.106216,0.067732,-0.00577064,-0.226098,6.74088e-05,0.127551,0.753523,0.118788,7.05132e-05
332232913,0.0783562,0.155827,-1.74234,-0.415699,0.0827165,0.584115,1.91091,0.218916,0.0376229,-0.0294358,-0.0695023,0.00513119,-0.0538848,0.0167409,-0.023898,-0.0914319,-0.272608,6.57065e-05,0.127631,0.7541,0.118135,6.78736e-05
332423084,0.0734221,0.155591,-1.74701,-0.420447,0.0776093,0.578465,1.90452,0.0865582,-0.00952661,-0.011399,0.010516,0.125878,0.14587,0.0770051,0.0297275,-0.0126281,-0.0352954,6.47587e-05,0.127329,0.754323,0.118216,6.73113e-05
332623273,0.0650486,0.154379,-1.75111,-0.426856,0.0697733,0.569296,1.89513,-0.17758,-0.13715,-0.0206457,0.118772,0.332311,0.223637,-0.113139,-0.182055,-0.187227,0.0751039,6.31719e-05,0.127575,0.754971,0.117327,6.44502e-05
332833457,0.0636273,0.149063,-1.73587,-0.420609,0.0666533,0.564567,1.87968,-0.306783,-0.195103,-0.0286677,0.157781,0.405436,0.51941,0.0755876,0.00286126,0.0170317,0.401954,4.67314e-05,0.124054,0.760393,0.115457,4.88944e-05
333033634,0.0699279,0.147248,-1.72527,-0.411919,0.0720571,0.566153,1.87587,-0.302231,-0.179853,-0.0631168,0.0573372,0.184101,0.373265,0.092935,0.0628548,0.0903562,0.369263,4.15722e-05,0.122181,0.762223,0.115509,4.49283e-05
333233815,0.0744636,0.147271,-1.72075,-0.407428,0.076602,0.570668,1.88043,-0.302231,-0.179853,-0.0631168,0.0573372,0.184101,0.373265,0.092935,0.0628548,0.0903562,0.369263,4.15722e-05,0.122181,0.762223,0.115509,4.49283e-05
333423993,0.0735592,0.146314,-1.71386,-0.404938,0.0770214,0.569474,1.87997,-0.187537,0.00847572,0.0942854,0.157081,0.120946,0.180396,0.0580878,0.088754,0.155137,0.384783,4.04985e-05,0.123198,0.763061,0.113659,4.15759e-05
333624166,0.0748814,0.14498,-1.7021,-0.399123,0.079905,0.569959,1.88058,-0.326669,-0.0628688,-0.00820172,-0.00198281,-0.198876,0.02114,0.0558958,0.145093,0.248852,0.42918,3.87399e-05,0.124326,0.76423,0.111369,3.73427e-05
333824347,0.0838718,0.143285,-1.68404,-0.386231,0.0897444,0.576814,1.88573,-0.311189,-0.000532627,0.0356685,0.00683486,-0.29562,-0.203301,-0.0683577,0.059049,0.188315,0.342476,3.61405e-05,0.12457,0.765614,0.109746,3.36013e-05
334024528,0.0997101,0.142133,-1.65951,-0.366695,0.106618,0.59107,1.89912,-0.302585,-0.170907,-0.188827,-0.244264,-0.45703,-0.216123,-0.0479478,0.0328611,0.0963673,0.091689,3.42758e-05,0.125118,0.76679,0.108027,3.05314e-05
334234717,0.112638,0.13926,-1.63433,-0.347435,0.121718,0.595175,1.90172,0.0744669,0.133293,0.0261453,-0.128248,-0.479947,-0.329114,0.0775304,0.194535,0.250125,0.0372769,3.29585e-05,0.126292,0.767816,0.105831,2.75354e-05
334424888,0.108094,0.135896,-1.62148,-0.344471,0.118331,0.585613,1.88782,0.0117722,0.096898,-0.0241474,-0.203564,-0.630611,-0.543299,-0.0655068,0.0770568,0.149633,-0.0853032,2.83078e-05,0.126283,0.770666,0.103001,2.22741e-05
334625068,0.0946055,0.133178,-1.61733,-0.350576,0.106609,0.568601,1.86886,-0.0480611,0.0167093,-0.0908141,-0.248061,-0.623553,-0.47963,-0.0584174,0.0642349,0.126181,-0.0825735,2.52124e-05,0.127256,0.772954,0.0997465,1.81464e-05
334825257,0.0838626,0.131716,-1.62128,-0.358253,0.0957567,0.554261,1.85101,-0.0959636,-0.000701666,-0.0555701,-0.150937,-0.429244,-0.419227,-0.14747,-0.0525964,0.00853953,-0.0782084,2.29293e-05,0.126426,0.774501,0.099034,1.6454e-05
335025429,0.0745746,0.132431,-1.63032,-0.36876,0.0858158,0.553556,1.8507,-0.206272,-0.0529873,-0.0285575,-0.0323275,-0.164532,-0.0798369,-0.0304145,0.0262036,0.0878987,0.186609,2.23559e-05,0.126338,0.774923,0.0987009,1.5932e-05
335225609,0.0752579,0.131968,-1.63177,-0.368733,0.0850378,0.551506,1.84458,-0.395748,-0.241365,-0.181967,-0.139481,-0.17341,-0.0562933,-0.127308,-0.100174,-0.0497494,0.122614,2.09963e-05,0.124321,0.775694,0.0999476,1.59315e-05
335425790,0.0758642,0.130519,-1.62754,-0.365139,0.0861607,0.54135,1.83209,-0.236848,-0.151346,-0.11455,-0.0857701,-0.0927012,0.138871,0.0855735,0.0971349,0.12364,0.227078,2.04079e-05,0.123863,0.776104,0.0999973,1.56161e-05
335625971,0.0741054,0.131701,-1.63191,-0.369413,0.0835157,0.54919,1.84076,-0.141697,-0.144218,-0.140615,-0.135225,-0.121463,0.144852,0.129996,0.125614,0.123362,0.129918,2.03471e-05,0.123722,0.776129,0.100113,1.56502e-05
335826150,0.0727439,0.131562,-1.63459,-0.371241,0.0817732,0.547448,1.83828,0.0562642,-0.113561,-0.144367,-0.145499,-0.0110655,0.194135,0.15245,0.0933058,0.0268809,-0.0914937,2.02232e-05,0.123282,0.776148,0.100534,1.58316e-05
336026333,0.0744841,0.129769,-1.63063,-0.368215,0.0823463,0.545254,1.8306,0.290311,-0.118766,-0.184136,-0.17523,0.173072,0.378031,0.247225,0.0972921,-0.0657284,-0.332318,1.83159e-05,0.121367,0.777442,0.101158,1.50359e-05
336226521,0.0823763,0.126853,-1.61738,-0.357841,0.0887695,0.547089,1.82404,0.404105,-0.126482,-0.216645,-0.213242,0.218689,0.451415,0.300869,0.111996,-0.0965902,-0.456088,1.55209e-05,0.118645,0.779631,0.101696,1.35419e-05
336426691,0.0900784,0.123488,-1.59895,-0.345313,0.0949205,0.546207,1.81141,0.602634,0.0926096,-0.0117032,-0.033383,0.323692,0.327011,0.244844,0.080086,-0.112579,-0.498316,1.20958e-05,0.11523,0.783016,0.10173,1.12548e-05
336626871,0.0985327,0.12121,-1.58679,-0.334944,0.101714,0.548679,1.80528,0.504288,0.0311882,-0.0809962,-0.123801,0.151357,0.301819,0.281527,0.144453,-0.0261148,-0.420521,1.01846e-05,0.112257,0.785093,0.102629,1.02676e-05
336827051,0.0999254,0.119202,-1.57966,-0.330869,0.102149,0.54512,1.7948,0.51198,0.0816354,-0.0348598,-0.0942259,0.104836,0.169212,0.204805,0.0943517,-0.0535557,-0.442816,8.74622e-06,0.110184,0.787016,0.102783,9.23532e-06
337027253,0.100305,0.117592,-1.57688,-0.329137,0.101266,0.541164,1.78443,0.489429,0.0884873,-0.0324362,-0.1053,0.0355615,0.153049,0.233029,0.14244,0.0110126,-0.377511,7.66827e-06,0.107942,0.788496,0.103545,8.64973e-06
337227412,0.0992453,0.116263,-1.57318,-0.327979,0.0996575,0.536617,1.77505,0.452845,0.119784,0.0198753,-0.0406422,0.0731483,0.051153,0.117191,0.0424006,-0.065794,-0.388256,6.85523e-06,0.106597,0.789881,0.103507,7.95791e-06
337427595,0.098359,0.115243,-1.57261,-0.327984,0.0978968,0.532796,1.76683,0.418061,0.107979,0.00460875,-0.0661179,0.00324148,0.0702354,0.171271,0.111725,0.0161364,-0.304531,6.2548e-06,0.105055,0.790848,0.104084,7.62164e-06
337627772,0.106642,0.11325,-1.56055,-0.31636,0.106284,0.528557,1.75743,0.401368,0.117628,0.0211055,-0.0465744,0.00771999,0.0452204,0.146054,0.0938768,0.007928,-0.289288,5.74706e-06,0.103665,0.791718,0.104604,7.32097e-06
337827963,0.108631,0.112802,-1.55654,-0.313323,0.108143,0.529214,1.75636,0.266382,0.0815728,0.0438554,0.0328101,0.146233,0.0892211,0.0613243,0.00506856,-0.0607314,-0.208204,5.50917e-06,0.103246,0.792235,0.104505,7.07311e-06
338028133,0.104885,0.113707,-1.5613,-0.319263,0.103634,0.535063,1.76282,0.0807351,-0.0316526,-0.0283563,-0.000458717,0.15176,0.146563,0.0310549,-0.0266921,-0.0773804,-0.119314,5.42994e-06,0.103255,0.792463,0.104269,6.93367e-06
338228313,0.104189,0.113393,-1.5601,-0.319121,0.102922,0.533409,1.75966,0.148123,0.0674482,0.0794863,0.11228,0.252427,0.216362,0.0970136,0.0468492,0.00648496,-0.00611878,5.25325e-06,0.103003,0.792903,0.104082,6.72553e-06
338428504,0.10594,0.11337,-1.55938,-0.317665,0.104425,0.534953,1.76082,-0.00437975,-0.105473,-0.116149,-0.109208,-0.0160801,0.161942,0.109215,0.0696188,0.0297123,-0.0333777,5.22998e-06,0.102729,0.792862,0.104397,6.78882e-06
338628673,0.0989904,0.11251,-1.56342,-0.323206,0.0968354,0.52516,1.74634,0.332666,0.0930843,0.0636737,0.0748355,0.283438,0.26944,0.159331,0.0691113,-0.0240385,-0.180495,4.75218e-06,0.101435,0.793873,0.104681,6.41456e-06
338828860,0.0969381,0.110471,-1.55593,-0.321223,0.0946712,0.518846,1.73381,0.371697,-0.046012,-0.0931625,-0.0688016,0.306375,0.384376,0.176,0.015479,-0.148216,-0.415327,4.08577e-06,0.100338,0.795751,0.103901,5.57394e-06
339029033,0.106869,0.108216,-1.53934,-0.308301,0.103267,0.522426,1.7274,0.442366,-0.0145984,-0.075515,-0.0623216,0.314815,0.462985,0.268708,0.102394,-0.0720115,-0.385511,3.2946e-06,0.0975517,0.797859,0.104581,4.91792e-06
339229215,0.11897,0.106172,-1.51744,-0.291972,0.114546,0.528128,1.72319,0.558958,0.167681,0.110894,0.114772,0.416598,0.339882,0.191049,0.0541377,-0.0918023,-0.372123,2.63148e-06,0.0952366,0.800232,0.104525,4.18867e-06
339429394,0.12928,0.104925,-1.50387,-0.280034,0.123761,0.533998,1.72202,0.470748,0.12042,0.0508738,0.0282797,0.22958,0.265239,0.204897,0.10093,-0.0198589,-0.306373,2.25987e-06,0.0931303,0.801507,0.105357,3.89811e-06
339629574,0.133409,0.103791,-1.49718,-0.274297,0.126594,0.533518,1.71405,0.545027,0.222094,0.140629,0.0960658,0.217624,0.147353,0.161342,0.0826423,-0.0195294,-0.313636,1.92883e-06,0.0908222,0.802681,0.106491,3.6588e-06
339829754,0.131799,0.103362,-1.49824,-0.275463,0.124505,0.530454,1.70863,0.320425,0.128031,0.0490785,-0.0182663,-0.0549707,-0.038139,0.0930575,0.0754474,0.0299178,-0.195295,1.83116e-06,0.0900211,0.803031,0.106942,3.59612e-06
340029934,0.132265,0.103,-1.5019,-0.276222,0.123633,0.529021,1.70391,0.379822,0.310411,0.225762,0.126932,-0.0830944,-0.170761,0.102494,0.149258,0.160032,-0.0122693,1.73377e-06,0.0883703,0.802857,0.108767,3.72742e-06
340230114,0.138111,0.101353,-1.49384,-0.267519,0.12963,0.52273,1.69308,0.221935,0.230081,0.158045,0.0611153,-0.200205,-0.325723,-0.0279705,0.0437744,0.0818999,-0.0303378,1.61837e-06,0.0871246,0.803093,0.109777,3.70186e-06
340430294,0.140148,0.101157,-1.49297,-0.265751,0.131185,0.523968,1.69298,0.127778,0.199329,0.168946,0.114943,-0.0797413,-0.235393,-0.0434144,0.019317,0.064916,0.0521214,1.58155e-06,0.0865243,0.803021,0.110449,3.74154e-06
340630474,0.136646,0.102135,-1.49904,-0.272283,0.126561,0.530253,1.69975,-0.0334658,0.105754,0.117725,0.106722,-0.0232748,-0.173724,-0.0872497,-0.0322821,0.0220863,0.111062,1.56782e-06,0.0863445,0.803021,0.110629,3.74575e-06
340830658,0.13995,0.102055,-1.49599,-0.269081,0.129801,0.533429,1.70276,-0.0285811,0.119596,0.141013,0.140785,0.0328555,-0.152509,-0.0955324,-0.045224,0.00843312,0.117016,1.56593e-06,0.0862712,0.802981,0.110743,3.75974e-06
341030834,0.143208,0.10198,-1.49206,-0.26564,0.133248,0.536866,1.70656,0.0277827,0.116009,0.107016,0.0781671,-0.0618808,-0.0784636,0.0432361,0.0936412,0.13603,0.166018,1.57691e-06,0.0864945,0.803006,0.110494,3.73808e-06
341231018,0.145493,0.101794,-1.48829,-0.262788,0.135636,0.538837,1.70812,0.000831842,0.0442125,0.0159976,-0.0296315,-0.181593,-0.160777,-0.00484297,0.0423524,0.0746651,0.0514587,1.55752e-06,0.0865162,0.803208,0.110271,3.67382e-06
341431196,0.150834,0.101674,-1.48194,-0.256988,0.14103,0.54392,1.71287,0.103878,0.0278656,-0.0138685,-0.0545102,-0.107562,-0.0987749,-0.00329247,-9.73046e-06,-0.0124738,-0.117625,1.54113e-06,0.086504,0.803366,0.110124,3.62626e-06
341631374,0.146463,0.100927,-1.48367,-0.260182,0.136235,0.53745,1.70252,0.288699,-0.00850686,-0.0496743,-0.0473118,0.172413,0.29041,0.170134,0.0678787,-0.0399057,-0.25683,1.41748e-06,0.0855859,0.804011,0.110398,3.46387e-06
341831554,0.143512,0.093857,-1.44429,-0.246151,0.133522,0.518283,1.65513,0.585884,-0.0194757,-0.065496,-0.0134505,0.560059,0.665591,0.259245,0.0168788,-0.219753,-0.615601,7.15617e-07,0.0817913,0.811194,0.107012,1.88743e-06
342031734,0.145815,0.0928661,-1.43959,-0.241181,0.13686,0.510149,1.64624,0.585884,-0.0194757,-0.065496,-0.0134505,0.560059,0.665591,0.259245,0.0168788,-0.219753,-0.615601,7.15617e-07,0.0817913,0.811194,0.107012,1.88743e-06
342231913,0.143129,0.0896969,-1.41696,-0.2338,0.134862,0.498856,1.62081,0.619265,0.141975,0.121314,0.180699,0.685783,0.589399,0.195088,-0.0100727,-0.204124,-0.507284,4.9662e-07,0.0804095,0.81526,0.104329,1.31175e-06
342422088,0.135036,0.0885803,-1.40853,-0.237665,0.126565,0.496333,1.60873,0.337605,0.0864998,0.129892,0.232252,0.707053,0.620066,0.171334,0.00903848,-0.124151,-0.220874,3.8837e-07,0.0798961,0.818195,0.101908,9.98476e-07
342632279,0.125127,0.0869457,-1.39956,-0.240622,0.118731,0.484292,1.59353,0.140291,0.0692388,0.157464,0.287545,0.725035,0.478132,0.0122654,-0.111809,-0.195391,-0.132524,3.49323e-07,0.081507,0.820627,0.0978646,7.68712e-07
342832453,0.072977,0.0856996,-1.43981,-0.287862,0.0669756,0.428647,1.53018,0.06402,0.0616112,0.145165,0.257388,0.600546,0.604242,0.226053,0.137718,0.0845867,0.180985,2.95175e-07,0.0810892,0.822518,0.0963913,6.40772e-07
343032633,-0.0551824,0.0851557,-1.56216,-0.41304,-0.0609627,0.29968,1.39695,0.0716241,0.0765959,0.133498,0.208628,0.437735,0.404041,0.150079,0.0924128,0.0581227,0.12427,2.74493e-07,0.0811061,0.823434,0.0954588,5.83526e-07
343232813,-0.226497,0.0849171,-1.73063,-0.582225,-0.232135,0.128092,1.22277,0.166519,0.165489,0.194742,0.233742,0.356616,0.283074,0.147389,0.115917,0.096417,0.126215,2.66704e-07,0.0812498,0.82387,0.0948793,5.56435e-07
343422984,-0.415561,0.0848191,-1.92004,-0.770258,-0.421268,-0.0617883,1.0313,0.18198,0.172641,0.173518,0.175787,0.190244,0.233772,0.218751,0.213491,0.208718,0.201219,2.6502e-07,0.0811678,0.82389,0.0949417,5.56135e-07
343623164,-0.616681,0.0846778,-2.12123,-0.970509,-0.622239,-0.264553,0.828312,0.12961,0.148371,0.145223,0.137316,0.0998532,0.0861725,0.120507,0.132861,0.142973,0.15032,2.67027e-07,0.081256,0.823835,0.0949077,5.57902e-07
343823344,-0.80951,0.0843213,-2.31269,-1.16733,-0.813648,-0.466135,0.638134,0.196457,0.224252,0.207817,0.180545,0.0759649,0.0869272,0.192216,0.222994,0.24569,0.244646,2.73667e-07,0.0814794,0.823635,0.0948851,5.65964e-07
344033535,-0.976858,0.0839571,-2.48261,-1.3304,-0.982048,-0.62967,0.465429,0.185964,0.255472,0.215927,0.150562,-0.10283,-0.183528,0.0733354,0.148391,0.20418,0.205826,2.75963e-07,0.0813313,0.823353,0.0953147,5.79254e-07
344233713,-1.12294,0.084313,-2.62816,-1.48126,-1.12779,-0.774816,0.32726,0.185964,0.255472,0.215927,0.150562,-0.10283,-0.183528,0.0733354,0.148391,0.20418,0.205826,2.75963e-07,0.0813313,0.823353,0.0953147,5.79254e-07
344433893,-1.28119,0.0835927,-2.78442,-1.63846,-1.2858,-0.930314,0.171223,0.176123,0.311898,0.269999,0.190129,-0.15637,-0.297795,0.0424196,0.151478,0.237788,0.281885,2.85327e-07,0.0821534,0.823218,0.0946283,5.66905e-07
344624063,-1.46416,0.0837286,-2.96792,-1.82086,-1.46906,-1.11107,-0.0114611,0.176123,0.311898,0.269999,0.190129,-0.15637,-0.297795,0.0424196,0.151478,0.237788,0.281885,2.85327e-07,0.0821534,0.823218,0.0946283,5.66905e-07
344824247,-1.65641,0.0832354,3.12383,-2.01193,-1.66107,-1.30115,-0.201891,0.212434,0.382691,0.340718,0.254902,-0.135115,-0.249671,0.129051,0.254577,0.356024,0.423973,2.97162e-07,0.0829506,0.823007,0.0940419,5.61412e-07
345024423,-1.7264,0.0823541,3.05781,-2.08029,-1.73055,-1.37085,-0.272086,0.134479,0.370488,0.336257,0.249526,-0.190973,-0.354092,0.0612268,0.209854,0.335137,0.456406,2.99455e-07,0.0837191,0.823137,0.0931432,5.34359e-07
345224603,-1.72894,0.0812542,3.06152,-2.08077,-1.73229,-1.37355,-0.27515,0.0257059,0.37238,0.370782,0.308998,-0.134028,-0.407927,-0.0196699,0.14703,0.299811,0.534248,2.98197e-07,0.0847137,0.823477,0.0918082,4.92411e-07
345434792,-1.70674,0.0796936,3.09406,-2.05526,-1.70887,-1.35206,-0.254813,-0.103187,0.374879,0.408722,0.372236,-0.0876669,-0.468547,-0.0962645,0.095439,0.283069,0.649421,2.89448e-07,0.0860713,0.824224,0.0897043,4.2666e-07
345624963,-1.68059,0.0779429,3.13436,-2.02454,-1.68078,-1.32627,-0.229223,-0.13673,0.379068,0.420318,0.387503,-0.0910541,-0.451923,-0.0679095,0.134411,0.334535,0.739808,2.85148e-07,0.0884615,0.825099,0.0864393,3.47744e-07
345825144,-1.65312,0.0768641,-3.11348,-1.99457,-1.65202,-1.29864,-0.200756,-0.0676938,0.363791,0.400421,0.375828,-0.0191736,-0.383279,-0.0671715,0.100582,0.267663,0.614105,2.88318e-07,0.0901985,0.825389,0.0844122,3.09171e-07
346025333,-1.64297,0.0764161,-3.09922,-1.98302,-1.64066,-1.28725,-0.186504,0.0323174,0.342981,0.369033,0.35076,0.0629269,-0.215312,0.0156673,0.137202,0.258247,0.509207,3.06451e-07,0.0921054,0.825161,0.0827329,2.90524e-07
346225502,-1.64182,0.0761904,-3.09507,-1.98084,-1.6384,-1.28462,-0.180913,0.0713961,0.314956,0.333372,0.316107,0.0797391,-0.121596,0.0696828,0.167511,0.264219,0.45944,3.2787e-07,0.093932,0.824801,0.0812666,2.7768e-07
346425684,-1.646,0.0760761,-3.0991,-1.98481,-1.64128,-1.28607,-0.176935,0.234256,0.500137,0.515969,0.491173,0.212247,-0.153414,0.0760689,0.187948,0.296962,0.506177,3.72448e-07,0.0963283,0.823802,0.0798687,2.77381e-07
346625862,-1.64998,0.0760061,-3.10573,-1.98955,-1.64474,-1.28817,-0.175332,0.260558,0.506667,0.517589,0.489242,0.212355,-0.229613,0.000110209,0.108149,0.212082,0.401196,4.08052e-07,0.0975166,0.822919,0.0795641,2.89189e-07
346826042,-1.65681,0.0760304,-3.11268,-1.99626,-1.65055,-1.29278,-0.175736,0.242264,0.435991,0.445962,0.42535,0.21298,-0.0592642,0.114548,0.19812,0.279012,0.428432,4.51927e-07,0.0994341,0.822044,0.0785209,2.90448e-07
347026231,-1.68541,0.0760402,3.1401,-2.02524,-1.67879,-1.31994,-0.200672,0.22869,0.407443,0.413809,0.390751,0.181126,-0.149977,0.0233762,0.103801,0.180627,0.314948,4.8123e-07,0.100275,0.821416,0.078308,2.98968e-07
347226402,-1.78381,0.0760152,3.04148,-2.12314,-1.77599,-1.41537,-0.291873,0.246321,0.483541,0.497141,0.473618,0.2179,-0.116902,0.0888734,0.189985,0.288439,0.471976,5.44213e-07,0.102651,0.820275,0.077074,3.00873e-07
347426582,-1.92557,0.0758227,2.90016,-2.26404,-1.91655,-1.55476,-0.42765,0.19324,0.474541,0.493238,0.468641,0.174733,-0.195854,0.0361435,0.153558,0.268945,0.488931,6.09201e-07,0.10502,0.819158,0.075821,2.99964e-07
347626762,-2.08991,0.075502,2.73805,-2.42691,-2.07914,-1.71699,-0.585282,0.174275,0.487866,0.509038,0.481813,0.153344,-0.204021,0.0531144,0.184035,0.31291,0.558078,6.94397e-07,0.108187,0.817788,0.0740238,2.91973e-07
347826942,-2.2827,0.0751382,2.54543,-2.61904,-2.27047,-1.90882,-0.7723,0.215636,0.543523,0.563174,0.53093,0.17326,-0.274196,0.00645104,0.146638,0.283786,0.536981,7.90065e-07,0.110853,0.81631,0.0728363,2.95039e-07
348027121,-2.4839,0.0747222,2.34662,-2.81913,-2.47,-2.11026,-0.969026,0.156757,0.464128,0.481535,0.44958,0.107578,-0.232964,0.0344724,0.167364,0.297053,0.532284,8.80337e-07,0.113626,0.814989,0.0713837,2.88345e-07
348227302,-2.64529,0.0745196,2.18382,-2.981,-2.63065,-2.27239,-1.12748,0.237757,0.469584,0.471954,0.432752,0.125377,-0.230908,0.019852,0.132243,0.23784,0.401765,9.52449e-07,0.114845,0.814012,0.0711421,2.99379e-07
348427481,-2.78172,0.0744826,2.042,-3.11944,-2.76727,-2.40987,-1.2623,0.373714,0.537101,0.523585,0.474879,0.191015,-0.232868,0.012146,0.108079,0.192925,0.288752,1.00694e-06,0.114551,0.813344,0.0721029,3.31224e-07
348627675,-2.9062,0.074498,1.91353,3.03768,-2.89154,-2.5347,-1.38364,0.318995,0.511227,0.514182,0.482905,0.232976,-0.22585,-0.0241074,0.0678486,0.154495,0.289518,1.08047e-06,0.114931,0.812506,0.0725611,3.58636e-07
348827848,-2.99265,0.0745314,1.82328,2.94979,-2.9778,-2.62086,-1.46659,0.24098,0.478909,0.504542,0.496015,0.282687,-0.29375,-0.143863,-0.0540721,0.0382612,0.232225,1.1574e-06,0.115349,0.811712,0.0729383,3.86651e-07
349028021,-3.00749,0.0746408,1.80573,2.93426,-2.99189,-2.63355,-1.47507,0.214766,0.492872,0.540926,0.555719,0.384351,-0.283003,-0.189529,-0.104168,-0.00828457,0.240882,1.28941e-06,0.116943,0.810475,0.0725797,4.10076e-07
349228203,-3.0001,0.0745583,1.81683,2.94337,-2.98255,-2.62329,-1.4602,0.0647543,0.388222,0.459486,0.497559,0.362547,-0.139309,-0.0991986,-0.0162197,0.0854997,0.394975,1.4454e-06,0.120466,0.809014,0.070518,3.90417e-07
349428381,-2.98691,0.0746676,1.82905,2.95672,-2.96801,-2.60687,-1.43884,0.161571,0.473642,0.541871,0.577692,0.442721,-0.270628,-0.228501,-0.147458,-0.0484392,0.250333,1.65016e-06,0.123172,0.807361,0.0694657,4.036e-07
349628564,-2.96996,0.0747323,1.83991,2.9717,-2.95197,-2.58969,-1.4217,0.274236,0.454608,0.464955,0.445418,0.241058,-0.359047,-0.205951,-0.127532,-0.0508723,0.082104,1.67949e-06,0.12188,0.807276,0.0708424,4.48167e-07
349828741,-2.94618,0.0739751,1.85419,2.99191,-2.93253,-2.57173,-1.41365,0.641976,0.561648,0.453872,0.320766,-0.0280488,-0.406733,-0.020298,0.0553616,0.0884049,-0.112135,1.3374e-06,0.114399,0.810024,0.0755751,5.07986e-07
350028920,-2.91302,0.0712689,1.88138,3.02252,-2.90805,-2.55513,-1.42504,1.01539,0.69663,0.485207,0.254841,-0.209524,-0.609578,-0.0233827,0.0454379,0.0364426,-0.455825,6.5012e-07,0.0989174,0.816476,0.0846052,5.07717e-07
350229100,-2.88377,0.0693208,1.90651,3.0454,-2.88794,-2.53596,-1.4355,1.08426,0.733312,0.517347,0.286598,-0.173302,-0.715475,-0.126114,-0.0648206,-0.0807704,-0.581088,2.69914e-07,0.0836646,0.821188,0.0951467,4.8161e-07
350429281,-2.86209,0.0674704,1.9305,3.06802,-2.87153,-2.52778,-1.45164,0.94113,0.628819,0.466083,0.300247,-0.00443357,-0.707673,-0.299199,-0.272566,-0.301168,-0.693601,1.36209e-07,0.074435,0.823444,0.102121,4.29521e-07
350629460,-2.85211,0.0664632,1.94727,3.08064,-2.8631,-2.52451,-1.46212,0.864376,0.561822,0.464451,0.383912,0.331939,-0.391586,-0.267182,-0.303712,-0.368222,-0.677161,9.39879e-08,0.0709958,0.825091,0.103912,3.65473e-07
350829642,-2.85555,0.0651978,1.96834,3.08597,-2.86331,-2.52964,-1.47367,0.726997,0.385346,0.342698,0.340694,0.564812,-0.139775,-0.31729,-0.430209,-0.547023,-0.832643,8.0966e-08,0.0737585,0.828966,0.0972751,2.34649e-07
351029819,-2.89198,0.0607928,2.01057,3.08074,-2.889,-2.57735,-1.53662,0.568252,0.438204,0.516962,0.64398,1.16703,0.385706,-0.157454,-0.309869,-0.426835,-0.47396,6.23436e-08,0.0857931,0.837553,0.0766538,5.7547e-08
351230000,-2.8941,0.0607904,2.00835,3.07869,-2.8911,-2.57986,-1.5387,0.568252,0.438204,0.516962,0.64398,1.16703,0.385706,-0.157454,-0.309869,-0.426835,-0.47396,6.23436e-08,0.0857931,0.837553,0.0766538,5.7547e-08
351430179,-2.97106,0.0557818,2.04532,3.03895,-2.94812,-2.6497,-1.59536,-0.31403,0.260349,0.554034,0.868027,1.59155,0.381443,-0.401358,-0.478701,-0.466056,0.200425,1.02408e-07,0.124075,0.830247,0.0456772,5.77223e-09
351630362,-3.01178,0.0538091,2.05881,3.01103,-2.98009,-2.67724,-1.61945,-0.42669,0.254889,0.558004,0.87325,1.55186,0.260402,-0.43281,-0.476065,-0.431473,0.344921,1.20527e-07,0.145562,0.819366,0.0350719,1.65655e-09
351830539,-3.01585,0.0538364,2.05477,3.00699,-2.98419,-2.68082,-1.62356,-0.42669,0.254889,0.558004,0.87325,1.55186,0.260402,-0.43281,-0.476065,-0.431473,0.344921,1.20527e-07,0.145562,0.819366,0.0350719,1.65655e-09
352030719,-3.04332,0.050933,2.0778,3.00004,-3.00622,-2.72469,-1.66944,-0.400995,0.257715,0.526375,0.801197,1.36214,0.441409,-0.0950509,-0.110634,-0.0515611,0.702559,1.14545e-07,0.163187,0.808839,0.0279747,4.64883e-10
352230898,-3.07243,0.049572,2.09281,2.98537,-3.02734,-2.75018,-1.68684,-0.034353,0.379431,0.521225,0.659327,0.883291,0.123585,-0.0603276,-0.0381394,0.0203837,0.508367,1.48925e-07,0.189563,0.788957,0.02148,1.38453e-10
352431081,-3.07916,0.0495515,2.09175,2.98081,-3.03184,-2.75417,-1.68557,0.108115,0.415857,0.504593,0.583229,0.640113,-0.0908934,-0.128568,-0.0877005,-0.025005,0.349572,1.71176e-07,0.196623,0.783048,0.0203293,1.16805e-10
352631258,-3.08419,0.0501978,2.08846,2.97157,-3.03622,-2.74404,-1.67878,0.108115,0.415857,0.504593,0.583229,0.640113,-0.0908934,-0.128568,-0.0877005,-0.025005,0.349572,1.71176e-07,0.196623,0.783048,0.0203293,1.16805e-10
352831438,-3.09528,0.0495979,2.07968,2.96697,-3.04421,-2.7644,-1.68536,0.131981,0.460481,0.540517,0.601868,0.553892,-0.293705,-0.243201,-0.17493,-0.0870137,0.321543,2.25868e-07,0.208006,0.773154,0.0188402,1.01434e-10
353031618,-3.10464,0.0500818,2.07446,2.95465,-3.05147,-2.75635,-1.67853,0.0122507,0.372692,0.45985,0.525711,0.464012,-0.296064,-0.234694,-0.1575,-0.0586122,0.390308,2.45586e-07,0.212275,0.769453,0.018272,9.34502e-11
353231797,-3.10521,0.0501033,2.07391,2.95407,-3.05204,-2.75686,-1.67912,0.0122507,0.372692,0.45985,0.525711,0.464012,-0.296064,-0.234694,-0.1575,-0.0586122,0.390308,2.45586e-07,0.212275,0.769453,0.018272,9.34502e-11
353431989,-3.10513,0.0492514,2.07464,2.9595,-3.0516,-2.77138,-1.68791,-0.0494107,0.316618,0.407858,0.478597,0.431732,-0.285299,-0.237043,-0.162031,-0.0639835,0.392228,2.60912e-07,0.215961,0.766272,0.0177666,8.53708e-11
353622148,-3.10943,0.0498325,2.07416,2.95205,-3.05378,-2.75787,-1.67609,0.0182581,0.349806,0.435626,0.504396,0.481949,-0.276806,-0.250206,-0.186755,-0.101402,0.312575,2.83104e-07,0.219994,0.76273,0.0172763,7.99521e-11
353832336,-3.11022,0.0491058,2.08133,2.95966,-3.05172,-2.77082,-1.67891,-0.0159087,0.272607,0.369906,0.463453,0.593028,-0.00607336,-0.108791,-0.086695,-0.0385736,0.320898,3.42033e-07,0.232372,0.751897,0.0157305,5.82989e-11
354032516,-3.11401,0.0491258,2.07752,2.95586,-3.05551,-2.77472,-1.68268,-0.0159087,0.272607,0.369906,0.463453,0.593028,-0.00607336,-0.108791,-0.086695,-0.0385736,0.320898,3.42033e-07,0.232372,0.751897,0.0157305,5.82989e-11
354232695,3.13918,0.0497565,2.05924,2.92553,-3.0817,-2.78552,-1.69458,0.0341797,0.349623,0.468127,0.588655,0.812842,0.0102479,-0.16935,-0.163051,-0.124653,0.267308,3.88016e-07,0.242293,0.74315,0.0145568,4.37335e-11
354432875,3.11585,0.0495383,2.05581,2.90977,-3.09976,-2.80475,-1.7086,0.0570279,0.345572,0.459818,0.579237,0.825701,0.100749,-0.0928931,-0.095677,-0.0674237,0.29514,4.71983e-07,0.261329,0.726161,0.0125102,2.36902e-11
354623053,3.12579,0.0495622,2.06579,2.91967,-3.08981,-2.79481,-1.69866,0.0570279,0.345572,0.459818,0.579237,0.825701,0.100749,-0.0928931,-0.095677,-0.0674237,0.29514,4.71983e-07,0.261329,0.726161,0.0125102,2.36902e-11
354823239,3.12398,0.0495353,2.0733,2.92146,-3.0889,-2.79435,-1.69527,0.0801358,0.339177,0.447247,0.563051,0.824233,0.0676966,-0.135949,-0.146938,-0.128547,0.198207,5.24013e-07,0.271088,0.717301,0.0116105,1.77299e-11
355023405,3.11692,0.0487225,2.07415,2.92216,-3.09479,-2.81774,-1.71092,0.0566534,0.333269,0.441516,0.554417,0.783181,0.195138,0.0206679,0.0203027,0.0492645,0.401946,5.63678e-07,0.280529,0.708703,0.010767,1.26958e-11
355233595,3.10556,0.0485278,2.07425,2.91512,-3.10336,-2.82752,-1.71823,-0.0405308,0.308684,0.440423,0.575677,0.831543,0.0861923,-0.103679,-0.0961432,-0.0530366,0.394934,6.18065e-07,0.291649,0.698478,0.00987215,8.76176e-12
355433773,3.09268,0.0474535,2.08974,2.91244,-3.1109,-2.83904,-1.72836,-0.27774,0.202759,0.376316,0.551441,0.854116,0.0112877,-0.198647,-0.17557,-0.10602,0.520609,6.93992e-07,0.315541,0.676365,0.00809352,3.3678e-12
355623944,-3.13892,0.0474522,2.14121,2.96416,-3.05939,-2.78703,-1.6769,-0.27774,0.202759,0.376316,0.551441,0.854116,0.0112877,-0.198647,-0.17557,-0.10602,0.520609,6.93992e-07,0.315541,0.676365,0.00809352,3.3678e-12
355824123,-3.04029,0.0477505,2.25885,3.06337,-2.95666,-2.67161,-1.56665,-0.224529,0.223692,0.376002,0.525041,0.739555,0.125775,-0.0114321,0.0253085,0.102615,0.695745,7.12011e-07,0.326508,0.666117,0.00737371,2.04734e-12
356024303,-2.89794,0.0466312,2.40578,-3.06921,-2.81414,-2.54112,-1.43322,-0.115273,0.294637,0.423192,0.543276,0.660377,-0.0598937,-0.119156,-0.0681313,0.017031,0.570285,7.6798e-07,0.336536,0.656621,0.00684262,1.4761e-12
356224482,-2.7592,0.0471565,2.55837,-2.93181,-2.67119,-2.39333,-1.28204,-0.16196,0.247762,0.369789,0.479841,0.545626,-0.0549284,-0.0728835,-0.0107191,0.0839723,0.645182,8.03747e-07,0.345135,0.648462,0.00640149,1.06752e-12
356424667,-2.6257,0.0461003,2.6938,-2.79147,-2.5384,-2.2616,-1.15591,-0.120192,0.279485,0.391524,0.488072,0.49667,-0.186698,-0.159883,-0.0872319,0.0154297,0.571544,8.44627e-07,0.352207,0.641716,0.00607603,8.46226e-13
356634850,-2.49974,0.0456094,2.83438,-2.66034,-2.40873,-2.13071,-1.02429,-0.160705,0.233227,0.334706,0.415803,0.348207,-0.244153,-0.158818,-0.0709673,0.0445172,0.607011,9.44017e-07,0.368198,0.626388,0.00541219,5.00908e-13
356825020,-2.38751,0.0457092,2.94711,-2.54851,-2.29629,-2.01624,-0.910769,-0.160705,0.233227,0.334706,0.415803,0.348207,-0.244153,-0.158818,-0.0709673,0.0445172,0.607011,9.44017e-07,0.368198,0.626388,0.00541219,5.00908e-13
357025200,-2.3469,0.0458128,2.99609,-2.50776,-2.2528,-1.9858,-0.866579,-0.102498,0.281794,0.376563,0.449088,0.348454,-0.201141,-0.0908178,0.00232005,0.121441,0.675882,9.80413e-07,0.374982,0.61987,0.00514792,3.93164e-13
357225379,-2.35679,0.0451281,2.99122,-2.513,-2.26236,-1.98318,-0.877038,-0.0575767,0.339219,0.427553,0.487382,0.303625,-0.260651,-0.0868012,0.0261601,0.163822,0.747434,1.0281e-06,0.382643,0.612482,0.00487338,3.03261e-13
357425558,-2.39107,0.0441513,2.97121,-2.54281,-2.29524,-2.01915,-0.916413,-0.193376,0.382204,0.498866,0.56746,0.202807,-0.484238,-0.158928,0.0258299,0.244039,1.10492,1.00073e-06,0.392474,0.603046,0.00447824,1.75365e-13
357625738,-2.39708,0.0413868,2.99682,-2.54298,-2.30494,-2.03873,-0.959919,-0.699657,0.211436,0.405142,0.528713,0.0237879,-0.833779,-0.36296,-0.0838085,0.250793,1.62431,5.98556e-07,0.392044,0.603844,0.00411131,4.93628e-14
357825917,-2.39746,0.0372267,3.03322,-2.53879,-2.31324,-2.0604,-1.01969,-0.824975,0.40437,0.67559,0.862573,0.295586,-1.35981,-0.752657,-0.391195,0.0463632,1.9468,2.3447e-07,0.378195,0.617876,0.00392874,9.69735e-15
358026099,-2.3832,0.0321861,3.09775,-2.5196,-2.31143,-2.07732,-1.09515,-1.16306,0.21518,0.517012,0.730833,0.145675,-1.53358,-0.794677,-0.38522,0.106541,2.31592,4.95027e-08,0.34954,0.6466,0.00386021,8.77177e-16
