timestamp,q[0],q[1],q[2],q[3],delta_q_reset[0],delta_q_reset[1],delta_q_reset[2],delta_q_reset[3],quat_reset_counter
251543104,-0.998042,-0.0205536,0.0155525,-0.0569989,0.99997,6.45753e-10,1.3281e-09,0.00772282,4
251548138,-0.998038,-0.0206324,0.0150959,-0.0571491,0.99997,6.45753e-10,1.3281e-09,0.00772282,4
251598147,-0.997996,-0.0222442,0.016604,-0.0568585,0.99997,6.45753e-10,1.3281e-09,0.00772282,4
251648187,-0.998025,-0.0211623,0.0144117,-0.057363,0.99997,6.45753e-10,1.3281e-09,0.00772282,4
251698229,-0.998043,-0.0205146,0.0164317,-0.0567432,0.99997,6.45753e-10,1.3281e-09,0.00772282,4
251748279,-0.998008,-0.0227673,0.0162307,-0.0565543,0.99997,6.45753e-10,1.3281e-09,0.00772282,4
251793308,-0.99802,-0.0213349,0.0150561,-0.0572168,0.99997,6.45753e-10,1.3281e-09,0.00772282,4
251848361,-0.998005,-0.0214988,0.0159105,-0.0571888,0.99997,6.45753e-10,1.3281e-09,0.00772282,4
251898395,-0.998011,-0.0212189,0.0158435,-0.0572121,0.99997,6.45753e-10,1.3281e-09,0.00772282,4
251948436,-0.99802,-0.0207294,0.0151038,-0.0574309,0.99997,6.45753e-10,1.3281e-09,0.00772282,4
251998488,-0.998074,-0.0192033,0.0150818,-0.0570281,0.99997,6.45753e-10,1.3281e-09,0.00772282,4
252048519,-0.99801,-0.0205639,0.0154646,-0.0575598,0.99997,6.45753e-10,1.3281e-09,0.00772282,4
252098568,-0.997982,-0.0187715,0.0142886,-0.0589453,0.99997,6.45753e-10,1.3281e-09,0.00772282,4
252143599,-0.997939,-0.0215531,0.0145891,-0.0586482,0.99997,6.45753e-10,1.3281e-09,0.00772282,4
252198643,-0.997858,-0.0249832,0.0148477,-0.058608,0.99997,6.45753e-10,1.3281e-09,0.00772282,4
252248685,-0.997955,-0.0230974,0.0148184,-0.057727,0.99997,6.45753e-10,1.3281e-09,0.00772282,4
252293722,-0.997925,-0.0242066,0.0158238,-0.0575265,0.99997,6.45753e-10,1.3281e-09,0.00772282,4
252348770,-0.997965,-0.0210997,0.0145775,-0.0583762,0.99997,6.45753e-10,1.3281e-09,0.00772282,4
252398819,-0.997894,-0.0200409,0.0169299,-0.059321,0.99997,6.45753e-10,1.3281e-09,0.00772282,4
252448852,-0.997991,-0.0146276,0.0145722,-0.0598992,0.99997,6.45753e-10,1.3281e-09,0.00772282,4
252493888,-0.997907,-0.014437,0.016539,-0.0608292,0.99997,6.45753e-10,1.3281e-09,0.00772282,4
252548937,-0.997887,-0.0128853,0.0152346,-0.0618268,0.99997,6.45753e-10,1.3281e-09,0.00772282,4
252598975,-0.997832,-0.014565,0.0151068,-0.0623769,0.99997,6.45753e-10,1.3281e-09,0.00772282,4
252644012,-0.997896,-0.00986454,0.0118536,-0.0629742,0.99997,6.45753e-10,1.3281e-09,0.00772282,4
252699058,-0.99784,-0.00952454,0.0149233,-0.0632608,0.99997,6.45753e-10,1.3281e-09,0.00772282,4
252749099,-0.997865,-0.00930257,0.0145643,-0.0629743,0.99997,6.45753e-10,1.3281e-09,0.00772282,4
252794136,-0.99782,-0.0134364,0.0145407,-0.0629521,0.99997,6.45753e-10,1.3281e-09,0.00772282,4
252844178,-0.99781,-0.013899,0.0118506,-0.0635744,0.99997,6.45753e-10,1.3281e-09,0.00772282,4
252899228,-0.997707,-0.0176708,0.0145768,-0.0636813,0.99997,6.45753e-10,1.3281e-09,0.00772282,4
252949271,-0.997795,-0.0168111,0.0134115,-0.0627872,0.99997,6.45753e-10,1.3281e-09,0.00772282,4
252994303,-0.997739,-0.0203521,0.0134263,-0.0626271,0.99997,6.45753e-10,1.3281e-09,0.00772282,4
253049348,-0.997812,-0.0182433,0.0121389,-0.0623792,0.99997,6.45753e-10,1.3281e-09,0.00772282,4
253099390,-0.997746,-0.0181482,0.0144568,-0.0629674,0.99997,6.45753e-10,1.3281e-09,0.00772282,4
253144427,-0.997845,-0.0113965,0.0130356,-0.0632916,0.99997,6.45753e-10,1.3281e-09,0.00772282,4
253194468,-0.997885,-0.00892864,0.0132628,-0.0630096,0.99997,6.45753e-10,1.3281e-09,0.00772282,4
253249520,-0.997934,-0.00669569,0.0108234,-0.0629757,0.99997,6.45753e-10,1.3281e-09,0.00772282,4
253294551,-0.997898,-0.00657349,0.0132095,-0.0631015,0.99997,6.45753e-10,1.3281e-09,0.00772282,4
253344592,-0.997869,-0.00557352,0.0137408,-0.0635492,0.99997,6.45753e-10,1.3281e-09,0.00772282,4
253399638,-0.997809,-0.00824816,0.0157765,-0.0637227,0.99997,6.45753e-10,1.3281e-09,0.00772282,4
253449679,-0.997823,-0.0127216,0.01319,-0.0633562,0.99997,6.45753e-10,1.3281e-09,0.00772282,4
253494717,-0.997751,-0.0165229,0.0141918,-0.0633978,0.99997,6.45753e-10,1.3281e-09,0.00772282,4
253544759,-0.997765,-0.016695,0.0123728,-0.0635095,0.99997,6.45753e-10,1.3281e-09,0.00772282,4
253599804,-0.997697,-0.0195003,0.0152943,-0.0631429,0.99997,6.45753e-10,1.3281e-09,0.00772282,4
253644841,-0.997637,-0.0229818,0.0132647,-0.0633741,0.99997,6.45753e-10,1.3281e-09,0.00772282,4
253694883,-0.997664,-0.0226733,0.0140611,-0.0628801,0.99997,6.45753e-10,1.3281e-09,0.00772282,4
253744924,-0.997713,-0.020289,0.0135422,-0.0630365,0.99997,6.45753e-10,1.3281e-09,0.00772282,4
253799970,-0.997652,-0.019737,0.0163322,-0.0635178,0.99997,6.45753e-10,1.3281e-09,0.00772282,4
253845007,-0.997711,-0.0191279,0.0129192,-0.0635571,0.99997,6.45753e-10,1.3281e-09,0.00772282,4
253895052,-0.997683,-0.0196808,0.0147902,-0.0634237,0.99997,6.45753e-10,1.3281e-09,0.00772282,4
253950107,-0.9977,-0.0181145,0.0153989,-0.0634735,0.99997,6.45753e-10,1.3281e-09,0.00772282,4
253995131,-0.997705,-0.0153749,0.0164796,-0.0638541,0.99997,6.45753e-10,1.3281e-09,0.00772282,4
254045173,-0.997774,-0.0142823,0.0124641,-0.0639415,0.99997,6.45753e-10,1.3281e-09,0.00772282,4
254100232,-0.997764,-0.0129086,0.011935,-0.0644782,0.99997,6.45753e-10,1.3281e-09,0.00772282,4
254145269,-0.997763,-0.0142232,0.0130845,-0.0639991,0.99997,6.45753e-10,1.3281e-09,0.00772282,4
254195298,-0.997715,-0.0139929,0.016118,-0.0641014,0.99997,6.45753e-10,1.3281e-09,0.00772282,4
254245342,-0.997789,-0.0119576,0.0130048,-0.0640742,0.99997,6.45753e-10,1.3281e-09,0.00772282,4
254300385,-0.997719,-0.0129909,0.0130996,-0.0649357,0.99997,6.45753e-10,1.3281e-09,0.00772282,4
254345422,-0.997777,-0.0134097,0.0116096,-0.0642456,0.99997,6.45753e-10,1.3281e-09,0.00772282,4
254395463,-0.9978,-0.0112698,0.013727,-0.0638806,0.99997,6.45753e-10,1.3281e-09,0.00772282,4
254450509,-0.997797,-0.0104367,0.0136761,-0.0640773,0.99997,6.45753e-10,1.3281e-09,0.00772282,4
254495546,-0.997839,-0.00800364,0.0130334,-0.0639043,0.99997,6.45753e-10,1.3281e-09,0.00772282,4
254545592,-0.997835,-0.0110153,0.0113065,-0.0638453,0.99997,6.45753e-10,1.3281e-09,0.00772282,4
254595629,-0.997817,-0.0129251,0.0136446,-0.0633021,0.99997,6.45753e-10,1.3281e-09,0.00772282,4
254645671,-0.997742,-0.0147884,0.0131766,-0.064183,0.99997,6.45753e-10,1.3281e-09,0.00772282,4
254695712,-0.997723,-0.0160325,0.0144611,-0.0638937,0.99997,6.45753e-10,1.3281e-09,0.00772282,4
254745769,-0.99775,-0.0172685,0.0122619,-0.0636108,0.99997,6.45753e-10,1.3281e-09,0.00772282,4
254800800,-0.997707,-0.0200959,0.0123512,-0.0634453,0.99997,6.45753e-10,1.3281e-09,0.00772282,4
254845837,-0.997672,-0.0225232,0.0139988,-0.0628239,0.99997,6.45753e-10,1.3281e-09,0.00772282,4
254895904,-0.997692,-0.0227377,0.0129108,-0.0626625,0.99997,6.45753e-10,1.3281e-09,0.00772282,4
254945920,-0.997682,-0.0215387,0.0127038,-0.0632842,0.99997,6.45753e-10,1.3281e-09,0.00772282,4
254995961,-0.997688,-0.0192645,0.0111486,-0.0642099,0.99997,6.45753e-10,1.3281e-09,0.00772282,4
255046003,-0.997765,-0.0173604,0.00913651,-0.0638848,0.99997,6.45753e-10,1.3281e-09,0.00772282,4
255096044,-0.997741,-0.0173668,0.00855963,-0.0643319,0.99997,6.45753e-10,1.3281e-09,0.00772282,4
255151090,-0.997707,-0.0161854,0.0101498,-0.0649269,0.99997,6.45753e-10,1.3281e-09,0.00772282,4
255196128,-0.997696,-0.0142806,0.00824201,-0.0658048,0.99997,6.45753e-10,1.3281e-09,0.00772282,4
255246169,-0.997682,-0.009423,0.00705405,-0.0670233,0.99997,6.45753e-10,1.3281e-09,0.00772282,4
255296211,-0.997721,-0.00592632,0.00432329,-0.0670677,0.99997,6.45753e-10,1.3281e-09,0.00772282,4
255346252,-0.997788,-0.00159653,0.00246875,-0.0664067,0.99997,6.45753e-10,1.3281e-09,0.00772282,4
255396294,-0.997828,0.00103587,-0.00137244,-0.0658571,0.99997,6.45753e-10,1.3281e-09,0.00772282,4
255446336,-0.99788,4.54485e-05,-0.0033292,-0.0649921,0.99997,6.45753e-10,1.3281e-09,0.00772282,4
255496377,-0.997953,-0.00171969,-0.0055816,-0.0636834,0.99997,6.45753e-10,1.3281e-09,0.00772282,4
255546418,-0.997964,-0.00160172,-0.00745491,-0.0633244,0.99997,6.45753e-10,1.3281e-09,0.00772282,4
255596460,-0.997927,-0.00216808,-0.00579986,-0.0640567,0.99997,6.45753e-10,1.3281e-09,0.00772282,4
255646501,-0.99793,-0.00306759,-0.00480824,-0.0640618,0.99997,6.45753e-10,1.3281e-09,0.00772282,4
255696543,-0.997875,-0.00199698,-0.00562082,-0.0648793,0.99997,6.45753e-10,1.3281e-09,0.00772282,4
255746584,-0.997792,-0.000739063,-0.00390761,-0.0663018,0.99997,6.45753e-10,1.3281e-09,0.00772282,4
255796626,-0.99777,-0.00106991,-0.00248809,-0.0666852,0.99997,6.45753e-10,1.3281e-09,0.00772282,4
255846667,-0.997677,0.000104681,-0.00430957,-0.0679916,0.99997,6.45753e-10,1.3281e-09,0.00772282,4
255896709,-0.997613,0.000212138,-0.00551867,-0.0688308,0.99997,6.45753e-10,1.3281e-09,0.00772282,4
255946750,-0.997586,-0.0014928,-0.00801284,-0.0689628,0.99997,6.45753e-10,1.3281e-09,0.00772282,4
255996792,-0.99749,-0.0046375,-0.00786404,-0.070212,0.99997,6.45753e-10,1.3281e-09,0.00772282,4
256046834,-0.997414,-0.00597985,-0.00811363,-0.0711657,0.99997,6.45753e-10,1.3281e-09,0.00772282,4
256096879,-0.997327,-0.00730952,-0.00701761,-0.072362,0.99997,6.45753e-10,1.3281e-09,0.00772282,4
256146920,-0.997283,-0.00762368,-0.00754769,-0.0728867,0.99997,6.45753e-10,1.3281e-09,0.00772282,4
256196958,-0.997211,-0.0073296,-0.00693212,-0.0739467,0.99997,6.45753e-10,1.3281e-09,0.00772282,4
256247000,-0.997214,-0.0070006,-0.00664758,-0.0739697,0.99997,6.45753e-10,1.3281e-09,0.00772282,4
256297041,-0.997186,-0.00850227,-0.00458947,-0.0743381,0.99997,6.45753e-10,1.3281e-09,0.00772282,4
256347083,-0.99721,-0.0104381,-0.00228333,-0.0738775,0.99997,6.45753e-10,1.3281e-09,0.00772282,4
256397124,-0.997199,-0.0104883,-0.00251493,-0.0740076,0.99997,6.45753e-10,1.3281e-09,0.00772282,4
256447166,-0.997163,-0.0105992,-0.00190318,-0.0744968,0.99997,6.45753e-10,1.3281e-09,0.00772282,4
256497207,-0.997155,-0.00939505,-0.00497862,-0.0746269,0.99997,6.45753e-10,1.3281e-09,0.00772282,4
256547252,-0.997116,-0.00814866,-0.00562268,-0.0752463,0.99997,6.45753e-10,1.3281e-09,0.00772282,4
256597292,-0.997135,-0.00547076,-0.00728416,-0.0750989,0.99997,6.45753e-10,1.3281e-09,0.00772282,4
256647332,-0.997117,-0.00327961,-0.00788991,-0.0753975,0.99997,6.45753e-10,1.3281e-09,0.00772282,4
256697374,-0.997137,-0.000581256,-0.0110772,-0.0747932,0.99997,6.45753e-10,1.3281e-09,0.00772282,4
256747416,-0.997158,0.000949846,-0.0127186,-0.074253,0.99997,6.45753e-10,1.3281e-09,0.00772282,4
256797464,-0.997228,-0.00161888,-0.0140067,-0.0730613,0.99997,6.45753e-10,1.3281e-09,0.00772282,4
256847499,-0.997276,-0.00658509,-0.0128471,-0.0723402,0.99997,6.45753e-10,1.3281e-09,0.00772282,4
256897540,-0.99728,-0.0112336,-0.0134615,-0.0715851,0.99997,6.45753e-10,1.3281e-09,0.00772282,4
256947582,-0.997297,-0.0148493,-0.0124135,-0.0708825,0.99997,6.45753e-10,1.3281e-09,0.00772282,4
256997623,-0.997344,-0.0154097,-0.00873371,-0.0706507,0.99997,6.45753e-10,1.3281e-09,0.00772282,4
257047665,-0.997415,-0.0153252,-0.00352111,-0.0701155,0.99997,6.45753e-10,1.3281e-09,0.00772282,4
257097706,-0.997443,-0.0142105,0.00401386,-0.0699287,0.99997,6.45753e-10,1.3281e-09,0.00772282,4
257147748,-0.997498,-0.00865431,0.00744143,-0.0697675,0.99997,6.45753e-10,1.3281e-09,0.00772282,4
257197793,-0.997546,-0.00211858,0.00651973,-0.0696751,0.99997,6.45753e-10,1.3281e-09,0.00772282,4
257247831,-0.997651,0.00163804,0.00223951,-0.0684497,0.99997,6.45753e-10,1.3281e-09,0.00772282,4
257297873,-0.997734,-0.000818729,-0.00581888,-0.0670295,0.99997,6.45753e-10,1.3281e-09,0.00772282,4
257347914,-0.997757,-0.0068652,-0.0107128,-0.0657272,0.99997,6.45753e-10,1.3281e-09,0.00772282,4
257397956,-0.997741,-0.00992023,-0.00952271,-0.0657549,0.99997,6.45753e-10,1.3281e-09,0.00772282,4
257447998,-0.997758,-0.00781873,-0.00792599,-0.0659919,0.99997,6.45753e-10,1.3281e-09,0.00772282,4
257498039,-0.99782,-0.00648152,-0.00871185,-0.0650945,0.99997,6.45753e-10,1.3281e-09,0.00772282,4
257548081,-0.997882,-0.0054571,-0.00860563,-0.0642496,0.99997,6.45753e-10,1.3281e-09,0.00772282,4
257598122,-0.997919,-0.00695313,-0.00770537,-0.0636365,0.99997,6.45753e-10,1.3281e-09,0.00772282,4
257648164,-0.997965,-0.00919234,-0.00564828,-0.0628506,0.99997,6.45753e-10,1.3281e-09,0.00772282,4
257698207,-0.998023,-0.00676776,-0.00162648,-0.0624653,0.99997,6.45753e-10,1.3281e-09,0.00772282,4
257743243,-0.998049,-0.00432798,0.000871365,-0.0622824,0.99997,6.45753e-10,1.3281e-09,0.00772282,4
257798289,-0.998024,-0.00449888,-0.00299325,-0.062602,0.99997,6.45753e-10,1.3281e-09,0.00772282,4
257848330,-0.998001,-0.00551892,-0.00622572,-0.0626494,0.99997,6.45753e-10,1.3281e-09,0.00772282,4
257898372,-0.99797,-0.00685961,-0.00612128,-0.0630257,0.99997,6.45753e-10,1.3281e-09,0.00772282,4
257948414,-0.997942,-0.00992269,-0.00502367,-0.0631532,0.99997,6.45753e-10,1.3281e-09,0.00772282,4
257998455,-0.997947,-0.0111357,-0.00620675,-0.0627591,0.99997,6.45753e-10,1.3281e-09,0.00772282,4
258048503,-0.998005,-0.0106724,-0.00597112,-0.0619438,0.99997,6.45753e-10,1.3281e-09,0.00772282,4
258093534,-0.998096,-0.0088727,-0.00660132,-0.0606837,0.99997,6.45753e-10,1.3281e-09,0.00772282,4
258148580,-0.998188,-0.00141957,-0.00686183,-0.0597589,0.99997,6.45753e-10,1.3281e-09,0.00772282,4
258198622,-0.998201,0.00596479,-0.00458866,-0.0594769,0.99997,6.45753e-10,1.3281e-09,0.00772282,4
258243659,-0.998224,0.0067357,-0.00247469,-0.0591384,0.99997,6.45753e-10,1.3281e-09,0.00772282,4
258298705,-0.998351,0.00292191,-0.0019979,-0.0572964,0.99997,6.45753e-10,1.3281e-09,0.00772282,4
258348746,-0.998546,-0.00247659,-0.00537613,-0.0535888,0.99997,6.45753e-10,1.3281e-09,0.00772282,4
258398790,-0.998833,-0.0111005,-0.00749847,-0.0464028,0.99997,6.45753e-10,1.3281e-09,0.00772282,4
258443825,-0.999186,-0.0141313,-0.0066941,-0.0371816,0.99997,6.45753e-10,1.3281e-09,0.00772282,4
258498871,-0.999603,-0.0134073,-0.0078839,-0.0234744,0.99997,6.45753e-10,1.3281e-09,0.00772282,4
258548915,-0.99985,-0.00920468,-0.00993557,-0.010838,0.99997,6.45753e-10,1.3281e-09,0.00772282,4
258593950,-0.99993,-0.00538496,-0.0104034,-0.00149298,0.99997,6.45753e-10,1.3281e-09,0.00772282,4
258648996,-0.999948,-0.00455059,-0.00652206,0.00636556,0.99997,6.45753e-10,1.3281e-09,0.00772282,4
258699038,-0.999918,-0.00680733,-0.00100768,0.0107719,0.99997,6.45753e-10,1.3281e-09,0.00772282,4
258749079,-0.999843,-0.00963445,0.00165034,0.0147759,0.99997,6.45753e-10,1.3281e-09,0.00772282,4
258794117,-0.999793,-0.0102038,0.00335099,0.0172962,0.99997,6.45753e-10,1.3281e-09,0.00772282,4
258849162,-0.99972,-0.0125396,0.00270428,0.0198802,0.99997,6.45753e-10,1.3281e-09,0.00772282,4
258899204,-0.999685,-0.0129938,0.00232715,0.021329,0.99997,6.45753e-10,1.3281e-09,0.00772282,4
258944242,-0.999697,-0.0105602,0.00239374,0.0221196,0.99997,6.45753e-10,1.3281e-09,0.00772282,4
258999288,-0.999711,-0.00501824,0.00501906,0.0229803,0.99997,6.45753e-10,1.3281e-09,0.00772282,4
259049329,-0.999654,-0.00295957,0.0118711,0.023294,0.99997,6.45753e-10,1.3281e-09,0.00772282,4
259094367,-0.999491,-0.00524254,0.0208503,0.0235637,0.99997,6.45753e-10,1.3281e-09,0.00772282,4
259144408,-0.999177,-0.00842278,0.0316157,0.0239812,0.99997,6.45753e-10,1.3281e-09,0.00772282,4
259199454,-0.998876,-0.00993281,0.0395647,0.0241345,0.99997,6.45753e-10,1.3281e-09,0.00772282,4
259249495,-0.998672,-0.0194875,0.0414237,0.0236518,0.99997,6.45753e-10,1.3281e-09,0.00772282,4
259294533,-0.998231,-0.0355593,0.0417683,0.022925,0.99997,6.45753e-10,1.3281e-09,0.00772282,4
259349579,-0.996981,-0.0584829,0.0462139,0.0217306,0.99997,6.45753e-10,1.3281e-09,0.00772282,4
259399620,-0.995215,-0.0807725,0.0511544,0.0201748,0.99997,6.45753e-10,1.3281e-09,0.00772282,4
259444658,-0.993986,-0.0958223,0.049659,0.0185289,0.99997,6.45753e-10,1.3281e-09,0.00772282,4
259494699,-0.993879,-0.101202,0.0412339,0.0161674,0.99997,6.45753e-10,1.3281e-09,0.00772282,4
259549745,-0.994775,-0.0960117,0.0318327,0.0138597,0.99997,6.45753e-10,1.3281e-09,0.00772282,4
259594783,-0.995509,-0.0902399,0.0259626,0.0120581,0.99997,6.45753e-10,1.3281e-09,0.00772282,4
259644831,-0.996634,-0.0781609,0.022174,0.0109144,0.99997,6.45753e-10,1.3281e-09,0.00772282,4
259699870,-0.997601,-0.0649018,0.0218361,0.0101127,0.99997,6.45753e-10,1.3281e-09,0.00772282,4
259749912,-0.99847,-0.0493328,0.0228785,0.0100235,0.99997,6.45753e-10,1.3281e-09,0.00772282,4
259794949,-0.999152,-0.0348562,0.019331,0.0103088,0.99997,6.45753e-10,1.3281e-09,0.00772282,4
259844991,-0.999625,-0.0223354,0.0116868,0.0107414,0.99997,6.45753e-10,1.3281e-09,0.00772282,4
259900037,-0.999822,-0.0148239,0.00205948,0.0115141,0.99997,6.45753e-10,1.3281e-09,0.00772282,4
259945074,-0.999808,-0.0142954,-0.00509416,0.0123679,0.99997,6.45753e-10,1.3281e-09,0.00772282,4
259995116,-0.999767,-0.01405,-0.00969013,0.0132373,0.99997,6.45753e-10,1.3281e-09,0.00772282,4
260050165,-0.999801,-0.0127684,-0.00738678,0.0134254,0.99997,6.45753e-10,1.3281e-09,0.00772282,4
260095203,-0.999848,-0.0109876,-0.00347748,0.0130786,0.99997,6.45753e-10,1.3281e-09,0.00772282,4
260145244,-0.999864,-0.0109993,-0.00013746,0.0122647,0.99997,6.45753e-10,1.3281e-09,0.00772282,4
260195286,-0.999861,-0.0117219,-0.00143599,0.0118031,0.99997,6.45753e-10,1.3281e-09,0.00772282,4
260250329,-0.999877,-0.0108943,-0.0032021,0.0108298,0.99997,6.45753e-10,1.3281e-09,0.00772282,4
260295366,-0.999877,-0.0108922,-0.00500259,0.0101502,0.99997,6.45753e-10,1.3281e-09,0.00772282,4
260345408,-0.999894,-0.0106376,-0.00373944,0.00917275,0.99997,6.45753e-10,1.3281e-09,0.00772282,4
260400453,-0.999889,-0.0113362,-0.00376732,0.00891952,0.99997,6.45753e-10,1.3281e-09,0.00772282,4
260445491,-0.999898,-0.0106983,-0.00421171,0.0085311,0.99997,6.45753e-10,1.3281e-09,0.00772282,4
260495538,-0.999904,-0.0101583,-0.00508102,0.00793902,0.99997,6.45753e-10,1.3281e-09,0.00772282,4
260545574,-0.99989,-0.0122443,-0.00410093,0.00730201,0.99997,6.45753e-10,1.3281e-09,0.00772282,4
260595620,-0.999918,-0.0106411,-0.00313804,0.00639673,0.99997,6.45753e-10,1.3281e-09,0.00772282,4
260645657,-0.999938,-0.00854519,-0.00414554,0.00584865,0.99997,6.45753e-10,1.3281e-09,0.00772282,4
260695701,-0.999943,-0.00753503,-0.00518765,0.00554099,0.99997,6.45753e-10,1.3281e-09,0.00772282,4
260750745,-0.999945,-0.00762924,-0.00489326,0.00536455,0.99997,6.45753e-10,1.3281e-09,0.00772282,4
260795783,-0.999944,-0.00826689,-0.00393381,0.00530154,0.99997,6.45753e-10,1.3281e-09,0.00772282,4
260845824,-0.999924,-0.0100007,-0.00439873,0.00576154,0.99997,6.45753e-10,1.3281e-09,0.00772282,4
260895866,-0.999949,-0.00722304,-0.00365118,0.0059975,0.99997,6.45753e-10,1.3281e-09,0.00772282,4
260945919,-0.999933,-0.00781276,-0.00496536,0.00691518,0.99997,6.45753e-10,1.3281e-09,0.00772282,4
260995949,-0.999927,-0.00910517,-0.00318198,0.00723219,0.99997,6.45753e-10,1.3281e-09,0.00772282,4
261046001,-0.999874,-0.0138138,-0.00224937,0.0074897,0.99997,6.45753e-10,1.3281e-09,0.00772282,4
261096033,-0.999793,-0.0186844,-0.00208138,0.00780397,0.99997,6.45753e-10,1.3281e-09,0.00772282,4
261146082,-0.999483,-0.0310588,-0.00196508,0.00805838,0.99997,6.45753e-10,1.3281e-09,0.00772282,4
261196116,-0.999206,-0.038941,-0.00191752,0.00823699,0.99997,6.45753e-10,1.3281e-09,0.00772282,4
261246158,-0.99886,-0.0469645,-0.00153914,0.00837875,0.99997,6.45753e-10,1.3281e-09,0.00772282,4
261296199,-0.998678,-0.0506788,-0.00107059,0.0085229,0.99997,6.45753e-10,1.3281e-09,0.00772282,4
261346241,-0.998644,-0.0513757,0.000283834,0.00845528,0.99997,6.45753e-10,1.3281e-09,0.00772282,4
261396283,-0.998768,-0.0488745,0.000204521,0.00861718,0.99997,6.45753e-10,1.3281e-09,0.00772282,4
261446325,-0.999023,-0.0433489,0.000547342,0.0085359,0.99997,6.45753e-10,1.3281e-09,0.00772282,4
261496380,-0.999269,-0.0371208,-0.00100845,0.00904353,0.99997,6.45753e-10,1.3281e-09,0.00772282,4
261546408,-0.999635,-0.0255177,-0.000174962,0.00892689,0.99997,6.45753e-10,1.3281e-09,0.00772282,4
261596449,-0.999792,-0.0180229,-0.00137503,0.00948435,0.99997,6.45753e-10,1.3281e-09,0.00772282,4
261646494,-0.99991,-0.00940528,0.000127121,0.00961629,0.99997,6.45753e-10,1.3281e-09,0.00772282,4
261696533,-0.999911,-0.00811666,0.00149673,0.010487,0.99997,6.45753e-10,1.3281e-09,0.00772282,4
261746575,-0.999892,-0.00947517,0.00178729,0.0111164,0.99997,6.45753e-10,1.3281e-09,0.00772282,4
261796616,-0.999886,-0.00936521,0.00293998,0.0115006,0.99997,6.45753e-10,1.3281e-09,0.00772282,4
261846658,-0.999887,-0.0087988,0.0011921,0.01214,0.99997,6.45753e-10,1.3281e-09,0.00772282,4
261896699,-0.999927,-0.00140571,-0.000385482,0.0120343,0.99997,6.45753e-10,1.3281e-09,0.00772282,4
261946741,-0.999916,0.00260131,-0.00362102,0.0121759,0.99997,6.45753e-10,1.3281e-09,0.00772282,4
261996783,-0.999911,0.00331822,-0.00529714,0.0117818,0.99997,6.45753e-10,1.3281e-09,0.00772282,4
262046828,-0.999907,-0.00545691,-0.00328258,0.0120614,0.99997,6.45753e-10,1.3281e-09,0.00772282,4
262096866,-0.999791,-0.0162643,-0.00042434,0.0123477,0.99997,6.45753e-10,1.3281e-09,0.00772282,4
262146908,-0.999781,-0.0168464,-0.00112329,0.0123799,0.99997,6.45753e-10,1.3281e-09,0.00772282,4
262196949,-0.999745,-0.0190804,-0.00164784,0.0119319,0.99997,6.45753e-10,1.3281e-09,0.00772282,4
262246991,-0.999799,-0.0158852,-0.00263862,0.0119488,0.99997,6.45753e-10,1.3281e-09,0.00772282,4
262297033,-0.999858,-0.0124724,0.00197103,0.0111672,0.99997,6.45753e-10,1.3281e-09,0.00772282,4
262347074,-0.999877,-0.0112921,0.00160303,0.0107303,0.99997,6.45753e-10,1.3281e-09,0.00772282,4
262397116,-0.999909,-0.00866687,-0.000131209,0.0103002,0.99997,6.45753e-10,1.3281e-09,0.00772282,4
262447158,-0.999932,-0.00647371,-0.000344005,0.00970542,0.99997,6.45753e-10,1.3281e-09,0.00772282,4
262497199,-0.999939,-0.00648153,0.000207183,0.00893886,0.99997,6.45753e-10,1.3281e-09,0.00772282,4
262547252,-0.999844,-0.0153192,0.00305638,0.0081816,0.99997,6.45753e-10,1.3281e-09,0.00772282,4
262597284,-0.99988,-0.0130468,0.00463156,0.00695492,0.99997,6.45753e-10,1.3281e-09,0.00772282,4
262647326,-0.999955,-0.00664499,0.00342941,0.00589194,0.99997,6.45753e-10,1.3281e-09,0.00772282,4
262697378,-0.999978,-0.00390285,0.00176423,0.00505046,0.99997,6.45753e-10,1.3281e-09,0.00772282,4
262747408,-0.99999,-0.000639973,0.000895776,0.0044124,0.99997,6.45753e-10,1.3281e-09,0.00772282,4
262797464,-0.999986,0.00292167,-0.00169854,0.00407824,0.99997,6.45753e-10,1.3281e-09,0.00772282,4
262847491,-0.999987,0.00410929,-0.000470459,0.00300429,0.99997,6.45753e-10,1.3281e-09,0.00772282,4
262897536,-0.999994,-0.000755379,0.00200476,0.00267459,0.99997,6.45753e-10,1.3281e-09,0.00772282,4
262947574,-0.999984,-0.0042167,0.0030788,0.00230342,0.99997,6.45753e-10,1.3281e-09,0.00772282,4
262997616,-0.999976,-0.00655982,0.000901825,0.0021312,0.99997,6.45753e-10,1.3281e-09,0.00772282,4
263047658,-0.99995,-0.0097673,0.00164827,0.00166186,0.99997,6.45753e-10,1.3281e-09,0.00772282,4
263097699,-0.999936,-0.011081,0.00135846,0.00155625,0.99997,6.45753e-10,1.3281e-09,0.00772282,4
263147741,-0.999938,-0.0107548,0.00275374,0.000792872,0.99997,6.45753e-10,1.3281e-09,0.00772282,4
263197783,-0.999894,-0.0142576,0.00283637,0.000503524,0.99997,6.45753e-10,1.3281e-09,0.00772282,4
263247843,-0.999938,-0.0110368,0.00124104,-4.9992e-05,0.99997,6.45753e-10,1.3281e-09,0.00772282,4
263297866,-0.999923,-0.0124036,-0.000992688,-0.000517677,0.99997,6.45753e-10,1.3281e-09,0.00772282,4
263347908,-0.999885,-0.0146655,-0.00390396,-0.000319278,0.99997,6.45753e-10,1.3281e-09,0.00772282,4
263397950,-0.999897,-0.0138789,-0.0037687,-0.000195616,0.99997,6.45753e-10,1.3281e-09,0.00772282,4
263447991,-0.9999,-0.0138748,-0.00264605,-0.000144666,0.99997,6.45753e-10,1.3281e-09,0.00772282,4
263498039,-0.999902,-0.0138932,-0.00184893,9.12297e-05,0.99997,6.45753e-10,1.3281e-09,0.00772282,4
263548074,-0.999949,-0.0100702,-0.00111839,0.000170077,0.99997,6.45753e-10,1.3281e-09,0.00772282,4
263598116,-0.999894,-0.0107443,-0.00983246,0.000908656,0.99997,6.45753e-10,1.3281e-09,0.00772282,4
263648158,-0.999643,-0.0108896,-0.0243692,0.000886118,0.99997,6.45753e-10,1.3281e-09,0.00772282,4
263693198,-0.999306,-0.0101278,-0.0358327,0.00109899,0.99997,6.45753e-10,1.3281e-09,0.00772282,4
263748244,-0.999332,-0.00547709,-0.0361197,0.000587511,0.99997,6.45753e-10,1.3281e-09,0.00772282,4
263798283,-0.999697,-0.00542589,-0.0240082,0.000751313,0.99997,6.45753e-10,1.3281e-09,0.00772282,4
263848327,0.999899,0.00796153,0.00950798,0.00691762,-0.999969,-1.40045e-09,-1.33012e-09,-0.00789729,5
263898369,0.999954,0.00708732,0.000824017,0.00646062,-0.999969,-1.40045e-09,-1.33012e-09,-0.00789729,5
263948422,0.999964,0.00463643,-0.0027916,0.00654166,-0.999969,-1.40045e-09,-1.33012e-09,-0.00789729,5
263998480,0.999969,0.00463414,0.000359207,0.00630916,-0.999969,-1.40045e-09,-1.33012e-09,-0.00789729,5
264043487,0.999957,0.00560809,0.00377381,0.006386,-0.999969,-1.40045e-09,-1.33012e-09,-0.00789729,5
264098533,0.999931,0.00743962,0.00620371,0.00665953,-0.999969,-1.40045e-09,-1.33012e-09,-0.00789729,5
264148582,0.999924,0.00775704,0.00711526,0.00636184,-0.999969,-1.40045e-09,-1.33012e-09,-0.00789729,5
264193620,0.999943,0.00683647,0.00510134,0.00642445,-0.999969,-1.40045e-09,-1.33012e-09,-0.00789729,5
264248658,0.999952,0.00743611,0.00251752,0.00589465,-0.999969,-1.40045e-09,-1.33012e-09,-0.00789729,5
264298699,0.999958,0.00727177,-0.000265292,0.00557768,-0.999969,-1.40045e-09,-1.33012e-09,-0.00789729,5
264348741,0.999966,0.00622587,-0.00131125,0.00527953,-0.999969,-1.40045e-09,-1.33012e-09,-0.00789729,5
264393779,0.999981,0.00302575,-0.00164879,0.00518451,-0.999969,-1.40045e-09,-1.33012e-09,-0.00789729,5
264448824,0.999975,-0.00490996,-0.000802922,0.00509081,-0.999969,-1.40045e-09,-1.33012e-09,-0.00789729,5
264498866,0.999903,-0.0130197,-9.92404e-05,0.00487541,-0.999969,-1.40045e-09,-1.33012e-09,-0.00789729,5
264543912,0.999782,-0.0202936,0.00060169,0.00480945,-0.999969,-1.40045e-09,-1.33012e-09,-0.00789729,5
264598949,0.999626,-0.0268622,0.00118638,0.00496223,-0.999969,-1.40045e-09,-1.33012e-09,-0.00789729,5
264648991,0.999529,-0.0301181,0.00326581,0.00480438,-0.999969,-1.40045e-09,-1.33012e-09,-0.00789729,5
264694029,0.999632,-0.0264902,0.00316894,0.00483385,-0.999969,-1.40045e-09,-1.33012e-09,-0.00789729,5
264744070,0.999857,-0.0163095,0.00090241,0.0044379,-0.999969,-1.40045e-09,-1.33012e-09,-0.00789729,5
264799116,0.999985,-0.00300475,-0.000858501,0.00442672,-0.999969,-1.40045e-09,-1.33012e-09,-0.00789729,5
264849167,0.999989,7.57804e-05,2.88597e-05,0.0046865,-0.999969,-1.40045e-09,-1.33012e-09,-0.00789729,5
264894195,0.999988,0.000287018,-3.99331e-05,0.00482448,-0.999969,-1.40045e-09,-1.33012e-09,-0.00789729,5
264949241,0.999985,-0.00215318,0.000342629,0.00509313,-0.999969,-1.40045e-09,-1.33012e-09,-0.00789729,5
264999283,0.999982,0.00281105,0.000461609,0.00523394,-0.999969,-1.40045e-09,-1.33012e-09,-0.00789729,5
265044321,0.999974,0.00469423,0.000188702,0.00540535,-0.999969,-1.40045e-09,-1.33012e-09,-0.00789729,5
265094362,0.999983,0.00160009,-0.00156451,0.00543042,-0.999969,-1.40045e-09,-1.33012e-09,-0.00789729,5
265149408,0.999982,-0.00229743,-0.00127134,0.00544514,-0.999969,-1.40045e-09,-1.33012e-09,-0.00789729,5
265199456,0.999911,-0.0120343,0.000488139,0.00577248,-0.999969,-1.40045e-09,-1.33012e-09,-0.00789729,5
265244487,0.99986,-0.0153896,0.00325658,0.00567807,-0.999969,-1.40045e-09,-1.33012e-09,-0.00789729,5
265299533,0.999907,-0.0113035,0.00501702,0.00577788,-0.999969,-1.40045e-09,-1.33012e-09,-0.00789729,5
265349575,0.999968,-0.00532368,0.00148231,0.00588707,-0.999969,-1.40045e-09,-1.33012e-09,-0.00789729,5
265394612,0.999979,0.000372681,-0.00258928,0.00600685,-0.999969,-1.40045e-09,-1.33012e-09,-0.00789729,5
265444654,0.99996,0.00575097,-0.00297168,0.00620765,-0.999969,-1.40045e-09,-1.33012e-09,-0.00789729,5
265499699,0.999929,0.00981814,-0.00131399,0.00663245,-0.999969,-1.40045e-09,-1.33012e-09,-0.00789729,5
265544737,0.999923,0.0104152,-0.000392061,0.00681042,-0.999969,-1.40045e-09,-1.33012e-09,-0.00789729,5
265594779,0.999932,0.00916143,-0.000426723,0.0071801,-0.999969,-1.40045e-09,-1.33012e-09,-0.00789729,5
265649825,0.999925,0.00963274,-0.00110525,0.0074349,-0.999969,-1.40045e-09,-1.33012e-09,-0.00789729,5
265699866,0.999953,0.00597953,-0.00127798,0.00747796,-0.999969,-1.40045e-09,-1.33012e-09,-0.00789729,5
265744904,0.999965,0.00411897,-0.00115389,0.00726068,-0.999969,-1.40045e-09,-1.33012e-09,-0.00789729,5
265794945,0.999975,0.00269789,0.000194576,0.00650365,-0.999969,-1.40045e-09,-1.33012e-09,-0.00789729,5
265849991,0.999968,0.00517668,0.00128316,0.00598994,-0.999969,-1.40045e-09,-1.33012e-09,-0.00789729,5
265895029,0.999934,0.00981436,0.00192994,0.00559322,-0.999969,-1.40045e-09,-1.33012e-09,-0.00789729,5
265945070,0.999894,0.01357,0.000476082,0.00518741,-0.999969,-1.40045e-09,-1.33012e-09,-0.00789729,5
266000116,0.999897,0.0134381,-0.00176692,0.00481971,-0.999969,-1.40045e-09,-1.33012e-09,-0.00789729,5
266045154,0.999902,0.0129929,-0.00225508,0.00472582,-0.999969,-1.40045e-09,-1.33012e-09,-0.00789729,5
266095196,0.999913,0.0123486,-0.00142778,0.00440873,-0.999969,-1.40045e-09,-1.33012e-09,-0.00789729,5
266145248,0.999923,0.0117317,-0.000634272,0.00392969,-0.999969,-1.40045e-09,-1.33012e-09,-0.00789729,5
266200283,0.999934,0.0108642,7.59861e-06,0.00375728,-0.999969,-1.40045e-09,-1.33012e-09,-0.00789729,5
266245321,0.999936,0.0107179,-0.000108514,0.00375511,-0.999969,-1.40045e-09,-1.33012e-09,-0.00789729,5
266295363,0.999944,0.00987888,7.36824e-05,0.00393048,-0.999969,-1.40045e-09,-1.33012e-09,-0.00789729,5
266350408,0.999924,0.0117104,0.00066474,0.00387755,-0.999969,-1.40045e-09,-1.33012e-09,-0.00789729,5
266395446,0.999921,0.0119668,-0.000411483,0.00384681,-0.999969,-1.40045e-09,-1.33012e-09,-0.00789729,5
266445488,0.999904,0.0130889,-0.00243125,0.0039416,-0.999969,-1.40045e-09,-1.33012e-09,-0.00789729,5
266495529,0.999907,0.0121588,-0.00446304,0.00424576,-0.999969,-1.40045e-09,-1.33012e-09,-0.00789729,5
266550575,0.999908,0.0125818,-0.00275602,0.00420899,-0.999969,-1.40045e-09,-1.33012e-09,-0.00789729,5
266595612,0.999922,0.0113201,-0.00241992,0.00460883,-0.999969,-1.40045e-09,-1.33012e-09,-0.00789729,5
266645654,0.999938,0.00895178,-0.00412365,0.00519339,-0.999969,-1.40045e-09,-1.33012e-09,-0.00789729,5
266700700,0.999941,0.00645942,-0.00661975,0.00570334,-0.999969,-1.40045e-09,-1.33012e-09,-0.00789729,5
266745738,0.999912,0.00824024,-0.00851683,0.00594667,-0.999969,-1.40045e-09,-1.33012e-09,-0.00789729,5
266795779,0.999905,0.00856797,-0.00885432,0.00613602,-0.999969,-1.40045e-09,-1.33012e-09,-0.00789729,5
266845821,0.999921,0.00767884,-0.00779843,0.00619843,-0.999969,-1.40045e-09,-1.33012e-09,-0.00789729,5
266895865,0.999939,0.0073386,-0.00573237,0.00593276,-0.999969,-1.40045e-09,-1.33012e-09,-0.00789729,5
266945904,0.999925,0.00910275,-0.00596211,0.00563483,-0.999969,-1.40045e-09,-1.33012e-09,-0.00789729,5
266995946,0.999871,0.013185,-0.00766937,0.00505435,-0.999969,-1.40045e-09,-1.33012e-09,-0.00789729,5
267050992,0.999824,0.0162621,-0.00823314,0.00445497,-0.999969,-1.40045e-09,-1.33012e-09,-0.00789729,5
267096029,0.999848,0.0144926,-0.00883268,0.00388635,-0.999969,-1.40045e-09,-1.33012e-09,-0.00789729,5
267146072,0.999936,0.00641557,-0.00863622,0.00353074,-0.999969,-1.40045e-09,-1.33012e-09,-0.00789729,5
267196113,0.999968,0.000229845,-0.00739108,0.00295877,-0.999969,-1.40045e-09,-1.33012e-09,-0.00789729,5
267246156,0.999979,-0.00318543,-0.00525839,0.00225433,-0.999969,-1.40045e-09,-1.33012e-09,-0.00789729,5
267296196,0.999994,-0.0021787,-0.0025259,0.00141152,-0.999969,-1.40045e-09,-1.33012e-09,-0.00789729,5
267346238,0.999992,0.00346815,-0.00157066,0.00136747,-0.999969,-1.40045e-09,-1.33012e-09,-0.00789729,5
267396281,0.999945,0.00969703,-0.00380297,0.00146683,-0.999969,-1.40045e-09,-1.33012e-09,-0.00789729,5
267446322,0.99989,0.0136408,-0.00540986,0.0021751,-0.999969,-1.40045e-09,-1.33012e-09,-0.00789729,5
267496366,0.999868,0.0152224,-0.00505229,0.00254059,-0.999969,-1.40045e-09,-1.33012e-09,-0.00789729,5
267546405,0.99993,0.0108827,-0.0032189,0.00323363,-0.999969,-1.40045e-09,-1.33012e-09,-0.00789729,5
267596454,0.999994,-0.000200506,-0.000437194,0.0033764,-0.999969,-1.40045e-09,-1.33012e-09,-0.00789729,5
267646488,0.999978,-0.00577798,0.000449061,0.00320113,-0.999969,-1.40045e-09,-1.33012e-09,-0.00789729,5
267696530,0.999993,-0.000647345,0.00230538,0.00289103,-0.999969,-1.40045e-09,-1.33012e-09,-0.00789729,5
267746571,0.999908,0.0124599,0.00474724,0.00255025,-0.999969,-1.40045e-09,-1.33012e-09,-0.00789729,5
267796613,0.999821,0.0181332,0.00480597,0.00240296,-0.999969,-1.40045e-09,-1.33012e-09,-0.00789729,5
267846655,0.999907,0.0134066,0.00148954,0.00223664,-0.999969,-1.40045e-09,-1.33012e-09,-0.00789729,5
267896697,0.999963,0.00833904,-0.000699651,0.00219381,-0.999969,-1.40045e-09,-1.33012e-09,-0.00789729,5
267946742,0.999967,0.00645624,0.00441851,0.00222915,-0.999969,-1.40045e-09,-1.33012e-09,-0.00789729,5
267996783,0.999836,-0.000267103,0.0180031,0.00200642,-0.999969,-1.40045e-09,-1.33012e-09,-0.00789729,5
268046822,0.999361,-0.00713117,0.0349816,0.00176653,-0.999969,-1.40045e-09,-1.33012e-09,-0.00789729,5
268096873,0.998983,-0.00774827,0.0443845,0.00156445,-0.999969,-1.40045e-09,-1.33012e-09,-0.00789729,5
268146905,0.999325,-0.00242684,0.0366352,0.00148734,-0.999969,-1.40045e-09,-1.33012e-09,-0.00789729,5
268196947,0.999785,0.00720894,0.0194306,0.00113821,-0.999969,-1.40045e-09,-1.33012e-09,-0.00789729,5
268246988,0.999862,0.0156243,0.00552207,0.000942532,-0.999969,-1.40045e-09,-1.33012e-09,-0.00789729,5
268297034,0.999826,0.0186386,0.000215389,0.000994247,-0.999969,-1.40045e-09,-1.33012e-09,-0.00789729,5
268347072,0.999897,0.0141982,0.00168034,0.000919998,-0.999969,-1.40045e-09,-1.33012e-09,-0.00789729,5
268397114,0.999926,0.010886,0.00543225,0.000688835,-0.999969,-1.40045e-09,-1.33012e-09,-0.00789729,5
268447156,0.999927,0.00936063,0.00763071,0.000121125,-0.999969,-1.40045e-09,-1.33012e-09,-0.00789729,5
268497197,0.999943,0.00673329,0.00834872,-0.000206324,-0.999969,-1.40045e-09,-1.33012e-09,-0.00789729,5
268547256,0.999968,0.00360039,0.0071141,-0.000524423,-0.999969,-1.40045e-09,-1.33012e-09,-0.00789729,5
268597283,0.999979,0.00432594,0.0046714,-0.000697579,-0.999969,-1.40045e-09,-1.33012e-09,-0.00789729,5
268647326,0.999981,0.00551028,0.00261622,-0.00056009,-0.999969,-1.40045e-09,-1.33012e-09,-0.00789729,5
268697364,0.999986,0.00535949,2.49014e-05,-0.000125225,-0.999969,-1.40045e-09,-1.33012e-09,-0.00789729,5
268747406,0.999991,0.00355693,-0.00221912,0.000461474,-0.999969,-1.40045e-09,-1.33012e-09,-0.00789729,5
268797447,0.999996,0.00121812,-0.0024181,0.00107902,-0.999969,-1.40045e-09,-1.33012e-09,-0.00789729,5
268847489,0.999995,0.00248089,-0.00117572,0.00140587,-0.999969,-1.40045e-09,-1.33012e-09,-0.00789729,5
268897530,0.999998,0.0011387,0.000576265,0.001496,-0.999969,-1.40045e-09,-1.33012e-09,-0.00789729,5
268947572,0.999995,3.81949e-05,0.00264782,0.00166713,-0.999969,-1.40045e-09,-1.33012e-09,-0.00789729,5
268997615,0.999994,0.000102968,0.0030768,0.00172983,-0.999969,-1.40045e-09,-1.33012e-09,-0.00789729,5
269047656,0.999997,-0.00115093,0.00128814,0.00164741,-0.999969,-1.40045e-09,-1.33012e-09,-0.00789729,5
269097697,0.999985,-0.0052653,-0.000240683,0.00180909,-0.999969,-1.40045e-09,-1.33012e-09,-0.00789729,5
269147739,0.999912,-0.0131734,-0.00060959,0.00173829,-0.999969,-1.40045e-09,-1.33012e-09,-0.00789729,5
269197783,0.999755,-0.0220126,-0.000177763,0.00217234,-0.999969,-1.40045e-09,-1.33012e-09,-0.00789729,5
269247822,0.9996,-0.0282178,3.52649e-05,0.0020256,-0.999969,-1.40045e-09,-1.33012e-09,-0.00789729,5
269297864,0.999596,-0.0283531,0.000342311,0.00204472,-0.999969,-1.40045e-09,-1.33012e-09,-0.00789729,5
269347909,0.999769,-0.0213883,0.000621401,0.00202398,-0.999969,-1.40045e-09,-1.33012e-09,-0.00789729,5
269397947,0.99995,-0.0095522,0.00232244,0.00167661,-0.999969,-1.40045e-09,-1.33012e-09,-0.00789729,5
269447989,0.999988,0.00285938,0.00334454,0.00223075,-0.999969,-1.40045e-09,-1.33012e-09,-0.00789729,5
269498031,0.999968,0.00612894,0.00482264,0.00206435,-0.999969,-1.40045e-09,-1.33012e-09,-0.00789729,5
269548073,0.999968,0.00510386,0.00548231,0.00275914,-0.999969,-1.40045e-09,-1.33012e-09,-0.00789729,5
269598114,0.99997,0.000753954,0.00707282,0.00291742,-0.999969,-1.40045e-09,-1.33012e-09,-0.00789729,5
269643159,0.999957,-0.00187011,0.00836017,0.00348726,-0.999969,-1.40045e-09,-1.33012e-09,-0.00789729,5
269698198,0.999951,0.00343528,0.00849826,0.00362199,-0.999969,-1.40045e-09,-1.33012e-09,-0.00789729,5
269748238,0.999944,0.00723341,0.00701562,0.003321,-0.999969,-1.40045e-09,-1.33012e-09,-0.00789729,5
269798281,0.999935,0.0101226,0.00416257,0.00326095,-0.999969,-1.40045e-09,-1.33012e-09,-0.00789729,5
269848331,0.999933,0.0111335,0.00117341,0.00302655,-0.999969,-1.40045e-09,-1.33012e-09,-0.00789729,5
269898365,0.999932,0.0113473,-7.83268e-05,0.00273147,-0.999969,-1.40045e-09,-1.33012e-09,-0.00789729,5
269948406,0.999949,0.00972507,0.000691824,0.00253004,-0.999969,-1.40045e-09,-1.33012e-09,-0.00789729,5
269993444,0.999961,0.00836211,0.0019442,0.00230216,-0.999969,-1.40045e-09,-1.33012e-09,-0.00789729,5
270048490,0.999972,0.00637513,0.00356463,0.00159014,-0.999969,-1.40045e-09,-1.33012e-09,-0.00789729,5
270098534,0.999961,0.00668482,0.00544377,0.00163731,-0.999969,-1.40045e-09,-1.33012e-09,-0.00789729,5
270148573,0.999896,0.00771844,0.0120928,0.00136566,-0.999969,-1.40045e-09,-1.33012e-09,-0.00789729,5
270198615,0.999798,0.00941063,0.0176431,0.00180774,-0.999969,-1.40045e-09,-1.33012e-09,-0.00789729,5
270248657,0.999817,0.00781334,0.0173395,0.00214516,-0.999969,-1.40045e-09,-1.33012e-09,-0.00789729,5
270298698,0.999926,0.00414471,0.0112329,0.00232603,-0.999969,-1.40045e-09,-1.33012e-09,-0.00789729,5
270343736,0.999983,0.00207049,0.00480013,0.00249646,-0.999969,-1.40045e-09,-1.33012e-09,-0.00789729,5
270398782,0.999988,0.00406246,0.0014637,0.00222819,-0.999969,-1.40045e-09,-1.33012e-09,-0.00789729,5
270448823,0.999966,0.00779969,0.00133164,0.00238786,-0.999969,-1.40045e-09,-1.33012e-09,-0.00789729,5
270493861,0.999955,0.00872611,0.00288308,0.00241546,-0.999969,-1.40045e-09,-1.33012e-09,-0.00789729,5
270548907,0.999972,0.00652064,0.00264975,0.00249443,-0.999969,-1.40045e-09,-1.33012e-09,-0.00789729,5
270598949,0.999984,0.00483379,-0.000562243,0.00281093,-0.999969,-1.40045e-09,-1.33012e-09,-0.00789729,5
270648990,0.999978,0.00495264,-0.00386133,0.00234102,-0.999969,-1.40045e-09,-1.33012e-09,-0.00789729,5
270694031,0.99996,0.00775272,-0.00422493,0.00178268,-0.999969,-1.40045e-09,-1.33012e-09,-0.00789729,5
270749073,0.999951,0.00975584,-0.000789988,0.00147018,-0.999969,-1.40045e-09,-1.33012e-09,-0.00789729,5
270799115,0.999948,0.00990198,0.00236868,0.00108873,-0.999969,-1.40045e-09,-1.33012e-09,-0.00789729,5
270844153,0.999938,0.0104607,0.00369137,0.000921557,-0.999969,-1.40045e-09,-1.33012e-09,-0.00789729,5
270899199,0.999931,0.0114326,0.00274767,0.00076949,-0.999969,-1.40045e-09,-1.33012e-09,-0.00789729,5
270949248,0.999909,0.0134215,0.00151706,0.000367361,-0.999969,-1.40045e-09,-1.33012e-09,-0.00789729,5
270994282,0.999887,0.0149809,0.000855698,0.000176474,-0.999969,-1.40045e-09,-1.33012e-09,-0.00789729,5
271044320,0.999858,0.0165355,0.0032221,-0.000262354,-0.999969,-1.40045e-09,-1.33012e-09,-0.00789729,5
271099366,0.999839,0.0161959,0.00765152,-0.000604206,-0.999969,-1.40045e-09,-1.33012e-09,-0.00789729,5
271149407,0.999811,0.0152642,0.0120502,-0.000488103,-0.999969,-1.40045e-09,-1.33012e-09,-0.00789729,5
271194445,0.999866,0.0112405,0.0118986,-0.000340032,-0.999969,-1.40045e-09,-1.33012e-09,-0.00789729,5
271249490,0.999982,0.00464975,0.00377914,0.000289888,-0.999969,-1.40045e-09,-1.33012e-09,-0.00789729,5
271299532,0.999991,0.00315821,-0.0028425,0.000491434,-0.999969,-1.40045e-09,-1.33012e-09,-0.00789729,5
271344570,0.999975,0.00461659,-0.00530026,0.000515892,-0.999969,-1.40045e-09,-1.33012e-09,-0.00789729,5
271394612,0.999967,0.0073053,-0.00360872,0.000477425,-0.999969,-1.40045e-09,-1.33012e-09,-0.00789729,5
271449657,0.999951,0.00968848,-0.00187505,0.00042377,-0.999969,-1.40045e-09,-1.33012e-09,-0.00789729,5
271494695,0.999959,0.00906285,-0.000568581,0.000533097,-0.999969,-1.40045e-09,-1.33012e-09,-0.00789729,5
271544739,0.999965,0.00838954,0.000275799,0.000493113,-0.999969,-1.40045e-09,-1.33012e-09,-0.00789729,5
271599782,0.999985,0.00544399,0.00070693,0.000555828,-0.999969,-1.40045e-09,-1.33012e-09,-0.00789729,5
271649824,0.999996,0.00210968,0.00177276,0.000839604,-0.999969,-1.40045e-09,-1.33012e-09,-0.00789729,5
271694862,0.999994,-0.00216363,0.00270329,0.000967407,-0.999969,-1.40045e-09,-1.33012e-09,-0.00789729,5
271744903,0.999991,0.00368446,0.00210209,0.000989818,-0.999969,-1.40045e-09,-1.33012e-09,-0.00789729,5
271799949,0.999977,0.00664035,0.000739746,0.000855246,-0.999969,-1.40045e-09,-1.33012e-09,-0.00789729,5
271844987,0.999979,0.0063482,-0.00069124,0.000699141,-0.999969,-1.40045e-09,-1.33012e-09,-0.00789729,5
271895028,0.999954,0.00946375,-0.00179031,0.000150355,-0.999969,-1.40045e-09,-1.33012e-09,-0.00789729,5
271950074,0.999965,0.0079945,-0.00231012,-0.000213255,-0.999969,-1.40045e-09,-1.33012e-09,-0.00789729,5
271995112,0.999975,0.00685516,-0.00160703,-0.00060286,-0.999969,-1.40045e-09,-1.33012e-09,-0.00789729,5
272045155,0.999958,0.00903505,-0.000783736,-0.00113395,-0.999969,-1.40045e-09,-1.33012e-09,-0.00789729,5
272095196,0.999991,0.00403583,0.000162381,-0.00133541,-0.999969,-1.40045e-09,-1.33012e-09,-0.00789729,5
272150244,0.999998,0.00143156,0.000239956,-0.00149877,-0.999969,-1.40045e-09,-1.33012e-09,-0.00789729,5
272195283,0.999997,0.00177971,0.00028629,-0.00167162,-0.999969,-1.40045e-09,-1.33012e-09,-0.00789729,5
272245321,0.999998,-0.00131293,-0.000124376,-0.00146215,-0.999969,-1.40045e-09,-1.33012e-09,-0.00789729,5
272300367,0.999993,0.00303374,-0.0016263,-0.0015338,-0.999969,-1.40045e-09,-1.33012e-09,-0.00789729,5
272345404,0.999987,0.00402114,-0.00270062,-0.0014644,-0.999969,-1.40045e-09,-1.33012e-09,-0.00789729,5
272395446,0.999978,0.00550547,-0.00335201,-0.00132833,-0.999969,-1.40045e-09,-1.33012e-09,-0.00789729,5
272445494,0.999941,0.0104141,-0.00283799,-0.0013567,-0.999969,-1.40045e-09,-1.33012e-09,-0.00789729,5
272495529,0.999857,0.0168088,-0.00151073,-0.0013276,-0.999969,-1.40045e-09,-1.33012e-09,-0.00789729,5
272545571,0.999496,0.0317125,0.00031625,-0.00159434,-0.999969,-1.40045e-09,-1.33012e-09,-0.00789729,5
272595613,0.998458,0.0554902,-0.00101933,-0.00132546,-0.999969,-1.40045e-09,-1.33012e-09,-0.00789729,5
272650658,0.99716,0.0752834,-0.00201661,-0.00104091,-0.999969,-1.40045e-09,-1.33012e-09,-0.00789729,5
272695696,0.996329,0.0855643,-0.00246801,-0.000643572,-0.999969,-1.40045e-09,-1.33012e-09,-0.00789729,5
272745740,0.995685,0.0927923,-0.00119786,-0.000176476,-0.999969,-1.40045e-09,-1.33012e-09,-0.00789729,5
272795780,0.99601,0.0892365,-0.000833153,0.000713327,-0.999969,-1.40045e-09,-1.33012e-09,-0.00789729,5
272845821,0.996525,0.0832634,-0.00150175,0.00156966,-0.999969,-1.40045e-09,-1.33012e-09,-0.00789729,5
272895863,0.998235,0.0593349,-0.000567644,0.00262953,-0.999969,-1.40045e-09,-1.33012e-09,-0.00789729,5
272945905,0.999476,0.0321508,-0.00056218,0.00356895,-0.999969,-1.40045e-09,-1.33012e-09,-0.00789729,5
273000951,0.999901,0.0131688,0.00283322,0.00418987,-0.999969,-1.40045e-09,-1.33012e-09,-0.00789729,5
273045988,0.999943,0.00894515,0.00377558,0.00438004,-0.999969,-1.40045e-09,-1.33012e-09,-0.00789729,5
273096031,0.999923,0.0115056,0.00189645,0.00423765,-0.999969,-1.40045e-09,-1.33012e-09,-0.00789729,5
273146072,0.99991,0.0126117,-0.000853671,0.00454713,-0.999969,-1.40045e-09,-1.33012e-09,-0.00789729,5
273196113,0.99997,0.00483622,-0.00302218,0.00528952,-0.999969,-1.40045e-09,-1.33012e-09,-0.00789729,5
273246155,0.999984,0.00172821,-0.00139244,0.00512623,-0.999969,-1.40045e-09,-1.33012e-09,-0.00789729,5
273296197,0.999987,-0.000629981,0.000989241,0.0049423,-0.999969,-1.40045e-09,-1.33012e-09,-0.00789729,5
273346240,0.999985,0.00207704,0.00377141,0.00329802,-0.999969,-1.40045e-09,-1.33012e-09,-0.00789729,5
273396282,0.999976,0.00479851,0.00434178,0.00240681,-0.999969,-1.40045e-09,-1.33012e-09,-0.00789729,5
273446340,0.999976,0.00588919,0.00320404,0.00158214,-0.999969,-1.40045e-09,-1.33012e-09,-0.00789729,5
273496364,0.99997,0.00739514,0.00213218,0.000760881,-0.999969,-1.40045e-09,-1.33012e-09,-0.00789729,5
273546405,0.999973,0.00727183,0.0011036,0.00041596,-0.999969,-1.40045e-09,-1.33012e-09,-0.00789729,5
273596447,0.999967,0.00808257,0.000975422,-0.00065291,-0.999969,-1.40045e-09,-1.33012e-09,-0.00789729,5
273646489,0.999969,0.00765224,-0.000716056,-0.00180046,-0.999969,-1.40045e-09,-1.33012e-09,-0.00789729,5
273696532,0.999978,0.00585351,-0.00197311,-0.00222974,-0.999969,-1.40045e-09,-1.33012e-09,-0.00789729,5
273746572,0.999979,0.00588218,-0.00104002,-0.00259316,-0.999969,-1.40045e-09,-1.33012e-09,-0.00789729,5
273796614,0.999967,0.00750616,0.000825155,-0.00290648,-0.999969,-1.40045e-09,-1.33012e-09,-0.00789729,5
273846683,0.999962,0.00798462,0.00191315,-0.00299678,-0.999969,-1.40045e-09,-1.33012e-09,-0.00789729,5
273896697,0.999921,0.0110503,0.00460671,-0.00373848,-0.999969,-1.40045e-09,-1.33012e-09,-0.00789729,5
273946750,0.999824,0.0160473,0.00864657,-0.00441577,-0.999969,-1.40045e-09,-1.33012e-09,-0.00789729,5
273996781,0.999798,0.0166146,0.0102095,-0.00481396,-0.999969,-1.40045e-09,-1.33012e-09,-0.00789729,5
274046830,0.999801,0.0162082,0.0104546,-0.00509155,-0.999969,-1.40045e-09,-1.33012e-09,-0.00789729,5
274096864,0.999802,0.0125999,0.0145783,-0.00500971,-0.999969,-1.40045e-09,-1.33012e-09,-0.00789729,5
274146906,0.999637,0.00819942,0.02523,-0.00469337,-0.999969,-1.40045e-09,-1.33012e-09,-0.00789729,5
274196948,0.999175,0.00559406,0.0399619,-0.00468721,-0.999969,-1.40045e-09,-1.33012e-09,-0.00789729,5
274246989,0.998451,0.00071174,0.0554811,-0.00421049,-0.999969,-1.40045e-09,-1.33012e-09,-0.00789729,5
274297034,0.997692,-0.0059479,0.0675331,-0.00378288,-0.999969,-1.40045e-09,-1.33012e-09,-0.00789729,5
274347073,0.997195,-0.0108711,0.0740165,-0.00255789,-0.999969,-1.40045e-09,-1.33012e-09,-0.00789729,5
274397115,0.996869,-0.0114876,0.0781974,-0.00222832,-0.999969,-1.40045e-09,-1.33012e-09,-0.00789729,5
274447166,0.996769,-0.00726386,0.0799673,-0.00205111,-0.999969,-1.40045e-09,-1.33012e-09,-0.00789729,5
274497200,0.996787,-0.00299312,0.0800065,-0.00236297,-0.999969,-1.40045e-09,-1.33012e-09,-0.00789729,5
274547255,0.997064,0.000254239,0.0765244,-0.00283664,-0.999969,-1.40045e-09,-1.33012e-09,-0.00789729,5
274597283,0.997928,-0.000970492,0.0642744,-0.00262432,-0.999969,-1.40045e-09,-1.33012e-09,-0.00789729,5
274647329,0.999105,-0.000937433,0.04221,-0.00252708,-0.999969,-1.40045e-09,-1.33012e-09,-0.00789729,5
274697365,0.999838,-0.000113792,0.0179004,-0.00197299,-0.999969,-1.40045e-09,-1.33012e-09,-0.00789729,5
274747407,0.999987,0.00406395,0.00230732,-0.00227515,-0.999969,-1.40045e-09,-1.33012e-09,-0.00789729,5
274797452,0.999932,0.0098792,-0.00584225,-0.00196358,-0.999969,-1.40045e-09,-1.33012e-09,-0.00789729,5
274847490,0.999919,0.0112621,-0.0057056,-0.00177303,-0.999969,-1.40045e-09,-1.33012e-09,-0.00789729,5
274897535,0.999939,0.0106563,-0.00248673,-0.00156714,-0.999969,-1.40045e-09,-1.33012e-09,-0.00789729,5
274947573,0.999953,0.00958498,-7.36981e-05,-0.00154363,-0.999969,-1.40045e-09,-1.33012e-09,-0.00789729,5
274997615,0.999968,0.00792705,0.000411869,-0.00123146,-0.999969,-1.40045e-09,-1.33012e-09,-0.00789729,5
275047657,0.999981,0.00592873,-0.000307234,-0.0013318,-0.999969,-1.40045e-09,-1.33012e-09,-0.00789729,5
275097704,0.999988,0.00417949,-0.00214504,-0.00118493,-0.999969,-1.40045e-09,-1.33012e-09,-0.00789729,5
275147740,0.999993,-0.00101903,-0.00359486,-0.000777528,-0.999969,-1.40045e-09,-1.33012e-09,-0.00789729,5
275197782,0.99997,-0.00710329,-0.0031391,-0.000393305,-0.999969,-1.40045e-09,-1.33012e-09,-0.00789729,5
275247825,0.999958,-0.00889484,-0.00203947,-0.00016388,-0.999969,-1.40045e-09,-1.33012e-09,-0.00789729,5
275297869,0.999972,-0.00750315,-0.00072026,9.0418e-05,-0.999969,-1.40045e-09,-1.33012e-09,-0.00789729,5
275347907,0.999999,-0.0012949,0.000702275,-0.000315921,-0.999969,-1.40045e-09,-1.33012e-09,-0.00789729,5
275397949,0.999974,0.00713432,0.000615478,-0.000651665,-0.999969,-1.40045e-09,-1.33012e-09,-0.00789729,5
275447983,0.999941,0.0107654,-0.00115507,-0.000833637,-0.999969,-1.40045e-09,-1.33012e-09,-0.00789729,5
275498032,0.999942,0.010515,-0.00216081,-0.00124401,-0.999969,-1.40045e-09,-1.33012e-09,-0.00789729,5
275548074,0.999928,0.0116735,-0.00222009,-0.00147839,-0.999969,-1.40045e-09,-1.33012e-09,-0.00789729,5
275593112,0.999934,0.0111776,-0.00176998,-0.00179838,-0.999969,-1.40045e-09,-1.33012e-09,-0.00789729,5
275648157,0.999891,0.0144613,-0.00177685,-0.00245879,-0.999969,-1.40045e-09,-1.33012e-09,-0.00789729,5
275698199,0.999848,0.0170973,-0.00152901,-0.00313821,-0.999969,-1.40045e-09,-1.33012e-09,-0.00789729,5
275748241,0.999842,0.0172665,-0.000616636,-0.00409192,-0.999969,-1.40045e-09,-1.33012e-09,-0.00789729,5
275798285,0.999869,0.0153831,0.000504764,-0.00505105,-0.999969,-1.40045e-09,-1.33012e-09,-0.00789729,5
275848325,0.999908,0.0121955,0.000646924,-0.00589409,-0.999969,-1.40045e-09,-1.33012e-09,-0.00789729,5
275898366,0.999966,0.00479157,0.00107421,-0.00658752,-0.999969,-1.40045e-09,-1.33012e-09,-0.00789729,5
275943404,0.999972,0.00123513,0.000892606,-0.00732822,-0.999969,-1.40045e-09,-1.33012e-09,-0.00789729,5
275998450,0.99997,-0.000220395,0.000402906,-0.0078003,-0.999969,-1.40045e-09,-1.33012e-09,-0.00789729,5
276048493,0.999965,0.00217424,0.00114637,-0.00804329,-0.999969,-1.40045e-09,-1.33012e-09,-0.00789729,5
276093529,0.999959,0.00299555,0.00250101,-0.00818554,-0.999969,-1.40045e-09,-1.33012e-09,-0.00789729,5
276148578,0.999905,-0.0107334,0.00521792,-0.00690062,-0.999969,-1.40045e-09,-1.33012e-09,-0.00789729,5
276198617,0.999704,-0.0225896,0.00630803,-0.00643531,-0.999969,-1.40045e-09,-1.33012e-09,-0.00789729,5
276248658,0.999512,-0.0305602,0.00359919,-0.00538656,-0.999969,-1.40045e-09,-1.33012e-09,-0.00789729,5
276293696,0.999555,-0.0294262,0.000795071,-0.00492581,-0.999969,-1.40045e-09,-1.33012e-09,-0.00789729,5
276348742,0.99963,-0.0268733,-0.00042755,-0.00425405,-0.999969,-1.40045e-09,-1.33012e-09,-0.00789729,5
276398784,0.999456,-0.0328071,-0.00149336,-0.00291836,-0.999969,-1.40045e-09,-1.33012e-09,-0.00789729,5
276443822,0.999241,-0.0388528,-0.00219038,-0.00161934,-0.999969,-1.40045e-09,-1.33012e-09,-0.00789729,5
276498867,0.999275,-0.0378688,-0.00395579,-0.000210494,-0.999969,-1.40045e-09,-1.33012e-09,-0.00789729,5
276548917,0.999409,-0.0342164,-0.00307464,0.0013002,-0.999969,-1.40045e-09,-1.33012e-09,-0.00789729,5
276598951,0.99924,-0.0388868,0.000459178,0.00280521,-0.999969,-1.40045e-09,-1.33012e-09,-0.00789729,5
276643988,0.999379,-0.0348537,0.00380639,0.00363284,-0.999969,-1.40045e-09,-1.33012e-09,-0.00789729,5
276699034,0.999652,-0.025683,0.00378801,0.00471805,-0.999969,-1.40045e-09,-1.33012e-09,-0.00789729,5
276749076,0.999838,-0.0171138,0.00112725,0.00540086,-0.999969,-1.40045e-09,-1.33012e-09,-0.00789729,5
276794114,0.999971,-0.00405355,-0.00255671,0.00583429,-0.999969,-1.40045e-09,-1.33012e-09,-0.00789729,5
276849161,0.999916,0.00845202,-0.0071136,0.0067835,-0.999969,-1.40045e-09,-1.33012e-09,-0.00789729,5
276899207,0.999856,0.0110402,-0.0103652,0.00763663,-0.999969,-1.40045e-09,-1.33012e-09,-0.00789729,5
276944239,0.999825,0.00984439,-0.0136943,0.00815056,-0.999969,-1.40045e-09,-1.33012e-09,-0.00789729,5
276994283,0.999818,0.00721324,-0.0158382,0.00775504,-0.999969,-1.40045e-09,-1.33012e-09,-0.00789729,5
277049331,0.99987,0.00751076,-0.0117284,0.00814006,-0.999969,-1.40045e-09,-1.33012e-09,-0.00789729,5
277099368,0.999892,0.0103938,-0.00633427,0.00818141,-0.999969,-1.40045e-09,-1.33012e-09,-0.00789729,5
277144406,0.999868,0.0137359,-0.00352103,0.00793837,-0.999969,-1.40045e-09,-1.33012e-09,-0.00789729,5
277199454,0.999918,0.00994842,-0.00196525,0.00781105,-0.999969,-1.40045e-09,-1.33012e-09,-0.00789729,5
277249494,0.999943,0.00737422,-0.00188204,0.0074829,-0.999969,-1.40045e-09,-1.33012e-09,-0.00789729,5
277294531,0.999926,0.0098569,-0.00197956,0.006911,-0.999969,-1.40045e-09,-1.33012e-09,-0.00789729,5
277344573,0.999902,0.0120399,-0.00276871,0.00651863,-0.999969,-1.40045e-09,-1.33012e-09,-0.00789729,5
277399619,0.999881,0.0138378,-0.00300346,0.00612052,-0.999969,-1.40045e-09,-1.33012e-09,-0.00789729,5
277444656,0.999908,0.0120545,-0.00221586,0.00579291,-0.999969,-1.40045e-09,-1.33012e-09,-0.00789729,5
277494698,0.999939,0.00994826,-0.000945739,0.00481913,-0.999969,-1.40045e-09,-1.33012e-09,-0.00789729,5
277549747,0.999894,0.014102,-0.000522886,0.00368031,-0.999969,-1.40045e-09,-1.33012e-09,-0.00789729,5
277599789,0.999793,0.0199645,-0.00272426,0.00271752,-0.999969,-1.40045e-09,-1.33012e-09,-0.00789729,5
277644824,0.999414,0.0337427,-0.00541048,0.00185447,-0.999969,-1.40045e-09,-1.33012e-09,-0.00789729,5
277694865,0.998697,0.0505203,-0.00713056,0.00121424,-0.999969,-1.40045e-09,-1.33012e-09,-0.00789729,5
277749913,0.998432,0.0557447,-0.0050097,0.000454508,-0.999969,-1.40045e-09,-1.33012e-09,-0.00789729,5
277794948,0.998996,0.0446318,-0.00392008,0.000379978,-0.999969,-1.40045e-09,-1.33012e-09,-0.00789729,5
277844994,0.999549,0.0299308,-0.00238778,3.22824e-05,-0.999969,-1.40045e-09,-1.33012e-09,-0.00789729,5
277895032,0.999865,0.0164264,0.000665363,-0.000646024,-0.999969,-1.40045e-09,-1.33012e-09,-0.00789729,5
277950078,0.999968,0.00710795,0.0034422,-0.00107281,-0.999969,-1.40045e-09,-1.33012e-09,-0.00789729,5
277995116,0.999987,0.00284717,0.00402675,-0.00147261,-0.999969,-1.40045e-09,-1.33012e-09,-0.00789729,5
278045157,0.99999,0.0033495,0.00211824,-0.00230185,-0.999969,-1.40045e-09,-1.33012e-09,-0.00789729,5
278100203,0.99998,0.00578418,0.000519894,-0.00246176,-0.999969,-1.40045e-09,-1.33012e-09,-0.00789729,5
278145243,0.999984,0.00441456,0.00270179,-0.00242776,-0.999969,-1.40045e-09,-1.33012e-09,-0.00789729,5
278195283,0.999972,0.00572995,0.00429373,-0.0019426,-0.999969,-1.40045e-09,-1.33012e-09,-0.00789729,5
278250329,0.99994,0.00955458,0.0053287,-0.000798986,-0.999969,-1.40045e-09,-1.33012e-09,-0.00789729,5
278295366,0.999908,0.0117876,0.00673622,0.000237469,-0.999969,-1.40045e-09,-1.33012e-09,-0.00789729,5
278345408,0.999916,0.0101543,0.0078743,0.00193711,-0.999969,-1.40045e-09,-1.33012e-09,-0.00789729,5
278395450,0.999891,0.00521515,0.0133557,0.00343542,-0.999969,-1.40045e-09,-1.33012e-09,-0.00789729,5
278450496,0.99959,-0.000450308,0.0281943,0.00504285,-0.999969,-1.40045e-09,-1.33012e-09,-0.00789729,5
278495533,0.998916,-0.000163901,0.0462049,0.0057012,-0.999969,-1.40045e-09,-1.33012e-09,-0.00789729,5
278545575,0.997695,0.00343706,0.0674758,0.00638372,-0.999969,-1.40045e-09,-1.33012e-09,-0.00789729,5
278600621,0.99604,0.00864691,0.0882415,0.00661933,-0.999969,-1.40045e-09,-1.33012e-09,-0.00789729,5
278645658,0.995178,0.00996753,0.0973307,0.00700933,-0.999969,-1.40045e-09,-1.33012e-09,-0.00789729,5
278695700,0.995778,0.00661398,0.0911958,0.00808762,-0.999969,-1.40045e-09,-1.33012e-09,-0.00789729,5
278745742,0.997896,0.00503746,0.0640576,0.00863236,-0.999969,-1.40045e-09,-1.33012e-09,-0.00789729,5
278795784,0.999552,0.00708519,0.0278026,0.00846879,-0.999969,-1.40045e-09,-1.33012e-09,-0.00789729,5
278845825,0.99991,0.0108265,0.00114104,0.00786466,-0.999969,-1.40045e-09,-1.33012e-09,-0.00789729,5
278895868,0.99984,0.0138887,-0.0080487,0.00788417,-0.999969,-1.40045e-09,-1.33012e-09,-0.00789729,5
278950913,0.999892,0.0116261,-0.00419676,0.00801428,-0.999969,-1.40045e-09,-1.33012e-09,-0.00789729,5
278995951,0.999942,0.0071267,0.00134916,0.00794228,-0.999969,-1.40045e-09,-1.33012e-09,-0.00789729,5
279045992,0.999947,0.0026006,0.00602542,0.00800468,-0.999969,-1.40045e-09,-1.33012e-09,-0.00789729,5
279096034,0.999945,-0.0010283,0.0062522,0.00830878,-0.999969,-1.40045e-09,-1.33012e-09,-0.00789729,5
279146076,0.999953,-0.00193494,0.00387558,0.00870316,-0.999969,-1.40045e-09,-1.33012e-09,-0.00789729,5
279196118,0.999964,-0.000390543,0.000347651,0.00844271,-0.999969,-1.40045e-09,-1.33012e-09,-0.00789729,5
279246160,0.999962,0.0020665,-0.00204589,0.0082278,-0.999969,-1.40045e-09,-1.33012e-09,-0.00789729,5
279296201,0.999953,0.00386353,-0.00301441,0.0083374,-0.999969,-1.40045e-09,-1.33012e-09,-0.00789729,5
279346243,0.999945,0.00433782,-0.00399591,0.00866794,-0.999969,-1.40045e-09,-1.33012e-09,-0.00789729,5
279396288,0.999947,0.00246341,-0.00393454,0.009149,-0.999969,-1.40045e-09,-1.33012e-09,-0.00789729,5
279446336,0.999952,0.000283463,-0.00193815,0.0095481,-0.999969,-1.40045e-09,-1.33012e-09,-0.00789729,5
279496369,0.999948,0.00170959,0.000980254,0.0100107,-0.999969,-1.40045e-09,-1.33012e-09,-0.00789729,5
279546410,0.999923,0.005406,0.00376047,0.0105099,-0.999969,-1.40045e-09,-1.33012e-09,-0.00789729,5
279596451,0.999895,0.0083508,0.00457443,0.0109045,-0.999969,-1.40045e-09,-1.33012e-09,-0.00789729,5
279646494,0.999869,0.0108386,0.00338681,0.0115051,-0.999969,-1.40045e-09,-1.33012e-09,-0.00789729,5
279696535,0.999829,0.0136502,0.0018684,0.0123642,-0.999969,-1.40045e-09,-1.33012e-09,-0.00789729,5
279746577,0.999814,0.014053,-0.000268036,0.0131792,-0.999969,-1.40045e-09,-1.33012e-09,-0.00789729,5
279796626,0.999817,0.0133804,-0.00144097,0.0136156,-0.999969,-1.40045e-09,-1.33012e-09,-0.00789729,5
279846661,0.999824,0.0123121,-0.000789765,0.0141551,-0.999969,-1.40045e-09,-1.33012e-09,-0.00789729,5
279896703,0.999824,0.0119112,0.00118534,0.0144447,-0.999969,-1.40045e-09,-1.33012e-09,-0.00789729,5
279946744,0.999803,0.0131227,0.0028929,0.0145836,-0.999969,-1.40045e-09,-1.33012e-09,-0.00789729,5
279996786,0.999797,0.0137216,0.00229241,0.0145598,-0.999969,-1.40045e-09,-1.33012e-09,-0.00789729,5
280046828,0.999803,0.0138258,0.00225168,0.0140734,-0.999969,-1.40045e-09,-1.33012e-09,-0.00789729,5
280096870,0.999831,0.012367,0.000624971,0.0135545,-0.999969,-1.40045e-09,-1.33012e-09,-0.00789729,5
280146911,0.999863,0.0102523,-0.000658358,0.0129487,-0.999969,-1.40045e-09,-1.33012e-09,-0.00789729,5
280196953,0.999896,0.00751278,-0.00039141,0.0123133,-0.999969,-1.40045e-09,-1.33012e-09,-0.00789729,5
280246995,0.999918,0.00538399,0.000793397,0.0115607,-0.999969,-1.40045e-09,-1.33012e-09,-0.00789729,5
280297037,0.999923,0.00597337,0.00272463,0.0105092,-0.999969,-1.40045e-09,-1.33012e-09,-0.00789729,5
280347079,0.999916,0.00718795,0.0055701,0.00918688,-0.999969,-1.40045e-09,-1.33012e-09,-0.00789729,5
280397120,0.999906,0.00810877,0.00816449,0.00743015,-0.999969,-1.40045e-09,-1.33012e-09,-0.00789729,5
280447162,0.999914,0.00837018,0.00835274,0.00576072,-0.999969,-1.40045e-09,-1.33012e-09,-0.00789729,5
280497221,0.999947,0.00721943,0.00620598,0.00399482,-0.999969,-1.40045e-09,-1.33012e-09,-0.00789729,5
280547255,0.999958,0.00738946,0.00507267,0.00185175,-0.999969,-1.40045e-09,-1.33012e-09,-0.00789729,5
280597295,0.99995,0.00837772,0.00543441,-0.000139579,-0.999969,-1.40045e-09,-1.33012e-09,-0.00789729,5
280647340,0.999923,0.00822639,0.00891474,-0.00250399,-0.999969,-1.40045e-09,-1.33012e-09,-0.00789729,5
280697371,0.999877,0.00787438,0.012826,-0.00443892,-0.999969,-1.40045e-09,-1.33012e-09,-0.00789729,5
280747418,0.999825,0.00446175,0.0168558,-0.00679075,-0.999969,-1.40045e-09,-1.33012e-09,-0.00789729,5
280797455,0.999716,0.000349607,0.0223399,-0.00833918,-0.999969,-1.40045e-09,-1.33012e-09,-0.00789729,5
280847504,0.999623,-0.00465336,0.0254876,-0.00913757,-0.999969,-1.40045e-09,-1.33012e-09,-0.00789729,5
280897538,0.99968,-0.000700123,0.023286,-0.00986571,-0.999969,-1.40045e-09,-1.33012e-09,-0.00789729,5
280947580,0.999724,0.00957066,0.0188615,-0.0102546,-0.999969,-1.40045e-09,-1.33012e-09,-0.00789729,5
280997622,0.999775,0.0111557,0.0150991,-0.00990842,-0.999969,-1.40045e-09,-1.33012e-09,-0.00789729,5
