timestamp,roll,pitch,yaw,thrust_body[0],thrust_body[1],thrust_body[2]
251544230,-0.123607,0.217002,-0.0026097,0.0,0.0,-0.0327273
251549260,-0.124742,0.211131,-0.00344115,0.0,0.0,-0.0327273
251569244,-0.134546,0.232864,-0.00262517,0.0,0.0,-0.0315152
251584274,-0.126118,0.204687,-0.00345459,0.0,0.0,-0.0315152
251609293,-0.120655,0.218355,-0.00307316,0.0,0.0,-0.0327273
251629360,-0.147432,0.225124,-0.000663115,0.0,0.0,-0.0327273
251649330,-0.130964,0.202662,-0.00419663,0.0,0.0,-0.0315152
251669358,-0.120379,0.22905,6.67976e-05,0.0,0.0,-0.106473
251689377,-0.151637,0.221869,0.000238158,0.0,0.0,-0.107491
251709387,-0.143848,0.204322,-0.00304621,0.0,0.0,-0.106473
251724384,-0.142281,0.235278,0.00187732,0.0,0.0,-0.106473
251749417,-0.14753,0.227513,0.00110099,0.0,0.0,-0.107491
251769418,-0.136583,0.211516,-0.00329851,0.0,0.0,-0.107491
251789449,-0.123424,0.223722,0.000431853,0.0,0.0,-0.106473
251809458,-0.13915,0.231649,0.00255237,0.0,0.0,-0.107491
251829479,-0.134503,0.222968,-0.00272203,0.0,0.0,-0.107491
251849488,-0.133725,0.222411,-0.00242865,0.0,0.0,-0.107491
251864493,-0.126511,0.215422,0.000261812,0.0,0.0,-0.106473
251889515,-0.128,0.213936,-0.00106812,0.0,0.0,-0.106473
251909535,-0.122844,0.218142,-0.000575361,0.0,0.0,-0.107491
251929542,-0.124567,0.212773,-0.00226912,0.0,0.0,-0.107491
251949590,-0.125756,0.211363,-0.00373728,0.0,0.0,-0.106473
251969573,-0.129676,0.21178,-0.00509286,0.0,0.0,-0.106473
251989599,-0.130184,0.209515,-0.00598822,0.0,0.0,-0.106473
252004676,-0.10313,0.208401,-0.00327591,0.0,0.0,-0.106473
252029630,-0.133467,0.216884,-0.00482669,0.0,0.0,-0.106473
252049635,-0.123696,0.21592,-0.00447787,0.0,0.0,-0.107491
252069660,-0.126572,0.213182,-0.00445908,0.0,0.0,-0.107491
252084735,-0.109371,0.206465,-0.00765695,0.0,0.0,-0.107491
252109699,-0.121771,0.213378,-0.00606337,0.0,0.0,-0.106473
252129760,-0.119349,0.213046,-0.00731602,0.0,0.0,-0.107491
252144705,-0.135,0.205281,-0.0105465,0.0,0.0,-0.106473
252169794,-0.125588,0.209131,-0.00800882,0.0,0.0,-0.106473
252189766,-0.128253,0.209243,-0.006829,0.0,0.0,-0.107491
252209780,-0.140013,0.205955,-0.00522674,0.0,0.0,-0.106473
252224770,-0.150389,0.192117,-0.00451215,0.0,0.0,-0.107491
252249816,-0.160312,0.209438,-0.00533763,0.0,0.0,-0.106473
252269830,-0.159088,0.21112,-0.00574431,0.0,0.0,-0.106473
252284833,-0.141912,0.194598,-0.00980422,0.0,0.0,-0.106473
252309932,-0.160803,0.212135,-0.00782817,0.0,0.0,-0.107491
252329938,-0.14464,0.210362,-0.00890463,0.0,0.0,-0.107491
252349899,-0.130056,0.204793,-0.00901612,0.0,0.0,-0.106473
252364913,-0.139735,0.217886,-0.0143374,0.0,0.0,-0.106473
252389985,-0.0784616,0.186275,-0.011267,0.0,0.0,-0.107491
252409981,-0.0649914,0.183378,-0.011701,0.0,0.0,-0.107491
252424949,-0.0759581,0.192831,-0.0169611,0.0,0.0,-0.106473
252450038,-0.0588249,0.199751,-0.0175051,0.0,0.0,-0.106473
252469979,-0.062179,0.211917,-0.020095,0.0,0.0,-0.107491
252490023,-0.0623403,0.218429,-0.0231655,0.0,0.0,-0.107491
252505067,-0.0561956,0.217962,-0.0267964,0.0,0.0,-0.107491
252530042,-0.0502203,0.216978,-0.0269176,0.0,0.0,-0.106473
252550055,-0.0390612,0.206859,-0.0283411,0.0,0.0,-0.106473
252565064,-0.0557085,0.202188,-0.0314437,0.0,0.0,-0.107491
252590105,-0.00983311,0.173826,-0.0302406,0.0,0.0,-0.107491
252610116,-0.00748623,0.166709,-0.0308106,0.0,0.0,-0.107491
252630111,-0.00937359,0.164801,-0.030686,0.0,0.0,-0.106473
252645131,-0.00802591,0.160513,-0.0345865,0.0,0.0,-0.106473
252670145,-0.0206359,0.189866,-0.0316184,0.0,0.0,-0.106473
252690174,-0.0208405,0.202623,-0.0324743,0.0,0.0,-0.107491
252705190,-0.0202401,0.200839,-0.0348821,0.0,0.0,-0.107491
252725197,-0.0257768,0.20716,-0.0355281,0.0,0.0,-0.106473
252750210,-4.87468e-05,0.195243,-0.0347224,0.0,0.0,-0.106473
252770251,-3.72241e-05,0.180212,-0.0351229,0.0,0.0,-0.107491
252785262,-0.0178203,0.16981,-0.0373673,0.0,0.0,-0.107491
252810285,-0.0268867,0.170179,-0.0351117,0.0,0.0,-0.107491
252830335,-0.0599963,0.176025,-0.0343939,0.0,0.0,-0.106473
252845322,-0.0522783,0.163611,-0.0379801,0.0,0.0,-0.106473
252865358,-0.0735076,0.178748,-0.0373829,0.0,0.0,-0.106473
252890354,-0.0779223,0.203536,-0.034721,0.0,0.0,-0.107491
252910468,-0.074192,0.200987,-0.0341978,0.0,0.0,-0.107491
252925378,-0.0978644,0.190968,-0.0346907,0.0,0.0,-0.107491
252950451,-0.0832813,0.186212,-0.0336648,0.0,0.0,-0.106473
252970414,-0.090522,0.180869,-0.0339068,0.0,0.0,-0.106473
252985433,-0.0856378,0.151438,-0.0360045,0.0,0.0,-0.107491
253005428,-0.0919356,0.154315,-0.0372714,0.0,0.0,-0.107491
253030499,-0.110608,0.17093,-0.0326266,0.0,0.0,-0.106473
253050484,-0.0998906,0.170841,-0.0313227,0.0,0.0,-0.106473
253065500,-0.114172,0.169676,-0.0345038,0.0,0.0,-0.106473
253090524,-0.120984,0.175169,-0.0304261,0.0,0.0,-0.107491
253110534,-0.108882,0.181837,-0.0314251,0.0,0.0,-0.107491
253125611,-0.0507289,0.177776,-0.0334224,0.0,0.0,-0.107491
253145556,-0.0240309,0.177029,-0.036437,0.0,0.0,-0.106473
253170627,-0.0273467,0.18851,-0.0370479,0.0,0.0,-0.106473
253190610,-0.0156203,0.176879,-0.037021,0.0,0.0,-0.107491
253205689,-0.00690256,0.172794,-0.0405352,0.0,0.0,-0.107491
253230637,0.00427958,0.151777,-0.0347162,0.0,0.0,-0.106473
253250697,0.0176829,0.144748,-0.0344783,0.0,0.0,-0.106473
253265749,0.00518703,0.157718,-0.0364988,0.0,0.0,-0.107491
253285767,0.0185492,0.158162,-0.0351102,0.0,0.0,-0.107491
253310691,0.0591701,0.16211,-0.0349269,0.0,0.0,-0.107491
253330690,0.0548329,0.178356,-0.0361957,0.0,0.0,-0.107491
253345711,0.0571979,0.181325,-0.0380068,0.0,0.0,-0.107491
253365727,0.0472264,0.194992,-0.0395441,0.0,0.0,-0.107491
253390754,0.0058869,0.209138,-0.0383735,0.0,0.0,-0.106473
253405760,-0.00380803,0.210633,-0.0420651,0.0,0.0,-0.106473
253425769,-0.0244477,0.21046,-0.0430241,0.0,0.0,-0.106473
253450803,-0.0216741,0.179866,-0.0369345,0.0,0.0,-0.107491
253470819,-0.0184069,0.17227,-0.0374417,0.0,0.0,-0.107491
253485837,-0.0554983,0.175353,-0.0371854,0.0,0.0,-0.107491
253505831,-0.0611638,0.165399,-0.0365787,0.0,0.0,-0.107491
253530865,-0.074859,0.180061,-0.0359224,0.0,0.0,-0.106473
253545877,-0.0742358,0.172501,-0.0377202,0.0,0.0,-0.106473
253565907,-0.0989471,0.188147,-0.0379368,0.0,0.0,-0.106473
253590944,-0.125311,0.200963,-0.0348814,0.0,0.0,-0.107491
253610923,-0.129692,0.195476,-0.0344331,0.0,0.0,-0.107491
253625944,-0.149897,0.206097,-0.0381584,0.0,0.0,-0.107491
253645974,-0.151085,0.189162,-0.0370064,0.0,0.0,-0.107491
253670986,-0.114576,0.157038,-0.0329172,0.0,0.0,-0.106473
253685996,-0.130043,0.155029,-0.0357293,0.0,0.0,-0.106473
253705996,-0.121681,0.156513,-0.0352332,0.0,0.0,-0.107491
253731047,-0.135617,0.194585,-0.0333512,0.0,0.0,-0.107491
253746030,-0.121362,0.190639,-0.0351003,0.0,0.0,-0.106473
253766072,-0.125504,0.208214,-0.0357887,0.0,0.0,-0.106473
253786063,-0.128517,0.218516,-0.0373327,0.0,0.0,-0.107491
253811159,-0.108108,0.208925,-0.034367,0.0,0.0,-0.107491
253826099,-0.126615,0.201936,-0.0379168,0.0,0.0,-0.107491
253846126,-0.117378,0.181729,-0.0379193,0.0,0.0,-0.106473
253871157,-0.0874474,0.175859,-0.0344955,0.0,0.0,-0.107491
253891181,-0.0872885,0.177059,-0.0349148,0.0,0.0,-0.107491
253906191,-0.0797612,0.158825,-0.0382039,0.0,0.0,-0.107491
253926202,-0.0804386,0.172811,-0.0389247,0.0,0.0,-0.106473
253951317,-0.0961981,0.212999,-0.0376289,0.0,0.0,-0.106473
253966227,-0.0940686,0.206837,-0.0390722,0.0,0.0,-0.107491
253986354,-0.0802905,0.214529,-0.038876,0.0,0.0,-0.106473
254006261,-0.0947678,0.208977,-0.0381956,0.0,0.0,-0.106473
254031336,-0.0527148,0.193418,-0.0376568,0.0,0.0,-0.106473
254046308,-0.0476455,0.171736,-0.0401304,0.0,0.0,-0.107491
254066324,-0.0378625,0.15874,-0.0406375,0.0,0.0,-0.103418
254091445,-0.0592864,0.179874,-0.0370927,0.0,0.0,-0.106473
254106375,-0.0458417,0.15779,-0.0406045,0.0,0.0,-0.107491
254126383,-0.0431226,0.168804,-0.040774,0.0,0.0,-0.107491
254146396,-0.0549727,0.179849,-0.0404285,0.0,0.0,-0.106473
254171414,-0.0305493,0.202237,-0.0392839,0.0,0.0,-0.106473
254186421,-0.0520295,0.192763,-0.0399773,0.0,0.0,-0.106473
254206423,-0.0311354,0.19057,-0.039865,0.0,0.0,-0.107491
254231459,-0.0283394,0.202334,-0.0391773,0.0,0.0,-0.107491
254246504,-0.0301429,0.177003,-0.0408302,0.0,0.0,-0.106473
254266513,-0.0377925,0.174516,-0.0429657,0.0,0.0,-0.106473
254286488,-0.0532819,0.173668,-0.0445916,0.0,0.0,-0.106473
254311514,-0.0364819,0.167015,-0.0401325,0.0,0.0,-0.107491
254326528,-0.061606,0.166053,-0.0434554,0.0,0.0,-0.106473
254346549,-0.0470138,0.160044,-0.0417307,0.0,0.0,-0.106473
254371592,0.00147671,0.157252,-0.0404432,0.0,0.0,-0.107491
254386587,-0.0130006,0.156852,-0.0408499,0.0,0.0,-0.107491
254406596,0.00253684,0.163727,-0.0424849,0.0,0.0,-0.107491
254426627,0.0154124,0.175168,-0.0442443,0.0,0.0,-0.118691
254451645,-0.0129911,0.184502,-0.0408725,0.0,0.0,-0.122764
254466647,-0.0121661,0.184772,-0.0449447,0.0,0.0,-0.120727
254486667,-0.0261212,0.183518,-0.0444254,0.0,0.0,-0.121745
254511732,0.00976886,0.155747,-0.0394918,0.0,0.0,-0.122764
254526678,-0.0278885,0.164208,-0.0397909,0.0,0.0,-0.122764
254546727,-0.0209587,0.15424,-0.0394536,0.0,0.0,-0.122764
254566755,-0.0080423,0.151957,-0.0405031,0.0,0.0,-0.122764
254591798,-0.0352951,0.182621,-0.0393857,0.0,0.0,-0.122764
254606758,-0.0405721,0.181807,-0.0419884,0.0,0.0,-0.122764
254626795,-0.0549575,0.189217,-0.042232,0.0,0.0,-0.134982
254646822,-0.0527012,0.181364,-0.0415285,0.0,0.0,-0.134982
254666814,-0.0376134,0.16136,-0.0404035,0.0,0.0,-0.146182
254686832,-0.0330773,0.150642,-0.0398242,0.0,0.0,-0.148218
254706840,-0.042471,0.149709,-0.0399686,0.0,0.0,-0.148218
254731890,-0.0884008,0.18538,-0.0379254,0.0,0.0,-0.148218
254746889,-0.0889986,0.171617,-0.0382311,0.0,0.0,-0.148218
254766985,-0.0904745,0.174323,-0.0374252,0.0,0.0,-0.150255
254786917,-0.0935391,0.175802,-0.0371786,0.0,0.0,-0.149236
254806988,-0.0930671,0.189632,-0.0372906,0.0,0.0,-0.149236
254826940,-0.109199,0.207313,-0.0358962,0.0,0.0,-0.150255
254846989,-0.145613,0.198329,-0.033952,0.0,0.0,-0.149236
254871998,-0.115567,0.151555,-0.0342116,0.0,0.0,-0.151273
254887035,-0.108573,0.143134,-0.0340349,0.0,0.0,-0.153309
254907047,-0.11153,0.161764,-0.0343078,0.0,0.0,-0.161455
254927106,-0.138588,0.18407,-0.0342487,0.0,0.0,-0.166545
254947091,-0.135621,0.180742,-0.036459,0.0,0.0,-0.1808
254967112,-0.0988245,0.18396,-0.0397259,0.0,0.0,-0.187927
254987066,-0.0933918,0.20399,-0.0410231,0.0,0.0,-0.187927
255012106,-0.0985997,0.140598,-0.03951,0.0,0.0,-0.202182
255027099,-0.0992174,0.125026,-0.0391559,0.0,0.0,-0.202182
255047138,-0.0920855,0.131123,-0.039612,0.0,0.0,-0.206255
255067126,-0.11416,0.137331,-0.0382868,0.0,0.0,-0.206255
255087156,-0.0953907,0.114973,-0.040155,0.0,0.0,-0.206255
255107159,-0.0709722,0.128006,-0.0424525,0.0,0.0,-0.208291
255127196,-0.0805366,0.114506,-0.0436548,0.0,0.0,-0.209309
255152231,-0.0784272,0.143281,-0.045501,0.0,0.0,-0.208291
255167246,-0.0739214,0.139124,-0.0470232,0.0,0.0,-0.213382
255187241,-0.0637417,0.0951634,-0.0490844,0.0,0.0,-0.217455
255207275,-0.0286527,0.109202,-0.0526932,0.0,0.0,-0.229673
255227272,-0.0277899,0.0962616,-0.0561931,0.0,0.0,-0.240873
255247321,-0.00617951,0.0974638,-0.0570665,0.0,0.0,-0.240873
255267327,0.00232885,0.0765588,-0.0557644,0.0,0.0,-0.244945
255287342,0.0437187,0.0490473,-0.0577008,0.0,0.0,-0.246982
255307394,0.0525429,0.0695432,-0.0591649,0.0,0.0,-0.246982
255327384,0.0585851,0.045666,-0.0575221,0.0,0.0,-0.256145
255347428,0.0765551,0.0316674,-0.0533488,0.0,0.0,-0.2592
255367427,0.08943,0.00986619,-0.0526908,0.0,0.0,-0.265309
255387473,0.0870492,0.00463634,-0.050868,0.0,0.0,-0.266327
255407446,0.0908406,-0.022406,-0.0475587,0.0,0.0,-0.2704
255427455,0.100654,-0.0458897,-0.0466312,0.0,0.0,-0.273455
255447480,0.0906218,-0.0446431,-0.0451338,0.0,0.0,-0.273455
255467606,0.0809265,-0.0664189,-0.0412861,0.0,0.0,-0.273455
255487506,0.0728786,-0.0729892,-0.0389987,0.0,0.0,-0.274473
255507582,0.0727267,-0.0760272,-0.0386735,0.0,0.0,-0.274473
255527539,0.0556063,-0.0763493,-0.0343974,0.0,0.0,-0.274473
255547566,0.0782182,-0.0966849,-0.0355622,0.0,0.0,-0.273455
255567572,0.0758485,-0.0722428,-0.0374259,0.0,0.0,-0.273455
255587611,0.0711591,-0.0743359,-0.0393053,0.0,0.0,-0.273455
255607603,0.069126,-0.078586,-0.0386518,0.0,0.0,-0.273455
255627641,0.0729535,-0.0719407,-0.0411864,0.0,0.0,-0.273455
255647687,0.0554698,-0.0611957,-0.0398558,0.0,0.0,-0.275491
255667668,0.0682567,-0.0801475,-0.0414348,0.0,0.0,-0.275491
255687665,0.075229,-0.0658829,-0.0434227,0.0,0.0,-0.275491
255707676,0.0656057,-0.0505058,-0.0462278,0.0,0.0,-0.275491
255727733,0.0798527,-0.0622345,-0.0481202,0.0,0.0,-0.276509
255747708,0.08158,-0.0517371,-0.0524592,0.0,0.0,-0.298909
255767706,0.0780362,-0.0437292,-0.0526859,0.0,0.0,-0.310109
255787744,0.0851968,-0.0499717,-0.05358,0.0,0.0,-0.313164
255807743,0.0981548,-0.0539351,-0.0565102,0.0,0.0,-0.313164
255827780,0.0878147,-0.0312916,-0.0592565,0.0,0.0,-0.328436
255847773,0.0905139,-0.0579314,-0.0619223,0.0,0.0,-0.328436
255867802,0.0922252,-0.058342,-0.0653866,0.0,0.0,-0.328436
255887806,0.205227,-0.0629812,-0.0653731,0.0,0.0,-0.331491
255907847,0.0891554,-0.0815222,-0.0663967,0.0,0.0,-0.331491
255927839,0.08047,-0.0798778,-0.0674691,0.0,0.0,-0.331491
255947869,0.0619375,-0.104619,-0.0672458,0.0,0.0,-0.332509
255967888,0.0534118,-0.0978338,-0.0712198,0.0,0.0,-0.332509
255987957,0.0429123,-0.102547,-0.0728387,0.0,0.0,-0.331491
256007906,0.0260474,-0.107051,-0.0746864,0.0,0.0,-0.332509
256027939,0.0107654,-0.10453,-0.0785446,0.0,0.0,-0.331491
256047953,0.0208889,-0.102651,-0.0795907,0.0,0.0,-0.331491
256068025,0.0046595,-0.100616,-0.0837447,0.0,0.0,-0.331491
256088028,0.000641454,-0.094611,-0.0836092,0.0,0.0,-0.329455
256108002,-0.00598313,-0.108574,-0.0873192,0.0,0.0,-0.330473
256128050,0.0010636,-0.0778683,-0.0903003,0.0,0.0,-0.327418
256148041,-0.00523029,-0.0938508,-0.0893169,0.0,0.0,-0.324364
256168051,0.0017652,-0.0837842,-0.0925887,0.0,0.0,-0.323345
256188080,0.00105954,-0.0831746,-0.0935961,0.0,0.0,-0.323345
256208085,0.00455589,-0.0889065,-0.0948411,0.0,0.0,-0.323345
256228109,0.00249452,-0.0757403,-0.096743,0.0,0.0,-0.323345
256248191,0.0106153,-0.0830939,-0.0954039,0.0,0.0,-0.324364
256268147,0.010792,-0.0720317,-0.0978351,0.0,0.0,-0.324364
256288220,-0.000916905,-0.0542536,-0.0981152,0.0,0.0,-0.324364
256308176,-0.00579243,-0.0539961,-0.0961112,0.0,0.0,-0.325382
256328250,-0.0181877,-0.0366758,-0.0971582,0.0,0.0,-0.325382
256348202,-0.0238881,-0.0234802,-0.0951039,0.0,0.0,-0.325382
256368256,-0.0265162,-0.0249328,-0.0957516,0.0,0.0,-0.325382
256388238,-0.0356932,0.00242833,-0.0964514,0.0,0.0,-0.325382
256408273,-0.0278619,-0.0114322,-0.0968784,0.0,0.0,-0.3264
256428257,-0.0270315,-0.0159275,-0.0977882,0.0,0.0,-0.328436
256448321,-0.0253832,-0.0184655,-0.0985999,0.0,0.0,-0.328436
256468308,-0.0181332,-0.0391002,-0.0970271,0.0,0.0,-0.328436
256488344,-0.0110234,-0.0468655,-0.0995659,0.0,0.0,-0.328436
256508361,-0.0204192,-0.0467369,-0.0999278,0.0,0.0,-0.328436
256528385,-0.00666751,-0.054168,-0.101373,0.0,0.0,-0.330473
256548384,-0.00967224,-0.0686466,-0.102647,0.0,0.0,-0.330473
256568411,0.00511363,-0.0720784,-0.10173,0.0,0.0,-0.332509
256588542,0.0227006,-0.0911856,-0.102673,0.0,0.0,-0.332509
256608491,0.0293776,-0.0773896,-0.102852,0.0,0.0,-0.334545
256628447,0.0343658,-0.10574,-0.102807,0.0,0.0,-0.3376
256648476,0.0420627,-0.102368,-0.103383,0.0,0.0,-0.329455
256668466,0.0509811,-0.129802,-0.102228,0.0,0.0,-0.340655
256688504,0.0641316,-0.143431,-0.10149,0.0,0.0,-0.341673
256708504,0.0830567,-0.148251,-0.100014,0.0,0.0,-0.3488
256728525,0.0823752,-0.163523,-0.0971174,0.0,0.0,-0.351855
256748541,0.0849676,-0.168547,-0.0967549,0.0,0.0,-0.351855
256768572,0.0778125,-0.17461,-0.093249,0.0,0.0,-0.353891
256788561,0.0734601,-0.176691,-0.0934764,0.0,0.0,-0.353891
256808604,0.0475038,-0.167324,-0.088793,0.0,0.0,-0.353891
256828608,0.0313734,-0.168195,-0.0885193,0.0,0.0,-0.353891
256848663,0.00233968,-0.163431,-0.0860349,0.0,0.0,-0.354909
256868665,-0.0142776,-0.164687,-0.0835242,0.0,0.0,-0.356945
256888660,-0.0482068,-0.165189,-0.0832,0.0,0.0,-0.356945
256908698,-0.0650855,-0.16751,-0.0804183,0.0,0.0,-0.358982
256928684,-0.0681516,-0.154593,-0.0820353,0.0,0.0,-0.358982
256948701,-0.0879429,-0.150649,-0.0779163,0.0,0.0,-0.358982
256968723,-0.0920958,-0.135403,-0.078171,0.0,0.0,-0.36
256988756,-0.0954785,-0.109992,-0.0768158,0.0,0.0,-0.36
257008750,-0.0815314,-0.0933559,-0.0766325,0.0,0.0,-0.36
257028821,-0.089992,-0.0642099,-0.0766491,0.0,0.0,-0.36
257048795,-0.0783669,-0.0350707,-0.0739593,0.0,0.0,-0.36
257068856,-0.0817721,0.0147945,-0.0758715,0.0,0.0,-0.364073
257088845,-0.074891,0.0371548,-0.0728965,0.0,0.0,-0.364073
257108893,-0.048855,0.0671297,-0.0732233,0.0,0.0,-0.363055
257128861,-0.0391266,0.090329,-0.0732161,0.0,0.0,-0.367127
257148891,0.00266532,0.101554,-0.0724842,0.0,0.0,-0.366109
257168888,0.0229404,0.109677,-0.0730886,0.0,0.0,-0.370182
257188915,0.0485599,0.0803174,-0.0710804,0.0,0.0,-0.386473
257208904,0.0769384,0.0778215,-0.0712268,0.0,0.0,-0.388509
257228944,0.0908293,0.0429767,-0.0670649,0.0,0.0,-0.392582
257248937,0.103532,0.0258581,-0.0647866,0.0,0.0,-0.399709
257268967,0.0950783,-0.0159314,-0.0611746,0.0,0.0,-0.401745
257288996,0.0858155,-0.0537527,-0.0587288,0.0,0.0,-0.401745
257309001,0.0543082,-0.0987722,-0.0538862,0.0,0.0,-0.402764
257329017,0.0304506,-0.126422,-0.0527869,0.0,0.0,-0.402764
257349036,0.00968299,-0.134981,-0.0489548,0.0,0.0,-0.402764
257369078,-0.0161111,-0.131245,-0.0497783,0.0,0.0,-0.4048
257389067,-0.0344091,-0.124262,-0.0490595,0.0,0.0,-0.406836
257409069,-0.0283639,-0.106799,-0.0505633,0.0,0.0,-0.408873
257429109,-0.0252983,-0.114669,-0.0520288,0.0,0.0,-0.408873
257449103,-0.00729142,-0.0979398,-0.0506,0.0,0.0,-0.410909
257469136,0.00424033,-0.103636,-0.049246,0.0,0.0,-0.414982
257489137,0.00391505,-0.112333,-0.0466138,0.0,0.0,-0.429236
257509177,0.00606198,-0.10943,-0.043947,0.0,0.0,-0.429236
257529169,0.0129643,-0.104267,-0.0421315,0.0,0.0,-0.429236
257549216,0.0182686,-0.108475,-0.0407848,0.0,0.0,-0.433309
257569271,0.00969824,-0.104494,-0.0371024,0.0,0.0,-0.433309
257589244,0.00824841,-0.0942341,-0.0372089,0.0,0.0,-0.430255
257604255,-0.00462704,-0.0938683,-0.0341924,0.0,0.0,-0.434327
257629306,-0.0105147,-0.0797155,-0.0326737,0.0,0.0,-0.434327
257649297,-0.0123005,-0.0671025,-0.0330501,0.0,0.0,-0.434327
257669308,-0.0193324,-0.0474033,-0.0310631,0.0,0.0,-0.434327
257689389,0.0075758,-0.0244277,-0.0315394,0.0,0.0,-0.434327
257709345,0.0168896,-0.00918002,-0.0302362,0.0,0.0,-0.434327
257729368,0.0316253,0.0109097,-0.0304591,0.0,0.0,-0.434327
257744372,0.0370455,0.0138368,-0.030135,0.0,0.0,-0.434327
257769397,0.0483689,-1.29053e-05,-0.0309636,0.0,0.0,-0.437382
257789412,0.0416403,-0.0207405,-0.032681,0.0,0.0,-0.440436
257809491,0.0299803,-0.0509841,-0.0314292,0.0,0.0,-0.441455
257829451,0.0354541,-0.0654692,-0.0308201,0.0,0.0,-0.441455
257849517,0.0192594,-0.0773654,-0.031902,0.0,0.0,-0.441455
257869481,0.0229176,-0.0888723,-0.032556,0.0,0.0,-0.441455
257884493,0.003273,-0.0834088,-0.0325318,0.0,0.0,-0.441455
257909508,0.00265029,-0.0717847,-0.0334374,0.0,0.0,-0.441455
257929532,-0.0110283,-0.0616005,-0.0342104,0.0,0.0,-0.439418
257949545,-0.0199138,-0.0584525,-0.0347801,0.0,0.0,-0.436364
257969570,-0.022898,-0.0662453,-0.0325583,0.0,0.0,-0.436364
257989563,-0.0387668,-0.0684607,-0.0332589,0.0,0.0,-0.436364
258009597,-0.0486322,-0.0747071,-0.0313378,0.0,0.0,-0.437382
258024726,-0.0394284,-0.0692673,-0.0308551,0.0,0.0,-0.437382
258049637,-0.0371334,-0.0699683,-0.0279793,0.0,0.0,-0.437382
258069630,-0.0380429,-0.0740669,-0.0240023,0.0,0.0,-0.436364
258089658,-0.0236044,-0.0774047,-0.0222075,0.0,0.0,-0.435345
258109664,0.0077251,-0.0843212,-0.0187044,0.0,0.0,-0.434327
258129682,0.0396314,-0.0891244,-0.0161177,0.0,0.0,-0.436364
258149713,0.0639797,-0.0884155,-0.0156449,0.0,0.0,-0.442473
258164704,0.101129,-0.0828081,-0.0143495,0.0,0.0,-0.442473
258189731,0.132474,-0.070093,-0.0131705,0.0,0.0,-0.445527
258209749,0.119561,-0.0606291,-0.0201784,0.0,0.0,-0.445527
258229767,0.168509,-0.0464151,-0.108711,0.0,0.0,-0.445527
258244786,0.173727,-0.0365389,-0.113558,0.0,0.0,-0.445527
258269866,0.154863,-0.0269848,-0.151439,0.0,0.0,-0.445527
258289877,0.138481,-0.0229416,-0.261559,0.0,0.0,-0.447564
258304836,0.126945,-0.0318137,-0.281347,0.0,0.0,-0.447564
258329871,0.105183,-0.0547777,-0.38891,0.0,0.0,-0.446545
258349917,0.0758751,-0.0732019,-0.562127,0.0,0.0,-0.447564
258369882,0.0438414,-0.0890395,-0.604972,0.0,0.0,-0.447564
258384900,0.0132335,-0.105918,-0.685153,0.0,0.0,-0.447564
258409925,-0.0186602,-0.104852,-0.715297,0.0,0.0,-0.447564
258429930,-0.0484054,-0.115733,-0.646226,0.0,0.0,-0.447564
258444936,-0.0504754,-0.100481,-0.629511,0.0,0.0,-0.447564
258469986,-0.0506051,-0.109054,-0.631687,0.0,0.0,-0.447564
258489982,-0.0438686,-0.120868,-0.624135,0.0,0.0,-0.445527
258510046,-0.0331083,-0.118716,-0.526074,0.0,0.0,-0.443491
258525060,-0.0198163,-0.123745,-0.334696,0.0,0.0,-0.443491
258550090,0.00217167,-0.134733,-0.250483,0.0,0.0,-0.442473
258570048,0.0227473,-0.143506,-0.0729696,0.0,0.0,-0.442473
258585069,0.0423033,-0.138493,-0.0558317,0.0,0.0,-0.442473
258610094,0.0426304,-0.127865,-0.0305808,0.0,0.0,-0.435345
258630105,0.0421178,-0.104368,-0.0159629,0.0,0.0,-0.435345
258650115,0.0428059,-0.0852337,-0.00185888,0.0,0.0,-0.435345
258665137,0.0335045,-0.050059,0.0052202,0.0,0.0,-0.435345
258690140,0.0187386,-0.0210188,0.0186919,0.0,0.0,-0.435345
258710164,0.00102019,-0.00660198,0.0272804,0.0,0.0,-0.435345
258725287,-0.00757804,0.00522948,0.0343265,0.0,0.0,-0.434327
258750205,-0.0137977,0.0214055,0.0448581,0.0,0.0,-0.435345
258770202,-0.0316632,0.036993,0.0515955,0.0,0.0,-0.434327
258790243,-0.0137851,0.0393204,0.0583142,0.0,0.0,-0.434327
258805254,-0.0105711,0.0442316,0.0619382,0.0,0.0,-0.434327
258830277,-0.013743,0.0461688,0.0682661,0.0,0.0,-0.434327
258850284,-0.0291911,0.0354764,0.0733745,0.0,0.0,-0.434327
258865323,-0.0275044,-0.00375867,0.0759756,0.0,0.0,-0.434327
258885342,-0.0427634,-0.0444157,0.0809675,0.0,0.0,-0.435345
258910349,-0.0310052,-0.0999646,0.0835648,0.0,0.0,-0.435345
258930355,-0.0163015,-0.231539,0.0873894,0.0,0.0,-0.434327
258945377,-0.00204531,-0.223969,0.0870826,0.0,0.0,-0.434327
258970399,0.0256247,-0.292275,0.089155,0.0,0.0,-0.434327
258990411,0.0210263,-0.413096,0.0905893,0.0,0.0,-0.435345
259005454,0.0442717,-0.396123,0.0910481,0.0,0.0,-0.435345
259025441,0.0617613,-0.382008,0.0913179,0.0,0.0,-0.435345
259050454,0.0777144,-0.365139,0.0926417,0.0,0.0,-0.435345
259070475,0.0692293,-0.317587,0.0930585,0.0,0.0,-0.435345
259085549,0.0593741,-0.278124,0.0939603,0.0,0.0,-0.434327
259110518,0.0423934,-0.20731,0.0951426,0.0,0.0,-0.435345
259130566,0.115005,-0.148135,0.0945921,0.0,0.0,-0.434327
259145602,0.282306,-0.0813845,0.0923179,0.0,0.0,-0.435345
259165558,0.334755,-0.0423074,0.0913347,0.0,0.0,-0.434327
259190605,0.4834,-0.00312798,0.0878038,0.0,0.0,-0.435345
259210589,0.560921,-0.0874923,0.0871315,0.0,0.0,-0.435345
259225598,0.679398,-0.0965324,0.0834572,0.0,0.0,-0.435345
259250671,0.631449,-0.100544,0.0822681,0.0,0.0,-0.434327
259270633,0.686088,-0.104154,0.0800482,0.0,0.0,-0.434327
259285660,0.696633,-0.0869419,0.0777115,0.0,0.0,-0.435345
259305704,0.609431,-0.0729593,0.0784559,0.0,0.0,-0.434327
259330706,0.508672,-0.0259945,0.0759648,0.0,0.0,-0.434327
259350699,0.401366,-0.00323696,0.0749599,0.0,0.0,-0.435345
259365725,0.314058,0.0246337,0.0736336,0.0,0.0,-0.435345
259385739,0.210729,0.140881,0.0689282,0.0,0.0,-0.434327
259410756,0.120177,0.165933,0.0656931,0.0,0.0,-0.434327
259425818,0.0628888,0.160712,0.0625644,0.0,0.0,-0.434327
259445796,-0.00587059,0.139934,0.060854,0.0,0.0,-0.434327
259470806,-0.0440959,0.0807787,0.0571612,0.0,0.0,-0.434327
259490818,-0.0630901,0.0254881,0.053592,0.0,0.0,-0.434327
259505851,-0.0534552,-0.00643046,0.0525343,0.0,0.0,-0.434327
259525857,-0.0557412,-0.0519249,0.0493408,0.0,0.0,-0.434327
259550853,-0.157604,-0.108442,0.0471969,0.0,0.0,-0.434327
259565888,-0.129366,-0.132256,0.0449311,0.0,0.0,-0.434327
259585908,-0.189269,-0.126161,0.0394711,0.0,0.0,-0.434327
259610938,-0.302847,-0.0649772,0.0342253,0.0,0.0,-0.434327
259630919,-0.320351,-0.0946122,0.0326625,0.0,0.0,-0.434327
259645971,-0.264125,-0.0999293,0.029773,0.0,0.0,-0.434327
259665984,-0.253885,-0.0918543,0.0255458,0.0,0.0,-0.434327
259690991,-0.482759,0.0407602,0.024193,0.0,0.0,-0.434327
259706011,-0.431996,0.0468207,0.0222174,0.0,0.0,-0.434327
259726013,-0.499267,0.121091,0.0213719,0.0,0.0,-0.434327
259751033,-0.426725,0.144848,0.0201714,0.0,0.0,-0.434327
259771049,-0.379381,0.134679,0.0209016,0.0,0.0,-0.435345
259786087,-0.32199,0.117508,0.020119,0.0,0.0,-0.435345
259806075,-0.260289,0.0964749,0.0215414,0.0,0.0,-0.434327
259831096,-0.174349,0.0863657,0.0223147,0.0,0.0,-0.436364
259846117,-0.137367,0.090987,0.0222777,0.0,0.0,-0.437382
259866133,-0.0921495,0.0681387,0.0241333,0.0,0.0,-0.437382
259886147,-0.0718808,0.0564747,0.0256492,0.0,0.0,-0.441455
259911282,-0.0628323,0.000898223,0.0273675,0.0,0.0,-0.441455
259926191,-0.0426766,-0.0301774,0.0301528,0.0,0.0,-0.445527
259946198,-0.0558908,-0.0670306,0.0317157,0.0,0.0,-0.462836
259971226,-0.0524839,-0.10641,0.034989,0.0,0.0,-0.475055
259986234,-0.053371,-0.117539,0.0364248,0.0,0.0,-0.478109
260006286,-0.0447906,-0.127634,0.0366962,0.0,0.0,-0.480145
260026273,-0.0442235,-0.116836,0.0371804,0.0,0.0,-0.480145
260051350,-0.0303874,-0.096427,0.0377861,0.0,0.0,-0.480145
260066311,-0.0304686,-0.0748637,0.0365503,0.0,0.0,-0.480145
260086367,-0.0441406,-0.0543839,0.0365241,0.0,0.0,-0.482182
260111354,-0.0371186,-0.0237004,0.0334392,0.0,0.0,-0.486255
260126367,-0.0180036,-0.0091432,0.0319717,0.0,0.0,-0.486255
260146396,-0.0285837,-0.00226229,0.0308793,0.0,0.0,-0.486255
260166398,-0.0526179,-0.0123841,0.0311783,0.0,0.0,-0.486255
260191420,-0.0396288,-0.00921237,0.0267998,0.0,0.0,-0.485236
260206489,-0.0254641,-0.0213878,0.0267233,0.0,0.0,-0.485236
260226445,-0.0139816,-0.0246702,0.0233271,0.0,0.0,-0.486255
260251471,-0.0271186,-0.042215,0.0229882,0.0,0.0,-0.484218
260266478,-0.0451158,-0.053028,0.0211755,0.0,0.0,-0.484218
260286501,-0.0394485,-0.0585152,0.0203815,0.0,0.0,-0.484218
260306512,-0.0110451,-0.0583234,0.0172135,0.0,0.0,-0.4832
260331511,-0.0187559,-0.061239,0.0163426,0.0,0.0,-0.482182
260346540,-0.00748258,-0.0492437,0.0137659,0.0,0.0,-0.482182
260366564,-0.0216662,-0.0588406,0.0143751,0.0,0.0,-0.4832
260391592,-0.0132532,-0.0447888,0.0121191,0.0,0.0,-0.482182
260406601,-0.00611615,-0.0475002,0.0120371,0.0,0.0,-0.482182
260426611,-0.0132472,-0.0435401,0.0105511,0.0,0.0,-0.4832
260446639,-0.00812623,-0.0554684,0.0101991,0.0,0.0,-0.482182
260471638,-0.0181274,-0.0597853,0.00809823,0.0,0.0,-0.4832
260486655,-0.0218062,-0.0694899,0.00853726,0.0,0.0,-0.481164
260506666,-0.0337123,-0.0604377,0.00529501,0.0,0.0,-0.481164
260526685,-0.0379051,-0.0545659,0.00350317,0.0,0.0,-0.481164
260546685,-0.0419745,-0.0543412,0.00327569,0.0,0.0,-0.481164
260566725,-0.0373024,-0.0520901,0.0015725,0.0,0.0,-0.481164
260586718,-0.0284455,-0.0448724,-0.000911876,0.0,0.0,-0.481164
260611790,0.000929157,-0.0454433,-0.00209747,0.0,0.0,-0.481164
260626796,0.00382929,-0.0467967,-0.00434635,0.0,0.0,-0.481164
260646794,0.0154791,-0.0547644,-0.00482753,0.0,0.0,-0.481164
260666786,0.0102797,-0.0612168,-0.00502621,0.0,0.0,-0.481164
260686820,0.031326,-0.06533,-0.00596673,0.0,0.0,-0.481164
260706839,0.0395667,-0.0661589,-0.00734473,0.0,0.0,-0.479127
260726943,0.0419227,-0.0626549,-0.00802532,0.0,0.0,-0.479127
260751883,0.0339891,-0.0645021,-0.00747612,0.0,0.0,-0.479127
260766948,0.0213933,-0.0728374,-0.00692495,0.0,0.0,-0.480145
260786900,0.024844,-0.0630894,-0.00730003,0.0,0.0,-0.480145
260806917,0.0258196,-0.0486235,-0.00849383,0.0,0.0,-0.482182
260826969,0.0141929,-0.048707,-0.00778901,0.0,0.0,-0.482182
260846948,0.00788198,-0.0581998,-0.00528101,0.0,0.0,-0.482182
260867003,0.0230248,-0.0544977,-0.00420969,0.0,0.0,-0.482182
260892020,0.156099,-0.0560405,-0.00212929,0.0,0.0,-0.482182
260907018,0.166905,-0.0537285,-0.00269388,0.0,0.0,-0.482182
260927032,0.162494,-0.0639224,0.000135781,0.0,0.0,-0.481164
260947044,0.17481,-0.0651309,0.00157604,0.0,0.0,-0.482182
260967105,0.172002,-0.0579207,0.00196735,0.0,0.0,-0.482182
260987112,0.18333,-0.0482832,0.00262708,0.0,0.0,-0.481164
261007084,0.285648,-0.0383259,0.00292327,0.0,0.0,-0.482182
261032103,0.308528,-0.0327064,0.00458916,0.0,0.0,-0.481164
261047125,0.310151,-0.0298406,0.0046778,0.0,0.0,-0.482182
261067145,0.305577,-0.0365376,0.00605592,0.0,0.0,-0.481164
261087149,0.38541,-0.0364879,0.00636379,0.0,0.0,-0.481164
261107192,0.401308,-0.0284665,0.00620348,0.0,0.0,-0.481164
261127183,0.336932,-0.0282897,0.00692636,0.0,0.0,-0.481164
261147222,0.363953,-0.02675,0.00809551,0.0,0.0,-0.480145
261167203,0.347934,-0.0243542,0.00832001,0.0,0.0,-0.480145
261187251,0.377102,-0.0246657,0.00847645,0.0,0.0,-0.480145
261207262,0.351428,-0.0266814,0.00980908,0.0,0.0,-0.480145
261227335,0.280198,-0.0265041,0.0103219,0.0,0.0,-0.480145
261247299,0.247668,-0.0222897,0.00984725,0.0,0.0,-0.480145
261267335,0.124412,-0.0166788,0.00968006,0.0,0.0,-0.480145
261287337,0.105923,-0.0173964,0.010029,0.0,0.0,-0.480145
261307358,-0.0573153,-0.0181319,0.0110663,0.0,0.0,-0.480145
261327358,-0.0609967,-0.0139481,0.0110249,0.0,0.0,-0.480145
261347393,-0.0950232,1.61483e-05,0.0095907,0.0,0.0,-0.480145
261367397,-0.0954323,0.00533771,0.00893781,0.0,0.0,-0.480145
261387425,-0.128549,0.000370494,0.0100085,0.0,0.0,-0.480145
261407451,-0.373259,-0.00173782,0.0108882,0.0,0.0,-0.480145
261427457,-0.338546,0.00209401,0.00995743,0.0,0.0,-0.480145
261447459,-0.325784,0.00321655,0.0100009,0.0,0.0,-0.480145
261467483,-0.362519,-0.000837482,0.0110218,0.0,0.0,-0.480145
261487539,-0.34187,-0.0125548,0.0126486,0.0,0.0,-0.480145
261507523,-0.295172,-0.0150302,0.0128708,0.0,0.0,-0.479127
261527565,-0.23733,-0.0109795,0.0119349,0.0,0.0,-0.478109
261547552,-0.179901,-0.00453319,0.0122051,0.0,0.0,-0.478109
261567619,-0.154676,-0.00534601,0.0124424,0.0,0.0,-0.479127
261587583,-0.124041,-0.014343,0.0141491,0.0,0.0,-0.478109
261607603,-0.0705614,-0.0162429,0.0155265,0.0,0.0,-0.479127
261627607,-0.0210144,-0.00758932,0.0152342,0.0,0.0,-0.478109
261647642,-0.00267608,0.00116256,0.016034,0.0,0.0,-0.478109
261667656,0.00319321,0.00634677,0.0180382,0.0,0.0,-0.479127
261687716,0.0113452,0.0160464,0.0191595,0.0,0.0,-0.478109
261707675,0.0156187,0.022334,0.0204572,0.0,0.0,-0.479127
261727745,0.00570269,0.0232171,0.0223633,0.0,0.0,-0.478109
261747742,-0.0036178,0.0229103,0.0243495,0.0,0.0,-0.479127
261767771,-0.00731571,0.0284037,0.0250386,0.0,0.0,-0.479127
261787732,0.0130036,0.0342524,0.0251115,0.0,0.0,-0.479127
261807806,0.00387907,0.0340087,0.0260905,0.0,0.0,-0.479127
261827774,-0.00944812,0.0260118,0.0281368,0.0,0.0,-0.479127
261847798,0.00387491,0.0153805,0.0301123,0.0,0.0,-0.478109
261867800,0.0477941,-0.00452308,0.0300551,0.0,0.0,-0.479127
261887841,0.0862322,-0.013433,0.0291445,0.0,0.0,-0.478109
261907845,0.099817,-0.00700148,0.0287948,0.0,0.0,-0.478109
261927866,0.106168,-0.020015,0.0292792,0.0,0.0,-0.477091
261947854,0.129798,-0.0456939,0.0305549,0.0,0.0,-0.477091
261967885,0.146629,-0.0632783,0.0295919,0.0,0.0,-0.477091
261987893,0.151635,-0.0658126,0.0283183,0.0,0.0,-0.477091
262007922,0.118084,-0.0657639,0.0284435,0.0,0.0,-0.481164
262027919,0.0766381,-0.0588172,0.0299891,0.0,0.0,-0.480145
262047952,0.0411246,-0.042362,0.0298996,0.0,0.0,-0.482182
262067966,0.00153252,-0.0243931,0.0296002,0.0,0.0,-0.482182
262087991,-0.0574433,-0.0112044,0.0305044,0.0,0.0,-0.482182
262107991,-0.0977876,-0.00924156,0.0326108,0.0,0.0,-0.482182
262128015,-0.098028,-0.010726,0.0320182,0.0,0.0,-0.482182
262148019,-0.0843953,-0.0157478,0.0315811,0.0,0.0,-0.484218
262168052,-0.089654,-0.0188351,0.0307406,0.0,0.0,-0.484218
262188053,-0.110138,-0.0194777,0.0299271,0.0,0.0,-0.500606
262208096,-0.116715,-0.0288427,0.0294636,0.0,0.0,-0.500606
262228133,-0.153171,-0.038548,0.0299468,0.0,0.0,-0.516364
262248120,-0.0988567,-0.0355965,0.0292089,0.0,0.0,-0.517576
262268166,-0.0780235,-0.0133473,0.0275982,0.0,0.0,-0.52
262288150,-0.0693974,0.0171052,0.0256438,0.0,0.0,-0.52
262308166,-0.0656613,0.0287803,0.02458,0.0,0.0,-0.52
262328184,-0.0600846,0.0284463,0.0234786,0.0,0.0,-0.52
262348305,-0.0487786,0.0200653,0.0222181,0.0,0.0,-0.52
262368299,-0.0357529,0.00505374,0.0212835,0.0,0.0,-0.517576
262388400,-0.0461977,-0.00174704,0.020792,0.0,0.0,-0.517576
262408312,-0.0309421,-0.00563889,0.0195083,0.0,0.0,-0.518788
262428464,-0.0209504,-0.00429958,0.0180779,0.0,0.0,-0.518788
262448305,-0.0123814,-0.00486096,0.0165476,0.0,0.0,-0.517576
262468309,0.0155061,-0.0130649,0.0154813,0.0,0.0,-0.518788
262488345,-0.00723789,-0.00484097,0.0140814,0.0,0.0,-0.517576
262508388,-0.0482525,0.00896452,0.0109485,0.0,0.0,-0.516364
262528372,-0.0121175,0.0237328,0.00974537,0.0,0.0,-0.516364
262548392,-0.0511777,0.0385329,0.00782911,0.0,0.0,-0.513939
262568406,-0.0547081,0.0529604,0.00462209,0.0,0.0,-0.515152
262588413,-0.0476205,0.0605685,0.00239537,0.0,0.0,-0.513939
262608434,-0.0995529,0.0588715,-0.000568645,0.0,0.0,-0.513939
262628448,-0.0624277,0.051264,-0.00314105,0.0,0.0,-0.513939
262648457,-0.0481309,0.0440019,-0.00486305,0.0,0.0,-0.515152
262668467,-0.0648519,0.0360167,-0.00688722,0.0,0.0,-0.513939
262688480,-0.0581111,0.0250624,-0.00825473,0.0,0.0,-0.513939
262708514,-0.0414369,0.0197039,-0.00969245,0.0,0.0,-0.515152
262728508,-0.0175315,0.0176323,-0.0118575,0.0,0.0,-0.513939
262748534,-0.0070923,0.0116004,-0.0131062,0.0,0.0,-0.513939
262768546,0.0227171,-0.00351566,-0.0134619,0.0,0.0,-0.515152
262788574,0.0350285,-0.016784,-0.0140881,0.0,0.0,-0.513939
262808580,0.148761,-0.0223462,-0.015943,0.0,0.0,-0.513939
262828604,0.163764,-0.0158965,-0.0193307,0.0,0.0,-0.515152
262848630,0.162809,-0.00670792,-0.0209637,0.0,0.0,-0.515152
262868639,0.136779,0.0028267,-0.0217986,0.0,0.0,-0.515152
262888636,0.11391,0.0187324,-0.0226335,0.0,0.0,-0.515152
262908667,0.0995073,0.0316515,-0.024458,0.0,0.0,-0.515152
262928668,0.011934,0.0423411,-0.0249883,0.0,0.0,-0.512727
262948699,0.0542683,0.0389495,-0.0250715,0.0,0.0,-0.512727
262968702,0.0332361,0.0267924,-0.0248774,0.0,0.0,-0.512727
262988738,0.0241518,0.0174958,-0.0249729,0.0,0.0,-0.512727
263008785,0.0264674,0.0133257,-0.0261007,0.0,0.0,-0.512727
263028765,0.0169187,0.0159819,-0.0280374,0.0,0.0,-0.512727
263048817,-0.00671899,0.0199868,-0.0285874,0.0,0.0,-0.512727
263068812,-0.0230121,0.0191943,-0.0289098,0.0,0.0,-0.512727
263088818,-0.0182157,0.019268,-0.0297228,0.0,0.0,-0.512727
263108840,-0.00352432,0.0185229,-0.0307946,0.0,0.0,-0.512727
263128861,0.000706065,0.0229344,-0.0316665,0.0,0.0,-0.512727
263148869,-0.00921312,0.0341222,-0.0335207,0.0,0.0,-0.512727
263168943,-0.0267846,0.0402966,-0.0351223,0.0,0.0,-0.506667
263188909,-0.0421742,0.0389629,-0.0353363,0.0,0.0,-0.511515
263208990,-0.0512547,0.0318184,-0.0356002,0.0,0.0,-0.510303
263228938,-0.0357273,0.0194034,-0.036373,0.0,0.0,-0.510303
263248971,-0.0206568,0.0144533,-0.0381516,0.0,0.0,-0.510303
263268965,-0.0121991,0.00907844,-0.0401129,0.0,0.0,-0.510303
263289007,-0.021108,-0.0031346,-0.0409278,0.0,0.0,-0.510303
263309042,-0.0386657,-0.0239258,-0.040362,0.0,0.0,-0.510303
263329021,-0.0536313,-0.0423631,-0.0396047,0.0,0.0,-0.510303
263349032,-0.060431,-0.052577,-0.0393922,0.0,0.0,-0.511515
263369059,-0.0479059,-0.0545795,-0.0389851,0.0,0.0,-0.511515
263389064,-0.0386767,-0.0508637,-0.039131,0.0,0.0,-0.511515
263409088,-0.0332987,-0.0487404,-0.0390604,0.0,0.0,-0.511515
263429085,-0.0452883,-0.0432649,-0.0382359,0.0,0.0,-0.510303
263449115,-0.043365,-0.0362932,-0.0384679,0.0,0.0,-0.510303
263469124,-0.0558593,-0.0316361,-0.0386611,0.0,0.0,-0.511515
263489154,-0.0514468,0.249689,-0.0390398,0.0,0.0,-0.511515
263509159,-0.038088,0.355146,-0.0385908,0.0,0.0,-0.510303
263529183,-0.020623,0.363654,-0.0383773,0.0,0.0,-0.510303
263549186,0.00423428,0.60725,-0.0394541,0.0,0.0,-0.511515
263569274,-0.00404793,0.617708,-0.0379068,0.0,0.0,-0.510303
263589225,-0.0023887,0.572896,-0.0359308,0.0,0.0,-0.511515
263609254,-0.0257777,0.486788,-0.03455,0.0,0.0,-0.511515
263624259,-0.0304141,0.21695,-0.0337049,0.0,0.0,-0.511515
263649300,-0.024258,-0.0311798,-0.0330077,0.0,0.0,-0.510303
263669344,-0.0282975,-0.389665,-0.031239,0.0,0.0,-0.510303
263689328,-0.0264978,-0.453425,-0.0300808,0.0,0.0,-0.510303
263709359,-0.0115022,-0.497949,-0.0296784,0.0,0.0,-0.511515
263729363,0.0165775,-0.505077,-0.0305234,0.0,0.0,-0.510303
263749385,0.0333665,-0.470824,-0.0327985,0.0,0.0,-0.510303
263764390,0.0315098,-0.432259,-0.032894,0.0,0.0,-0.510303
263789415,0.0232964,-0.352038,-0.0315945,0.0,0.0,-0.510303
263809432,0.0242589,-0.27125,-0.0321134,0.0,0.0,-0.511515
263829497,0.0394198,-0.191749,-0.0321612,0.0,0.0,-0.512727
263849476,0.00433145,-0.124129,-0.0318819,0.0,0.0,-0.511515
263869533,-0.00181611,-0.0721743,-0.0295042,0.0,0.0,-0.511515
263889498,-0.0067683,-0.026503,-0.0292718,0.0,0.0,-0.511515
263904500,0.0148214,-0.000336362,-0.0301067,0.0,0.0,-0.478109
263929529,0.0466415,0.0297091,-0.0308443,0.0,0.0,-0.472
263949585,0.049923,0.0355236,-0.0303663,0.0,0.0,-0.472
263969564,0.0343678,0.0251804,-0.0290644,0.0,0.0,-0.436364
263989613,0.0348188,0.00802046,-0.0285208,0.0,0.0,-0.431273
264009631,0.0421626,-0.0131446,-0.0291673,0.0,0.0,-0.431273
264029701,0.0299392,-0.0261413,-0.0298976,0.0,0.0,-0.431273
264044701,0.0305234,-0.0496597,-0.0291742,0.0,0.0,-0.432291
264069703,0.0089839,-0.0742105,-0.0284865,0.0,0.0,-0.432291
264089646,0.015172,-0.0809213,-0.0302276,0.0,0.0,-0.432291
264109696,-0.0131565,-0.0835285,-0.0321227,0.0,0.0,-0.432291
264124718,-0.0370149,-0.091935,-0.0305483,0.0,0.0,-0.431273
264149707,-0.0856612,-0.0920664,-0.0292173,0.0,0.0,-0.432291
264169710,-0.081587,-0.0750617,-0.0314417,0.0,0.0,-0.432291
264184720,-0.0826598,-0.0734617,-0.0294979,0.0,0.0,-0.432291
264209732,-0.0748627,-0.0616948,-0.0278828,0.0,0.0,-0.432291
264229777,-0.10772,-0.043395,-0.028108,0.0,0.0,-0.432291
264249775,-0.114763,-0.0320454,-0.0266427,0.0,0.0,-0.432291
264264775,-0.202836,-0.0176944,-0.0261438,0.0,0.0,-0.431273
264289803,-0.227082,-0.000531234,-0.0246103,0.0,0.0,-0.433309
264309834,-0.23177,0.00941751,-0.0242176,0.0,0.0,-0.433309
264324839,-0.250695,0.0153643,-0.0239975,0.0,0.0,-0.433309
264349876,-0.30661,0.0191919,-0.0229908,0.0,0.0,-0.433309
264369868,-0.312768,0.0238793,-0.0231418,0.0,0.0,-0.433309
264389899,-0.304956,0.0250381,-0.0211467,0.0,0.0,-0.433309
264404905,-0.302718,0.0243894,-0.0224089,0.0,0.0,-0.433309
264429943,-0.297663,0.0188182,-0.0221184,0.0,0.0,-0.4384
264449983,-0.282719,0.0127167,-0.0219521,0.0,0.0,-0.435345
264464950,-0.260003,0.00939297,-0.0218968,0.0,0.0,-0.435345
264489993,-0.209764,0.00572219,-0.0216781,0.0,0.0,-0.436364
264510004,-0.262092,0.000485478,-0.0210089,0.0,0.0,-0.436364
264530015,-0.147284,-0.00385485,-0.0209989,0.0,0.0,-0.436364
264545021,-0.121782,-0.0063077,-0.0206244,0.0,0.0,-0.436364
264570106,-0.0586108,-0.00848818,-0.0206623,0.0,0.0,-0.435345
264590072,0.0996299,-0.0148449,-0.0211671,0.0,0.0,-0.434327
264605073,0.183078,-0.0251553,-0.0203188,0.0,0.0,-0.448582
264630111,0.311746,-0.0393506,-0.0197994,0.0,0.0,-0.474036
264650121,0.331178,-0.0437637,-0.020498,0.0,0.0,-0.478109
264670131,0.424637,-0.0418968,-0.0221835,0.0,0.0,-0.489309
264685139,0.414541,-0.0425722,-0.0202009,0.0,0.0,-0.489309
264710170,0.361358,-0.0374083,-0.0188519,0.0,0.0,-0.497455
264730191,0.27926,-0.0237951,-0.0187208,0.0,0.0,-0.518788
264745236,0.229759,-0.0127061,-0.0184198,0.0,0.0,-0.518788
264765209,0.195416,-0.00453561,-0.0183019,0.0,0.0,-0.518788
264790230,0.11336,0.00862463,-0.0178033,0.0,0.0,-0.518788
264810261,0.0804741,0.00861947,-0.0181023,0.0,0.0,-0.518788
264825338,0.0645239,0.00519272,-0.0188328,0.0,0.0,-0.518788
264850325,0.0663591,-0.000821972,-0.0198336,0.0,0.0,-0.518788
264870295,0.0447318,-0.00227767,-0.0197555,0.0,0.0,-0.518788
264885379,0.0648045,-0.00301632,-0.0201008,0.0,0.0,-0.518788
264905435,0.0659798,-0.00334078,-0.0205047,0.0,0.0,-0.518788
264930357,0.0819787,-0.00161458,-0.0213686,0.0,0.0,-0.518788
264950370,0.0488691,-0.00474061,-0.0221076,0.0,0.0,-0.528485
264965396,0.0092122,-0.00220994,-0.0223266,0.0,0.0,-0.518788
264990409,-0.0194085,-0.00541609,-0.0226627,0.0,0.0,-0.518788
265010422,-0.0494577,-0.00555063,-0.0232413,0.0,0.0,-0.518788
265025438,-0.0545668,-0.00749973,-0.0224628,0.0,0.0,-0.518788
265045429,-0.0516438,-0.00222725,-0.0238606,0.0,0.0,-0.52
265070469,-0.0535326,0.00336645,-0.0227491,0.0,0.0,-0.521212
265090494,-0.133445,0.0206653,-0.0236639,0.0,0.0,-0.52
265105512,-0.139208,0.0244734,-0.0235501,0.0,0.0,-0.521212
265130534,-0.179195,0.02946,-0.0252164,0.0,0.0,-0.521212
265150529,-0.163601,0.0179474,-0.0239578,0.0,0.0,-0.521212
265165604,-0.125545,0.0180317,-0.0258221,0.0,0.0,-0.518788
265185564,-0.139041,0.00677756,-0.0267732,0.0,0.0,-0.52
265210590,-0.110095,-0.00761348,-0.0263764,0.0,0.0,-0.521212
265230650,-0.100272,-0.0147123,-0.0273529,0.0,0.0,-0.521212
265245662,-0.0937054,-0.0408378,-0.0258195,0.0,0.0,-0.521212
265270644,-0.122583,-0.0572151,-0.0266134,0.0,0.0,-0.521212
265290666,-0.0461465,-0.064537,-0.0272042,0.0,0.0,-0.521212
265305675,0.0690344,-0.0628904,-0.0268696,0.0,0.0,-0.517576
265325659,0.149737,-0.0485823,-0.0272392,0.0,0.0,-0.517576
265350766,0.108888,-0.0199973,-0.0265198,0.0,0.0,-0.517576
265370720,0.0821765,0.00698135,-0.027098,0.0,0.0,-0.517576
265385723,0.0552443,0.0279987,-0.0277165,0.0,0.0,-0.517576
265405770,0.0490907,0.0390079,-0.0275904,0.0,0.0,-0.517576
265430772,0.00516017,0.0465631,-0.0288501,0.0,0.0,-0.517576
265445771,-0.00432986,0.0383808,-0.0284424,0.0,0.0,-0.517576
265465789,0.0369278,0.0307633,-0.0292574,0.0,0.0,-0.513939
265490834,0.0402535,0.0170223,-0.0305776,0.0,0.0,-0.516364
265510845,-0.0577219,0.015221,-0.0311026,0.0,0.0,-0.516364
265525918,-0.0519107,0.00763281,-0.0311631,0.0,0.0,-0.516364
265545870,-0.0641535,0.00517211,-0.0317394,0.0,0.0,-0.516364
265570877,-0.0235632,0.00337081,-0.0323768,0.0,0.0,-0.500606
265585892,-0.0248619,0.00674792,-0.0342171,0.0,0.0,-0.489309
265605906,-0.0022202,0.00928678,-0.0349169,0.0,0.0,-0.479127
265630966,-0.00361791,0.0165467,-0.0354834,0.0,0.0,-0.479127
265651028,-0.013512,0.0138847,-0.0352778,0.0,0.0,-0.478109
265665973,0.00854179,0.0176438,-0.0355422,0.0,0.0,-0.479127
265686025,0.00560161,0.0150599,-0.0359402,0.0,0.0,-0.481164
265711001,0.0299204,0.0188921,-0.0353035,0.0,0.0,-0.481164
265726006,0.0379042,0.00632612,-0.0327237,0.0,0.0,-0.479127
265746009,0.0471416,0.0141888,-0.0343039,0.0,0.0,-0.479127
265771049,0.057389,-0.0011887,-0.0312166,0.0,0.0,-0.479127
265791068,0.0732039,0.0090857,-0.0323362,0.0,0.0,-0.479127
265806089,0.0721646,-0.000621158,-0.0298921,0.0,0.0,-0.475055
265826099,0.061957,-0.00350959,-0.0295764,0.0,0.0,-0.453673
265851116,0.0687286,-0.0569679,-0.0269626,0.0,0.0,-0.441455
265866109,0.0131252,-0.0225282,-0.0260589,0.0,0.0,-0.439418
265886139,-0.00184404,-0.02583,-0.0253129,0.0,0.0,-0.439418
265911171,-0.0357229,-0.0214347,-0.0236147,0.0,0.0,-0.439418
265931185,-0.0453868,-0.0158368,-0.0229788,0.0,0.0,-0.440436
265946204,-0.0569001,-0.00626545,-0.0226182,0.0,0.0,-0.440436
265966206,-0.0580344,0.00568705,-0.0215381,0.0,0.0,-0.441455
265991296,-0.0525005,0.0186028,-0.0209177,0.0,0.0,-0.440436
266006241,-0.0569491,0.026621,-0.020475,0.0,0.0,-0.440436
266026322,-0.0450113,0.0294114,-0.0200682,0.0,0.0,-0.440436
266046281,-0.0504516,0.0292461,-0.0201618,0.0,0.0,-0.440436
266071322,-0.0361113,0.0246809,-0.0190264,0.0,0.0,-0.441455
266086320,-0.0293505,0.02269,-0.0182077,0.0,0.0,-0.441455
266106378,-0.047572,0.0160678,-0.0174113,0.0,0.0,-0.443491
266131411,-0.0377595,0.0105703,-0.0168106,0.0,0.0,-0.443491
266146375,-0.0366393,0.00818819,-0.0156271,0.0,0.0,-0.443491
266166397,-0.0337565,0.00278378,-0.0155312,0.0,0.0,-0.443491
266186406,-0.0358304,0.00377734,-0.0144384,0.0,0.0,-0.443491
266211434,-0.0243843,0.0011642,-0.014603,0.0,0.0,-0.444509
266226488,-0.0294342,-0.00169852,-0.0143623,0.0,0.0,-0.445527
266246465,-0.0171039,0.00129079,-0.0146251,0.0,0.0,-0.444509
266271474,-0.0243816,-0.000522675,-0.0143733,0.0,0.0,-0.445527
266286547,-0.00927265,-0.0026419,-0.0148521,0.0,0.0,-0.444509
266306540,-0.030171,-0.00430019,-0.014976,0.0,0.0,-0.445527
266326515,-0.0202172,-0.00807888,-0.0151265,0.0,0.0,-0.444509
266351533,-0.0364442,-0.00869502,-0.0152741,0.0,0.0,-0.445527
266366565,-0.0252978,-0.00208258,-0.0159343,0.0,0.0,-0.442473
266386565,-0.0490159,-0.00136494,-0.0144348,0.0,0.0,-0.443491
266411601,-0.0489057,0.0121127,-0.0163349,0.0,0.0,-0.448582
266426604,-0.0493827,0.0253579,-0.0168036,0.0,0.0,-0.474036
266446612,-0.0515129,0.0315974,-0.0157785,0.0,0.0,-0.486255
266466640,-0.0399533,0.0470656,-0.0159369,0.0,0.0,-0.499491
266491669,-0.0702095,0.0526227,-0.0165671,0.0,0.0,-0.52
266506707,-0.0732732,0.0556486,-0.0169567,0.0,0.0,-0.52
266526718,-0.0350781,0.0490032,-0.0173295,0.0,0.0,-0.512727
266551692,-0.0879154,0.0360244,-0.0172323,0.0,0.0,-0.516364
266566693,-0.0538854,0.0356348,-0.0185281,0.0,0.0,-0.521212
266586729,-0.0558696,0.0328458,-0.0189841,0.0,0.0,-0.521212
266606738,-0.0320349,0.0357263,-0.0201536,0.0,0.0,-0.52
266631811,-0.0253934,0.0458978,-0.0208465,0.0,0.0,-0.527273
266646761,-0.0143158,0.0533788,-0.0228499,0.0,0.0,-0.523636
266666801,0.00239899,0.0661868,-0.0235474,0.0,0.0,-0.523636
266686794,0.00385743,0.0795346,-0.0244657,0.0,0.0,-0.523636
266706823,0.0224577,0.0875173,-0.0257404,0.0,0.0,-0.523636
266726852,0.0106985,0.100555,-0.0265858,0.0,0.0,-0.523636
266746857,-0.00627365,0.110384,-0.0272562,0.0,0.0,-0.523636
266771940,-0.00777111,0.112457,-0.0279871,0.0,0.0,-0.523636
266786896,-0.0162404,0.115886,-0.0287026,0.0,0.0,-0.523636
266806984,0.00726869,0.115698,-0.0293835,0.0,0.0,-0.521212
266826923,-0.003759,0.113538,-0.0289653,0.0,0.0,-0.521212
266846971,-0.00851645,0.101071,-0.028602,0.0,0.0,-0.52
266866956,-0.0062043,0.0900223,-0.0283595,0.0,0.0,-0.518788
266887018,0.00251719,0.0784392,-0.0279505,0.0,0.0,-0.52
266912031,-0.0127308,0.0705364,-0.0261176,0.0,0.0,-0.518788
266927004,-0.00532158,0.0699861,-0.0263032,0.0,0.0,-0.52
266947042,-0.0242863,0.0773181,-0.0253753,0.0,0.0,-0.52
266967039,-0.0359912,0.0889069,-0.0246131,0.0,0.0,-0.518788
266987075,-0.0460747,0.094943,-0.0233073,0.0,0.0,-0.518788
267007120,-0.0614003,0.0980351,-0.0215939,0.0,0.0,-0.518788
267027090,-0.0945239,0.10788,-0.021138,0.0,0.0,-0.518788
267052110,-0.103011,0.107221,-0.0188566,0.0,0.0,-0.518788
267067172,-0.105057,0.1166,-0.0189637,0.0,0.0,-0.518788
267087146,-0.0895619,0.115192,-0.016903,0.0,0.0,-0.518788
267107167,-0.0645264,0.115035,-0.0150231,0.0,0.0,-0.518788
267127183,-0.0372905,0.116363,-0.014173,0.0,0.0,-0.52
267147192,0.00526786,0.112141,-0.0136953,0.0,0.0,-0.52
267167238,0.0381433,0.108788,-0.0124479,0.0,0.0,-0.52
267187210,0.066979,0.102225,-0.0108618,0.0,0.0,-0.52
267207262,0.082892,0.0915952,-0.00910379,0.0,0.0,-0.52
267227261,0.0955854,0.0797229,-0.00794896,0.0,0.0,-0.52
267247321,0.0939392,0.0681578,-0.006372,0.0,0.0,-0.52
267267312,0.102298,0.0550305,-0.00400228,0.0,0.0,-0.52
267287328,0.103262,0.0390366,-0.00213717,0.0,0.0,-0.518788
267307346,0.0784885,0.0251732,-0.000974274,0.0,0.0,-0.518788
267327396,0.0527834,0.0185697,-0.000970434,0.0,0.0,-0.518788
267347386,0.0290675,0.0204473,-0.00130216,0.0,0.0,-0.518788
267367400,0.00145476,0.0282155,-0.000977021,0.0,0.0,-0.518788
267387409,-0.0250057,0.0405063,-0.000681639,0.0,0.0,-0.518788
267407424,-0.0629102,0.0566289,-0.00165801,0.0,0.0,-0.52
267427448,-0.0697981,0.0672978,-0.00379392,0.0,0.0,-0.518788
267447467,-0.0911511,0.070527,-0.005934,0.0,0.0,-0.52
267467466,-0.102081,0.0669336,-0.00649282,0.0,0.0,-0.52
267487495,-0.113472,0.0617631,-0.0062293,0.0,0.0,-0.52
267507498,-0.117184,0.0602011,-0.00705365,0.0,0.0,-0.52
267527528,-0.00501883,0.0576808,-0.00947869,0.0,0.0,-0.518788
267547570,-0.0524317,0.0419194,-0.0118096,0.0,0.0,-0.518788
267567560,-0.0199277,0.0242379,-0.0118397,0.0,0.0,-0.52
267587624,0.0272224,0.00963631,-0.0122366,0.0,0.0,-0.52
267607589,0.0707753,9.62705e-05,-0.0126073,0.0,0.0,-0.52
267627603,0.108775,-0.00367916,-0.0118287,0.0,0.0,-0.52
267647617,0.122339,-0.00624479,-0.0115031,0.0,0.0,-0.52
267667650,0.119308,-0.0125876,-0.0103498,0.0,0.0,-0.518788
267687648,0.0838086,-0.0210123,-0.00934853,0.0,0.0,-0.518788
267707715,0.036813,-0.0359823,-0.00902621,0.0,0.0,-0.518788
267727680,-0.024344,-0.0512359,-0.00793648,0.0,0.0,-0.518788
267747744,-0.078369,-0.0615488,-0.00773063,0.0,0.0,-0.518788
267767718,-0.128715,-0.0678219,-0.00761225,0.0,0.0,-0.518788
267787750,-0.152309,-0.0643144,-0.00722194,0.0,0.0,-0.518788
267807758,-0.140001,-0.0528197,-0.00737429,0.0,0.0,-0.518788
267827767,-0.109767,0.128836,-0.00752773,0.0,0.0,-0.518788
267847796,-0.0798938,0.228335,-0.0074943,0.0,0.0,-0.518788
267867815,-0.0626921,0.396519,-0.00788449,0.0,0.0,-0.518788
267887809,-0.0481761,0.488326,-0.00883918,0.0,0.0,-0.518788
267907835,-0.024808,0.5346,-0.00877078,0.0,0.0,-0.518788
267927889,-0.0116769,0.505358,-0.00713698,0.0,0.0,-0.518788
267947872,-0.0112922,0.546425,-0.00761581,0.0,0.0,-0.518788
267967876,0.00276787,0.490792,-0.00771738,0.0,0.0,-0.518788
267987898,0.0462945,0.415378,-0.00595706,0.0,0.0,-0.518788
268007896,0.0867103,0.188873,-0.00387265,0.0,0.0,-0.518788
268027933,0.122902,-0.170324,-0.00229188,0.0,0.0,-0.518788
268047931,0.136676,-0.435153,-0.00237923,0.0,0.0,-0.518788
268067961,0.154446,-0.529316,-0.00118624,0.0,0.0,-0.518788
268087973,0.148137,-0.567011,-0.00116097,0.0,0.0,-0.518788
268108003,0.15016,-0.574535,-0.00234328,0.0,0.0,-0.518788
268128014,0.116968,-0.543844,-0.00185044,0.0,0.0,-0.518788
268148098,0.0849537,-0.47632,-0.000827206,0.0,0.0,-0.518788
268168085,0.0482719,-0.390463,-0.00043632,0.0,0.0,-0.518788
268188129,0.00222034,-0.298229,-0.000612831,0.0,0.0,-0.518788
268208061,-0.0235306,-0.210682,0.000624343,0.0,0.0,-0.518788
268228099,-0.0730071,-0.136004,0.000943155,0.0,0.0,-0.518788
268248093,-0.113138,-0.0715579,0.00129523,0.0,0.0,-0.518788
268268121,-0.138511,-0.026885,0.000268321,0.0,0.0,-0.518788
268288127,-0.147031,-0.00727573,-0.000330958,0.0,0.0,-0.518788
268308159,-0.125253,-0.0009124,0.00105056,0.0,0.0,-0.518788
268328204,-0.105239,-0.00666852,0.0015544,0.0,0.0,-0.518788
268348207,-0.089008,-0.0216298,0.00131381,0.0,0.0,-0.518788
268368270,-0.0693405,-0.0424918,0.00163643,0.0,0.0,-0.518788
268388225,-0.00304119,-0.061875,0.00198929,0.0,0.0,-0.513939
268408243,-0.0423084,-0.0775752,0.00283748,0.0,0.0,-0.517576
268428259,-0.0391457,-0.0894689,0.00447332,0.0,0.0,-0.517576
268448348,-0.0358174,-0.0990039,0.00599135,0.0,0.0,-0.517576
268468312,-0.0200018,-0.108166,0.006791,0.0,0.0,-0.518788
268488374,-0.00269545,-0.110955,0.00766513,0.0,0.0,-0.517576
268508344,0.00758016,-0.107162,0.00795268,0.0,0.0,-0.517576
268528394,-0.00177123,-0.10115,0.00872594,0.0,0.0,-0.517576
268548440,0.0107809,-0.0923163,0.00952843,0.0,0.0,-0.518788
268568420,0.0250597,-0.0785802,0.0101115,0.0,0.0,-0.516364
268588418,0.0604963,-0.0674666,0.010311,0.0,0.0,-0.510303
268608431,0.0249131,-0.0571833,0.0102393,0.0,0.0,-0.52
268628494,0.0100096,-0.0457629,0.00959164,0.0,0.0,-0.518788
268648471,-0.0102206,-0.0338394,0.0096128,0.0,0.0,-0.517576
268668455,-0.00367848,-0.0198528,0.00816192,0.0,0.0,-0.517576
268688487,0.0112792,-0.00681796,0.00710589,0.0,0.0,-0.517576
268708492,-0.000769752,0.00627717,0.00680591,0.0,0.0,-0.517576
268728548,0.00801802,0.0183104,0.00590095,0.0,0.0,-0.517576
268748525,0.011288,0.0289472,0.00376816,0.0,0.0,-0.517576
268768549,0.0390214,0.0334045,0.00201033,0.0,0.0,-0.517576
268788555,0.0425532,0.0323516,0.000704756,0.0,0.0,-0.517576
268808610,0.0603039,0.0284579,0.000223585,0.0,0.0,-0.506667
268828581,-0.0199916,0.0213605,-0.00059943,0.0,0.0,-0.506667
268848632,-0.0272729,0.0153263,-0.00146334,0.0,0.0,-0.506667
268868631,-0.0185838,0.00615297,-0.00246231,0.0,0.0,-0.506667
268888685,-0.0102222,-0.00344631,-0.00258189,0.0,0.0,-0.506667
268908646,-0.00519241,-0.015147,-0.00162129,0.0,0.0,-0.506667
268928666,-0.00223179,-0.0242154,-0.00178758,0.0,0.0,-0.509091
268948679,-0.0497499,-0.0343714,-0.00299279,0.0,0.0,-0.509091
268968708,-0.0445255,-0.0422399,-0.00330582,0.0,0.0,-0.509091
268988712,-0.177068,-0.0453847,-0.00307092,0.0,0.0,-0.506667
269008741,-0.209569,-0.0386933,-0.00283663,0.0,0.0,-0.507879
269028751,-0.248871,-0.029024,-0.00304731,0.0,0.0,-0.507879
269048775,-0.250205,-0.0165072,-0.00298769,0.0,0.0,-0.506667
269068792,-0.262014,-0.00576024,-0.00334129,0.0,0.0,-0.510303
269088818,-0.237373,-0.00108767,-0.00294301,0.0,0.0,-0.512727
269108855,-0.249402,0.0036756,-0.00242611,0.0,0.0,-0.512727
269128840,-0.215251,0.00627549,-0.0027166,0.0,0.0,-0.512727
269148891,-0.183653,0.00803077,-0.00322452,0.0,0.0,-0.511515
269168874,-0.100689,0.00722243,-0.0042905,0.0,0.0,-0.513939
269188891,-0.00229038,0.0018805,-0.00401456,0.0,0.0,-0.513939
269208902,0.0248345,-0.000997083,-0.00462036,0.0,0.0,-0.513939
269228990,0.279739,0.00121298,-0.00565831,0.0,0.0,-0.513939
269248949,0.343977,-0.00112836,-0.00493521,0.0,0.0,-0.513939
269269014,0.424776,-0.00550601,-0.00414565,0.0,0.0,-0.513939
269288974,0.408957,-0.00620771,-0.00382027,0.0,0.0,-0.513939
269309022,0.387591,-0.00425049,-0.00426512,0.0,0.0,-0.512727
269329015,0.368744,-0.00315088,-0.00480186,0.0,0.0,-0.512727
269349071,0.336018,-0.00870916,-0.00489284,0.0,0.0,-0.500606
269369052,0.272255,-0.0196953,-0.00375801,0.0,0.0,-0.491345
269389060,0.205982,-0.0211333,-0.00323177,0.0,0.0,-0.486255
269409081,0.149933,-0.0267439,-0.00433258,0.0,0.0,-0.485236
269429092,0.106148,-0.0313633,-0.00526726,0.0,0.0,-0.486255
269449096,0.069273,-0.0436158,-0.00591104,0.0,0.0,-0.485236
269469133,0.0307832,-0.0548676,-0.00382286,0.0,0.0,-0.486255
269489129,0.0131087,-0.0590282,-0.00409793,0.0,0.0,-0.4832
269509161,0.0190538,-0.0604092,-0.00662746,0.0,0.0,-0.474036
269529164,0.0256601,-0.0630304,-0.00831346,0.0,0.0,-0.474036
269549198,0.0361233,-0.071408,-0.0087839,0.0,0.0,-0.472
269569220,0.0475725,-0.0831746,-0.00812735,0.0,0.0,-0.472
269589248,0.0739567,-0.0894991,-0.00916773,0.0,0.0,-0.472
269609234,0.0902323,-0.0946851,-0.0111024,0.0,0.0,-0.472
269629260,0.084457,-0.106581,-0.0121686,0.0,0.0,-0.472
269644295,0.104329,-0.109108,-0.0127614,0.0,0.0,-0.472
269669325,0.0837285,-0.111238,-0.0129729,0.0,0.0,-0.481164
269689311,0.0766369,-0.110122,-0.0135795,0.0,0.0,-0.472
269709349,0.0507893,-0.11174,-0.0127164,0.0,0.0,-0.472
269729352,0.0190354,-0.10469,-0.0123075,0.0,0.0,-0.470982
269749376,0.00423683,-0.0913152,-0.0118884,0.0,0.0,-0.470982
269769415,0.00390183,-0.0777603,-0.01177,0.0,0.0,-0.472
269784397,-0.0239394,-0.0665052,-0.0115597,0.0,0.0,-0.470982
269809512,-0.0211844,-0.0463725,-0.010598,0.0,0.0,-0.470982
269829433,-0.0401358,-0.0303299,-0.0100108,0.0,0.0,-0.472
269849472,-0.0385059,-0.0152239,-0.0104896,0.0,0.0,-0.472
269869485,-0.0366137,-0.00560871,-0.00990624,0.0,0.0,-0.470982
269889482,-0.0387604,-0.000458516,-0.00858427,0.0,0.0,-0.472
269909500,-0.048625,-0.00082712,-0.00821888,0.0,0.0,-0.470982
269924519,-0.0307944,0.000341197,-0.00808457,0.0,0.0,-0.472
269949539,-0.0229985,-0.00896377,-0.00772965,0.0,0.0,-0.470982
269969561,-0.0158019,-0.0216063,-0.00651599,0.0,0.0,-0.470982
269989568,-0.0197159,0.153929,-0.00581452,0.0,0.0,-0.472
270009640,-0.00100524,0.263041,-0.006103,0.0,0.0,-0.472
270029601,0.0109151,0.335543,-0.00565228,0.0,0.0,-0.470982
270049674,0.02248,0.329919,-0.00336079,0.0,0.0,-0.472
270064733,0.0241391,0.339155,-0.00425637,0.0,0.0,-0.472
270089665,0.00854512,0.305961,-0.00258595,0.0,0.0,-0.470982
270109677,0.0110791,0.240655,-0.00379428,0.0,0.0,-0.470982
270129707,0.0100535,0.155273,-0.00211099,0.0,0.0,-0.472
270149709,0.00738287,0.0508134,-0.00136278,0.0,0.0,-0.472
270169708,-0.00903491,-0.186569,-0.00201191,0.0,0.0,-0.473018
270189716,-0.0205206,-0.213214,-0.00273919,0.0,0.0,-0.470982
270204744,-0.0128645,-0.23034,-0.00318975,0.0,0.0,-0.470982
270229759,-0.00576422,-0.238002,-0.00329599,0.0,0.0,-0.470982
270249777,0.00611575,-0.225402,-0.00478915,0.0,0.0,-0.470982
270269778,0.00764243,-0.201277,-0.0053305,0.0,0.0,-0.470982
270284812,0.0269112,-0.181457,-0.0057781,0.0,0.0,-0.470982
270309812,0.0508522,-0.127143,-0.00675841,0.0,0.0,-0.470982
270329849,0.0672822,-0.0933691,-0.00644271,0.0,0.0,-0.470982
270344868,0.0695143,-0.0625809,-0.00734477,0.0,0.0,-0.470982
270369958,0.0524579,-0.0283175,-0.0081632,0.0,0.0,-0.472
270389879,0.048111,-0.0174151,-0.00737258,0.0,0.0,-0.470982
270409908,0.0408485,-0.0151489,-0.00563208,0.0,0.0,-0.470982
270424938,0.0207575,-0.0133082,-0.00702169,0.0,0.0,-0.470982
270450001,-0.00183117,-0.0173166,-0.00690592,0.0,0.0,-0.470982
270469956,0.00355217,-0.0290733,-0.00660223,0.0,0.0,-0.470982
270484974,-0.0407601,-0.0256133,-0.00841903,0.0,0.0,-0.470982
270510002,0.00872912,-0.0315541,-0.00874611,0.0,0.0,-0.470982
270530009,0.00772088,-0.0340981,-0.00879405,0.0,0.0,-0.470982
270550070,0.0206088,-0.0345154,-0.00743485,0.0,0.0,-0.470982
270565100,0.0174063,-0.0227873,-0.008831,0.0,0.0,-0.475055
270590090,0.0463104,0.00101102,-0.00961992,0.0,0.0,-0.475055
270610075,0.0434672,0.0140277,-0.00880485,0.0,0.0,-0.472
270625162,0.0630781,0.0328596,-0.00873776,0.0,0.0,-0.472
270650114,0.0463925,0.0500858,-0.00689846,0.0,0.0,-0.472
270670125,0.0334914,0.0556643,-0.00537087,0.0,0.0,-0.472
270690142,0.0170206,0.0532441,-0.00365079,0.0,0.0,-0.472
270705160,0.0147785,0.049005,-0.00408645,0.0,0.0,-0.472
270730175,-0.00143763,0.0295086,-0.0023479,0.0,0.0,-0.472
270750251,-0.0065115,0.0103773,-0.00186481,0.0,0.0,-0.472
270765257,-0.00926772,-0.00256842,-0.00113502,0.0,0.0,-0.472
270785231,-0.0172421,-0.0208592,-0.000568076,0.0,0.0,-0.472
270810248,-0.021047,-0.0380534,0.000539784,0.0,0.0,-0.470982
270830291,-0.0192409,-0.0444754,0.000383001,0.0,0.0,-0.470982
270845300,-0.014318,-0.0478062,0.00143718,0.0,0.0,-0.472
270870319,-0.028202,-0.0477675,0.00200511,0.0,0.0,-0.470982
270890335,-0.0260173,-0.0420579,0.00232914,0.0,0.0,-0.472
270905347,-0.0432847,-0.0397378,0.00328245,0.0,0.0,-0.470982
270925384,-0.0394577,-0.0268616,0.00337502,0.0,0.0,-0.472
270950380,-0.0552581,-0.0194675,0.00442223,0.0,0.0,-0.472
270970434,-0.0626887,-0.00420838,0.00367885,0.0,0.0,-0.470982
270985413,-0.0727792,-0.0154221,0.00602301,0.0,0.0,-0.470982
271010419,-0.0840951,-0.0181437,0.00672164,0.0,0.0,-0.470982
271030442,-0.0701046,-0.0217011,0.0070961,0.0,0.0,-0.472
271045472,-0.0811164,-0.0415546,0.00804186,0.0,0.0,-0.472
271065500,-0.084422,-0.0558691,0.00906146,0.0,0.0,-0.470982
271090480,-0.0877181,-0.0889727,0.0102861,0.0,0.0,-0.470982
271110501,-0.0760567,-0.107232,0.00920372,0.0,0.0,-0.472
271125532,-0.0749044,-0.137262,0.010779,0.0,0.0,-0.472
271150567,-0.0755392,-0.156335,0.00970737,0.0,0.0,-0.470982
271170547,-0.0539206,-0.159861,0.00938011,0.0,0.0,-0.470982
271185598,-0.0467997,-0.154752,0.00847516,0.0,0.0,-0.470982
271205587,-0.0058387,-0.138363,0.00819916,0.0,0.0,-0.481164
271230655,0.0275912,-0.0925078,0.00535692,0.0,0.0,-0.485236
271250622,0.0496189,-0.0489245,0.00497951,0.0,0.0,-0.485236
271265621,0.0578148,-0.0217092,0.00418096,0.0,0.0,-0.485236
271290642,0.0659204,0.0238197,0.00338432,0.0,0.0,-0.488291
271310661,0.068886,0.0496712,0.00339231,0.0,0.0,-0.488291
271325679,0.0595224,0.0587181,0.00303861,0.0,0.0,-0.491345
271345680,0.050055,0.0690647,0.00324801,0.0,0.0,-0.491345
271370755,0.032924,0.0630746,0.00327312,0.0,0.0,-0.491345
271390729,0.0204572,0.0567577,0.00335659,0.0,0.0,-0.490327
271405754,0.00343324,0.0434751,0.00376746,0.0,0.0,-0.489309
