timestamp,timestamp_sample,xyz[0],xyz[1],xyz[2]
251546440,251545606,-0.118411,0.112126,-0.00739323
251548985,251548138,-0.0982646,0.159064,0.00563113
251568960,251568121,0.165995,-0.262643,-0.00932573
251586478,251585645,-0.0412803,0.275651,0.0285805
251608993,251608154,-0.228228,-0.0774667,-0.0244019
251629015,251628171,0.266386,-0.156488,-0.0327064
251651522,251650690,0.0432886,0.301425,0.0912326
251669052,251668204,-0.221306,-0.277882,-0.064593
251689080,251688237,0.24187,-0.0819294,-0.0306519
251709090,251708245,-0.0477901,0.325053,0.0933767
251726583,251725752,0.0248843,-0.314991,-0.109926
251749118,251748279,0.20572,-0.141404,-0.0511878
251769131,251768287,0.0306863,0.274704,0.123148
251791638,251790806,-0.251791,0.0757288,0.0236736
251809161,251808320,0.148855,-0.164436,-0.110338
251829184,251828343,0.144465,0.0886942,0.128576
251849200,251848361,-0.0239862,0.0189282,0.0480254
251866707,251865868,-0.0216724,0.0874231,-0.0557602
251889231,251888387,-0.111216,0.0931005,-0.0330665
251909244,251908403,-0.148586,0.00770651,-0.0265537
251931773,251930922,-0.0118642,0.0715979,0.00771819
251949293,251948436,-0.047005,0.0415272,0.081228
251969298,251968453,0.00604972,0.0109017,0.0992849
251989315,251988469,0.0161821,0.0539478,0.0977623
252006814,252005983,-0.274143,0.0135186,-0.00265334
252029345,252028502,-0.0511815,-0.0411605,-0.000305409
252049361,252048519,0.0330774,-0.0581917,-0.0256944
252071873,252071038,0.307809,-0.124154,-0.0468822
252086881,252086050,-0.00819755,-0.0198646,0.0178113
252109410,252108570,0.212155,-0.0793303,-0.0769754
252129437,252128585,0.170128,-0.047414,-0.0917098
252146930,252146100,0.240221,0.0263742,-0.0421863
252169460,252168621,0.0575834,0.0625063,-0.147185
252189477,252188635,-0.141912,0.0562313,-0.166525
252209496,252208654,-0.240204,0.165002,-0.149593
252226999,252226168,-0.152754,0.264556,-0.0832154
252249529,252248685,-0.293316,0.193705,-0.0336305
252269541,252268701,-0.233473,0.158067,0.0204995
252287065,252286218,-0.261633,0.242762,0.125669
252309585,252308745,0.0940436,0.0710594,0.066606
252329596,252328756,0.0963442,0.0540426,0.0364568
252349610,252348770,0.195873,0.10957,-0.00425557
252367113,252366282,0.324385,0.0169629,0.0923655
252389645,252388803,-0.184502,0.300365,0.0266969
252409669,252408823,-0.386017,0.398372,0.00753688
252427163,252426332,-0.179985,0.239857,0.0943666
252449691,252448852,-0.368249,0.288007,0.0468923
252469708,252468867,-0.216088,0.142549,0.0391627
252489730,252488888,-0.0146517,0.0572943,0.0635808
252507241,252506398,0.0558136,0.0208482,0.095599
252529758,252528919,0.145847,0.0244874,0.0689754
252552302,252551439,-0.135283,0.136496,0.00534955
252567307,252566454,0.209369,0.174817,0.0724964
252589816,252588966,-0.317217,0.398857,0.0568683
252609830,252608991,-0.401856,0.429258,0.0416621
252629839,252629000,-0.36934,0.41669,0.0258724
252647363,252646514,-0.239258,0.290542,0.0640325
252669873,252669034,-0.0944038,0.0657403,0.00421508
252689889,252689049,0.0701165,-0.0449958,-0.00881027
252707407,252706573,0.1795,0.015953,0.00887924
252727414,252726580,0.297324,0.0200588,0.00236938
252749938,252749099,-0.0210668,0.202759,-0.0173492
252769955,252769116,-0.190572,0.345229,0.0105716
252787461,252786630,-0.113281,0.325249,0.0616251
252809988,252809149,-0.28774,0.318575,0.011002
252830005,252829165,-0.0134642,0.184516,-0.027125
252847521,252846680,0.0690606,0.211728,0.0304195
252867527,252866696,0.244301,0.0984266,0.00577384
252890061,252889217,0.22354,-0.0380776,-0.0815034
252910091,252909237,0.0409184,0.0666866,-0.0965258
252927577,252926746,0.0994029,0.192881,-0.0419817
252950110,252949271,-0.309776,0.286359,-0.0406088
252970121,252969282,-0.286391,0.29483,-0.013489
252987627,252986796,-0.296467,0.413645,0.0394893
253007643,253006813,-0.180387,0.262515,0.0776614
253030177,253029332,0.147321,0.0954778,-0.0279715
253050187,253049348,0.139978,0.0942154,-0.0972938
253067697,253066862,0.292962,0.115759,-0.0340661
253090223,253089381,-0.251911,0.181014,-0.089808
253110241,253109398,-0.422808,0.214809,-0.0310544
253127752,253126912,-0.249391,0.240651,0.0113205
253147759,253146929,-0.402689,0.271994,0.0949636
253170295,253169448,-0.176708,0.140754,0.124347
253190321,253189473,-0.009814,0.134802,0.0841097
253207809,253206978,0.127389,0.0769918,0.0974142
253230348,253229500,0.299289,0.190027,-0.0374669
253250364,253249520,0.128483,0.198344,-0.0581063
253267859,253267028,0.20513,0.049063,-0.0139027
253287877,253287046,0.042519,0.0616771,-0.0136119
253310406,253309568,-0.247436,0.195276,-0.00734967
253330419,253329580,-0.246989,0.119999,0.0588686
253347934,253347094,-0.218972,0.0952814,0.119097
253367942,253367111,-0.135409,0.0687664,0.137347
253390469,253389630,0.234434,-0.00978458,0.0988772
253407976,253407144,0.315255,-0.00834886,0.116414
253427996,253427161,0.418274,-0.00238179,0.101396
253450519,253449679,0.41344,0.253327,-0.0442852
253470535,253469696,0.0763592,0.277479,-0.0463664
253488067,253487219,0.159156,0.205534,-0.0360278
253508069,253507237,-0.0102392,0.290732,-0.0214648
253530586,253529746,-0.18323,0.219738,-0.00170105
253548119,253547266,-0.219791,0.206569,0.0786158
253568125,253567280,-0.063496,0.0834446,0.0961578
253590639,253589796,0.26599,-0.00579062,0.0413877
253610651,253609812,0.345183,0.0526594,0.0289848
253628162,253627329,0.432821,0.037661,0.0812183
253648181,253647350,0.304434,0.154554,0.0479105
253670702,253669862,-0.296337,0.481816,-0.0384918
253688208,253687377,-0.169029,0.405424,0.0210822
253708229,253707397,-0.272841,0.315775,0.0109786
253730764,253729912,-0.152603,0.0987672,-0.0185623
253748284,253747430,-0.123154,0.102795,0.0219853
253768282,253767443,0.0543595,0.0116033,0.0371987
253788307,253787469,0.188284,0.00973329,0.0654939
253810817,253809978,0.148275,0.164319,-0.00776993
253828335,253827493,0.199515,0.25757,0.0493769
253848361,253847510,-0.0615105,0.375282,0.0455263
253870871,253870028,-0.3594,0.43778,-0.0399063
253890888,253890045,-0.383185,0.372434,-0.0644937
253908390,253907559,-0.321332,0.341198,0.0188698
253928406,253927576,-0.234267,0.213522,0.0350604
253950947,253950107,0.127445,-0.0535338,-0.0213816
253968440,253967609,0.139329,0.0493025,-0.0149894
253988456,253987625,0.239067,0.0763862,-0.0404231
254008491,254007645,0.212924,0.173937,-0.040977
254031001,254030161,-0.36377,0.336191,-0.0232475
254048512,254047675,-0.320359,0.384289,0.0490594
254068522,254067692,-0.40299,0.405263,0.0505737
254091058,254090216,-0.178799,0.162623,-0.0545835
254108555,254107725,-0.109004,0.238526,0.01474
254128580,254127741,0.0659947,0.133798,-0.00178364
254148589,254147758,0.169921,0.0800968,-0.0387638
254171121,254170282,-0.0286865,-0.00728537,-0.0985864
254188622,254187791,0.0827726,0.157836,-0.054254
254208641,254207808,-0.18001,0.244779,-0.0276578
254231166,254230327,-0.327697,0.262611,-0.00291415
254248682,254247841,-0.333163,0.387368,0.0290753
254268699,254267858,-0.184882,0.301828,0.0801661
254288705,254287874,0.097497,0.204489,0.100516
254311234,254310393,0.159847,0.175414,-0.0568873
254328740,254327907,0.313359,0.130179,-0.0223198
254348757,254347924,0.132118,0.145198,-0.0319496
254371309,254370450,-0.365598,0.21194,-0.0405521
254388805,254387957,-0.19784,0.182888,0.00619994
254408811,254407974,-0.283495,0.144807,0.0737437
254428824,254427990,-0.249131,0.077867,0.141614
254451355,254450509,0.117087,0.0205612,0.0841958
254468854,254468024,0.211933,0.0103895,0.124345
254488877,254488042,0.386761,0.0258858,0.0852473
254508887,254508057,0.43846,0.0628836,0.0127744
254526411,254525571,0.467494,-0.0892495,-0.0165302
254548925,254548090,-0.0502215,0.215369,-0.0127422
254568937,254568107,-0.181322,0.241923,0.0435648
254591479,254590628,0.0149695,-0.00809038,0.0728742
254608970,254608140,0.102392,0.00307261,0.0930747
254628989,254628156,0.330529,0.000574519,0.0688937
254649003,254648173,0.342067,0.171188,0.0224227
254666530,254665688,0.342155,0.0430371,0.0218781
254689039,254688206,-0.271384,0.402777,-0.00613335
254709064,254708228,-0.178331,0.343733,0.00430497
254731584,254730741,0.353271,-0.132479,-0.0533386
254749093,254748256,0.32554,-0.0671594,-0.0287995
254769112,254768279,0.3084,-0.0801833,-0.0429437
254789123,254788290,0.00734276,0.020712,-0.044823
254806643,254805804,-0.0223597,0.120161,-0.0164799
254829153,254828323,0.00705104,-0.246735,-0.0191343
254849178,254848348,0.290301,-0.139013,-0.0331475
254871698,254870859,-0.193129,0.519325,-0.0139702
254889203,254888372,-0.241386,0.418707,0.00902011
254909222,254908389,-0.153372,0.0572086,0.0260851
254929238,254928405,0.181285,-0.183744,-0.00908919
254946762,254945920,0.23644,-0.0899823,0.00419772
254969280,254968439,-0.167109,-0.0280015,0.0429508
254989295,254988455,-0.220461,-0.225702,0.0107845
255011831,255010974,0.0500588,0.383375,-0.0721254
255029346,255028495,-0.0487316,0.502201,-0.0182083
255049353,255048505,-0.20911,0.170424,0.0301431
255069353,255068522,0.184518,-0.0691282,-0.00146057
255086876,255086036,0.190032,0.0191498,0.00561961
255109392,255108555,-0.164445,-0.0723295,0.0211608
255129406,255128571,-0.116578,0.0971038,0.00116821
255151936,255151090,-0.0531644,-0.256868,0.0282592
255166952,255166103,-0.100615,-0.227661,0.0646799
255189460,255188621,-0.00250237,0.239198,0.0213696
255209469,255208638,-0.256643,-0.00402407,0.0757884
255226991,255226152,-0.235931,0.0445825,0.0852762
255249503,255248671,-0.164702,-0.0891948,0.032911
255269519,255268688,0.0479375,0.0960516,-0.0171377
255289540,255288706,-0.296412,0.33084,0.0172183
255307070,255306221,-0.281344,0.0394668,0.0394868
255329568,255328737,-0.088422,0.0699966,-0.0248688
255349585,255348754,-0.157044,0.17676,-0.0993082
255367129,255366277,-0.10684,0.22125,-0.0805691
255389618,255388787,0.0291527,0.0638211,-0.0324587
255409635,255408804,0.133378,0.16198,-0.0562146
255429651,255428821,-0.125043,0.208618,-0.029756
255447175,255446336,-0.038564,0.098917,-0.0166973
255469684,255468854,0.0536332,0.0939284,-0.0939097
255489710,255488870,0.0662187,0.0635274,-0.0681767
255507240,255506385,-0.0453049,0.0642493,-0.0226487
255529734,255528904,0.161395,-0.0309172,-0.065512
255549751,255548920,-0.0832399,0.168211,0.0110114
255569779,255568937,-0.0753833,-0.0921114,0.0456424
255587313,255586451,-0.0256876,-0.111975,0.0612165
255609801,255608970,0.0385057,0.0188685,-0.00356217
255629817,255628987,-0.0248107,-0.026055,0.020886
255647358,255646501,0.0391295,-0.0804998,0.0155792
255669854,255669020,-0.0770957,0.168469,0.0383697
255689867,255689037,-0.123399,-0.0294368,0.0436485
255709884,255709053,0.0211269,-0.140785,0.0493588
255727409,255726568,-0.0129604,0.022483,0.0601514
255749920,255749086,-0.0664348,-0.0114118,0.0806976
255769936,255769103,0.0300906,-0.0420289,0.0288455
255787464,255786623,0.0959799,-0.0688923,0.00421279
255807476,255806634,-0.164921,0.207494,0.0346055
255829983,255829153,0.0569692,-0.150038,0.0494747
255850000,255849169,-0.00855345,0.160905,0.0424233
255867523,255866684,0.0739687,0.0653085,0.0532552
255890042,255889209,-0.0395075,-0.00465014,0.0309071
255910058,255909227,-0.0681416,0.124516,0.0190782
255927573,255926734,0.0132815,0.105532,0.0383361
255947590,255946750,0.207489,0.0622475,-0.00644952
255970145,255969297,0.0991443,-0.000766803,0.0551676
255990117,255989286,0.125829,0.0280664,0.046546
256007640,256006800,0.0426204,0.0528747,0.0266464
256030153,256029322,0.137178,-0.0460523,0.0501673
256050184,256049342,0.00381107,-0.0235145,0.0292481
256067692,256066850,0.0118934,-0.00942993,0.0548426
256087718,256086867,0.0405204,-0.0923445,0.0303315
256110222,256109386,0.013698,0.136186,0.0513946
256130235,256129402,0.00930585,-0.19706,0.0617918
256147759,256146920,-0.0275408,0.0287586,-0.0125835
256170278,256169435,-0.0222969,-0.0131767,0.0581927
256190289,256189452,0.0459804,-0.00369289,0.0395114
256207809,256206966,-0.0245388,0.0165518,-0.0053819
256227823,256226983,-0.0835421,-0.0165772,0.0385573
256250342,256249502,0.0220376,0.0347804,-0.022078
256270350,256269518,0.0460166,-0.0649931,0.018647
256287873,256287033,0.0769894,-0.223385,0.00476734
256307892,256307050,0.0426332,-0.058638,-0.0254995
256330399,256329568,0.0863041,-0.0921242,0.00902096
256347923,256347083,0.110185,-0.109889,0.00160697
256367945,256367099,0.0210343,0.00544009,-0.0193418
256390457,256389618,0.0409704,-0.213081,0.040925
256410465,256409635,0.0416565,-0.0480332,0.0210409
256427989,256427149,-0.00771147,0.0789857,-0.00963903
256448020,256447166,-0.0199108,0.109802,-0.00119162
256470515,256469685,-0.0844124,0.207909,-0.0369088
256488056,256487199,-0.0961298,0.27294,0.0135453
256508073,256507218,0.0324353,-0.0555787,0.0321078
256530572,256529734,-0.0839973,0.0432012,0.0214169
256548092,256547252,-0.0923666,0.111939,0.0138083
256568123,256567285,-0.0583723,0.0218984,-0.0116435
256588140,256587294,-0.158718,0.22851,-0.025706
256610644,256609801,-0.0247587,-0.0568412,0.00577808
256628162,256627323,-0.0345503,0.1428,-0.0208126
256648172,256647332,-0.0645018,0.072541,0.00305651
256670685,256669851,-0.103298,0.150061,-0.010135
256688205,256687366,-0.137091,0.110981,-0.0414867
256708229,256707382,-0.150374,0.0463174,-0.0133588
256728240,256727399,-0.000163098,0.0606613,-0.0640577
256750749,256749918,0.019561,0.0340369,-0.00798531
256768284,256767432,0.0565303,-0.0819538,-0.0396272
256788294,256787449,0.0933086,0.0824368,-0.0387
256810813,256809967,0.23255,-0.0570153,-0.0638793
256828340,256827482,0.167984,0.0821746,-0.0318158
256848352,256847499,0.229827,-0.0248886,-0.0152781
256868362,256867515,0.191084,0.00837809,-0.0350435
256890866,256890034,0.210686,-0.0208403,-0.00499229
256908387,256907548,0.257127,-0.0229821,-0.0286102
256928404,256927565,0.0739515,-0.0114229,0.00673757
256950921,256950086,0.0844257,-0.0459519,-0.0550798
256970936,256970105,0.0586736,-0.120988,-0.0131041
256988469,256987615,0.0537146,-0.268717,-0.0201713
257008470,257007631,0.00777861,-0.13189,-0.010314
257030981,257030150,-0.014443,-0.247227,-0.00103208
257048504,257047665,-0.02795,-0.250859,-0.0370252
257068520,257067681,-0.105744,-0.336873,0.0267571
257088537,257087698,-0.0442322,-0.289047,-0.0291101
257111049,257110219,-0.182298,-0.204238,-0.0031472
257128574,257127731,-0.184883,-0.161258,0.0142254
257148587,257147748,-0.290896,-0.109863,-0.0182025
257171118,257170279,-0.290327,-0.0649789,0.00541765
257188624,257187785,-0.24405,0.0916276,-0.0339969
257208637,257207798,-0.190252,0.156206,-0.0331525
257228657,257227817,-0.100326,0.171305,-0.074705
257251168,257250333,-0.153551,0.172375,-0.0510648
257268687,257267848,0.0757179,0.317376,-0.0487965
257288713,257287864,0.123527,0.304803,-0.0641038
257311219,257310383,0.26373,0.311839,-0.0799426
257328737,257327898,0.318437,0.187878,-0.023442
257348753,257347914,0.177487,0.0457643,-0.0535723
257368776,257367931,0.116753,-0.0409941,0.0128737
257391298,257390450,0.177086,-0.0701814,-0.00408854
257408803,257407964,-0.0450351,-0.078815,0.0348574
257428819,257427981,-0.0137328,0.0444449,0.0157305
257451342,257450499,-0.149999,-0.0902408,-0.0123883
257468856,257468014,-0.0877371,0.102546,-0.0394282
257488870,257488031,-0.00761293,0.059199,-0.0420945
257508898,257508047,0.0282309,-0.0124636,-0.044123
257531398,257530568,-0.049154,-0.050667,-0.0238593
257548926,257548081,-0.0458825,0.0233732,-0.0526562
257568936,257568097,0.0303211,-0.0676204,-0.0462272
257588953,257588114,0.0548496,-0.0438804,-0.00548182
257606471,257605629,0.184174,-0.048493,-0.0691036
257628989,257628147,0.018571,-0.136052,-0.0105223
257649005,257648164,0.0745126,-0.0758483,-0.00512768
257671514,257670682,-0.00718283,-0.173555,-0.0128133
257689049,257688197,-0.193214,-0.146871,-0.00336567
257709057,257708218,-0.127241,-0.123764,-0.00754658
257729085,257728238,-0.115674,-0.1421,0.0131989
257746578,257745745,-0.118917,-0.0134125,-0.00301433
257769111,257768270,-0.0441439,0.0919246,0.0170657
257789121,257788282,0.00943456,0.210508,0.0234985
257811630,257810799,0.0447975,0.200373,0.0108
257829153,257828314,0.0435541,0.10545,-0.00853064
257849173,257848330,0.0952307,0.108001,0.0106059
257869190,257868347,0.0358297,0.052704,0.0302391
257886694,257885862,0.125969,-0.051309,0.0100991
257909222,257908380,0.126714,-0.074337,-0.010775
257929246,257928404,0.0931245,-0.0365439,0.0155748
257951762,257950915,0.136051,-0.00711697,0.00123014
257969291,257968437,0.014916,0.0415035,-0.0175639
257989294,257988447,0.0587595,0.0394592,0.00599415
258009318,258008463,0.0282693,0.00356637,-0.0355793
258026817,258025984,-0.0349907,-0.0445723,-0.0239835
258049354,258048503,0.0251776,0.0143697,-0.0275714
258069353,258068513,-0.0221059,0.022981,-0.0514466
258091876,258091032,-0.130242,0.0729154,-0.0330134
258106877,258106044,-0.179885,0.0701885,-0.0638768
258129403,258128563,-0.293953,0.0327081,-0.0433267
258149426,258148580,-0.291234,0.00960692,-0.0191162
258166942,258166094,-0.337388,-0.0534224,-0.025066
258189457,258188613,-0.316409,-0.0645285,0.00139326
258209469,258208630,-0.149777,-0.0698379,-0.0135186
258229490,258228651,0.039355,-0.112019,-0.0373439
258247000,258246161,-0.025463,-0.093763,0.0032741
258269519,258268680,0.101562,-0.0412329,-0.0355027
258289536,258288696,0.196217,-0.0345052,-0.0860848
258307054,258306211,0.165187,0.0896542,-0.0894493
258329569,258328730,0.228831,0.145864,-0.133952
258349603,258348746,0.234021,0.0832567,-0.198614
258369602,258368763,0.366732,0.147943,-0.21889
258387120,258386284,0.454159,0.0744893,-0.323842
258409638,258408799,0.160546,-0.0513494,-0.342287
258429655,258428813,0.135017,0.0419834,-0.446112
258447169,258446336,0.0642973,-0.108356,-0.444562
258469692,258468846,0.0419494,0.0644659,-0.481711
258489702,258488863,-0.104094,0.0304845,-0.514167
258509725,258508880,-0.151522,0.0296157,-0.516997
258527249,258526403,-0.185753,0.0382164,-0.521036
258549757,258548915,-0.126943,0.0240805,-0.508909
258569768,258568929,-0.174185,0.0818871,-0.445434
258587295,258586444,-0.257134,-0.0526175,-0.398624
258609812,258608963,-0.0743979,-0.15688,-0.328934
258629818,258628979,0.0695671,-0.172653,-0.265735
258649835,258648996,0.0459997,-0.198277,-0.24232
258667354,258666515,0.0892501,-0.302348,-0.174598
258689869,258689029,0.127666,-0.205282,-0.157653
258709885,258709046,0.213503,-0.0910187,-0.169167
258727395,258726561,0.111193,-0.131664,-0.152427
258749925,258749079,0.0133076,-0.126187,-0.114668
258769935,258769096,0.0564463,-0.0914566,-0.129798
258789953,258789113,0.0739707,-0.0170538,-0.120321
258807462,258806627,0.0340042,-0.0311035,-0.0918558
258829985,258829146,-0.0168104,-0.00711098,-0.0941456
258850002,258849162,0.0383544,0.0806068,-0.0776454
258867517,258866677,-0.00992532,0.0218905,-0.0628336
258887528,258886694,0.127978,0.0800175,-0.0745409
258910056,258909217,0.0436777,0.0239089,-0.0525915
258930068,258929229,-0.21167,0.0215855,-0.033587
258947578,258946744,-0.17111,-0.0297937,-0.0146447
258970107,258969262,-0.08154,-0.0858141,-0.0232438
258990121,258989282,-0.223941,-0.167934,-0.0202628
259007626,259006793,-0.247034,-0.222236,-0.0097134
259027642,259026810,-0.0499941,-0.281112,-0.00627996
259050169,259049329,0.0326234,-0.34467,-0.0261879
259070186,259069348,0.189972,-0.354147,-0.0221412
259087694,259086860,0.151825,-0.422914,-0.0135784
259110220,259109379,0.0610589,-0.49678,-0.00344614
259130248,259129396,0.134453,-0.421365,-0.0215955
259147746,259146913,0.140803,-0.441026,-0.0241809
259167760,259166927,0.0532373,-0.374845,-0.00424561
259190299,259189445,-0.000249439,-0.258511,0.00216657
259210310,259209462,0.149879,-0.159938,-0.0207788
259227817,259226977,0.374438,-0.0336763,0.000383627
259250350,259249495,0.550656,-0.00203472,0.00910248
259270352,259269512,0.59565,0.0450579,0.0110182
259287860,259287027,0.732763,-0.0248289,0.0106702
259307882,259307047,0.837287,-0.0478763,-0.000532134
259330410,259329565,0.90608,-0.104723,-0.000703614
259350418,259349579,0.925074,-0.205724,0.0235249
259367929,259367096,1.02522,-0.258584,0.0214537
259387945,259387112,0.824737,-0.152445,0.0335006
259410475,259409629,0.704806,-0.0308916,-0.0060686
259427979,259427144,0.743703,0.0861677,0.0318817
259448009,259447160,0.625861,0.205305,0.0267517
259470518,259469679,0.272523,0.281981,0.0661889
259490537,259489697,0.108557,0.493793,0.0519539
259508056,259507216,-0.150802,0.347166,0.0271549
259528093,259527258,-0.176997,0.362298,0.0654213
259550585,259549745,-0.174146,0.347934,0.0463812
259568100,259567261,-0.374751,0.224589,0.0546409
259588122,259587279,-0.374607,0.212282,0.105
259610635,259609795,-0.23276,0.176191,0.0581055
259630652,259629812,-0.400327,0.235385,0.0245937
259648161,259647327,-0.628532,0.0523078,0.0644538
259668182,259667350,-0.455636,0.0596795,0.0394844
259690702,259689862,-0.494354,-0.0855802,0.0190601
259708219,259707377,-0.570216,-0.0434153,0.0448507
259728232,259727393,-0.674663,-0.023417,0.00618316
259750762,259749912,-0.578415,-0.00719678,0.0315953
259768286,259767427,-0.632194,0.0509448,-0.00519824
259788286,259787443,-0.626316,0.190357,0.00762771
259808301,259807460,-0.544131,0.226178,0.00356078
259830822,259829978,-0.534458,0.318854,-0.0496185
259848351,259847496,-0.486957,0.355477,-0.00507134
259868345,259867510,-0.422223,0.311518,-0.0270845
259888362,259887527,-0.136895,0.378722,-0.0335222
259908386,259907543,-0.0184465,0.387913,-0.0568357
259928395,259927561,-0.132897,0.30064,-0.0507873
259948415,259947576,-0.0509501,0.260206,-0.0292639
259970934,259970095,0.105911,0.209793,-0.0481855
259988442,259987610,0.00474223,0.117668,-0.0261927
260008475,260007640,-0.0689879,0.0313978,-0.00755413
260028479,260027643,-0.101167,-0.0793906,-0.0144113
260051011,260050165,-0.127149,-0.164555,0.00103397
260068511,260067677,0.0166952,-0.183522,0.0150513
260088532,260087700,0.0555217,-0.171653,0.00519005
260111055,260110214,-0.0358476,-0.155453,0.0179144
260128564,260127732,-0.216697,-0.138305,0.0503109
260148578,260147743,0.077741,-0.0797339,0.0325801
260168592,260167760,0.232865,0.039347,0.00380665
260191124,260190284,0.0621016,0.0256518,0.0415872
260208631,260207793,-0.195689,0.0736601,0.0303983
260228644,260227810,-0.215104,0.0591202,0.0441955
260251168,260250329,0.0228206,0.0501418,0.0343538
260268678,260267846,0.184756,0.112754,0.0316002
260288701,260287860,0.0511543,0.0448522,-0.00206568
260308709,260307877,-0.0898647,-0.0138585,0.0351559
260331236,260330395,-0.0786924,-0.0143749,0.00428774
260348750,260347910,0.0108001,-0.114159,0.0376319
260368758,260367926,0.05932,0.0427586,0.00983613
260391303,260390445,0.0657138,-0.0160437,-0.000797852
260408802,260407960,-0.0669677,0.00150657,0.0277858
260428811,260427976,-0.0629359,-0.0167246,0.0196074
260448825,260447993,0.0321716,0.0605954,0.0206212
260471354,260470512,0.0491088,0.0544631,0.0401101
260488859,260488026,-0.00976448,0.0295639,0.0147856
260508875,260508043,0.0125933,-0.0668708,0.0454799
260528892,260528060,0.0955078,-0.087485,0.0498609
260548914,260548079,0.0396142,-0.0387928,0.019344
260568938,260568093,-0.0351423,-0.00540198,0.0247588
260588945,260588110,-0.0778619,-0.0211546,0.0298219
260611476,260610628,-0.134911,0.0166694,0.00945492
260628991,260628152,-0.0938265,0.0418708,0.0394307
260648992,260648160,-0.103606,0.0604412,0.0254572
260669018,260668177,-0.0110794,0.0482752,0.00758425
260686532,260685692,-0.00257767,0.030324,0.0115285
260709055,260708215,-0.0569543,0.00889525,0.0144774
260729077,260728228,-0.0735304,-0.035205,0.0191761
260751584,260750745,0.049535,-0.0561058,0.0096571
260769098,260768260,0.12977,0.0547203,-0.0101367
260789123,260788290,0.0301524,-0.0209647,-0.0166515
260809128,260808296,-0.0502516,-0.0854891,0.0061855
260826659,260825808,0.075123,0.0315302,-0.0149843
260849159,260848327,0.0962708,0.0688792,-0.03298
260869179,260868346,-0.0589806,-0.00027802,-0.0457863
260891718,260890862,-0.108034,-0.00121895,-0.0427501
260909220,260908383,-0.0760856,0.0213984,-0.0138098
260929233,260928396,0.0125956,0.0627718,-0.0398241
260949254,260948417,0.0791263,0.0242205,-0.0266583
260966763,260965924,0.057772,-0.0506661,-0.0116095
260989289,260988443,0.0724936,-0.0631515,-0.0145796
261009300,261008460,0.0503466,-0.0501363,0.00311145
261031834,261030978,0.137267,-0.0313066,-0.0153679
261049335,261048493,0.314609,-0.012015,-0.0116221
261069344,261068510,0.281649,0.0602854,-0.0243378
261089371,261088527,0.165419,0.0499532,-0.0208153
261106886,261106041,0.309115,-0.0357571,0.0103504
261129398,261128556,0.527362,0.0108963,-0.00788921
261149418,261148576,0.564187,0.00675684,-0.0187074
261169428,261168593,0.367954,-0.0211272,-0.00142922
261186949,261186108,0.249886,-0.0117626,0.00253084
261209468,261208626,0.305976,-0.00322054,-0.012454
261229475,261228643,0.418116,0.00750273,-0.0119016
261246999,261246158,0.311185,-0.0367921,0.00447248
261269509,261268677,0.0990587,-0.0458325,0.0105137
261289535,261288693,0.102794,-0.0161082,0.00151292
261309549,261308710,0.195056,-0.00570862,-0.0166119
261327065,261326226,0.130084,-0.0457278,-0.0196194
261349576,261348743,-0.102142,-0.0885193,0.0160054
261369592,261368760,-0.180248,-0.0968401,0.0373112
261387120,261386280,-0.161669,0.0495581,-0.00693576
261409635,261408802,-0.0325407,0.00186217,-0.0175387
261427147,261426308,-0.163727,-0.0140863,0.00711619
261449659,261448826,-0.357376,0.0267393,0.00260667
261467180,261466341,-0.252326,0.0201429,-0.00194357
261489709,261488876,-0.160763,0.064134,-0.0215217
261507219,261506375,-0.31011,0.0151356,-0.0134958
261527243,261526391,-0.493739,-0.0511178,0.030076
261549757,261548910,-0.57308,-0.013937,-0.00247548
261567307,261566433,-0.357731,0.0351847,-0.0147219
261587298,261586441,-0.21465,0.0867994,-0.0513859
261607323,261606458,-0.380211,-0.0239542,-0.0192668
261629809,261628976,-0.467223,-0.0334287,-0.0073521
261647351,261646494,-0.291787,-0.0763697,-0.0111367
261667358,261666508,-0.0506689,-0.013328,-0.0333623
261689863,261689027,-0.00592286,-0.0622728,-0.0165075
261707384,261706541,0.0630427,-0.0526931,-0.0165496
261727399,261726560,-0.0332693,-0.0162992,-0.0148601
261747416,261746575,-0.0610843,0.0206088,-0.036406
261769925,261769093,0.0636454,-0.00955119,-0.034252
261787447,261786608,0.0370769,-0.0401401,-0.0139759
261807463,261806624,0.043926,0.0117548,0.000681698
261827483,261826641,-0.0328935,0.0639588,-0.0116581
261849992,261849160,-0.0104508,0.0623436,-0.0204266
261867513,261866674,-0.303027,0.0665728,-0.00513584
261887536,261886691,-0.307275,0.016546,0.0374991
261910046,261909210,-0.258667,0.0663675,0.0103212
261927570,261926732,-0.123457,0.113084,-0.0123928
261947581,261946741,-0.139017,0.189946,-0.0414349
261967597,261966758,-0.166799,0.0908113,0.00867991
261990114,261989281,0.00295906,0.0111755,0.00835741
262007631,262006791,0.255107,-0.0108529,-0.00547684
262027648,262026808,0.385916,-0.0451596,-0.0385736
262050166,262049327,0.375039,-0.100801,-0.0167485
262067681,262066841,0.402347,-0.140512,0.0113818
262087698,262086858,0.443593,-0.0943929,-0.0112593
262107714,262106874,0.309546,0.00651581,-0.0345664
262130245,262129408,0.0966076,0.0234681,-0.000121705
262147747,262146908,-0.0641821,0.00517012,0.0108901
262167767,262166924,-0.0143753,-0.00232794,0.0264838
262190312,262189446,0.108267,0.0252432,-0.00229052
262207807,262206958,0.0736749,0.0863889,-0.00770503
262227822,262226974,-0.0871743,0.0580841,-0.0125329
262247831,262246991,-0.248404,-0.0674331,0.0167155
262270345,262269510,-0.249126,-0.14119,0.00909712
262287864,262287024,-0.116326,-0.20866,0.0220196
262307883,262307041,-0.0184683,-0.0546383,0.0132658
262327899,262327059,0.000189997,0.022081,0.0212812
262350418,262349577,-0.106841,0.0575593,0.0366434
262367930,262367091,-0.164468,0.124021,0.0214425
262387954,262387108,-0.110228,0.0504634,0.00467365
262410462,262409627,-0.0312332,0.0410707,0.0210273
262428003,262427148,-0.0341505,0.000882972,0.0136935
262447997,262447158,-0.125806,-0.000338377,0.0361931
262468013,262467174,-0.281148,0.0661213,0.0284656
262490531,262489693,0.135368,-0.0488538,0.00337715
262508068,262507208,0.39218,-0.0671186,0.035544
262528075,262527236,0.419166,-0.118481,0.00532751
262550578,262549743,0.198814,-0.0822497,0.0304298
262568109,262567261,0.0185887,-0.0986325,0.0708118
262588120,262587276,-0.170693,-0.0469197,0.0262971
262608140,262607299,-0.247098,0.00806336,0.0577888
262630646,262629810,-0.303694,0.0569248,0.0552514
262648165,262647326,-0.250779,0.0533935,0.0282849
262668180,262667341,-0.163402,0.0641826,0.0376826
262690693,262689860,-0.0106514,0.0867968,0.00577517
262708216,262707375,-0.0555348,0.0446459,0.00718419
262728232,262727391,-0.15425,0.0136305,0.037359
262748249,262747408,-0.179699,0.0358857,0.0258434
262770768,262769936,-0.0252885,0.0818882,0.0130043
262788289,262787441,-0.128791,0.138295,-0.00189616
262808303,262807458,-0.160379,0.0227642,0.0266781
262830827,262829976,-0.186752,-0.0249857,0.0569714
262848350,262847491,0.0344713,-0.077528,0.0378946
262868349,262867508,0.189754,-0.0598673,0.018522
262888364,262887524,0.241487,-0.113632,0.00340461
262910876,262910043,0.166207,-0.0807068,0.0340069
262928397,262927558,0.138638,-0.0855338,0.0182308
262948414,262947574,0.0637393,0.03393,0.00396609
262968430,262967591,0.104765,0.104815,-0.00541491
262990944,262990110,0.136988,0.0609604,-0.00693121
263008471,263007624,0.0753387,-0.00798363,0.0111641
263028480,263027641,0.0868562,-0.0675061,0.0470565
263051006,263050166,0.166286,-0.041511,0.015999
263068513,263067674,0.128901,0.0393607,-0.0120692
263088534,263087691,0.0889153,0.0174424,0.00403539
263108549,263107708,-0.122443,-0.0161986,0.030144
263131084,263130243,-0.128891,-0.000959634,0.00353545
263148580,263147741,0.0891469,-0.0670987,0.0349852
263168609,263167758,0.199204,-0.0343436,0.0186562
263191127,263190291,0.153764,-0.013499,0.0148542
263208632,263207791,-0.0376629,0.0569315,0.0124396
263228649,263227808,-0.222384,0.104611,0.0201357
263248682,263247843,-0.139294,0.0387257,0.0319293
263271184,263270346,-0.114569,0.0548493,0.0276981
263288703,263287858,0.120961,0.0987691,0.00199393
263308713,263307874,0.110433,0.152315,0.00166992
263331230,263330393,0.152695,0.152056,-0.0202787
263348757,263347908,0.0799714,0.0863224,-0.00799409
263368763,263367924,0.0309292,0.00916865,-0.012921
263388783,263387941,-0.0888306,-0.0413451,0.00803164
263411302,263410460,-0.0900628,-0.0280117,-0.00118488
263428813,263427974,-0.0080515,-0.0481545,-0.0236266
263448830,263447991,0.144188,-0.0438537,-0.0144195
263471351,263470510,0.0160477,-0.0667063,0.0114447
263488867,263488024,-0.0793724,-0.0621256,-0.00317173
263508880,263508041,-0.202948,-0.067096,-0.0122277
263528897,263528058,-0.132332,-0.0616802,-0.0106569
263551427,263550577,-0.133615,0.0435044,0.00883255
263568930,263568091,0.0112424,0.258054,-0.037247
263588947,263588108,-0.0220415,0.476515,-0.0263495
263608963,263608124,0.0339781,0.566066,-0.0276824
263626472,263625639,0.0714079,0.586385,-0.0174048
263649000,263648158,0.0574104,0.600559,0.00842529
263669014,263668174,-0.0376253,0.508877,-0.00122327
263691526,263690693,-0.0112597,0.433266,-0.0081315
263709054,263708208,-0.145875,0.353339,-0.0286107
263729068,263728226,-0.146855,-0.00710519,-0.00606308
263749093,263748244,-0.132804,-0.285375,0.048439
263766587,263765756,-0.0642697,-0.44163,0.00820115
263789123,263788281,-0.0180539,-0.538227,-0.0198281
263809132,263808293,0.109635,-0.622239,-0.00633529
263831651,263830819,-0.0503206,-0.597776,-0.00284936
263849168,263848327,0.0982202,-0.547053,0.0066638
263869197,263868350,-0.0116437,-0.39528,-0.0298829
263889200,263888358,-0.0214664,-0.333624,-0.0253865
263906703,263905872,-0.044202,-0.240914,-0.00803391
263929233,263928391,-0.153147,-0.178699,0.012242
263949274,263948422,-0.176961,-0.0199715,-0.000686729
263971776,263970927,0.0664021,0.0896924,-0.0212854
263989308,263988435,0.112768,0.152759,-0.0330036
264009313,264008458,0.0667383,0.155304,0.00323489
264029337,264028475,0.0618542,0.107237,0.0218517
264046820,264045989,-0.0464687,0.19772,-0.00200977
264069363,264068509,0.0522867,0.180623,-0.0127626
264089366,264088527,0.0741242,0.0322478,0.0287488
264109408,264108569,0.0429986,0.0578921,0.0187223
264126886,264126056,-0.0513251,0.0272567,-0.00902277
264149421,264148582,-0.0423737,-0.076105,-0.00210766
264169433,264168591,0.0514742,-0.0793813,0.00800559
264186937,264186106,0.0553227,-0.0715723,-0.0269814
264209464,264208624,-0.0963835,-0.108578,-0.0121683
264229484,264228641,-0.0362588,-0.113007,-0.00655521
264249500,264248658,0.0513519,-0.0860186,-0.0282554
264267006,264266172,0.0465078,-0.134311,-0.0123842
264289531,264288691,-0.0491432,-0.112635,-0.00192913
264309547,264308708,-0.0308776,-0.0717178,-0.00981699
264327055,264326224,-0.083842,-0.0591094,0.00493617
264349580,264348741,-0.0351411,-0.0232598,0.00679933
264369597,264368758,-0.0372867,-0.0305203,-0.00268505
264389614,264388774,-0.239675,-0.0151463,-0.0166839
264407123,264406289,-0.301199,0.0087772,0.0263251
264429649,264428808,-0.256052,0.0107496,-0.019563
264449672,264448824,-0.28081,0.0760808,-0.00424764
264467173,264466343,-0.256696,0.0345706,-0.00929048
264489699,264488858,-0.34894,-0.00778173,0.00883072
264509717,264508874,-0.406726,0.0343,0.00126927
264529733,264528891,-0.26806,0.00413049,-0.0142847
264547263,264546421,-0.246759,0.0372712,-0.00204373
264569763,264568925,-0.304443,0.041373,0.00173094
264589783,264588942,-0.275455,0.0178237,0.0352099
264607303,264606456,-0.290415,0.0921576,-0.0108749
264629831,264628974,-0.0775551,0.144062,-0.0232809
264649833,264648991,-0.049609,0.0179685,0.037135
264669847,264669008,0.0627687,-0.00928487,0.0334106
264687361,264686522,0.107611,-0.0475815,-0.00614524
264709880,264709041,0.282694,-0.0702414,-0.0224715
264729904,264729058,0.405017,-0.0900185,-0.011828
264747405,264746572,0.547523,-0.104622,-0.0102509
264767420,264766589,0.507048,-0.0956113,0.00550665
264789948,264789108,0.496316,-0.0489996,-0.0021894
264809966,264809125,0.321067,0.0267807,-0.000579898
264827473,264826639,0.244977,0.024297,0.00983287
264850006,264849167,0.0201735,0.0387513,0.0252366
264870014,264869175,0.0131533,-0.0042246,0.00169023
264887521,264886689,-0.102542,0.0187884,0.00811179
264907537,264906706,-0.078174,0.026542,0.00411867
264930065,264929226,-0.111921,-0.00423064,0.0142351
264950087,264949241,-0.143109,0.0188287,0.0319601
264967587,264966756,0.0707571,-0.00163502,0.00763683
264990120,264989281,0.353305,0.0261378,0.00639608
265010132,265009293,0.406987,-0.00195091,-0.0026747
265027637,265026806,0.135002,-0.0360268,0.0134147
265047653,265046822,-0.181463,-0.0539282,0.0345053
265070180,265069341,-0.212291,-0.0749409,0.0114194
265090197,265089358,-0.203632,-0.118292,0.00935217
265107704,265106872,0.0014915,-0.052586,0.0029179
265130232,265129391,-0.118875,0.0411441,-0.000160525
265150249,265149408,-0.200014,0.12121,-0.0345042
265167761,265166923,-0.383646,0.0378921,0.0290892
265187771,265186939,-0.397623,0.0432467,0.0319536
265210303,265209458,-0.337839,0.0171469,0.0132525
265230331,265229474,-0.114711,0.0585611,0.0288641
265247826,265246992,-0.0584374,0.20649,-0.02309
265270359,265269508,0.151249,0.15536,-0.0151193
265290369,265289525,0.119527,0.0455455,0.0216726
265307874,265307039,0.15189,-0.0233197,0.00506717
265327887,265327056,0.186177,-0.147721,0.00537196
265350429,265349575,0.303802,-0.177434,-0.0161725
265370431,265369591,0.299629,-0.213528,-0.00655857
265387937,265387106,0.337506,-0.213234,0.00505044
265407953,265407122,0.257686,-0.0815009,0.00336874
265430483,265429644,0.189623,0.0357561,0.00457859
265447987,265447156,0.145725,0.0847279,-0.00400967
265468003,265467172,0.237568,0.060734,0.00864338
265490533,265489691,0.0527006,0.0525201,0.0244275
265510553,265509714,0.111512,0.00835053,0.0168962
265528071,265527234,-0.101696,0.0701867,0.010935
265548083,265547252,-0.0388899,0.0563958,-0.0126274
265570598,265569758,-0.151671,-0.00402293,0.0125293
265588110,265587274,-0.0397826,-0.0331932,0.0397009
265608130,265607300,-0.0290596,-0.0658186,0.0315953
265630666,265629830,0.104552,-0.0346172,0.0196167
265650664,265649825,0.158394,0.0214337,-0.0104216
265668172,265667341,-0.0637366,-0.0436218,0.0116288
265688197,265687366,-0.139688,-0.0357367,0.0210952
265710714,265709875,-0.121313,-0.023678,0.00261407
265728224,265727389,-0.111882,0.0947521,-0.0544671
265748241,265747406,-0.0954833,0.00174092,-0.00994475
265770774,265769925,-0.164819,-0.020894,-0.00890015
265788309,265787439,-0.00822244,0.0145276,0.000120985
265808299,265807456,0.0112654,0.038116,-0.0322555
265828317,265827472,0.0885736,0.0585966,-0.0220366
265850840,265849991,0.124304,0.025786,-0.0229203
265868354,265867506,0.220247,0.0378639,-0.0274499
265888353,265887523,0.161086,0.0374009,-0.0228084
265908370,265907539,0.181914,-0.0126305,-0.022614
265930897,265930058,0.129669,-0.0525315,-0.00569653
265948417,265947573,0.101829,-0.0893588,-0.0154725
265968427,265967589,0.000326037,-0.0982267,-0.0254503
265990950,265990108,-0.0156441,-0.0545326,-0.000271806
266008453,266007623,-0.0259958,-0.0690107,-0.0221327
266028476,266027639,-0.0145841,-0.0272158,-0.0198199
266048490,266047656,-0.00389942,0.010525,0.000248336
266071019,266070175,-0.0174029,0.0247194,-0.0146544
266088520,266087689,-0.0960829,0.0359103,-0.0152212
266108536,266107706,0.0277863,0.0525156,-0.0151927
266131091,266130226,0.00867364,0.0501375,-0.0164979
266148570,266147739,-0.0515391,0.0333949,-0.0123879
266168587,266167756,-0.0910517,0.0434036,-0.000505545
266188603,266187773,-0.0391699,0.00490261,-0.00735394
266211134,266210295,0.0506129,0.00154671,-0.00940484
266228637,266227806,0.0228221,0.0121718,-0.00415932
266248654,266247823,-0.0355955,-0.0102537,0.00220314
266271181,266270342,-0.0184124,-0.00438194,-0.00477277
266288687,266287856,-0.0133757,0.0252193,-0.00557269
266308706,266307873,0.140379,0.00565479,-0.00528598
266328720,266327889,0.0852307,0.0147553,-0.00835829
266351252,266350408,0.00939937,0.0113667,0.00301089
266368757,266367923,-0.00836254,-0.0240082,0.00495932
266388774,266387939,0.129111,-0.0204829,-0.0175902
266411314,266410458,0.112933,-0.0318819,-0.00273858
266428823,266427973,-0.0121662,-0.11132,0.0165426
266448823,266447989,-0.0392396,-0.0813138,0.00055954
266468836,266468006,-0.0367464,-0.0716297,0.000754278
266491364,266490525,-0.0286791,-0.06698,0.00752234
266508871,266508039,0.0224233,-0.0163925,0.00368149
266528887,266528056,-0.0755618,0.100181,0.00438078
266551417,266550575,-0.0432185,0.134984,-0.0178244
266566427,266565587,-0.0180471,0.0748807,0.00909589
266588938,266588106,0.0862373,-0.0144894,0.0178807
266608954,266608123,-0.0456066,-0.0408212,0.0192227
266631481,266630642,-0.193979,-0.0524338,0.0136673
266649005,266648166,-0.208985,-0.0551293,0.0323374
266669004,266668173,-0.0843989,-0.114545,0.0159054
266689026,266688192,0.0524489,-0.110974,0.0274421
266706543,266705704,0.00806662,-0.0819739,0.011062
266729062,266728227,-0.00253263,-0.0801598,0.00594
266749092,266748242,0.0921973,-0.0671913,0.00333419
266771598,266770758,0.110081,-0.024202,0.00744231
266789111,266788279,0.0300761,-0.0276905,0.0175184
266809121,266808290,-0.164121,0.000296632,0.0180816
266829141,266828307,-0.197752,0.0189283,0.0016172
266846669,266845821,-0.0907478,0.136269,-0.00944104
266869171,266868340,0.0691464,0.0909735,-0.00913496
266889191,266888357,-0.00543947,0.0986665,-0.00392504
266911727,266910875,-0.033716,0.0862088,-0.041404
266929223,266928390,-0.0467006,0.0232236,-0.00934521
266949243,266948410,0.195248,-0.063633,-0.0275883
266969256,266968423,0.292007,-0.1118,-0.0288581
266986783,266985938,0.20561,-0.0902108,-0.0185964
267009299,267008456,0.0644619,0.0355859,-0.0435894
267029310,267028473,0.206342,-0.0422765,-0.0228794
267051835,267050992,-0.0338954,-0.0458169,-0.00758594
267069356,267068506,-0.0425413,-0.0377842,-0.0175145
267089357,267088523,-0.173843,-0.00962752,-0.0144164
267109379,267108540,-0.269629,0.0255122,-0.0375235
267126897,267126054,-0.319201,-0.00947718,-0.0218212
267149404,267148573,-0.263942,0.0241213,-0.020023
267169423,267168590,-0.241322,0.0087006,-0.0110161
267189440,267188607,-0.235542,0.0553376,-0.0238554
267206966,267206124,-0.20842,0.0823575,-0.0315149
267229470,267228640,-0.122935,0.0537613,-0.0185081
267249487,267248657,-0.0980722,0.0301849,-0.00806699
267267014,267266171,-0.0440379,0.0833082,-0.0497755
267289521,267288690,0.0603944,0.167146,-0.0433372
267309543,267308707,0.183715,0.13219,-0.0322312
267329554,267328723,0.220216,0.0552685,-0.00549778
267347084,267346238,0.2893,-0.0327724,-0.00243635
267369587,267368757,0.273187,-0.111977,0.00531831
267389612,267388773,0.290681,-0.0943805,-0.00703427
267407127,267406288,0.216158,-0.108132,0.0121703
267429644,267428810,0.0926791,-0.0437765,0.0468905
267449654,267448823,-0.0084714,-0.0252252,0.0459662
267469679,267468846,0.021846,-0.0124402,0.0352512
267487197,267486355,-0.0440568,0.0646916,0.00245301
267509706,267508875,0.136982,0.0713137,-0.0210102
267529721,267528890,-0.105186,0.0325645,0.017541
267547255,267546405,-0.337022,0.118998,0.0546757
267569765,267568923,-0.472718,0.141476,0.00560913
267589782,267588940,-0.453441,0.151347,0.000487833
267609794,267608957,-0.352029,0.0945968,0.00371347
267627325,267626471,-0.195459,0.0139464,-0.027072
267649821,267648990,-0.15655,0.0148183,0.00164008
267669838,267669007,0.130411,0.0559547,-0.0138843
267687368,267686521,0.360203,0.0681972,-0.0372281
267709874,267709040,0.536522,0.0835972,-0.00913531
267729888,267729057,0.512455,0.0947765,-0.021589
267749904,267749074,0.449723,0.0941856,-0.0129358
267767431,267766588,0.3204,0.0611322,0.00378884
267789938,267789107,0.192027,-0.0400553,0.00092357
267809954,267809124,-0.131191,-0.138434,0.0207625
267827486,267826647,-0.259948,-0.123072,-0.00559311
267847495,267846655,-0.33604,-0.144132,0.014919
267870007,267869174,-0.145632,-0.126025,-0.00815595
267890033,267889190,-0.0491773,-0.0998218,0.0156407
267907551,267906708,-0.110007,0.00761053,0.00586779
267930056,267929226,-0.1344,0.293289,-0.0382321
267950090,267949242,-0.0743618,0.397687,-0.0220091
267967598,267966755,-0.132703,0.462369,-0.00889361
267987616,267986777,-0.2246,0.572034,-0.0195007
268010138,268009292,-0.431618,0.664703,-0.00900638
268030138,268029307,-0.382316,0.725308,-0.0328542
268047661,268046822,-0.172031,0.660551,-0.005163
268070171,268069341,-0.0103324,0.573292,-0.0174816
268090192,268089357,0.0497286,0.24461,-0.0200686
268107713,268106873,0.113467,-0.0190735,0.0357785
268127744,268126905,0.162242,-0.302777,0.0246145
268150243,268149407,0.296405,-0.57176,-0.0200167
268170271,268169424,0.405358,-0.708679,0.0036427
268187784,268186938,0.427249,-0.709289,-0.00679809
268210324,268209465,0.402296,-0.665976,-0.00775093
268230315,268229474,0.396278,-0.489668,-0.0102043
268247828,268246988,0.285942,-0.45043,0.00741573
268267844,268267005,0.249153,-0.309256,0.0127662
268290373,268289542,-0.0271382,-0.108437,0.0314262
268310379,268309548,-0.177047,-0.0301167,-0.00591503
268327903,268327055,-0.233465,0.0537017,-0.00523148
268350415,268349574,-0.123938,0.137471,-0.00788705
268370435,268369591,-0.125505,0.141093,-0.00618192
268387945,268387105,-0.0997939,0.127377,0.00327393
268407964,268407122,-0.134826,0.116891,-0.0131188
268430472,268429641,-0.0558331,0.0690643,-0.0278319
268448015,268447156,-0.0159293,0.0813908,-0.0329184
268468024,268467172,-0.0359233,0.0638203,-0.0180238
268488030,268487189,-0.121139,0.00783481,-0.00683976
268510539,268509708,-0.203599,-0.0276245,-0.0179955
268528089,268527236,-0.171669,-0.0169031,-0.0349553
268548099,268547256,-0.0688599,-0.0373627,-0.0379433
268570588,268569757,0.0453892,-0.0981868,-0.0163152
268588118,268587274,-0.0158674,-0.0795035,0.0122506
268608144,268607305,-0.00861089,-0.0820353,0.0120066
268628146,268627307,0.076679,-0.084875,0.0177119
268650658,268649824,0.103675,-0.130172,0.00201466
268668178,268667339,0.0655924,-0.14522,0.0277206
268688199,268687361,-0.0631593,-0.12854,0.035819
268710713,268709874,-0.0715008,-0.0980646,0.00561259
268728263,268727403,-0.0514532,-0.0822384,0.0190792
268748250,268747406,-0.0346773,-0.0651806,0.0259838
268768269,268767422,-0.0867932,-0.0438873,0.0316633
268790786,268789943,-0.0365742,-0.00954664,0.0318315
268808322,268807455,-0.12958,0.0340464,0.0110023
268828320,268827472,0.0776482,0.0660125,0.00242371
268850826,268849991,0.105746,0.0346759,0.0218561
268868357,268867505,-0.0028523,0.0804636,0.0107444
268888371,268887522,-0.1527,0.0647757,0.00679365
268908378,268907539,-0.163208,0.098019,-0.00673903
268930889,268930058,0.0409512,0.108212,-0.0254895
268948412,268947572,0.128296,0.0832196,0.0122451
268968428,268967589,0.01216,0.0420597,0.0102012
268988445,268987606,-0.122916,0.0154183,0.00445241
269010955,269010124,0.0742344,-0.0522976,-0.00725194
269028481,269027639,0.0541701,-0.0636502,-0.00842415
269048495,269047656,0.0289295,-0.109155,-0.0054566
269071010,269070179,-0.225168,-0.085876,0.0109135
269088528,269087689,-0.360411,-0.032815,0.00835797
269108552,269107706,-0.22816,-0.0186351,-0.0153655
269128561,269127722,-0.156561,-0.00260933,-0.0158606
269151079,269150241,-0.48245,0.0031365,-0.00572233
269168595,269167756,-0.438261,-0.0114284,0.0429531
269188614,269187772,-0.497369,0.0370438,0.00615642
269211122,269210291,-0.111386,0.0268862,-0.014018
269228644,269227806,-0.0876764,-0.00824516,0.00368763
269248664,269247822,-0.206168,-0.00487307,-0.0177298
269268678,269267839,-0.243132,0.0316663,0.00314453
269291189,269290358,0.147047,0.0301725,-0.0177258
269308724,269307875,0.265748,0.00361556,-0.0169999
269328728,269327889,0.370494,-0.028531,-0.00210145
269351256,269350408,0.263096,-0.0200251,0.0275817
269368772,269367922,0.29837,0.0922837,-0.0027133
269388780,269387940,0.655818,0.00357453,-0.0218449
269408796,269407956,0.633565,0.0211371,0.0191292
269431315,269430475,0.263773,0.0556653,0.00375829
269448829,269447989,0.294939,0.082312,0.0187718
269468854,269468015,0.17415,0.115127,-0.0544487
269491365,269490525,0.20967,0.0548663,-0.033113
269506372,269505537,0.203472,0.0255483,0.0341373
269528896,269528056,-0.167422,0.0121828,0.0466009
269548912,269548073,-0.212236,0.0753539,0.0211568
269571435,269570595,-0.0440826,0.0793881,-0.0101148
269588948,269588106,-0.0545017,0.0409473,0.0077023
269608962,269608123,-0.129284,0.0377291,0.0297707
269628979,269628139,-0.09752,0.085539,0.0198228
269646492,269645654,-0.164296,0.0105686,0.0235013
269669021,269668175,0.13585,-0.0207066,0.00442168
269689031,269688189,0.138352,-0.00759271,0.00584425
269711539,269710708,0.0766002,-0.0102052,-0.0186452
269729064,269728225,0.154337,-0.0609925,0.00204397
269749084,269748238,0.200219,-0.0887802,-0.0146998
269769114,269768258,0.158241,-0.118653,-0.00190696
269786618,269785771,0.160845,-0.121156,0.00643457
269809140,269808290,0.111148,-0.1249,-0.0264822
269829145,269828306,0.147777,-0.115403,-0.02398
269851656,269850825,-0.0356034,-0.116658,-0.00442833
269869182,269868340,-0.0716611,-0.0809247,-0.00609059
269889198,269888356,-0.0114896,-0.01474,-0.0287821
269909214,269908373,0.0533254,0.0161214,-0.0138471
269926720,269925888,0.0179548,0.0169401,-0.0109207
269949253,269948406,-0.109302,0.0336801,-0.00516077
269969276,269968423,-0.123507,0.0971913,-0.0174602
269991784,269990942,0.00806345,0.0898867,-0.028843
270009319,270008457,-0.0225079,-0.012876,-0.0111432
270029320,270028473,-0.0756737,-0.0157906,-0.00436057
270049335,270048490,-0.148545,0.0968659,-0.033883
270066843,270066004,-0.0586643,-0.0209918,0.015635
270089371,270088526,0.127017,0.0858269,0.029407
270109381,270108540,0.132553,0.220843,0.00227678
270129409,270128563,0.000591043,0.254982,-0.0128281
270149421,270148573,-0.0694717,0.2512,0.0163369
270169429,270168590,0.130408,0.259791,0.0152841
270189449,270188609,0.0962168,0.2352,-0.0139626
270206954,270206121,0.0249785,0.126117,0.0283141
270229479,270228640,-0.13635,-0.0257785,0.000886135
270249496,270248657,-0.109572,-0.0901953,0.0265302
270269512,270268673,-0.102668,-0.189371,0.00194202
270287037,270286188,-0.143292,-0.235434,0.000291558
270309546,270308706,-0.153996,-0.298218,0.00919787
270329566,270328723,-0.160989,-0.250287,0.00286416
270347086,270346238,-0.0685795,-0.265248,0.00748482
270369598,270368757,0.105473,-0.195,0.0094325
270389612,270388773,0.129729,-0.103071,-0.0238083
270409629,270408790,0.0526413,-0.0606938,-0.012499
270427141,270426306,0.143092,0.0281751,0.00975597
270449663,270448823,0.151851,0.0765393,-0.0119473
270469679,270468840,0.0805566,0.0735024,-0.00634534
270487187,270486355,0.166815,-0.0115238,0.0291854
270509712,270508873,-0.0356157,-0.0253593,0.0397705
270529729,270528890,-0.0861062,0.00650917,0.00707956
270549754,270548907,-0.0596195,-0.0556228,-0.0278268
270567278,270566422,0.0740963,-0.100998,0.006207
270589779,270588940,-0.0855039,-0.175417,0.0043941
270609796,270608957,-0.0806894,-0.13025,-0.0101888
270627318,270626471,-0.0158731,-0.162575,-0.0127717
270649834,270648990,0.128482,-0.0938884,-0.010129
270669849,270669007,0.105945,-0.0581179,-0.0325434
270689862,270689023,0.0792847,0.010888,-0.0370994
270707373,270706538,0.0450429,0.0735484,0.00590673
270729896,270729057,0.106405,0.127128,-0.0191967
270749913,270749073,0.0573547,0.154951,-0.0206624
270767432,270766589,-0.00404528,0.136576,-8.21965e-05
270787450,270786614,-0.0450604,0.121638,-0.00575599
270809962,270809123,0.0317488,0.101528,-0.000555605
270829985,270829140,0.0514022,0.0471923,-0.00147549
270847490,270846655,0.0313405,0.00975018,-0.0112957
270870020,270869173,-0.0014537,-0.0133634,0.00209837
270890043,270889190,0.0459708,-0.0651017,-0.00775177
270907545,270906705,0.110937,-0.025971,-0.0340951
270927558,270926723,0.0782296,-0.0610367,-0.0155178
270950092,270949248,0.0066037,-0.0970251,-0.00872819
270970117,270969271,0.0576058,-0.0859996,0.0188797
270987610,270986772,0.0849058,0.0597779,-0.0476054
271010130,271009291,0.0682072,0.0469343,-0.047646
271030151,271029312,-0.0254804,0.0289231,0.00570681
271047654,271046822,0.0602243,0.196251,-0.0368743
271067684,271066843,-0.0618444,0.169499,-0.0532849
271090200,271089357,-0.0129159,0.188622,-0.0333524
271110216,271109374,0.0205652,0.14361,0.019989
271127733,271126888,-0.0584754,0.248752,-0.0247346
271150263,271149407,-0.146844,0.157925,-0.00514844
271170275,271169424,-0.135185,-0.0248081,0.0205927
271187773,271186938,-0.162433,-0.0467287,0.0017682
271207790,271206955,-0.248663,-0.135443,-0.00567229
271230341,271229477,-0.288522,-0.302731,0.00435514
271250345,271249490,-0.179497,-0.33106,0.00282664
271267839,271267006,-0.0946553,-0.273074,-0.00108132
271290373,271289524,-0.0163808,-0.259041,0.00496075
271310381,271309542,-0.0175097,-0.186336,0.00123573
271327889,271327057,0.0785933,-0.0918097,0.0111164
271347907,271347075,0.0938253,-0.0591554,0.00150187
271370431,271369591,0.128658,0.0168643,0.00453479
271390449,271389609,0.145583,0.0562772,-0.00448452
271407954,271407122,0.107425,0.0969937,-0.00907229
271427971,271427139,0.0871328,0.0491814,0.00567805
271450500,271449657,0.0627957,0.0364205,0.002264
271468013,271467178,0.0070566,0.0884292,0.00787941
271488038,271487189,-0.0449933,0.0598609,0.00443972
271510547,271509707,-0.0598046,0.0293466,0.0142147
271530563,271529724,-0.0275448,-0.0115555,0.0107597
271548086,271547254,-0.090507,0.0860683,-0.0266418
271568097,271567258,-0.151154,0.0730281,-0.0196705
271590613,271589774,-0.187941,0.0894254,-0.0027737
271608129,271607297,-0.0649449,0.000484185,0.0133845
271628139,271627307,-0.00820898,0.0496157,0.0146032
271650664,271649824,-0.117892,0.0563521,0.0161403
271670683,271669841,-0.103894,0.0539925,0.020352
271688197,271687358,-0.193135,0.0314783,0.0113562
271708206,271707375,-0.0192885,-0.0250213,0.0240443
271730745,271729900,0.159127,-0.0503343,0.00451903
271748242,271747406,0.298373,-0.0148719,-0.0175825
271768276,271767431,0.252597,-0.030653,-0.0213505
271790791,271789941,0.0949671,-0.0546199,-0.0125126
271808311,271807456,-0.0482414,-0.0679907,0.00215775
271828313,271827472,-0.0975554,-0.0714597,-0.000746663
271848332,271847489,0.0459704,-0.0541946,-0.0107073
271870856,271870008,0.0994504,-0.0556646,-0.00117118
271888360,271887523,0.12703,-0.0412091,-0.0305332
271908376,271907539,0.0182526,-0.0441807,-0.0028492
271928403,271927557,-0.0745111,-0.0201595,-0.0227381
271950914,271950074,-0.0286448,0.00113768,-0.018109
271968426,271967589,-0.0389209,0.0226779,-0.010584
271988444,271987606,-0.0583469,0.0400852,-0.0184355
272010966,272010124,-0.0587083,0.091781,-0.0246537
272028473,272027639,0.0826887,0.0324703,-0.0242913
272048488,272047656,0.126854,0.0161106,-0.01154
272068519,272067678,-0.00240886,0.00516443,-0.0201977
272091033,272090191,-0.227896,0.011671,-0.00435668
272108538,272107706,-0.343997,0.0352938,-0.00270493
272128568,272127732,-0.129362,0.00281892,-0.0196814
272151099,272150244,-0.0124985,-0.00120513,-0.0145373
272168595,272167756,0.0504377,-0.0411096,-0.00861458
272188605,272187773,-0.0414868,0.00327298,0.00657941
272208623,272207792,-0.115367,0.0346986,-0.0147098
272231150,272230308,0.0144933,-0.0238676,-0.0109955
272248682,272247846,-0.00752706,-0.0464454,0.0168964
272268678,272267840,0.102752,-0.0647004,0.00776779
272291201,272290358,0.104824,-0.0351348,-0.0134265
272308705,272307873,0.147913,-0.0807492,0.00170324
272326236,272325387,-0.0130442,-0.0385876,0.00356843
272348739,272347906,0.000439555,-0.0595334,0.00777454
272371280,272370425,0.0206342,-0.0416766,0.0238149
272388773,272387940,0.0141086,-0.0106642,-0.00892848
272408797,272407959,0.149726,0.0277618,0.000855343
272431343,272430475,0.245541,0.024223,-0.011461
272448835,272447996,0.227931,0.0309554,-0.00704912
272468848,272468015,0.171719,0.0348665,0.0136486
272488856,272488023,0.260545,0.0474945,0.0107444
272511383,272510544,0.532772,0.0799147,-0.00914064
272528895,272528063,0.711332,0.0841852,-0.0174258
272548914,272548073,0.760317,0.00606667,-0.024101
272568923,272568090,0.752728,-0.0625267,0.00885846
272586443,272585604,0.975055,-0.0565938,0.015356
272608956,272608123,1.00537,-0.0666897,-0.0102876
272628974,272628141,0.847788,-0.0771736,0.0195715
272651498,272650658,0.606435,-0.0552312,0.0289696
272669012,272668173,0.346023,-0.00284037,-0.00527577
272689033,272688197,0.451746,0.00616864,0.0350903
272709050,272708206,0.476215,-0.0177963,0.0107965
272726560,272725721,0.383699,0.0588682,-0.00260529
272749091,272748242,0.114073,0.061464,0.0401738
272769111,272768271,-0.165945,0.0865909,0.0132873
272791629,272790775,-0.0442704,0.0194598,0.00278433
272809123,272808290,-0.107108,-0.00260439,0.0416222
272829143,272828311,-0.3074,-0.0189587,0.0412621
272849156,272848324,-0.506179,-0.0396769,0.044859
272866677,272865838,-0.885165,0.0652249,0.0430496
272889189,272888357,-0.99051,0.0208321,0.0154907
272909211,272908377,-1.16566,0.00433427,0.0384631
272926730,272925888,-1.17771,-0.0288541,0.0485344
272949264,272948410,-0.994519,0.035195,0.0126608
272969269,272968424,-0.68872,0.0611712,0.0156466
272989286,272988443,-0.560366,0.11741,0.0384246
273006794,273005955,-0.514398,0.0673983,0.0229002
273029334,273028493,-0.28147,0.0159134,0.0176556
273049331,273048490,0.0394182,0.0286069,-0.00278328
273071859,273071009,0.171695,-0.0903961,0.00364543
273089374,273088532,-0.0308153,-0.0949039,-0.0123335
273109375,273108540,-0.0504214,-0.115683,0.0436903
273129393,273128557,0.101273,-0.161692,0.0170983
273146910,273146072,-0.0764104,-0.0527124,-0.026693
273169425,273168590,-0.224979,-0.0631975,0.025964
273189450,273188618,-0.472146,-0.0592674,0.0307853
273209475,273208628,-0.253084,-0.0632538,0.0342919
273226982,273226139,-0.0403672,0.093252,0.00128493
273249502,273248657,-0.0950487,0.117923,-0.0402549
273269506,273268674,-0.125598,0.0621118,-0.0195471
273287032,273286189,-0.0887172,0.145351,-0.0109369
273309543,273308707,0.0868269,0.170451,-0.0460855
273327063,273326224,0.148258,0.138788,-0.0672667
273349577,273348741,0.126385,0.0546348,-0.0818752
273367103,273366257,0.0963554,0.0670112,-0.0144063
273389613,273388774,0.0469814,-0.0120796,-0.0365972
273409630,273408791,0.167182,-0.0264,-0.0423205
273427151,273426312,0.0862564,-0.0313697,-0.0415083
273449658,273448824,-0.0234865,-0.0938827,-0.0354317
273467181,273466341,0.0805609,-0.0576283,-0.00184475
273489705,273488858,0.0365934,-0.0100343,-0.0342473
273507214,273506372,-0.0940951,-0.0739759,-0.0144775
273529736,273528892,-0.0306858,-0.117628,-0.00906488
273547257,273546405,0.141249,0.0626175,-0.0500384
273567277,273566422,0.0575322,0.0129549,-0.0559705
273589784,273588941,0.01557,-0.0650672,-0.0529849
273607321,273606456,0.0563461,-0.0237459,-0.048945
273627323,273626472,0.0355683,-0.02731,-0.0658504
273647336,273646489,-0.123339,-0.154128,-0.0217959
273669840,273669008,-0.155021,-0.086878,-0.0114222
273687376,273686522,-0.0342541,-0.0389707,-0.0326051
273707386,273706539,0.112583,-0.00138848,-0.0409033
273727403,273726556,0.0600174,0.0558907,-0.0101277
273747415,273746572,-0.103092,0.0441592,0.00536416
273767436,273766589,-0.00839351,0.0398843,-0.00093181
273787451,273786606,0.110663,0.106523,-0.0408337
273809959,273809124,0.115853,0.0886544,-0.0358208
273827480,273826641,-0.0205799,0.0225651,0.0287799
273847537,273846683,-0.0156994,0.0694159,0.00610507
273867511,273866672,0.134328,0.209413,-0.0443823
273890039,273889198,0.209199,0.136276,-0.0539037
273907547,273906708,0.115274,0.101458,-0.0021566
273927571,273926730,0.189471,0.192547,-0.0148316
273950083,273949241,0.25105,0.169185,-0.0424043
273967598,273966756,0.0436385,0.0555254,-0.0375151
273987612,273986773,0.0727438,0.0660105,-0.0186751
274007632,274006789,0.0712739,0.0124563,-0.0295186
274030144,274029308,-0.049783,-0.0174294,-0.00141708
274047681,274046830,-0.172614,0.0480828,0.00465737
274067679,274066840,-0.174053,0.124472,-0.0110662
274090198,274089365,-0.118884,0.214445,-0.00153715
274107712,274106873,-0.0928739,0.307968,0.0018606
274127728,274126889,-0.273726,0.377025,0.000385301
274147745,274146906,-0.256444,0.522895,0.0218493
274170269,274169425,-0.0768247,0.594565,-0.00057255
274187779,274186939,-0.00362697,0.648777,-0.0270754
274207795,274206956,-0.201383,0.641072,0.00446963
274230345,274229477,-0.321958,0.634613,0.00503105
274247834,274246989,-0.181464,0.57461,0.0140807
274267845,274267006,-0.135964,0.533296,-0.0094373
274287862,274287023,-0.295445,0.471292,-0.0123352
274310376,274309542,-0.471838,0.361735,0.0090527
274327895,274327056,-0.251093,0.241496,0.0632833
274347912,274347073,-0.0907248,0.294519,0.00399974
274367929,274367090,0.0277327,0.188894,0.0137187
274390441,274389609,-0.0571133,0.11795,0.0342448
274407962,274407123,0.0455853,0.122931,0.0343837
274427979,274427140,0.139222,0.0480899,0.0194697
274450491,274449658,0.258214,0.0299599,0.0144725
274468015,274467173,0.288721,0.117634,-0.00553138
274488037,274487190,0.0891667,-0.0323767,0.00290146
274508058,274507206,0.0550026,-0.108615,0.0276833
274530558,274529725,0.174995,-0.145063,0.0109998
274548116,274547255,0.13066,-0.250891,-0.0418033
274568119,274567261,-0.0780295,-0.413203,0.00798826
274590617,274589775,-0.162607,-0.596915,0.00079023
274608137,274607298,0.0306985,-0.758086,0.00475964
274628157,274627316,0.0131814,-0.899182,-0.00179442
274648168,274647329,-0.00507938,-0.88716,-0.0267539
274670685,274669842,-0.0333797,-0.884086,-0.0282392
274688196,274687357,0.0446145,-0.980595,0.0480683
274708216,274707375,0.108697,-0.778874,0.0184774
