timestamp,time_utc_usec,lat,lon,alt,alt_ellipsoid,s_variance_m_s,c_variance_rad,eph,epv,hdop,vdop,noise_per_ms,jamming_indicator,vel_m_s,vel_n_m_s,vel_e_m_s,vel_d_m_s,cog_rad,timestamp_time_relative,heading,heading_offset,fix_type,vel_ned_valid,satellites_used
350941949,1603428931000155,340356177,1087574413,426003,398089,0.156,0.770169,0.796,1.224,0.61,1.03,93,3,0.031,0.028,-0.012,-0.012,5.76486,0,nan,0.0,4,1,19
351143945,1603428931200155,340356176,1087574409,426012,398098,0.22,0.770177,0.794,1.222,0.61,1.03,93,7,0.023,0.011,0.021,-0.044,5.76486,0,nan,0.0,4,1,19
351943995,1603428932000154,340356173,1087574398,426141,398227,0.251,0.77021,0.788,1.216,0.61,1.03,93,7,0.039,0.007,0.038,-0.113,5.76486,0,nan,0.0,4,1,19
352944127,1603428933000154,340356167,1087574387,426308,398393,0.226,0.770246,0.78,1.206,0.61,1.03,93,8,0.03,0.027,0.014,-0.11,5.76486,0,nan,0.0,4,1,19
353936043,1603428934000153,340356166,1087574375,426472,398557,0.184,0.770281,0.771,1.195,0.59,1.02,93,4,0.017,-0.015,-0.008,-0.008,5.76486,0,nan,0.0,4,1,20
354941985,1603428935000153,340356162,1087574363,426541,398627,0.183,0.770319,0.764,1.185,0.61,1.03,93,2,0.04,0.039,0.007,-0.014,5.76486,0,nan,0.0,4,1,19
355954044,1603428936000152,340356159,1087574353,426552,398638,0.189,0.770356,0.758,1.177,0.61,1.03,93,2,0.026,-0.022,0.014,-0.001,5.76486,0,nan,0.0,4,1,19
356937237,1603428937000152,340356158,1087574346,426541,398626,0.218,0.770394,0.753,1.172,0.61,1.03,93,2,0.025,0.019,0.016,0.035,5.76486,0,nan,0.0,4,1,19
357934051,1603428938000151,340356158,1087574339,426459,398544,0.233,0.770433,0.747,1.166,0.61,1.03,93,2,0.017,-0.012,-0.013,0.119,5.76486,0,nan,0.0,4,1,19
358943378,1603428939000151,340356159,1087574330,426345,398430,0.243,0.770473,0.743,1.162,0.61,1.03,93,3,0.024,0.024,-0.004,0.112,5.76486,0,nan,0.0,4,1,19
359952943,1603428940000150,340356160,1087574323,426249,398334,0.205,0.770515,0.74,1.162,0.61,1.03,101,3,0.052,0.028,-0.044,0.019,5.76486,0,nan,0.0,4,1,19
360952943,1603428941000149,340356161,1087574321,426253,398339,0.194,0.770564,0.751,1.174,0.66,1.19,101,2,0.037,0.007,0.037,-0.011,5.76486,0,nan,0.0,4,1,18
361964941,1603428942000149,340356161,1087574324,426180,398266,0.271,0.770612,0.755,1.189,0.61,1.03,101,2,0.026,0.025,0.003,0.139,5.76486,0,nan,0.0,4,1,19
362946197,1603428943000148,340356167,1087574322,426208,398293,0.241,0.770657,0.75,1.191,0.61,1.03,101,3,0.004,-0.002,0.004,0.116,5.76486,0,nan,0.0,4,1,19
363955288,1603428944000148,340356173,1087574322,426095,398180,0.248,0.770702,0.746,1.188,0.61,1.03,101,4,0.025,-0.025,0.0,0.157,5.76486,0,nan,0.0,4,1,19
364946037,1603428945000147,340356178,1087574319,426015,398101,0.18,0.770742,0.74,1.177,0.61,1.03,101,3,0.106,0.036,-0.1,0.028,5.76486,0,nan,0.0,4,1,19
365946943,1603428946000147,340356185,1087574289,426323,398408,0.206,0.563566,0.733,1.168,0.62,1.06,101,2,0.391,-0.087,-0.381,-0.587,5.01608,0,nan,0.0,4,1,18
366945947,1603428947000146,340356177,1087574261,427072,399157,0.266,0.590059,0.738,1.178,0.6,1.05,101,2,0.06,-0.059,-0.01,-0.074,4.1925,0,nan,0.0,4,1,19
367952343,1603428948000145,340356193,1087574247,426907,398993,0.286,0.369603,0.737,1.178,0.6,1.05,101,3,0.398,0.275,-0.288,0.651,5.40829,0,nan,0.0,4,1,19
368943985,1603428949000145,340356209,1087574175,426782,398868,0.169,0.18919,0.735,1.176,0.59,1.02,100,3,1.158,0.165,-1.146,-0.27,4.90943,0,nan,0.0,4,1,20
369952942,1603428950000144,340356216,1087574049,426696,398781,0.227,0.21937,0.733,1.17,0.59,1.02,100,3,0.976,-0.122,-0.968,0.295,4.72493,0,nan,0.0,4,1,20
370945982,1603428951000144,340356230,1087573954,426663,398748,0.143,0.165803,0.725,1.157,0.59,1.02,100,7,0.983,0.376,-0.908,-0.141,5.02262,0,nan,0.0,4,1,20
371943940,1603428952000143,340356243,1087573880,426609,398694,0.172,0.311708,0.726,1.165,0.59,1.02,134,6,0.55,0.058,-0.547,0.013,4.83725,0,nan,0.0,4,1,20
372941378,1603428953000143,340356242,1087573828,426609,398694,0.153,0.449409,0.731,1.173,0.59,1.02,125,6,0.435,-0.185,-0.394,-0.017,4.53079,0,nan,0.0,4,1,20
373952941,1603428954000142,340356222,1087573780,426419,398505,0.194,0.349835,0.736,1.181,0.59,1.02,125,4,0.52,-0.223,-0.469,0.137,4.306,0,nan,0.0,4,1,20
374938176,1603428955000141,340356233,1087573715,426455,398541,0.202,0.290204,0.735,1.19,0.6,1.05,125,5,0.628,0.322,-0.54,-0.187,5.1048,0,nan,0.0,4,1,19
375943945,1603428956000141,340356261,1087573664,426208,398294,0.303,0.267531,0.742,1.206,0.6,1.05,116,4,0.725,0.475,-0.547,0.255,5.40194,0,nan,0.0,4,1,19
376942092,1603428957000140,340356272,1087573608,426627,398713,0.204,0.272298,0.744,1.211,0.6,1.05,116,5,0.639,0.142,-0.623,0.217,4.90106,0,nan,0.0,4,1,19
377945201,1603428958000140,340356275,1087573535,426119,398205,0.19,0.23698,0.744,1.21,0.63,1.05,109,3,0.875,-0.148,-0.863,0.173,4.68834,0,nan,0.0,4,1,19
378939946,1603428959000139,340356292,1087573424,425875,397960,0.176,0.148583,0.748,1.218,0.59,1.02,108,4,1.349,0.18,-1.337,-0.01,4.88382,0,nan,0.0,4,1,20
379954063,1603428960000139,340356310,1087573297,425740,397825,0.206,0.16049,0.749,1.219,0.59,1.02,108,3,1.109,0.139,-1.1,0.494,4.83419,0,nan,0.0,4,1,20
380939941,1603428961000138,340356304,1087573203,425709,397794,0.165,0.230221,0.744,1.206,0.59,1.02,108,3,0.717,-0.115,-0.707,-0.571,4.62135,0,nan,0.0,4,1,20
381954058,1603428962000137,340356296,1087573141,425660,397745,0.232,0.265451,0.735,1.192,0.59,1.02,101,3,0.614,0.035,-0.613,0.606,4.71394,0,nan,0.0,4,1,20
382950944,1603428963000137,340356294,1087573075,425304,397390,0.131,0.181456,0.723,1.166,0.59,1.02,88,4,0.819,-0.112,-0.812,-0.082,4.57588,0,nan,0.0,4,1,20
383953978,1603428964000136,340356292,1087572989,425320,397406,0.232,0.222683,0.715,1.152,0.59,1.02,94,5,0.848,-0.077,-0.845,0.386,4.63764,0,nan,0.0,4,1,20
384940981,1603428965000136,340356291,1087572875,424572,396657,0.171,0.108928,0.709,1.14,0.59,1.02,100,7,1.384,-0.038,-1.383,0.103,4.71331,0,nan,0.0,4,1,20
385961941,1603428966000135,340356287,1087572746,425401,397486,0.166,0.161601,0.701,1.124,0.59,1.02,100,3,1.037,0.105,-1.032,-0.663,4.74813,0,nan,0.0,4,1,20
386951064,1603428967000135,340356288,1087572657,425485,397570,0.137,0.177584,0.693,1.108,0.59,1.02,101,3,0.752,0.182,-0.73,0.06,4.8979,0,nan,0.0,4,1,20
387953005,1603428968000134,340356289,1087572606,424681,396767,0.323,0.402598,0.687,1.099,0.59,1.02,108,5,0.422,-0.312,-0.284,0.902,4.1095,0,nan,0.0,4,1,20
388944975,1603428969000133,340356288,1087572562,424377,396462,0.134,0.282382,0.685,1.095,0.59,1.02,108,10,0.623,0.217,-0.584,-0.025,4.98043,0,nan,0.0,4,1,20
389952942,1603428970000133,340356320,1087572476,424476,396561,0.172,0.192934,0.68,1.086,0.59,1.02,108,8,0.765,0.343,-0.683,0.036,5.11741,0,nan,0.0,4,1,20
390946270,1603428971000132,340356342,1087572407,423973,396058,0.227,0.18892,0.676,1.079,0.59,1.02,108,5,0.744,0.274,-0.691,0.567,5.06086,0,nan,0.0,4,1,20
391952944,1603428972000132,340356347,1087572306,423588,395673,0.187,0.14178,0.677,1.082,0.59,1.02,108,2,1.249,0.049,-1.248,0.194,4.78665,0,nan,0.0,4,1,20
392942275,1603428973000131,340356346,1087572175,423817,395902,0.228,0.202778,0.683,1.094,0.59,1.02,116,3,1.254,0.014,-1.254,-0.481,4.72627,0,nan,0.0,4,1,20
393951999,1603428974000131,340356339,1087572074,424268,396353,0.152,0.219644,0.697,1.118,0.59,1.02,116,2,0.811,-0.17,-0.793,-0.326,4.59329,0,nan,0.0,4,1,20
394939950,1603428975000130,340356331,1087572005,424154,396239,0.278,0.461596,0.706,1.132,0.59,1.02,116,3,0.366,-0.034,-0.364,0.1,4.59036,0,nan,0.0,4,1,20
395943979,1603428976000129,340356330,1087571950,424495,396580,0.186,0.543125,0.729,1.165,0.59,1.02,108,2,0.554,-0.066,-0.55,-0.311,4.77281,0,nan,0.0,4,1,20
396940216,1603428977000129,340356323,1087571896,424651,396736,0.135,0.439236,0.736,1.178,0.59,1.02,108,2,0.382,-0.118,-0.364,-0.032,4.49626,0,nan,0.0,4,1,20
397946976,1603428978000128,340356318,1087571855,424502,396587,0.129,0.207079,0.724,1.156,0.59,1.02,108,3,0.614,0.185,-0.585,-0.03,4.93281,0,nan,0.0,4,1,20
398941944,1603428979000128,340356336,1087571776,424333,396418,0.191,0.186648,0.721,1.15,0.59,1.02,108,2,0.844,0.246,-0.807,0.332,5.0065,0,nan,0.0,4,1,20
399938942,1603428980000127,340356342,1087571700,423932,396017,0.16,0.237483,0.719,1.15,0.59,1.02,108,3,0.742,-0.064,-0.739,0.064,4.70806,0,nan,0.0,4,1,20
400941056,1603428981000127,340356327,1087571615,423736,395822,0.125,0.144307,0.712,1.139,0.59,1.02,108,2,0.988,-0.172,-0.972,0.012,4.54944,0,nan,0.0,4,1,20
401941312,1603428982000126,340356321,1087571500,424225,396310,0.238,0.333389,0.718,1.147,0.64,1.03,108,2,0.951,0.17,-0.936,-0.747,4.77921,0,nan,0.0,4,1,18
402942978,1603428983000125,340356317,1087571425,424125,396210,0.33,0.749025,0.735,1.171,0.59,1.02,108,2,0.354,-0.014,-0.354,0.963,4.69385,0,nan,0.0,4,1,20
403944991,1603428984000125,340356317,1087571380,423338,395423,0.308,0.414291,0.739,1.179,0.59,1.02,108,2,0.506,0.124,-0.491,0.43,4.90986,0,nan,0.0,4,1,20
404942942,1603428985000124,340356339,1087571284,423307,395392,0.146,0.131802,0.739,1.176,0.59,1.02,108,2,1.337,0.223,-1.319,-0.529,4.93502,0,nan,0.0,4,1,20
405938012,1603428986000124,340356341,1087571168,423561,395646,0.217,0.247695,0.743,1.182,0.61,1.03,108,5,0.99,-0.129,-0.981,0.241,4.70774,0,nan,0.0,4,1,19
406940972,1603428987000123,340356327,1087571094,423187,395273,0.194,0.271945,0.742,1.184,0.61,1.03,100,4,0.734,-0.28,-0.679,0.295,4.42207,0,nan,0.0,3,1,19
407936550,1603428988000123,340356307,1087571004,422928,395013,0.146,0.159586,0.735,1.176,0.61,1.03,100,5,1.076,-0.173,-1.062,-0.099,4.53443,0,nan,0.0,3,1,19
408931058,1603428989000122,340356304,1087570895,423247,395332,0.137,0.16304,0.733,1.168,0.61,1.03,100,2,0.84,-0.084,-0.836,-0.433,4.6311,0,nan,0.0,3,1,19
409940241,1603428990000121,340356298,1087570825,423576,395661,0.155,0.243832,0.728,1.158,0.61,1.03,94,2,0.638,0.359,-0.527,-0.206,5.0619,0,nan,0.0,3,1,19
410935037,1603428991000121,340356334,1087570775,423559,395644,0.166,0.181848,0.722,1.147,0.61,1.03,94,2,0.671,0.391,-0.545,0.076,5.36385,0,nan,0.0,3,1,19
411931955,1603428992000120,340356354,1087570708,423557,395642,0.173,0.195416,0.72,1.145,0.61,1.03,94,2,0.932,0.252,-0.897,-0.169,4.99748,0,nan,0.0,3,1,19
412936948,1603428993000120,340356363,1087570612,423779,395864,0.15,0.187439,0.714,1.133,0.61,1.03,94,2,0.838,-0.011,-0.837,-0.184,4.7384,0,nan,0.0,3,1,19
413935941,1603428994000119,340356359,1087570540,423613,395698,0.228,0.457327,0.71,1.125,0.61,1.03,94,2,0.552,-0.096,-0.543,0.32,4.55744,0,nan,0.0,3,1,19
414938166,1603428995000118,340356339,1087570465,423418,395503,0.171,0.161691,0.718,1.134,0.61,1.03,94,2,1.052,-0.284,-1.013,0.272,4.44671,0,nan,0.0,3,1,19
415957940,1603428996000118,340356343,1087570369,423208,395293,0.189,0.141156,0.716,1.131,0.61,1.03,94,2,0.941,0.472,-0.815,0.244,5.07923,0,nan,0.0,3,1,19
416942944,1603428997000117,340356373,1087570292,423262,395347,0.222,0.306608,0.722,1.139,0.61,1.03,94,3,0.836,0.221,-0.806,-0.252,5.08779,0,nan,0.0,3,1,19
417952267,1603428998000117,340356380,1087570182,423681,395766,0.179,0.23555,0.74,1.16,0.61,1.03,94,3,1.068,0.125,-1.061,-0.318,4.86276,0,nan,0.0,3,1,19
418942984,1603428999000116,340356373,1087570087,424181,396266,0.13,0.184105,0.742,1.165,0.61,1.03,94,2,0.797,-0.162,-0.78,-0.296,4.56318,0,nan,0.0,3,1,19
419937945,1603429000000116,340356359,1087570003,424150,396235,0.16,0.221427,0.737,1.162,0.61,1.03,88,2,0.734,-0.193,-0.709,0.102,4.4342,0,nan,0.0,3,1,19
420934948,1603429001000115,340356362,1087569942,424265,396350,0.111,0.228526,0.73,1.15,0.61,1.03,88,2,0.501,0.134,-0.482,-0.115,4.81791,0,nan,0.0,3,1,19
421945938,1603429002000114,340356380,1087569875,424256,396340,0.188,0.277471,0.73,1.147,0.61,1.03,88,3,0.868,0.12,-0.86,-0.128,4.93981,0,nan,0.0,3,1,19
422938325,1603429003000114,340356389,1087569769,424397,396482,0.167,0.324041,0.723,1.132,0.61,1.03,88,3,0.942,-0.234,-0.913,-0.237,4.70251,0,nan,0.0,3,1,19
423933946,1603429004000113,340356376,1087569675,424592,396676,0.164,0.244336,0.719,1.123,0.61,1.03,88,3,0.749,-0.276,-0.696,0.097,4.45721,0,nan,0.0,3,1,19
424937947,1603429005000113,340356349,1087569583,424445,396530,0.134,0.14034,0.711,1.112,0.61,1.03,88,2,1.192,-0.533,-1.067,0.113,4.28645,0,nan,0.0,3,1,19
425943391,1603429006000112,340356334,1087569452,424242,396327,0.163,0.157663,0.709,1.106,0.61,1.03,94,3,1.136,0.282,-1.1,-0.149,4.86142,0,nan,0.0,3,1,19
426939143,1603429007000112,340356359,1087569353,424259,396344,0.293,0.315598,0.728,1.136,0.61,1.03,94,2,0.796,0.228,-0.763,0.145,5.04367,0,nan,0.0,3,1,19
427949447,1603429008000111,340356374,1087569277,424479,396563,0.232,0.327829,0.736,1.149,0.61,1.03,87,3,0.681,0.293,-0.615,-0.594,5.00569,0,nan,0.0,3,1,19
428941962,1603429009000110,340356382,1087569210,424495,396580,0.175,0.298577,0.727,1.135,0.61,1.03,87,3,0.511,-0.034,-0.51,0.198,4.72336,0,nan,0.0,3,1,19
429943945,1603429010000110,340356385,1087569118,424266,396350,0.134,0.121944,0.717,1.117,0.61,1.03,88,3,1.044,-0.055,-1.042,0.202,4.67086,0,nan,0.0,3,1,19
430937941,1603429011000109,340356387,1087568995,424042,396127,0.159,0.150331,0.709,1.106,0.61,1.03,88,4,1.175,0.003,-1.175,0.015,4.70586,0,nan,0.0,3,1,19
431935981,1603429012000109,340356393,1087568902,424044,396129,0.185,0.276251,0.705,1.1,0.61,1.03,88,5,0.702,0.163,-0.683,0.052,4.87914,0,nan,0.0,3,1,19
432943943,1603429013000108,340356401,1087568848,424148,396232,0.13,0.351986,0.699,1.09,0.61,1.03,88,4,0.395,-0.129,-0.373,-0.101,4.66285,0,nan,0.0,3,1,19
433937250,1603429014000107,340356396,1087568792,424023,396108,0.161,0.28109,0.696,1.091,0.61,1.03,94,3,0.812,-0.215,-0.783,-0.033,4.5495,0,nan,0.0,3,1,19
434947209,1603429015000107,340356374,1087568692,424177,396261,0.162,0.285574,0.728,1.126,0.65,1.05,94,3,1.067,-0.141,-1.057,-0.24,4.55605,0,nan,0.0,3,1,18
435950189,1603429016000106,340356350,1087568609,424318,396402,0.159,0.244831,0.737,1.135,0.61,1.03,75,4,0.677,-0.318,-0.598,0.191,4.28896,0,nan,0.0,3,1,19
436944339,1603429017000106,340356325,1087568551,424223,396308,0.154,0.197247,0.726,1.12,0.61,1.03,86,5,0.796,-0.304,-0.736,0.228,4.23033,0,nan,0.0,3,1,19
437948979,1603429018000105,340356305,1087568460,424227,396311,0.113,0.135142,0.712,1.099,0.61,1.03,92,5,0.956,-0.076,-0.953,-0.198,4.5289,0,nan,0.0,3,1,19
438943175,1603429019000105,340356296,1087568362,424563,396648,0.124,0.16108,0.703,1.086,0.61,1.03,98,4,0.825,-0.018,-0.825,-0.376,4.63293,0,nan,0.0,3,1,19
439951949,1603429020000104,340356282,1087568290,424537,396621,0.21,0.256591,0.692,1.07,0.61,1.03,105,6,0.621,-0.176,-0.595,0.718,4.4086,0,nan,0.0,3,1,19
440944006,1603429021000103,340356285,1087568201,423922,396007,0.12,0.169529,0.685,1.055,0.61,1.03,112,5,0.999,0.108,-0.993,0.089,4.8078,0,nan,0.0,3,1,19
441943077,1603429022000103,340356284,1087568075,423924,396009,0.136,0.119614,0.678,1.046,0.61,1.03,113,4,1.232,-0.003,-1.232,-0.456,4.70293,0,nan,0.0,3,1,19
442944943,1603429023000102,340356277,1087567960,424178,396262,0.129,0.204982,0.672,1.036,0.61,1.03,113,5,0.86,-0.102,-0.854,-0.338,4.62349,0,nan,0.0,3,1,19
443946567,1603429024000102,340356270,1087567877,424075,396160,0.151,0.223047,0.668,1.031,0.61,1.03,113,5,0.745,-0.263,-0.697,0.24,4.46033,0,nan,0.0,3,1,19
444934943,1603429025000101,340356254,1087567779,423907,395991,0.192,0.191999,0.67,1.037,0.61,1.03,113,6,1.003,-0.231,-0.976,-0.038,4.49112,0,nan,0.0,3,1,19
445935940,1603429026000101,340356256,1087567670,424455,396540,0.235,0.252054,0.677,1.044,0.61,1.03,81,2,1.019,-0.059,-1.017,-0.544,4.75612,0,nan,0.0,3,1,19
446935378,1603429027000100,340356263,1087567575,424937,397021,0.153,0.210911,0.675,1.04,0.61,1.03,81,3,0.661,-0.087,-0.655,-0.004,4.66885,0,nan,0.0,3,1,19
447937950,1603429028000099,340356275,1087567498,424711,396795,0.157,0.184984,0.667,1.028,0.61,1.03,81,3,0.776,-0.029,-0.776,0.222,4.70885,0,nan,0.0,3,1,19
448940944,1603429029000099,340356289,1087567383,424371,396456,0.139,0.137202,0.661,1.019,0.61,1.03,87,9,1.162,0.202,-1.144,0.135,4.86487,0,nan,0.0,3,1,19
449936122,1603429030000098,340356313,1087567248,424370,396455,0.125,0.151773,0.659,1.015,0.61,1.03,87,8,1.09,0.193,-1.073,-0.128,4.88769,0,nan,0.0,3,1,19
450938251,1603429031000098,340356318,1087567146,424612,396697,0.135,0.208354,0.655,1.01,0.61,1.03,87,2,0.723,-0.055,-0.721,-0.224,4.67241,0,nan,0.0,3,1,19
451951955,1603429032000097,340356314,1087567069,424459,396543,0.166,0.229097,0.654,1.011,0.61,1.03,93,3,0.699,-0.006,-0.699,0.187,4.68595,0,nan,0.0,3,1,19
452941943,1603429033000096,340356310,1087566978,424231,396315,0.282,0.480696,0.676,1.036,0.61,1.03,93,3,0.97,-0.234,-0.941,0.327,4.61735,0,nan,0.0,3,1,19
453952944,1603429034000096,340356312,1087566850,424272,396356,0.188,0.173462,0.693,1.052,0.61,1.03,92,2,1.269,0.2,-1.254,0.027,4.83245,0,nan,0.0,3,1,19
454948049,1603429035000095,340356329,1087566718,424299,396384,0.176,0.15778,0.703,1.072,0.61,1.03,92,3,1.351,0.222,-1.332,-0.012,4.89103,0,nan,0.0,3,1,19
455946028,1603429036000095,340356325,1087566590,424457,396542,0.179,0.330669,0.707,1.082,0.61,1.03,104,7,1.005,-0.281,-0.965,-0.389,4.63667,0,nan,0.0,3,1,19
456943473,1603429037000094,340356301,1087566516,424494,396579,0.267,0.494888,0.715,1.1,0.61,1.03,104,7,0.545,-0.169,-0.519,0.403,4.3875,0,nan,0.0,3,1,19
457945943,1603429038000094,340356291,1087566440,424051,396135,0.175,0.169491,0.71,1.092,0.61,1.03,97,4,0.972,-0.115,-0.966,0.473,4.58437,0,nan,0.0,3,1,19
458947944,1603429039000093,340356305,1087566309,423950,396035,0.15,0.108568,0.701,1.078,0.61,1.03,97,15,1.245,0.052,-1.244,0.226,4.75609,0,nan,0.0,3,1,19
459954067,1603429040000092,340356304,1087566181,424150,396234,0.121,0.100053,0.696,1.073,0.61,1.03,98,12,1.274,-0.014,-1.274,-0.468,4.68448,0,nan,0.0,3,1,19
460945264,1603429041000092,340356311,1087566027,424721,396805,0.132,0.104707,0.689,1.064,0.61,1.03,98,5,1.35,0.198,-1.336,-0.613,4.84697,0,nan,0.0,3,1,19
461939946,1603429042000091,340356315,1087565911,424735,396820,0.125,0.17256,0.68,1.048,0.63,1.04,104,14,0.751,0.06,-0.748,0.044,4.79926,0,nan,0.0,3,1,18
462950960,1603429043000091,340356317,1087565831,424627,396711,0.143,0.193555,0.673,1.039,0.61,1.03,105,5,0.763,-0.027,-0.763,0.136,4.70905,0,nan,0.0,3,1,19
463963948,1603429044000090,340356318,1087565708,424319,396403,0.132,0.0976129,0.666,1.029,0.61,1.03,105,6,1.397,-0.055,-1.396,0.285,4.67827,0,nan,0.0,3,1,19
464948684,1603429045000090,340356339,1087565562,424341,396425,0.146,0.126546,0.668,1.026,0.61,1.03,105,13,1.113,0.33,-1.063,-0.098,4.96565,0,nan,0.0,3,1,19
465951519,1603429046000089,340356359,1087565471,424483,396567,0.134,0.195766,0.663,1.022,0.61,1.03,88,10,0.627,0.232,-0.583,0.043,4.99901,0,nan,0.0,3,1,19
466948942,1603429047000088,340356386,1087565428,424362,396446,0.187,0.264048,0.656,1.014,0.61,1.03,88,2,0.518,0.405,-0.323,0.242,5.55604,0,nan,0.0,3,1,19
467951950,1603429048000088,340356405,1087565341,424044,396128,0.15,0.124734,0.654,1.012,0.61,1.03,88,3,1.148,0.16,-1.137,0.142,4.89733,0,nan,0.0,3,1,19
468948002,1603429049000087,340356423,1087565178,424083,396168,0.137,0.09043,0.653,1.011,0.63,1.04,94,3,1.56,0.336,-1.524,-0.345,4.90813,0,nan,0.0,3,1,18
469959044,1603429050000087,340356461,1087565043,424125,396209,0.151,0.163918,0.65,1.008,0.61,1.03,94,2,1.027,0.471,-0.912,0.086,5.10692,0,nan,0.0,3,1,19
470942359,1603429051000086,340356489,1087564941,424032,396116,0.162,0.137456,0.652,1.013,0.61,1.03,101,5,1.172,0.424,-1.092,0.105,5.04397,0,nan,0.0,3,1,19
471957940,1603429052000086,340356505,1087564819,424106,396190,0.171,0.167355,0.654,1.018,0.61,1.03,101,8,1.112,0.134,-1.104,-0.231,4.86997,0,nan,0.0,3,1,19
472946944,1603429053000085,340356532,1087564716,424240,396324,0.166,0.181787,0.656,1.028,0.61,1.03,101,12,0.932,0.38,-0.851,0.185,5.11325,0,nan,0.0,3,1,19
473944066,1603429054000084,340356567,1087564625,423939,396023,0.186,0.157755,0.659,1.037,0.61,1.03,101,3,1.071,0.279,-1.034,0.309,5.04037,0,nan,0.0,3,1,19
474939121,1603429055000084,340356590,1087564497,423665,395749,0.17,0.137795,0.66,1.042,0.61,1.03,101,3,1.237,0.189,-1.223,-0.151,4.88541,0,nan,0.0,3,1,19
475943897,1603429056000083,340356604,1087564369,424415,396499,0.184,0.195476,0.661,1.041,0.61,1.03,108,2,0.825,0.372,-0.737,-0.647,4.98899,0,nan,0.0,3,1,19
476940961,1603429057000083,340356620,1087564286,424527,396611,0.182,0.399904,0.665,1.047,0.61,1.03,108,3,0.452,0.028,-0.451,-0.175,4.92177,0,nan,0.0,3,1,19
477937952,1603429058000082,340356619,1087564225,424527,396611,0.154,0.332039,0.665,1.049,0.61,1.03,108,2,0.547,0.025,-0.546,0.026,4.79465,0,nan,0.0,3,1,19
478940946,1603429059000081,340356613,1087564115,424646,396730,0.18,0.134213,0.666,1.054,0.61,1.03,108,5,1.443,0.074,-1.441,-0.188,4.72322,0,nan,0.0,3,1,19
479935043,1603429060000081,340356615,1087563962,424870,396954,0.187,0.146188,0.672,1.069,0.61,1.03,108,3,1.454,0.065,-1.452,-0.273,4.7704,0,nan,0.0,3,1,19
480939469,1603429061000080,340356611,1087563828,425242,397326,0.172,0.154998,0.675,1.077,0.61,1.03,108,4,1.061,-0.174,-1.047,-0.237,4.58941,0,nan,0.0,3,1,19
481951941,1603429062000080,340356597,1087563731,425038,397122,0.224,0.26898,0.677,1.084,0.61,1.03,108,3,0.699,-0.298,-0.632,0.509,4.42712,0,nan,0.0,3,1,19
482940086,1603429063000079,340356598,1087563626,424653,396737,0.169,0.16442,0.679,1.09,0.61,1.03,108,3,1.2,0.037,-1.199,0.194,4.76859,0,nan,0.0,3,1,19
483942943,1603429064000079,340356606,1087563476,424569,396653,0.142,0.109197,0.678,1.084,0.61,1.03,108,2,1.25,0.12,-1.244,-0.113,4.81464,0,nan,0.0,3,1,19
484942340,1603429065000078,340356624,1087563357,424811,396895,0.141,0.173622,0.674,1.076,0.61,1.03,107,3,0.827,0.182,-0.807,-0.277,4.93459,0,nan,0.0,3,1,19
485937943,1603429066000077,340356633,1087563271,424777,396861,0.2,0.265433,0.672,1.075,0.61,1.03,107,5,0.658,0.045,-0.657,0.11,4.7994,0,nan,0.0,3,1,19
486934987,1603429067000077,340356642,1087563175,424863,396947,0.172,0.157368,0.673,1.077,0.61,1.03,107,7,1.088,-0.032,-1.088,-0.071,4.72656,0,nan,0.0,3,1,19
487951942,1603429068000076,340356643,1087563045,424991,397074,0.15,0.116828,0.672,1.076,0.61,1.03,107,8,1.265,0.042,-1.264,-0.284,4.72301,0,nan,0.0,3,1,19
488937942,1603429069000076,340356652,1087562889,425088,397171,0.154,0.120569,0.67,1.074,0.61,1.03,107,6,1.47,0.13,-1.464,-0.215,4.80389,0,nan,0.0,3,1,19
489948319,1603429070000075,340356670,1087562730,424922,397005,0.226,0.143457,0.672,1.08,0.65,1.05,107,3,1.634,0.421,-1.579,0.532,4.91247,0,nan,0.0,3,1,18
490944999,1603429071000075,340356686,1087562596,424775,396858,0.159,0.211694,0.672,1.085,0.63,1.06,99,4,0.832,0.191,-0.81,-0.056,4.88258,0,nan,0.0,3,1,18
491948159,1603429072000074,340356698,1087562525,424959,397042,0.197,0.323087,0.674,1.092,0.61,1.03,99,3,0.514,-0.134,-0.496,-0.321,4.68918,0,nan,0.0,3,1,19
492946944,1603429073000073,340356691,1087562475,424972,397056,0.207,0.529816,0.675,1.096,0.61,1.03,99,3,0.298,0.023,-0.297,0.185,4.67671,0,nan,0.0,3,1,19
493961998,1603429074000073,340356691,1087562447,425051,397135,0.169,0.392604,0.673,1.094,0.63,1.06,99,4,0.402,-0.032,-0.4,0.049,4.63508,0,nan,0.0,3,1,18
494944892,1603429075000072,340356694,1087562374,425247,397331,0.145,0.135724,0.67,1.091,0.63,1.04,99,6,1.058,0.146,-1.048,-0.008,4.85584,0,nan,0.0,3,1,18
495945941,1603429076000072,340356702,1087562284,425277,397361,0.152,0.220987,0.667,1.085,0.61,1.03,99,3,0.696,0.018,-0.696,0.017,4.77495,0,nan,0.0,3,1,19
496945013,1603429077000071,340356698,1087562215,425420,397504,0.174,0.348958,0.667,1.085,0.61,1.03,99,3,0.538,-0.064,-0.534,-0.006,4.62538,0,nan,0.0,3,1,19
497944591,1603429078000071,340356694,1087562153,424884,396967,0.261,0.281369,0.672,1.097,0.61,1.03,99,3,0.808,0.05,-0.806,0.706,4.73961,0,nan,0.0,3,1,19
498944941,1603429079000070,340356694,1087562085,423993,396077,0.238,0.481398,0.678,1.103,0.61,1.03,99,4,0.395,0.175,-0.354,0.514,4.98316,0,nan,0.0,3,1,19
499950417,1603429080000069,340356698,1087562053,424282,396366,0.22,0.749221,0.678,1.097,0.61,1.03,98,3,0.218,0.123,-0.181,-0.436,4.72397,0,nan,0.0,3,1,19
500937130,1603429081000069,340356684,1087562019,424637,396721,0.255,0.647657,0.681,1.101,0.61,1.03,112,5,0.309,0.03,-0.308,1.014,4.34068,0,nan,0.0,3,1,19
501934975,1603429082000068,340356656,1087561998,424535,396619,0.251,0.274846,0.685,1.103,0.65,1.05,111,3,0.485,-0.473,-0.109,-0.49,3.43812,0,nan,0.0,3,1,18
502937599,1603429083000068,340356612,1087562007,425592,397676,0.258,0.601417,0.688,1.102,0.61,1.03,111,5,0.318,-0.274,0.161,-0.62,2.74521,0,nan,0.0,3,1,19
503931944,1603429084000067,340356588,1087561981,425705,397788,0.177,0.275955,0.69,1.103,0.65,1.05,111,3,0.64,-0.178,-0.615,-0.171,4.33031,0,nan,0.0,3,1,18
504938944,1603429085000067,340356582,1087561882,425898,397982,0.156,0.264978,0.687,1.096,0.61,1.03,111,3,0.678,-0.142,-0.663,-0.348,4.61174,0,nan,0.0,3,1,19
505945980,1603429086000066,340356563,1087561814,425591,397675,0.202,0.429488,0.686,1.094,0.61,1.03,111,2,0.426,-0.074,-0.419,0.206,4.38491,0,nan,0.0,3,1,19
506938635,1603429087000065,340356513,1087561780,425352,397435,0.183,0.187567,0.688,1.099,0.61,1.03,111,2,0.913,-0.895,-0.181,0.084,3.45312,0,nan,0.0,3,1,19
507938982,1603429088000065,340356438,1087561746,425390,397474,0.175,0.173485,0.686,1.103,0.61,1.03,111,3,0.785,-0.573,-0.537,-0.25,3.74699,0,nan,0.0,3,1,19
508939389,1603429089000064,340356401,1087561695,425368,397451,0.246,0.54727,0.685,1.101,0.61,1.03,111,2,0.354,-0.251,-0.249,0.344,3.95818,0,nan,0.0,3,1,19
509938009,1603429090000064,340356357,1087561674,425473,397557,0.188,0.197801,0.681,1.091,0.61,1.03,104,10,0.647,-0.645,-0.057,-0.297,3.28699,0,nan,0.0,3,1,19
510933018,1603429091000063,340356289,1087561652,425336,397420,0.194,0.170634,0.677,1.075,0.64,1.04,104,9,0.834,-0.789,-0.271,0.629,3.39499,0,nan,0.0,3,1,18
511951057,1603429092000063,340356200,1087561633,424907,396990,0.167,0.139356,0.674,1.067,0.61,1.03,104,2,1.011,-0.96,-0.319,0.14,3.37629,0,nan,0.0,3,1,19
512937605,1603429093000062,340356128,1087561591,424745,396828,0.168,0.226351,0.673,1.064,0.61,1.03,104,3,0.752,-0.656,-0.366,0.035,3.62249,0,nan,0.0,3,1,19
513937941,1603429094000061,340356066,1087561565,424942,397026,0.185,0.178711,0.671,1.058,0.61,1.03,104,3,0.747,-0.747,-0.003,-0.324,3.29522,0,nan,0.0,3,1,19
514935964,1603429095000061,340355991,1087561571,425087,397171,0.159,0.167264,0.667,1.051,0.61,1.03,104,3,0.855,-0.838,0.168,0.004,2.9864,0,nan,0.0,3,1,19
515937979,1603429096000060,340355920,1087561531,425035,397119,0.161,0.208968,0.666,1.047,0.62,1.03,104,3,0.768,-0.614,-0.461,0.189,3.74854,0,nan,0.0,3,1,19
516942949,1603429097000060,340355859,1087561482,424832,396916,0.185,0.166198,0.664,1.042,0.59,1.0,104,3,0.814,-0.793,-0.187,0.341,3.52397,0,nan,0.0,3,1,20
517958239,1603429098000059,340355767,1087561472,424617,396701,0.16,0.122487,0.662,1.039,0.62,1.03,104,2,1.058,-1.057,0.041,-0.001,3.16204,0,nan,0.0,3,1,19
518939948,1603429099000059,340355680,1087561475,424680,396764,0.165,0.167157,0.659,1.03,0.59,1.0,104,3,0.796,-0.782,-0.149,0.175,3.19411,0,nan,0.0,3,1,20
519938140,1603429100000058,340355623,1087561442,424336,396420,0.203,0.277996,0.658,1.026,0.59,1.0,104,2,0.528,-0.392,-0.355,0.472,3.7566,0,nan,0.0,3,1,20
520934792,1603429101000057,340355591,1087561431,424402,396485,0.239,0.443853,0.657,1.026,0.59,1.0,104,3,0.325,-0.265,0.187,-0.551,3.12304,0,nan,0.0,3,1,20
521938031,1603429102000057,340355556,1087561463,424914,396998,0.209,0.693379,0.657,1.024,0.59,1.0,104,3,0.254,-0.222,0.124,0.235,2.78076,0,nan,0.0,3,1,20
522943050,1603429103000056,340355524,1087561440,424763,396846,0.199,0.294961,0.659,1.026,0.59,1.0,104,3,0.53,-0.456,-0.27,0.286,3.69061,0,nan,0.0,3,1,20
523956004,1603429104000056,340355480,1087561440,424625,396709,0.192,0.228776,0.658,1.025,0.59,1.0,105,3,0.701,-0.669,0.208,0.339,2.92888,0,nan,0.0,3,1,20
524939986,1603429105000055,340355448,1087561488,424824,396908,0.26,0.359055,0.659,1.027,0.59,1.0,105,2,0.488,-0.123,0.472,0.55,2.12053,0,nan,0.0,3,1,20
525951948,1603429106000055,340355412,1087561554,424743,396827,0.219,0.181295,0.657,1.028,0.59,1.0,105,3,0.823,-0.465,0.679,-0.461,2.15799,0,nan,0.0,3,1,20
526942289,1603429107000054,340355372,1087561619,425103,397187,0.142,0.207904,0.658,1.033,0.59,1.0,105,2,0.876,-0.615,0.625,0.164,2.29896,0,nan,0.0,3,1,20
527951434,1603429108000053,340355315,1087561710,424801,396885,0.164,0.176951,0.658,1.038,0.59,1.0,104,2,1.05,-0.451,0.948,-0.242,2.11022,0,nan,0.0,3,1,20
528942937,1603429109000053,340355278,1087561798,425530,397613,0.273,0.25508,0.66,1.043,0.61,1.03,104,8,0.912,-0.446,0.796,-1.156,2.01542,0,nan,0.0,3,1,19
529957232,1603429110000052,340355250,1087561901,425763,397846,0.194,0.185318,0.663,1.048,0.59,1.0,104,4,0.843,-0.186,0.822,0.616,1.78932,0,nan,0.0,3,1,20
530942944,1603429111000052,340355242,1087561999,425052,397135,0.15,0.151193,0.66,1.046,0.59,1.0,98,4,1.051,-0.235,1.025,0.346,1.74959,0,nan,0.0,3,1,20
531933945,1603429112000051,340355247,1087562097,424865,396949,0.148,0.173456,0.657,1.041,0.62,1.03,98,2,0.988,0.203,0.967,-0.014,1.43459,0,nan,0.0,3,1,19
532932989,1603429113000051,340355269,1087562207,424748,396831,0.17,0.184347,0.66,1.047,0.62,1.03,113,7,1.082,0.342,1.027,0.143,1.25419,0,nan,0.0,3,1,19
533941976,1603429114000050,340355285,1087562319,424926,397010,0.175,0.165355,0.676,1.07,0.59,1.0,113,9,1.099,-0.041,1.098,-0.155,1.52068,0,nan,0.0,3,1,20
534940041,1603429115000049,340355278,1087562429,424952,397036,0.168,0.20397,0.68,1.08,0.59,1.0,113,6,1.006,-0.085,1.003,0.045,1.63601,0,nan,0.0,3,1,20
535956968,1603429116000049,340355284,1087562544,425680,397764,0.274,0.255211,0.685,1.088,0.61,1.03,105,3,1.11,0.194,1.093,-0.782,1.46184,0,nan,0.0,3,1,19
536933108,1603429117000048,340355297,1087562663,425861,397944,0.148,0.144141,0.681,1.08,0.59,1.0,105,2,1.069,-0.106,1.064,0.157,1.54449,0,nan,0.0,3,1,20
537943975,1603429118000048,340355263,1087562781,425754,397837,0.162,0.13942,0.679,1.077,0.59,1.0,105,2,1.217,-0.478,1.119,0.067,1.95023,0,nan,0.0,3,1,20
538939125,1603429119000047,340355237,1087562875,425806,397890,0.161,0.218358,0.677,1.072,0.59,1.0,105,2,0.678,-0.264,0.625,-0.188,1.90701,0,nan,0.0,3,1,20
539935175,1603429120000047,340355214,1087562964,425735,397819,0.161,0.165689,0.677,1.069,0.59,1.0,105,2,0.942,-0.23,0.914,-0.222,1.80086,0,nan,0.0,3,1,20
540938948,1603429121000046,340355210,1087563070,426061,398145,0.152,0.177053,0.675,1.065,0.59,1.0,105,3,1.058,0.036,1.057,0.076,1.55943,0,nan,0.0,3,1,20
541951940,1603429122000045,340355205,1087563184,425785,397869,0.153,0.136372,0.672,1.06,0.59,1.0,105,3,1.053,-0.305,1.008,0.479,1.7587,0,nan,0.0,3,1,20
542940944,1603429123000045,340355190,1087563311,425317,397401,0.131,0.108908,0.669,1.056,0.59,1.0,105,3,1.287,-0.363,1.235,0.294,1.81176,0,nan,0.0,3,1,20
543933944,1603429124000044,340355174,1087563440,425324,397408,0.188,0.148632,0.665,1.05,0.59,1.0,105,2,1.233,0.014,1.233,-0.727,1.62628,0,nan,0.0,3,1,20
544940023,1603429125000044,340355171,1087563576,425980,398064,0.152,0.141732,0.664,1.049,0.59,1.0,105,3,1.238,0.072,1.236,0.273,1.5838,0,nan,0.0,3,1,20
545946941,1603429126000043,340355156,1087563670,425390,397474,0.179,0.194858,0.663,1.048,0.59,1.0,105,2,0.767,-0.337,0.689,0.504,1.97183,0,nan,0.0,3,1,20
546941413,1603429127000043,340355125,1087563731,425375,397459,0.215,0.322537,0.662,1.048,0.62,1.02,105,3,0.454,-0.173,0.42,-0.489,2.05693,0,nan,0.0,3,1,19
547960944,1603429128000042,340355115,1087563793,425308,397392,0.18,0.285184,0.661,1.048,0.62,1.02,105,3,0.639,0.267,0.581,0.483,1.48977,0,nan,0.0,3,1,19
548937987,1603429129000041,340355128,1087563874,425092,397176,0.157,0.173987,0.661,1.047,0.59,1.0,88,3,0.95,0.2,0.929,-0.071,1.34191,0,nan,0.0,3,1,20
549950949,1603429130000041,340355116,1087563953,425281,397365,0.154,0.171207,0.658,1.041,0.59,1.0,88,3,0.885,-0.342,0.816,-0.208,1.97138,0,nan,0.0,4,1,20
550947001,1603429131000040,340355088,1087564037,424785,396869,0.197,0.241738,0.661,1.042,0.59,1.0,88,5,0.872,-0.312,0.814,0.761,1.91385,0,nan,0.0,4,1,20
551957984,1603429132000040,340355046,1087564135,425025,397109,0.21,0.163205,0.661,1.041,0.61,1.03,88,2,1.015,-0.424,0.923,-1.044,2.01328,0,nan,0.0,4,1,19
552944207,1603429133000039,340355023,1087564244,426245,398329,0.223,0.132836,0.659,1.038,0.59,1.0,88,2,1.156,-0.375,1.093,-0.98,1.85739,0,nan,0.0,4,1,20
553958982,1603429134000039,340355010,1087564369,426645,398729,0.148,0.137962,0.657,1.034,0.59,1.0,89,5,1.179,-0.028,1.178,-0.188,1.61721,0,nan,0.0,4,1,20
554943940,1603429135000038,340355016,1087564469,426167,398251,0.268,0.318974,0.658,1.035,0.62,1.02,94,5,0.531,0.275,0.455,0.79,1.28093,0,nan,0.0,4,1,19
555965221,1603429136000037,340355024,1087564526,425407,397491,0.173,0.282058,0.656,1.031,0.59,1.0,94,3,0.497,-0.187,0.46,0.436,1.72185,0,nan,0.0,4,1,20
556946965,1603429137000037,340355012,1087564591,425329,397413,0.139,0.231793,0.653,1.022,0.59,1.0,94,6,0.754,0.066,0.751,-0.128,1.58016,0,nan,0.0,4,1,20
557942091,1603429138000036,340355019,1087564680,425443,397528,0.136,0.185534,0.65,1.016,0.59,1.0,95,2,0.817,-0.149,0.804,-0.018,1.64421,0,nan,0.0,4,1,20
558942967,1603429139000036,340355000,1087564774,425183,397267,0.142,0.194706,0.649,1.014,0.59,1.0,112,4,0.956,-0.046,0.955,0.336,1.70933,0,nan,0.0,4,1,20
559953345,1603429140000035,340354981,1087564884,424805,396889,0.162,0.189806,0.654,1.019,0.59,1.0,111,2,1.033,-0.192,1.015,0.348,1.75751,0,nan,0.0,4,1,20
560941916,1603429141000035,340354945,1087564996,424668,396752,0.145,0.188082,0.662,1.03,0.59,1.0,111,2,0.98,-0.214,0.956,0.097,1.83369,0,nan,0.0,4,1,20
561936968,1603429142000034,340354931,1087565102,424871,396955,0.157,0.156716,0.665,1.034,0.59,1.0,104,3,1.045,0.091,1.041,-0.346,1.54433,0,nan,0.0,4,1,20
562940998,1603429143000033,340354948,1087565212,425275,397359,0.179,0.157298,0.667,1.041,0.59,1.0,104,4,1.129,0.269,1.097,-0.268,1.36061,0,nan,0.0,4,1,20
563943088,1603429144000033,340354950,1087565327,425098,397182,0.133,0.151998,0.67,1.046,0.59,1.0,104,2,1.047,-0.099,1.042,0.171,1.6367,0,nan,0.0,4,1,20
564941969,1603429145000032,340354936,1087565446,425149,397234,0.15,0.178089,0.667,1.046,0.59,1.0,104,2,0.985,-0.247,0.953,-0.15,1.75821,0,nan,0.0,4,1,20
565962201,1603429146000032,340354926,1087565545,425462,397546,0.204,0.292649,0.674,1.058,0.59,1.0,104,3,0.652,0.298,0.58,-0.354,1.51243,0,nan,0.0,4,1,20
566935110,1603429147000031,340354926,1087565626,425685,397769,0.157,0.211724,0.674,1.057,0.59,1.0,104,3,0.843,0.165,0.827,0.006,1.44986,0,nan,0.0,4,1,20
567962147,1603429148000031,340354921,1087565721,424776,396860,0.193,0.168687,0.684,1.06,0.59,1.0,104,3,0.836,-0.025,0.836,1.276,1.62468,0,nan,0.0,4,1,20
568951970,1603429149000030,340354917,1087565828,424249,396334,0.128,0.151017,0.678,1.049,0.59,1.0,97,5,1.066,-0.067,1.064,-0.056,1.62446,0,nan,0.0,4,1,20
569956075,1603429150000029,340354913,1087565941,424287,396372,0.135,0.137203,0.67,1.035,0.59,1.0,97,8,0.996,-0.008,0.996,-0.166,1.60155,0,nan,0.0,4,1,20
570948977,1603429151000029,340354905,1087566060,424359,396443,0.121,0.140464,0.663,1.026,0.59,1.0,103,8,1.056,-0.176,1.041,-0.067,1.69717,0,nan,0.0,4,1,20
571962942,1603429152000028,340354889,1087566185,424395,396479,0.118,0.122394,0.658,1.019,0.62,1.02,104,7,1.257,-0.115,1.252,-0.04,1.68041,0,nan,0.0,4,1,19
572942948,1603429153000028,340354889,1087566313,424452,396536,0.132,0.166442,0.653,1.007,0.62,1.02,111,18,1.131,0.021,1.131,0.019,1.54145,0,nan,0.0,4,1,19
573951945,1603429154000027,340354884,1087566444,424143,396228,0.12,0.109538,0.648,0.997,0.59,1.0,111,5,1.293,-0.102,1.289,0.17,1.63841,0,nan,0.0,4,1,20
574944989,1603429155000027,340354869,1087566576,423754,395839,0.152,0.127849,0.65,1.0,0.62,1.02,111,14,1.269,-0.285,1.236,0.375,1.75384,0,nan,0.0,4,1,19
575949499,1603429156000026,340354852,1087566705,423532,395616,0.124,0.155521,0.65,0.997,0.59,1.0,110,12,1.2,-0.168,1.188,0.186,1.72666,0,nan,0.0,4,1,20
576942969,1603429157000025,340354850,1087566837,423689,395774,0.15,0.132059,0.648,0.994,0.62,1.02,110,11,1.276,-0.002,1.276,-0.342,1.55944,0,nan,0.0,4,1,19
577944946,1603429158000025,340354856,1087566984,423925,396009,0.184,0.217671,0.652,0.998,0.59,1.0,110,4,1.276,-0.006,1.276,-0.262,1.53648,0,nan,0.0,4,1,20
578936946,1603429159000024,340354853,1087567118,424062,396146,0.137,0.149355,0.658,1.006,0.59,1.0,80,3,1.249,-0.508,1.141,0.064,1.81961,0,nan,0.0,4,1,20
579942457,1603429160000024,340354820,1087567225,424219,396304,0.14,0.209069,0.661,1.01,0.59,1.0,80,2,0.728,-0.188,0.703,-0.111,1.86892,0,nan,0.0,4,1,20
580940943,1603429161000023,340354806,1087567309,424392,396477,0.139,0.219782,0.661,1.006,0.59,1.0,80,3,0.925,-0.092,0.921,0.005,1.7384,0,nan,0.0,4,1,20
581939987,1603429162000023,340354813,1087567423,424320,396405,0.126,0.158603,0.658,1.001,0.59,1.0,81,2,1.092,0.21,1.071,-0.239,1.45651,0,nan,0.0,4,1,20
582938943,1603429163000022,340354829,1087567548,424455,396540,0.126,0.127148,0.653,0.992,0.59,1.0,86,2,1.13,-0.015,1.13,-0.081,1.53799,0,nan,0.0,4,1,20
583951969,1603429164000021,340354820,1087567650,424335,396419,0.136,0.202886,0.649,0.987,0.59,1.0,86,2,0.893,-0.177,0.876,0.207,1.75001,0,nan,0.0,4,1,20
584936949,1603429165000021,340354816,1087567742,424060,396145,0.145,0.200179,0.648,0.986,0.59,1.0,86,3,0.8,0.089,0.795,0.141,1.49369,0,nan,0.0,4,1,20
585937132,1603429166000020,340354819,1087567832,424046,396131,0.135,0.265103,0.653,0.991,0.59,1.0,92,3,0.811,-0.175,0.792,-0.123,1.64838,0,nan,0.0,4,1,20
586942011,1603429167000020,340354796,1087567921,424197,396282,0.144,0.21587,0.655,0.993,0.59,1.0,92,2,0.741,-0.137,0.728,-0.132,1.8547,0,nan,0.0,4,1,20
587943202,1603429168000019,340354786,1087568019,423871,395955,0.157,0.22658,0.654,0.994,0.59,1.0,92,2,0.838,-0.172,0.82,0.323,1.71144,0,nan,0.0,4,1,20
588938954,1603429169000019,340354774,1087568123,424003,396088,0.158,0.201087,0.656,0.999,0.59,1.0,92,2,0.899,0.002,0.899,-0.231,1.61533,0,nan,0.0,4,1,20
589942961,1603429170000018,340354779,1087568235,424396,396480,0.167,0.186471,0.658,1.006,0.62,1.02,92,2,1.011,0.045,1.01,-0.32,1.58038,0,nan,0.0,4,1,19
590943950,1603429171000017,340354783,1087568353,424753,396838,0.141,0.13404,0.672,1.019,0.59,1.0,92,5,1.14,0.205,1.122,-0.223,1.44083,0,nan,0.0,4,1,20
591943031,1603429172000017,340354789,1087568477,424618,396703,0.143,0.129354,0.666,1.012,0.59,1.0,92,3,1.194,-0.018,1.194,0.246,1.57281,0,nan,0.0,4,1,20
592940056,1603429173000016,340354781,1087568595,424526,396611,0.158,0.197555,0.664,1.009,0.59,1.0,98,2,0.91,-0.206,0.886,-0.141,1.73292,0,nan,0.0,4,1,20
593935962,1603429174000016,340354764,1087568687,424799,396884,0.157,0.251436,0.664,1.014,0.62,1.02,98,3,0.756,-0.123,0.746,-0.264,1.76318,0,nan,0.0,4,1,19
594939940,1603429175000015,340354766,1087568769,424920,397005,0.136,0.17423,0.66,1.011,0.59,1.0,98,5,0.851,0.08,0.847,0.09,1.50201,0,nan,0.0,4,1,20
595952396,1603429176000015,340354774,1087568869,424724,396809,0.131,0.169906,0.658,1.01,0.59,0.99,99,4,0.905,0.014,0.905,0.1,1.53686,0,nan,0.0,4,1,20
596937429,1603429177000014,340354779,1087568965,424533,396618,0.15,0.240657,0.656,1.007,0.59,0.99,99,2,0.837,-0.011,0.837,0.14,1.52069,0,nan,0.0,4,1,20
597936943,1603429178000013,340354797,1087569058,424325,396409,0.15,0.246768,0.659,1.012,0.59,0.99,99,2,0.871,0.341,0.802,0.246,1.25678,0,nan,0.0,4,1,20
598944056,1603429179000013,340354797,1087569147,423833,395918,0.17,0.212235,0.661,1.015,0.62,1.02,99,2,0.837,-0.41,0.73,0.465,1.94152,0,nan,0.0,4,1,19
599937156,1603429180000012,340354769,1087569228,424542,396627,0.26,0.221516,0.664,1.02,0.62,1.02,99,3,0.789,-0.367,0.699,-1.42,1.99769,0,nan,0.0,4,1,19
600933991,1603429181000012,340354753,1087569337,424952,397037,0.142,0.144546,0.664,1.026,0.62,1.02,99,2,1.21,-0.076,1.208,-0.002,1.69081,0,nan,0.0,4,1,19
601953034,1603429182000011,340354740,1087569468,424949,397034,0.142,0.148966,0.664,1.032,0.59,0.99,99,3,1.173,-0.042,1.172,0.122,1.62937,0,nan,0.0,4,1,20
602936942,1603429183000011,340354735,1087569599,425073,397158,0.132,0.132883,0.66,1.029,0.59,0.99,99,2,1.27,-0.012,1.27,0.082,1.57764,0,nan,0.0,4,1,20
603943044,1603429184000010,340354738,1087569730,424986,397071,0.139,0.1409,0.662,1.031,0.59,0.99,99,11,1.291,0.064,1.289,0.147,1.53218,0,nan,0.0,4,1,20
604942099,1603429185000009,340354742,1087569869,424896,396981,0.165,0.150494,0.665,1.038,0.59,0.99,99,13,1.308,0.009,1.308,-0.06,1.54406,0,nan,0.0,4,1,20
605950023,1603429186000009,340354735,1087570003,425156,397241,0.237,0.229932,0.67,1.049,0.59,0.99,99,8,1.187,-0.114,1.182,-0.186,1.63582,0,nan,0.0,4,1,20
606942948,1603429187000008,340354731,1087570142,425115,397200,0.156,0.197291,0.673,1.056,0.59,0.99,89,2,1.175,-0.087,1.172,0.101,1.61366,0,nan,0.0,4,1,20
607958354,1603429188000008,340354734,1087570256,425260,397345,0.201,0.325335,0.678,1.061,0.62,1.02,89,3,0.61,0.106,0.6,-0.532,1.46974,0,nan,0.0,4,1,19
608950398,1603429189000007,340354730,1087570312,425573,397658,0.203,0.328541,0.68,1.061,0.59,0.99,89,2,0.569,-0.243,0.515,-0.465,1.77265,0,nan,0.0,4,1,20
609950957,1603429190000007,340354738,1087570380,425379,397464,0.155,0.213585,0.674,1.054,0.59,0.99,89,7,0.668,0.091,0.661,0.274,1.49431,0,nan,0.0,4,1,20
610944075,1603429191000006,340354729,1087570469,426074,398159,0.191,0.153446,0.671,1.05,0.59,0.99,95,4,0.983,-0.376,0.909,-0.609,1.86427,0,nan,0.0,4,1,20
611951942,1603429192000005,340354718,1087570575,426047,398132,0.156,0.162093,0.668,1.046,0.59,0.99,102,3,0.991,-0.155,0.978,0.219,1.69149,0,nan,0.0,4,1,20
612943866,1603429193000005,340354718,1087570701,425851,397936,0.151,0.142906,0.669,1.048,0.59,0.99,102,7,1.275,0.046,1.275,-0.173,1.55464,0,nan,0.0,4,1,20
613958943,1603429194000004,340354713,1087570834,426017,398102,0.142,0.112956,0.669,1.047,0.59,0.99,102,9,1.264,-0.204,1.247,-0.031,1.69208,0,nan,0.0,4,1,20
614938944,1603429195000004,340354690,1087570971,425908,397993,0.144,0.142478,0.666,1.043,0.59,0.99,102,2,1.183,-0.219,1.163,0.059,1.76885,0,nan,0.0,4,1,20
615946943,1603429196000003,340354686,1087571110,425948,398034,0.125,0.122113,0.666,1.041,0.59,0.99,102,3,1.297,0.082,1.294,-0.037,1.54517,0,nan,0.0,4,1,20
616942314,1603429197000003,340354701,1087571250,426072,398157,0.16,0.128613,0.665,1.04,0.59,0.99,102,3,1.237,0.072,1.235,-0.261,1.47596,0,nan,0.0,4,1,20
617940083,1603429198000002,340354689,1087571383,426170,398255,0.155,0.153602,0.665,1.041,0.59,0.99,112,2,1.104,-0.306,1.061,0.033,1.74922,0,nan,0.0,4,1,20
618941972,1603429199000001,340354662,1087571493,426287,398372,0.174,0.179021,0.666,1.042,0.59,0.99,112,8,0.925,-0.128,0.916,-0.139,1.74809,0,nan,0.0,4,1,20
619951983,1603429200000001,340354660,1087571610,426178,398263,0.174,0.183476,0.665,1.046,0.59,0.99,112,4,1.012,0.096,1.008,0.274,1.54813,0,nan,0.0,4,1,20
620941945,1603429201000000,340354662,1087571734,425904,397990,0.172,0.179852,0.666,1.05,0.59,0.99,112,8,1.117,0.003,1.117,0.26,1.54989,0,nan,0.0,4,1,20
621932472,1603429202000000,340354655,1087571861,425842,397928,0.177,0.162514,0.671,1.057,0.59,0.99,112,3,1.187,-0.053,1.185,-0.028,1.64772,0,nan,0.0,4,1,20
622931978,1603429203000000,340354647,1087571992,426016,398101,0.177,0.129636,0.671,1.057,0.59,0.99,111,3,1.281,-0.263,1.254,-0.12,1.69663,0,nan,0.0,4,1,20
623936943,1603429204000000,340354618,1087572128,426038,398123,0.155,0.126074,0.672,1.061,0.59,0.99,111,2,1.297,-0.15,1.288,-0.147,1.74341,0,nan,0.0,4,1,20
624938939,1603429204999999,340354621,1087572272,426307,398393,0.149,0.122618,0.668,1.054,0.59,0.99,111,2,1.223,0.248,1.198,0.172,1.43038,0,nan,0.0,4,1,20
625951058,1603429205999999,340354643,1087572389,425895,397980,0.178,0.160233,0.667,1.054,0.59,0.99,111,2,0.978,0.16,0.965,0.307,1.34523,0,nan,0.0,4,1,20
626935984,1603429206999998,340354667,1087572453,426019,398105,0.212,0.45405,0.668,1.056,0.59,0.99,111,2,0.346,0.159,0.307,-0.447,0.96064,0,nan,0.0,4,1,20
627950008,1603429207999997,340354652,1087572489,426497,398582,0.192,0.262288,0.665,1.056,0.59,0.99,111,2,0.663,-0.21,0.629,-0.332,1.90984,0,nan,0.0,4,1,20
628946988,1603429208999997,340354642,1087572562,426155,398240,0.15,0.186865,0.666,1.055,0.59,0.99,111,2,0.843,0.037,0.842,0.036,1.6165,0,nan,0.0,4,1,20
629950986,1603429209999996,340354628,1087572672,426011,398096,0.143,0.159474,0.666,1.054,0.59,0.99,111,3,1.099,-0.151,1.089,0.264,1.74892,0,nan,0.0,4,1,20
630946653,1603429210999996,340354616,1087572803,425847,397932,0.203,0.17958,0.664,1.055,0.59,0.99,111,3,1.372,-0.086,1.369,-0.043,1.64412,0,nan,0.0,4,1,20
631956943,1603429211999995,340354615,1087572953,426116,398201,0.164,0.0997552,0.664,1.054,0.59,0.99,104,2,1.455,-0.235,1.436,-0.684,1.66042,0,nan,0.0,4,1,20
632944009,1603429212999995,340354600,1087573107,426089,398175,0.157,0.120491,0.664,1.058,0.59,0.99,104,3,1.408,-0.161,1.398,0.035,1.6902,0,nan,0.0,4,1,20
633950942,1603429213999994,340354586,1087573258,426327,398413,0.144,0.118306,0.665,1.058,0.59,0.99,104,2,1.264,-0.06,1.262,-0.115,1.61789,0,nan,0.0,4,1,20
634944693,1603429214999993,340354593,1087573384,426258,398344,0.163,0.149309,0.662,1.052,0.61,1.03,103,2,1.101,0.034,1.101,0.251,1.52265,0,nan,0.0,4,1,19
635948239,1603429215999993,340354597,1087573488,426359,398445,0.213,0.223516,0.662,1.056,0.63,1.06,97,3,0.851,-0.091,0.846,-0.528,1.54446,0,nan,0.0,4,1,18
636935943,1603429216999992,340354604,1087573586,426440,398525,0.158,0.183161,0.662,1.056,0.59,0.99,97,2,0.871,0.01,0.871,0.13,1.52809,0,nan,0.0,4,1,20
637960940,1603429217999992,340354611,1087573689,426090,398175,0.169,0.146605,0.662,1.054,0.59,0.99,97,2,1.003,-0.03,1.003,0.556,1.53952,0,nan,0.0,4,1,20
638941943,1603429218999991,340354622,1087573766,425856,397941,0.16,0.324635,0.665,1.058,0.61,1.03,97,2,0.468,0.111,0.455,0.024,1.31412,0,nan,0.0,4,1,19
639938975,1603429219999991,340354630,1087573833,425584,397669,0.141,0.247987,0.663,1.055,0.61,1.03,110,2,0.658,-0.107,0.65,0.102,1.54176,0,nan,0.0,4,1,19
640938357,1603429220999990,340354605,1087573907,425663,397748,0.195,0.214056,0.661,1.05,0.61,1.03,110,2,0.704,-0.285,0.644,-0.315,2.02205,0,nan,0.0,4,1,19
641941941,1603429221999989,340354588,1087573978,425421,397507,0.149,0.307817,0.66,1.048,0.61,1.03,110,3,0.631,-0.146,0.613,-0.009,1.88752,0,nan,0.0,4,1,19
642939940,1603429222999989,340354585,1087574045,425542,397628,0.147,0.375568,0.658,1.043,0.59,0.99,110,2,0.404,0.148,0.376,-0.137,1.49277,0,nan,0.0,4,1,20
643948257,1603429223999988,340354589,1087574083,425573,397658,0.188,0.549743,0.658,1.042,0.59,0.99,110,3,0.311,0.143,0.276,-0.243,1.31158,0,nan,0.0,4,1,20
644940121,1603429224999988,340354603,1087574121,425219,397304,0.157,0.42013,0.656,1.038,0.59,0.99,110,2,0.422,0.088,0.413,0.222,1.32396,0,nan,0.0,4,1,20
645941944,1603429225999987,340354608,1087574173,424790,396875,0.265,0.702838,0.658,1.036,0.59,0.99,109,2,0.349,-0.006,0.349,0.715,1.4884,0,nan,0.0,4,1,20
646941400,1603429226999987,340354613,1087574233,424250,396335,0.156,0.475966,0.664,1.04,0.59,0.99,109,2,0.468,-0.093,0.458,0.132,1.633,0,nan,0.0,4,1,20
647932944,1603429227999986,340354601,1087574276,424323,396408,0.222,0.607213,0.667,1.036,0.59,0.99,102,2,0.207,-0.19,0.082,-0.362,2.26109,0,nan,0.0,4,1,20
648947952,1603429228999985,340354578,1087574288,424147,396232,0.213,0.377526,0.668,1.035,0.59,0.99,102,3,0.395,-0.39,-0.062,0.327,3.1805,0,nan,0.0,4,1,20
649960100,1603429229999985,340354588,1087574274,423670,395756,0.195,0.412304,0.669,1.032,0.59,0.99,90,2,0.302,0.302,0.0,0.295,5.54143,0,nan,0.0,4,1,20
650948941,1603429230999984,340354643,1087574284,423643,395728,0.185,0.166334,0.669,1.027,0.59,0.99,90,3,0.784,0.783,0.029,-0.312,0.0560898,0,nan,0.0,4,1,20
651950945,1603429231999984,340354701,1087574294,424115,396200,0.249,0.331278,0.668,1.024,0.59,0.99,90,4,0.407,0.397,0.086,-0.745,0.182871,0,nan,0.0,4,1,20
652949969,1603429232999983,340354762,1087574324,424459,396545,0.223,0.213409,0.669,1.025,0.59,0.99,96,2,0.76,0.709,0.273,-0.037,0.32296,0,nan,0.0,4,1,20
653951953,1603429233999983,340354813,1087574361,424532,396618,0.206,0.221034,0.673,1.028,0.59,0.99,96,8,0.741,0.595,0.442,-0.016,0.600842,0,nan,0.0,4,1,20
654948952,1603429234999982,340354876,1087574409,424586,396672,0.21,0.14822,0.675,1.034,0.59,0.99,96,6,1.018,0.855,0.554,-0.342,0.547017,0,nan,0.0,4,1,20
655961943,1603429235999981,340354944,1087574458,424692,396778,0.199,0.179191,0.675,1.035,0.59,0.99,95,2,0.773,0.7,0.329,0.206,0.492283,0,nan,0.0,4,1,20
656948940,1603429236999981,340355006,1087574491,424492,396577,0.217,0.227112,0.674,1.031,0.61,1.03,96,5,0.623,0.613,0.113,0.32,0.289035,0,nan,0.0,4,1,19
657944940,1603429237999980,340355059,1087574514,424450,396535,0.194,0.313016,0.675,1.031,0.61,1.03,96,7,0.492,0.455,0.188,0.187,0.323521,0,nan,0.0,4,1,19
658946322,1603429238999980,340355112,1087574537,424455,396540,0.208,0.228377,0.677,1.037,0.61,1.03,96,3,0.688,0.651,0.223,-0.133,0.3219,0,nan,0.0,4,1,19
659944941,1603429239999979,340355174,1087574562,424537,396623,0.272,0.303466,0.687,1.054,0.63,1.06,96,2,0.723,0.685,0.23,0.215,0.262907,0,nan,0.0,4,1,18
660941270,1603429240999979,340355259,1087574583,424432,396518,0.293,0.18101,0.706,1.082,0.61,1.03,106,3,1.097,1.097,-0.017,0.322,0.0961395,0,nan,0.0,4,1,19
661953062,1603429241999978,340355343,1087574562,424251,396337,0.185,0.235536,0.716,1.105,0.61,1.03,106,2,0.925,0.904,-0.199,0.004,6.03585,0,nan,0.0,4,1,19
662942033,1603429242999977,340355415,1087574557,424308,396393,0.254,0.253819,0.72,1.118,0.61,1.03,106,4,0.652,0.634,-0.153,0.306,6.18707,0,nan,0.0,4,1,19
663947651,1603429243999977,340355478,1087574557,424157,396243,0.206,0.333224,0.738,1.142,0.62,1.04,106,5,0.565,0.559,-0.08,-0.116,6.23523,0,nan,0.0,4,1,18
664948950,1603429244999976,340355545,1087574528,424687,396773,0.167,0.198345,0.736,1.138,0.63,1.06,106,5,0.87,0.846,-0.205,-0.4,6.01153,0,nan,0.0,4,1,18
665935950,1603429245999976,340355610,1087574513,424868,396954,0.183,0.188438,0.735,1.13,0.66,1.08,106,3,0.746,0.746,0.005,0.292,6.17273,0,nan,0.0,4,1,18
666944941,1603429246999975,340355685,1087574494,424481,396566,0.197,0.213002,0.733,1.126,0.61,1.03,106,5,0.77,0.735,-0.229,0.264,6.03824,0,nan,0.0,4,1,19
667950035,1603429247999975,340355763,1087574470,424493,396578,0.239,0.236826,0.745,1.143,0.61,1.03,106,4,0.854,0.819,-0.241,-0.141,6.02828,0,nan,0.0,4,1,19
668945941,1603429248999974,340355841,1087574431,424750,396836,0.144,0.194593,0.745,1.142,0.61,1.03,106,2,0.931,0.769,-0.525,-0.155,5.78029,0,nan,0.0,4,1,19
669935971,1603429249999973,340355909,1087574384,424861,396947,0.238,0.23649,0.741,1.135,0.61,1.03,106,3,0.752,0.643,-0.389,0.175,5.74451,0,nan,0.0,4,1,19
670943025,1603429250999973,340355955,1087574352,424039,396125,0.277,0.35138,0.739,1.132,0.63,1.06,106,3,0.548,0.452,-0.31,1.072,5.72922,0,nan,0.0,4,1,18
671936940,1603429251999972,340355984,1087574426,424203,396289,0.234,0.213017,0.738,1.126,0.61,1.03,106,2,0.817,0.308,0.757,0.728,1.25106,0,nan,0.0,4,1,19
672940016,1603429252999972,340355997,1087574518,424028,396114,0.213,0.222269,0.738,1.127,0.61,1.03,106,2,0.809,0.341,0.733,-0.168,1.26094,0,nan,0.0,4,1,19
673951354,1603429253999971,340356004,1087574557,423686,395771,0.237,0.293502,0.74,1.129,0.61,1.03,106,5,0.173,-0.082,-0.152,0.106,1.43584,0,nan,0.0,4,1,19
674939952,1603429254999971,340356022,1087574565,423891,395976,0.267,0.293605,0.74,1.126,0.61,1.03,106,6,0.083,0.039,-0.073,0.067,1.43584,0,nan,0.0,4,1,19
