timestamp,roll,pitch,yaw,thrust_body[0],thrust_body[1],thrust_body[2]
351002348,-0.074183,0.0314569,-0.00100352,0.0,0.0,-0.0
351007265,-0.0751527,0.0319736,-0.00046147,0.0,0.0,-0.0
351027073,-0.0755252,0.0319705,-4.14211e-05,0.0,0.0,-0.0
351047029,-0.0755603,0.0310743,0.000231433,0.0,0.0,-0.0
351066794,-0.0760709,0.0292568,-0.000299113,0.0,0.0,-0.0
351086718,-0.0748891,0.0307545,-0.00121473,0.0,0.0,-0.0
351106546,-0.074505,0.0300086,-0.000881332,0.0,0.0,-0.0
351126389,-0.0763785,0.0317326,-8.95246e-05,0.0,0.0,-0.0
351146355,-0.0748179,0.0318605,-0.000705371,0.0,0.0,-0.0
351166221,-0.074369,0.0301668,-0.000694421,0.0,0.0,-0.0
351186102,-0.0782385,0.0304915,-0.000572985,0.0,0.0,-0.0
351206035,-0.0740966,0.0292857,-0.000320221,0.0,0.0,-0.0
351225790,-0.0764923,0.0324409,-0.000365563,0.0,0.0,-0.0
351245589,-0.0752199,0.0303538,-0.000897672,0.0,0.0,-0.0
351265549,-0.075209,0.0328985,-0.000577536,0.0,0.0,-0.0
351285389,-0.0749097,0.0287339,0.000336666,0.0,0.0,-0.0
351305221,-0.077662,0.0332178,-0.0012594,0.0,0.0,-0.0
351325030,-0.0708679,0.0315965,-0.00132172,0.0,0.0,-0.0
351344900,-0.0763181,0.0302259,-5.1823e-05,0.0,0.0,-0.0
351364768,-0.0781237,0.0330086,-0.00111931,0.0,0.0,-0.0
351389669,-0.0729755,0.033924,-0.00144398,0.0,0.0,-0.0
351404610,-0.0786979,0.0282367,9.52776e-05,0.0,0.0,-0.0
351424430,-0.0771355,0.0337494,-0.00166325,0.0,0.0,-0.0
351449369,-0.0728941,0.0348203,-0.00143603,0.0,0.0,-0.0
351464163,-0.0783654,0.0294601,0.000485742,0.0,0.0,-0.0
351484019,-0.0787469,0.0238327,-0.00148387,0.0,0.0,-0.0
351508859,-0.0731226,0.0350237,-0.00158883,0.0,0.0,-0.0
351528723,-0.0713373,0.0311143,-0.00010815,0.0,0.0,-0.0
351543651,-0.0795287,0.0327611,-0.00114533,0.0,0.0,-0.0
351568429,-0.0745467,0.0351082,-0.00167255,0.0,0.0,-0.0
351588340,-0.0697746,0.0233201,-0.000542488,0.0,0.0,-0.0
351603162,-0.0804349,0.02168,-0.000617249,0.0,0.0,-0.0
351628057,-0.0775844,0.0331595,-0.00100267,0.0,0.0,-0.0
351647927,-0.0703904,0.0336947,-0.00123673,0.0,0.0,-0.0
351662828,-0.0799359,0.0295462,9.6069e-06,0.0,0.0,-0.0
351682597,-0.0745956,0.0340501,-0.0021225,0.0,0.0,-0.0
351707462,-0.07205,0.0345002,-0.00166051,0.0,0.0,-0.0
351727343,-0.0736876,0.0308045,-5.82264e-05,0.0,0.0,-0.0
351742382,-0.0776337,0.0308263,-0.0012653,0.0,0.0,-0.0
351767090,-0.0736911,0.0312493,-0.00232208,0.0,0.0,-0.0
351786952,-0.0730607,0.032538,-0.000476927,0.0,0.0,-0.0
351806878,-0.0790338,0.0299864,0.000385866,0.0,0.0,-0.0
351826753,-0.0762907,0.0203085,-0.00162093,0.0,0.0,-0.0
351846658,-0.0732843,0.0330676,-0.000887538,0.0,0.0,-0.0
351866451,-0.0761307,0.0224967,0.000873368,0.0,0.0,-0.0
351886183,-0.0773795,0.0291056,-0.000708997,0.0,0.0,-0.0
351906032,-0.0733631,0.0298338,-0.00159471,0.0,0.0,-0.0
351925900,-0.0752698,0.033236,0.000381893,0.0,0.0,-0.0
351945832,-0.0764744,0.031411,-4.48384e-05,0.0,0.0,-0.0
351965681,-0.0749468,0.0284275,-0.00179153,0.0,0.0,-0.0
351985647,-0.0745754,0.0310501,-0.000815746,0.0,0.0,-0.0
352005613,-0.074944,0.0327487,0.000374575,0.0,0.0,-0.0
352025392,-0.0752533,0.0286205,-0.00141037,0.0,0.0,-0.0
352045213,-0.0750393,0.0289424,-0.00138425,0.0,0.0,-0.0
352065138,-0.0754135,0.034336,0.000469273,0.0,0.0,-0.0
352090018,-0.0740258,0.0337383,0.000816721,0.0,0.0,-0.0
352104896,-0.0765279,0.026509,-0.00173648,0.0,0.0,-0.0
352124684,-0.0764255,0.0297121,-0.000517686,0.0,0.0,-0.0
352149399,-0.0746957,0.0323664,-0.000286183,0.0,0.0,-0.0
352164284,-0.0749761,0.0273982,-0.00096759,0.0,0.0,-0.0
352184147,-0.0780373,0.0277936,-0.00138936,0.0,0.0,-0.0
352208979,-0.0773268,0.0301712,-0.000692984,0.0,0.0,-0.0
352223908,-0.0725364,0.0288044,-0.000170791,0.0,0.0,-0.0
352243790,-0.0787482,0.0250197,-0.00160579,0.0,0.0,-0.0
352263782,-0.0765675,0.0209315,-0.00100755,0.0,0.0,-0.0
352288595,-0.073278,0.0225339,-0.000546156,0.0,0.0,-0.0
352303499,-0.0769679,0.0261282,-0.000204515,0.0,0.0,-0.0
352323308,-0.0805233,0.0275523,-0.00140491,0.0,0.0,-0.0
352348157,-0.0779597,0.0297571,-0.00207069,0.0,0.0,-0.0
352367950,-0.0677457,0.0307458,-0.000296632,0.0,0.0,-0.0
352382836,-0.081571,0.0259196,-0.000674,0.0,0.0,-0.0
352407664,-0.0830468,0.0274252,-0.0011982,0.0,0.0,-0.0
352427577,-0.0714143,0.0315948,-0.00121443,0.0,0.0,-0.0
352442418,-0.0784782,0.0243846,0.000811698,0.0,0.0,-0.0
352467290,-0.0826844,0.0247748,4.07853e-05,0.0,0.0,-0.0
352487128,-0.0773452,0.029883,-0.00252904,0.0,0.0,-0.0
352507094,-0.0665983,0.0286641,-0.000715161,0.0,0.0,-0.0
352526955,-0.0769309,0.0235629,0.00136033,0.0,0.0,-0.0
352546915,-0.082887,0.0175812,-0.00103611,0.0,0.0,-0.0
352566696,-0.0707468,0.0294582,-0.0025712,0.0,0.0,-0.0
352586515,-0.0704716,0.0244727,0.000378202,0.0,0.0,-0.0
352606336,-0.0827896,0.0252832,0.000836954,0.0,0.0,-0.0
352626282,-0.0779487,0.0303888,-0.00188927,0.0,0.0,-0.0
352646202,-0.0693391,0.0274132,-0.000972203,0.0,0.0,-0.0
352665957,-0.0774901,0.0137072,0.00163098,0.0,0.0,-0.0
352685834,-0.0816255,0.0267273,-0.000599206,0.0,0.0,-0.0
352705636,-0.0715385,0.0290029,-0.00222346,0.0,0.0,-0.0
352725510,-0.0723495,0.0254218,-0.00027903,0.0,0.0,-0.0
352745374,-0.0800326,0.0247778,0.000345067,0.0,0.0,-0.0
352765311,-0.0753557,0.0177503,-0.00187745,0.0,0.0,-0.0
352785162,-0.0726568,0.0274341,-0.000758069,0.0,0.0,-0.0
352805117,-0.0781881,0.025264,0.000484897,0.0,0.0,-0.0
352825117,-0.0782684,0.0262055,-0.00101468,0.0,0.0,-0.0
352844721,-0.0723858,0.0279249,-0.000998256,0.0,0.0,-0.0
352864691,-0.075772,0.0270197,0.000982994,0.0,0.0,-0.0
352884513,-0.0784149,0.0156821,-0.000597769,0.0,0.0,-0.0
352904370,-0.0739385,0.0256929,-0.00198719,0.0,0.0,-0.0
352929202,-0.0727772,0.0169176,-0.00104478,0.0,0.0,-0.0
352944015,-0.0770736,0.0273772,-8.85862e-05,0.0,0.0,-0.0
352963875,-0.0765193,0.0261401,-0.00235045,0.0,0.0,-0.0
352988718,-0.0750698,0.0159842,-0.00191523,0.0,0.0,-0.0
353003744,-0.0749719,0.0182064,0.00111107,0.0,0.0,-0.0
353023552,-0.0771207,0.0272814,-0.00118023,0.0,0.0,-0.0
353048453,-0.076367,0.0168927,-0.00219891,0.0,0.0,-0.0
353068319,-0.0753653,0.026063,-0.00137339,0.0,0.0,-0.0
353083164,-0.0749869,0.0279407,0.000608233,0.0,0.0,-0.0
353107923,-0.0752006,0.0171858,-0.000949347,0.0,0.0,-0.0
353127836,-0.0777699,0.0252519,-0.00183838,0.0,0.0,-0.0
353142739,-0.0723579,0.0274106,0.000652868,0.0,0.0,-0.0
353167582,-0.0723929,0.0278839,0.000800764,0.0,0.0,-0.0
353187554,-0.07709,0.0258165,-0.00149509,0.0,0.0,-0.0
353207324,-0.0790559,0.0265767,-0.00102267,0.0,0.0,-0.0
353227285,-0.0707349,0.0269785,0.000604768,0.0,0.0,-0.0
353247115,-0.0729562,0.0251636,-0.000289278,0.0,0.0,-0.0
353267002,-0.0810478,0.0267007,-0.00167919,0.0,0.0,-0.0
353286766,-0.0748809,0.0290459,-0.0011321,0.0,0.0,-0.0
353306564,-0.0683417,0.0252874,0.000261417,0.0,0.0,-0.0
353326444,-0.0793794,0.0246609,-0.000367949,0.0,0.0,-0.0
353346362,-0.0823729,0.028378,-0.00136224,0.0,0.0,-0.0
353366164,-0.0688336,0.0271489,-0.000452586,0.0,0.0,-0.0
353386054,-0.0725347,0.0226814,0.000361709,0.0,0.0,-0.0
353406007,-0.084732,0.0274157,-0.000682867,0.0,0.0,-0.0
353425893,-0.0752265,0.0296814,-0.00164113,0.0,0.0,-0.0
353445782,-0.0681761,0.0233918,2.4497e-05,0.0,0.0,-0.0
353465562,-0.0818609,0.0231451,0.000553261,0.0,0.0,-0.0
353485441,-0.0822771,0.0299547,-0.00128089,0.0,0.0,-0.0
353505237,-0.068423,0.0272991,-0.00137372,0.0,0.0,-0.0
353525024,-0.0742005,0.0217336,0.000191042,0.0,0.0,-0.0
353544894,-0.084955,0.0264824,-0.000370187,0.0,0.0,-0.0
353564821,-0.0753969,0.0287534,-0.00174091,0.0,0.0,-0.0
353584740,-0.0706681,0.0228441,-0.000304285,0.0,0.0,-0.0
353604640,-0.0813192,0.0137116,0.000708659,0.0,0.0,-0.0
353629617,-0.0822361,0.0255609,-5.70547e-05,0.0,0.0,-0.0
353644327,-0.0716808,0.0264149,-0.00114724,0.0,0.0,-0.0
353664176,-0.0767675,0.0228663,0.000185923,0.0,0.0,-0.0
353689068,-0.0794918,0.0233634,0.000196891,0.0,0.0,-0.0
353703977,-0.0748974,0.0180526,-0.00133497,0.0,0.0,-0.0
353723856,-0.0745117,0.0148592,-0.000205114,0.0,0.0,-0.0
353748648,-0.077277,0.0237852,0.000371855,0.0,0.0,-0.0
353768378,-0.0804397,0.0156121,-0.000632492,0.0,0.0,-0.0
353783267,-0.0745305,0.015852,-0.000209609,0.0,0.0,-0.0
353808107,-0.0753194,0.0250414,0.000303517,0.0,0.0,-0.0
353828024,-0.0794377,0.0253831,-0.00072933,0.0,0.0,-0.0
353842922,-0.0749583,0.0260362,-0.000903519,0.0,0.0,-0.0
353867848,-0.0736022,0.0251076,-0.00023109,0.0,0.0,-0.0
353887736,-0.0791916,0.0247393,0.00107816,0.0,0.0,-0.0
353907541,-0.0795653,0.0254147,-0.00157843,0.0,0.0,-0.0
353927499,-0.0751659,0.0251267,-0.00113078,0.0,0.0,-0.0
353947319,-0.0757868,0.0251866,0.00165322,0.0,0.0,-0.0
353967188,-0.0791547,0.0262667,-0.000405824,0.0,0.0,-0.0
353987098,-0.0769272,0.0262598,-0.00293329,0.0,0.0,-0.0
354006738,-0.0744516,0.0242417,-0.000103902,0.0,0.0,-0.0
354026618,-0.0774843,0.0260539,0.00086995,0.0,0.0,-0.0
354046488,-0.0780884,0.0277575,-0.00251614,0.0,0.0,-0.0
354066422,-0.0767402,0.0260024,-0.00163462,0.0,0.0,-0.0
354086279,-0.0759223,0.0245363,0.00156333,0.0,0.0,-0.0
354106161,-0.0764776,0.0165027,-2.32136e-05,0.0,0.0,-0.0
354126020,-0.0784999,0.0266721,-0.00200659,0.0,0.0,-0.0
354145927,-0.0772415,0.0244973,0.000107768,0.0,0.0,-0.0
354166021,-0.0747057,0.0250046,0.000829257,0.0,0.0,-0.0
354185636,-0.0761475,0.0271088,-0.00131571,0.0,0.0,-0.0
354205553,-0.0795202,0.0266428,-0.00131949,0.0,0.0,-0.0
354225426,-0.0748735,0.014949,0.000122386,0.0,0.0,-0.0
354245285,-0.0728455,0.0244909,-0.000957476,0.0,0.0,-0.0
354265073,-0.0793471,0.0277169,-0.000801479,0.0,0.0,-0.0
354284894,-0.0787703,0.0274875,-0.000111512,0.0,0.0,-0.0
354304844,-0.0735249,0.0257044,-0.000302038,0.0,0.0,-0.0
354329686,-0.072393,0.0243875,-0.00130112,0.0,0.0,-0.0
354344583,-0.0812903,0.0287872,0.000358485,0.0,0.0,-0.0
354364363,-0.0746139,0.0261202,-0.000678143,0.0,0.0,-0.0
354389175,-0.0747402,0.0248651,-0.000527763,0.0,0.0,-0.0
354404087,-0.0797129,0.0258131,-0.000374863,0.0,0.0,-0.0
354424124,-0.0781404,0.0288342,0.000510177,0.0,0.0,-0.0
354448892,-0.0752772,0.0175923,1.56621e-05,0.0,0.0,-0.0
354463830,-0.0769907,0.0142737,-0.00111514,0.0,0.0,-0.0
354483749,-0.0795797,0.0187283,0.000510789,0.0,0.0,-0.0
354508491,-0.0782865,0.0287152,0.000841671,0.0,0.0,-0.0
354528404,-0.0719304,0.0242346,-0.000632073,0.0,0.0,-0.0
354543201,-0.0803763,0.0262466,-0.000599326,0.0,0.0,-0.0
354568129,-0.0805029,0.0271887,-8.21756e-05,0.0,0.0,-0.0
354587835,-0.0727858,0.0267377,0.000553488,0.0,0.0,-0.0
354602751,-0.0787635,0.0237561,-0.00164644,0.0,0.0,-0.0
354622576,-0.0792195,0.0279062,-0.000548786,0.0,0.0,-0.0
354647405,-0.0761864,0.0280666,6.57389e-05,0.0,0.0,-0.0
354667307,-0.0703824,0.0235095,0.000565536,0.0,0.0,-0.0
354682335,-0.0824911,0.0269006,-0.00146805,0.0,0.0,-0.0
354707263,-0.0804094,0.0281089,-0.00158585,0.0,0.0,-0.0
354727008,-0.0683462,0.024899,-0.000232924,0.0,0.0,-0.0
354746891,-0.075127,0.0223652,0.00014929,0.0,0.0,-0.0
354766688,-0.084578,0.0279883,-0.00153066,0.0,0.0,-0.0
354786497,-0.07418,0.0285838,-0.00127747,0.0,0.0,-0.0
354806356,-0.0702232,0.0221213,0.00108179,0.0,0.0,-0.0
354826285,-0.0817308,0.0246913,0.000124534,0.0,0.0,-0.0
354846081,-0.0809945,0.0302936,-0.00183531,0.0,0.0,-0.0
354865957,-0.0702386,0.024547,-0.000494293,0.0,0.0,-0.0
354885833,-0.0764171,0.012459,0.00118733,0.0,0.0,-0.0
354905683,-0.0829812,0.0285264,-0.000947982,0.0,0.0,-0.0
354925658,-0.0744513,0.0285429,-0.00219053,0.0,0.0,-0.0
354945514,-0.0722222,0.0213864,0.000351492,0.0,0.0,-0.0
354965494,-0.0803822,0.0155232,0.000433116,0.0,0.0,-0.0
354985218,-0.0790127,0.0300944,-0.00203329,0.0,0.0,-0.0
355005028,-0.073061,0.0244858,-0.000968478,0.0,0.0,-0.0
355024891,-0.0772602,0.022293,0.0009627,0.0,0.0,-0.0
355044787,-0.0791179,0.0270931,-0.00044533,0.0,0.0,-0.0
355064642,-0.0767216,0.0281879,-0.000904167,0.0,0.0,-0.0
355089516,-0.0766118,0.0265061,-0.000681792,0.0,0.0,-0.0
355104381,-0.0775273,0.0245579,-0.000340879,0.0,0.0,-0.0
355124228,-0.0761977,0.0276197,-0.00170546,0.0,0.0,-0.0
355144092,-0.077164,0.0253457,-0.000180136,0.0,0.0,-0.0
355163881,-0.0783337,0.0233073,-0.000142008,0.0,0.0,-0.0
355183822,-0.076694,0.0261558,-0.00167834,0.0,0.0,-0.0
355203693,-0.0765493,0.0273587,-0.000190759,0.0,0.0,-0.0
355228619,-0.0776402,0.0266349,0.000445913,0.0,0.0,-0.0
355243593,-0.0774359,0.0248471,-0.00131497,0.0,0.0,-0.0
355263368,-0.0761922,0.0261031,-0.00108082,0.0,0.0,-0.0
355288177,-0.0769698,0.0265337,-0.00038457,0.0,0.0,-0.0
355308041,-0.0781492,0.0260446,0.00146572,0.0,0.0,-0.0
355322945,-0.0755419,0.0258343,-0.00295925,0.0,0.0,-0.0
355347707,-0.0762496,0.025384,-0.00174238,0.0,0.0,-0.0
355367480,-0.0784991,0.0260879,0.00103228,0.0,0.0,-0.0
355382497,-0.0755716,0.0253723,-0.00178372,0.0,0.0,-0.0
355407321,-0.0752334,0.0254863,-0.00239918,0.0,0.0,-0.0
355427129,-0.0790163,0.0262024,-0.000957235,0.0,0.0,-0.0
355447007,-0.0762918,0.0249576,0.000944657,0.0,0.0,-0.0
355466839,-0.0738051,0.0243968,-0.000989932,0.0,0.0,-0.0
355486849,-0.078893,0.0254794,-0.0019067,0.0,0.0,-0.0
355506786,-0.0796868,0.0268898,0.000366387,0.0,0.0,-0.0
355526568,-0.0729157,0.0248286,0.000887156,0.0,0.0,-0.0
355546444,-0.0763336,0.01486,-0.00122083,0.0,0.0,-0.0
355566260,-0.0823665,0.0176102,-0.00129395,0.0,0.0,-0.0
355586175,-0.074279,0.0259679,0.000179833,0.0,0.0,-0.0
355605919,-0.0727757,0.0228032,8.69066e-05,0.0,0.0,-0.0
355625875,-0.0824758,0.0264418,-0.00115673,0.0,0.0,-0.0
355645673,-0.0806231,0.0298657,-0.00100928,0.0,0.0,-0.0
355665515,-0.0699871,0.0235504,8.30462e-05,0.0,0.0,-0.0
355685390,-0.0776829,0.0227913,-0.000303859,0.0,0.0,-0.0
355705267,-0.0847135,0.0290068,-0.000948121,0.0,0.0,-0.0
355725147,-0.0744052,0.0273926,-0.000426619,0.0,0.0,-0.0
355745073,-0.0723556,0.0211596,0.000153855,0.0,0.0,-0.0
355765070,-0.083451,0.0260331,-0.000317946,0.0,0.0,-0.0
355784999,-0.0802507,0.0303872,-0.000932384,0.0,0.0,-0.0
355804721,-0.0702726,0.0231222,-0.000711226,0.0,0.0,-0.0
355824553,-0.0785248,0.021944,-0.000262865,0.0,0.0,-0.0
355844406,-0.0828657,0.0299843,-0.000588583,0.0,0.0,-0.0
355869158,-0.0805855,0.0315831,-0.000295702,0.0,0.0,-0.0
355884007,-0.0746487,0.021335,-0.00022195,0.0,0.0,-0.0
355903841,-0.0826976,0.0270267,-0.000449264,0.0,0.0,-0.0
355928666,-0.081888,0.0294253,-0.000641784,0.0,0.0,-0.0
355943697,-0.0735358,0.0240346,-0.000419008,0.0,0.0,-0.0
355963535,-0.0806006,0.0135896,-0.000269679,0.0,0.0,-0.0
355988415,-0.0813261,0.0262024,-0.00104891,0.0,0.0,-0.0
356008228,-0.077426,0.0306994,-0.000855063,0.0,0.0,-0.0
356023151,-0.078619,0.0228939,-6.83998e-05,0.0,0.0,-0.0
356048149,-0.080817,0.023927,-0.000420126,0.0,0.0,-0.0
356067883,-0.0797268,0.0286395,-0.00112059,0.0,0.0,-0.0
356082781,-0.0767929,0.0240835,0.000450498,0.0,0.0,-0.0
356107562,-0.0789979,0.0240364,0.000928965,0.0,0.0,-0.0
356127456,-0.0817116,0.0276732,-0.00207933,0.0,0.0,-0.0
356147235,-0.075402,0.0280394,-0.00172103,0.0,0.0,-0.0
356167059,-0.0765874,0.024626,0.00119194,0.0,0.0,-0.0
356186952,-0.0817648,0.0167121,-0.000313373,0.0,0.0,-0.0
356206943,-0.078224,0.0292459,-0.00311824,0.0,0.0,-0.0
356226743,-0.076103,0.0259367,0.000243904,0.0,0.0,-0.0
356246606,-0.0937077,0.0146788,0.00204194,0.0,0.0,-0.0
356266444,-0.118161,0.0189818,-0.00150572,0.0,0.0,-0.0
356286332,-0.150688,0.0192575,-0.00157528,0.0,0.0,-0.0
356306340,-0.103831,0.0246303,0.00187342,0.0,0.0,-0.0
356326137,-0.105039,0.0259872,0.000210198,0.0,0.0,-0.0
356346051,-0.0768811,0.029629,-0.00313055,0.0,0.0,-0.0
356365869,-0.0771455,0.0171016,-0.000255011,0.0,0.0,-0.0
356385735,-0.0800124,0.0235586,0.0011024,0.0,0.0,-0.0
356405481,-0.0778071,0.0276881,-0.00174121,0.0,0.0,-0.0
356425344,-0.0774444,0.0295463,-0.001595,0.0,0.0,-0.0
356445238,-0.0813982,0.0251233,0.00115944,0.0,0.0,-0.0
356465106,-0.0793115,0.0246779,-9.68595e-05,0.0,0.0,-0.0
356484952,-0.0764151,0.0290238,-0.00148303,0.0,0.0,-0.0
356504806,-0.0796014,0.0274791,0.000220861,0.0,0.0,-0.0
356524628,-0.0808031,0.0234231,9.29949e-05,0.0,0.0,-0.0
356544528,-0.0759878,0.0256253,-0.00193471,0.0,0.0,-0.0
356569561,-0.0765989,0.0277634,-0.00127877,0.0,0.0,-0.0
356584474,-0.0821892,0.017467,0.000713934,0.0,0.0,-0.0
356604278,-0.0774214,0.0239321,-0.00172409,0.0,0.0,-0.0
356629064,-0.0762115,0.0243381,-0.00209954,0.0,0.0,-0.0
356643919,-0.08171,0.0296128,0.0012872,0.0,0.0,-0.0
356663799,-0.0798204,0.0249509,-0.000510196,0.0,0.0,-0.0
356688530,-0.0783775,0.0234739,-0.00179907,0.0,0.0,-0.0
356708469,-0.0780928,0.0264765,-0.00135757,0.0,0.0,-0.0
356723334,-0.0803687,0.029045,0.00106176,0.0,0.0,-0.0
356748147,-0.0803262,0.0270238,0.000126753,0.0,0.0,-0.0
356768016,-0.0786446,0.0139986,-0.00238497,0.0,0.0,-0.042448
356782921,-0.0787033,0.0300538,0.00116683,0.0,0.0,-0.061175
356807743,-0.0780427,0.020673,0.00155805,0.0,0.0,-0.0811505
356827700,-0.079415,0.0242164,-0.00126524,0.0,0.0,-0.0811505
356847630,-0.0802711,0.0143315,-0.00274359,0.0,0.0,-0.0836475
356867396,-0.0798499,0.0297229,0.000109899,0.0,0.0,-0.0836475
356887326,-0.0780609,0.0297749,0.00248224,0.0,0.0,-0.0836475
356907209,-0.0802029,0.0246613,0.000310861,0.0,0.0,-0.0836475
356927048,-0.0799906,0.0231813,-0.00326006,0.0,0.0,-0.0836475
356946875,-0.0771476,0.0263387,-0.00366059,0.0,0.0,-0.0836475
356966618,-0.0761302,0.0283501,2.96164e-06,0.0,0.0,-0.0836475
356986530,-0.0794345,0.0263966,0.00290899,0.0,0.0,-0.0836475
357006574,-0.0842501,0.024741,0.00205156,0.0,0.0,-0.0836475
357026367,-0.0845522,0.0265741,-0.000719915,0.0,0.0,-0.0836475
357046229,-0.080477,0.0302453,-0.00241113,0.0,0.0,-0.0836475
357066084,-0.0731545,0.0291262,-0.00256441,0.0,0.0,-0.0836475
357085963,-0.0700054,0.0233086,-0.000948245,0.0,0.0,-0.0836475
357105929,-0.0754671,0.0184813,0.000614741,0.0,0.0,-0.0836475
357125892,-0.0830436,0.0106476,0.000778364,0.0,0.0,-0.0836475
357145540,-0.0894762,0.0261847,-0.000459026,0.0,0.0,-0.0836475
357165338,-0.0916559,0.033035,-0.00155753,0.0,0.0,-0.0836475
357185206,-0.0898708,0.025604,-0.0014972,0.0,0.0,-0.0836475
357205025,-0.0861651,0.0331041,-0.000708689,0.0,0.0,-0.0836475
357224953,-0.0812394,0.0265423,0.000224315,0.0,0.0,-0.0836475
357244844,-0.0757655,0.0195413,0.000518087,0.0,0.0,-0.0836475
357269648,-0.0897753,0.0284054,-0.000146868,0.0,0.0,-0.0836475
357284573,-0.0651042,0.014356,-0.000419431,0.0,0.0,-0.0836475
357304367,-0.0638883,0.0165304,-0.000383083,0.0,0.0,-0.0836475
357329356,-0.0705891,0.0147403,0.000261273,0.0,0.0,-0.0836475
357344162,-0.0722898,0.0263115,-0.00156754,0.0,0.0,-0.0836475
357364050,-0.0796378,0.0313107,-0.0019748,0.0,0.0,-0.0836475
357389001,-0.062906,0.0215734,-0.00144673,0.0,0.0,-0.0836475
357408720,-0.0670668,0.0241002,-0.00207536,0.0,0.0,-0.0836475
357423631,-0.0979744,0.0330547,-0.000503161,0.0,0.0,-0.0836475
357448441,-0.0798063,0.029519,-0.00270476,0.0,0.0,-0.0836475
357468317,-0.0856164,0.0325037,-0.00194615,0.0,0.0,-0.0836475
357483231,-0.0975433,0.026321,0.000958915,0.0,0.0,-0.0836475
357508061,-0.0964807,0.0324294,-0.000217899,0.0,0.0,-0.0836475
357527902,-0.0984704,0.0196437,0.000376298,0.0,0.0,-0.0836475
357542827,-0.081934,0.0166987,0.00274485,0.0,0.0,-0.0836475
357562663,-0.0774767,0.0160735,0.0018505,0.0,0.0,-0.082399
357587502,-0.0912781,0.0214935,0.00228645,0.0,0.0,-0.082399
357607252,-0.0874611,0.0207428,0.0028032,0.0,0.0,-0.0836475
357622157,-0.0681014,0.0229241,-0.00224812,0.0,0.0,-0.0836475
357647135,-0.0790296,0.0188707,0.00218672,0.0,0.0,-0.0836475
357667084,-0.0759369,0.0200094,0.0013121,0.0,0.0,-0.0836475
357686867,-0.0746049,0.0228915,-6.6678e-05,0.0,0.0,-0.0836475
357706732,-0.0731189,0.0272205,-0.00148619,0.0,0.0,-0.0836475
357726605,-0.0725923,0.0303166,-0.00317466,0.0,0.0,-0.0836475
357746444,-0.0735527,0.0302236,-0.00412942,0.0,0.0,-0.0836475
357766269,-0.0743069,0.0285068,-0.0042381,0.0,0.0,-0.082399
357786201,-0.0739353,0.0259889,-0.00389602,0.0,0.0,-0.0811505
357806024,-0.075162,0.0225018,-0.0027685,0.0,0.0,-0.0799021
357825848,-0.0768145,0.0182115,-0.00128105,0.0,0.0,-0.0786536
357845671,-0.0755533,0.00456071,-0.000233083,0.0,0.0,-0.0786536
357865548,-0.0763229,0.00100245,0.000353669,0.0,0.0,-0.0786536
357885373,-0.0767529,0.0100243,0.00130314,0.0,0.0,-0.0786536
357905437,-0.0782315,0.0131201,0.00133284,0.0,0.0,-0.0799021
357925348,-0.0816127,0.00917733,0.00120862,0.0,0.0,-0.0799021
357945050,-0.0847785,0.0165253,0.00102083,0.0,0.0,-0.0836475
357969921,-0.0729905,0.00351057,-0.000177701,0.0,0.0,-0.0836475
357984797,-0.0888156,0.0362711,0.000555508,0.0,0.0,-0.0836475
358004671,-0.0910307,0.0364408,0.000235561,0.0,0.0,-0.0836475
358029429,-0.0816659,0.0174979,-0.000215816,0.0,0.0,-0.0836475
358044413,-0.0908684,0.0217136,-6.26759e-05,0.0,0.0,-0.0836475
358064333,-0.0884791,0.0189009,0.000237295,0.0,0.0,-0.084896
358084200,-0.0855718,0.0158561,0.000367092,0.0,0.0,-0.0886414
358108957,-0.0908584,0.0325522,0.000978992,0.0,0.0,-0.173684
358123866,-0.0785725,0.0107123,-0.000812924,0.0,0.0,-0.183158
358143661,-0.077616,0.0190856,-0.00159863,0.0,0.0,-0.192632
358168600,-0.0892258,0.0282905,0.000511535,0.0,0.0,-0.213684
358183530,-0.0782642,0.0214096,-0.00175662,0.0,0.0,-0.213684
358203494,-0.0782836,0.0124534,-0.00049082,0.0,0.0,-0.233684
358228116,-0.0913375,0.0118316,-0.000390204,0.0,0.0,-0.235789
358248008,-0.0818351,0.0164286,0.000521827,0.0,0.0,-0.236842
358262862,-0.0876551,0.0186175,-0.00112213,0.0,0.0,-0.236842
358287803,-0.0770137,0.0196653,-0.000857097,0.0,0.0,-0.236842
358307637,-0.0646155,0.00688859,-0.00179944,0.0,0.0,-0.236842
358322510,-0.0733702,0.00565671,-0.00115029,0.0,0.0,-0.236842
358347362,-0.0821265,0.0150343,0.00064482,0.0,0.0,-0.235789
358367146,-0.0715968,0.0136568,0.00024944,0.0,0.0,-0.235789
358387061,-0.0746217,0.0225831,-0.000426365,0.0,0.0,-0.235789
358406832,-0.0860027,0.0257935,-0.00323408,0.0,0.0,-0.234737
358426749,-0.087375,0.0145752,-0.00199573,0.0,0.0,-0.232632
358446639,-0.0827332,0.015134,0.00179846,0.0,0.0,-0.232632
358466618,-0.0765838,0.00826653,-0.000450829,0.0,0.0,-0.232632
358486353,-0.0802133,0.0145527,-0.00260374,0.0,0.0,-0.232632
358506226,-0.0889393,0.0195581,-0.000753087,0.0,0.0,-0.233684
358526232,-0.0812116,0.0132225,3.57984e-05,0.0,0.0,-0.232632
358546025,-0.0724954,0.0147539,-0.00090783,0.0,0.0,-0.233684
358565960,-0.080241,0.0198795,-0.00117415,0.0,0.0,-0.233684
358585747,-0.0849276,0.0150104,-0.0019444,0.0,0.0,-0.233684
358605555,-0.079404,0.0265235,0.00105412,0.0,0.0,-0.233684
358625450,-0.0747567,0.0268221,0.000840069,0.0,0.0,-0.233684
358645210,-0.0767017,0.0116156,-0.00249349,0.0,0.0,-0.233684
358665148,-0.0835192,0.0284574,-0.00197628,0.0,0.0,-0.233684
358684993,-0.0858048,0.0294174,-0.000628805,0.0,0.0,-0.233684
358704952,-0.0754438,0.0148575,-0.00177952,0.0,0.0,-0.233684
358724857,-0.0762466,0.0267583,-0.00279605,0.0,0.0,-0.233684
358744817,-0.0904273,0.017454,-0.000937308,0.0,0.0,-0.232632
358764513,-0.0825324,0.0192736,-0.000817257,0.0,0.0,-0.233684
358784385,-0.0768226,0.0165416,-0.00236539,0.0,0.0,-0.233684
358809213,-0.0869941,0.0179284,-0.00271005,0.0,0.0,-0.233684
358824115,-0.0897042,0.0189044,-0.0023719,0.0,0.0,-0.233684
358843926,-0.0782925,0.0217635,-0.00242614,0.0,0.0,-0.233684
358868729,-0.0858321,0.0163318,-0.00171217,0.0,0.0,-0.233684
358883631,-0.0844323,0.0266506,-0.00151722,0.0,0.0,-0.232632
358903494,-0.080193,0.0231225,-0.00294981,0.0,0.0,-0.232632
358928384,-0.0817182,0.0168072,-0.00177268,0.0,0.0,-0.232632
358948245,-0.0754316,0.0187303,-0.00161335,0.0,0.0,-0.232632
358963143,-0.0746582,0.0155476,-0.00235913,0.0,0.0,-0.232632
358988051,-0.0923654,0.026423,-0.00198426,0.0,0.0,-0.232632
359007966,-0.0783037,0.0216823,-0.00259673,0.0,0.0,-0.233684
359022705,-0.0809774,0.0224337,-0.0025393,0.0,0.0,-0.233684
359047617,-0.0864293,0.0239605,-0.00188024,0.0,0.0,-0.232632
359067444,-0.083083,0.0206993,-0.00191279,0.0,0.0,-0.233684
359087313,-0.0796725,0.0195889,-0.00158894,0.0,0.0,-0.232632
359107247,-0.0861653,0.0275917,-0.00220155,0.0,0.0,-0.232632
359127004,-0.0783595,0.0193084,-0.00294234,0.0,0.0,-0.232632
359146894,-0.0735229,0.0301428,-0.00396041,0.0,0.0,-0.232632
359166780,-0.0858372,0.0280998,-0.00289187,0.0,0.0,-0.232632
359186581,-0.0829085,0.0221934,-0.00259221,0.0,0.0,-0.232632
359206450,-0.0806632,0.0155996,-0.00238657,0.0,0.0,-0.232632
359226267,-0.084332,0.0197681,-0.00283527,0.0,0.0,-0.232632
359246218,-0.0858367,0.0149903,-0.00349675,0.0,0.0,-0.232632
359266171,-0.085178,0.0141663,-0.00392163,0.0,0.0,-0.232632
359285989,-0.0834579,0.0190942,-0.000815236,0.0,0.0,-0.232632
359305798,-0.0795922,0.0170799,-0.000575045,0.0,0.0,-0.232632
359325741,-0.0716801,0.0119156,-0.00433493,0.0,0.0,-0.232632
359345630,-0.0808457,0.0165297,-0.00278207,0.0,0.0,-0.231579
359365494,-0.0893591,0.0261274,-0.00221779,0.0,0.0,-0.230526
359385294,-0.0762095,0.0184728,-0.00231749,0.0,0.0,-0.229474
359405174,-0.0726466,0.0250574,-0.00276971,0.0,0.0,-0.229474
359425017,-0.0889772,0.0308404,-0.00439721,0.0,0.0,-0.223158
359444766,-0.0847507,0.0138441,-0.00306549,0.0,0.0,-0.210526
359464640,-0.0830699,0.0253661,-0.00100956,0.0,0.0,-0.209474
359484482,-0.085351,0.0224847,-0.00201857,0.0,0.0,-0.209474
359509472,-0.0792702,0.0256451,-0.00307132,0.0,0.0,-0.209474
359524364,-0.0753062,0.0203291,-0.00265498,0.0,0.0,-0.209474
359544319,-0.0826652,0.0150982,-0.00394244,0.0,0.0,-0.210526
359569127,-0.0784887,0.0271868,-0.00207455,0.0,0.0,-0.211579
359584008,-0.0781121,0.0268435,-0.00331497,0.0,0.0,-0.211579
359603871,-0.0737296,0.0264516,-0.00167409,0.0,0.0,-0.211579
359628684,-0.0903997,0.0219828,-0.00391486,0.0,0.0,-0.211579
359648568,-0.0942502,0.028169,-0.00229639,0.0,0.0,-0.211579
359663375,-0.0949069,0.0317847,-0.00489474,0.0,0.0,-0.211579
359688316,-0.0716583,0.0203786,-0.00347916,0.0,0.0,-0.211579
359708021,-0.08211,0.0201109,-0.00264265,0.0,0.0,-0.211579
359722911,-0.0786299,0.0161289,-0.00204233,0.0,0.0,-0.211579
359747725,-0.0857113,0.0256472,-0.00489461,0.0,0.0,-0.211579
359767600,-0.0860289,0.0187126,-0.00301742,0.0,0.0,-0.212632
359787500,-0.0817744,0.0242059,-0.00368477,0.0,0.0,-0.212632
359807518,-0.0689057,0.0107411,-0.00434497,0.0,0.0,-0.212632
359827316,-0.0750454,0.0285693,-0.00435683,0.0,0.0,-0.213684
359847184,-0.0821527,0.0233058,-0.00418025,0.0,0.0,-0.213684
359867093,-0.0801716,0.00983677,-0.00370608,0.0,0.0,-0.213684
359886889,-0.0728655,0.0163632,-0.00392413,0.0,0.0,-0.212632
359906662,-0.0741422,0.0177772,-0.00303676,0.0,0.0,-0.213684
359926553,-0.0777438,0.0141522,-0.00641931,0.0,0.0,-0.213684
359946429,-0.0826036,0.0245804,-0.00501613,0.0,0.0,-0.213684
359966260,-0.0934604,0.0198366,-0.00479617,0.0,0.0,-0.213684
359986134,-0.0880467,0.0106514,-0.00469971,0.0,0.0,-0.213684
360005956,-0.0750725,0.00932822,-0.005074,0.0,0.0,-0.213684
360025873,-0.0810902,0.0220197,-0.00407349,0.0,0.0,-0.212632
360045736,-0.0907459,0.0170521,-0.00452972,0.0,0.0,-0.212632
360065698,-0.0887742,0.0249549,-0.00673572,0.0,0.0,-0.212632
360085719,-0.0877302,0.0291113,-0.00438635,0.0,0.0,-0.212632
360105383,-0.0864614,0.0177126,-0.00351703,0.0,0.0,-0.211579
360125225,-0.0747345,0.014759,-0.00513255,0.0,0.0,-0.211579
360145116,-0.0754503,0.0210124,-0.00555958,0.0,0.0,-0.211579
360165021,-0.0912358,0.0207228,-0.00476675,0.0,0.0,-0.211579
360184810,-0.0852793,0.0222027,-0.00381705,0.0,0.0,-0.211579
360209691,-0.079863,0.0298811,-0.00459685,0.0,0.0,-0.211579
360224651,-0.0771778,0.0191439,-0.00348741,0.0,0.0,-0.211579
360244420,-0.0766935,0.0249929,-0.00566917,0.0,0.0,-0.211579
360269247,-0.0893698,0.0201092,-0.00408589,0.0,0.0,-0.210526
360284052,-0.0957777,0.0245237,-0.00555979,0.0,0.0,-0.210526
360303920,-0.0951056,0.0161144,-0.00548576,0.0,0.0,-0.210526
360328863,-0.0740605,0.023575,-0.00469596,0.0,0.0,-0.210526
360348758,-0.0814077,0.0162339,-0.00511209,0.0,0.0,-0.211579
360363627,-0.0816224,0.0148162,-0.00475441,0.0,0.0,-0.211579
360388504,-0.0885912,0.0200106,-0.00433064,0.0,0.0,-0.211579
360408358,-0.0818156,0.0144879,-0.00547601,0.0,0.0,-0.211579
360423263,-0.0960539,0.0177585,-0.00553772,0.0,0.0,-0.211579
360448120,-0.0755672,0.0224926,-0.0053289,0.0,0.0,-0.211579
360467895,-0.090192,0.0307231,-0.00582998,0.0,0.0,-0.211579
360482767,-0.0881233,0.017233,-0.00456771,0.0,0.0,-0.211579
360502623,-0.0878363,0.0177393,-0.00527532,0.0,0.0,-0.211579
360527450,-0.082832,0.0174815,-0.00478304,0.0,0.0,-0.211579
360547316,-0.0730657,0.0153554,-0.00584792,0.0,0.0,-0.211579
360562170,-0.0780269,0.0216197,-0.00630445,0.0,0.0,-0.211579
360587039,-0.0856915,0.0210032,-0.00514572,0.0,0.0,-0.211579
360607065,-0.0886808,0.0126735,-0.00643535,0.0,0.0,-0.211579
360627047,-0.0765711,0.0159305,-0.00346982,0.0,0.0,-0.211579
360646732,-0.0759975,0.0179337,-0.00425149,0.0,0.0,-0.211579
360666651,-0.0718234,0.0146026,-0.00668184,0.0,0.0,-0.211579
360686479,-0.0795395,0.0206653,-0.00669867,0.0,0.0,-0.211579
360706321,-0.0874793,0.0238493,-0.00490035,0.0,0.0,-0.211579
360726079,-0.0869699,0.0147936,-0.00683018,0.0,0.0,-0.211579
360746034,-0.0747771,0.0238164,-0.0048497,0.0,0.0,-0.211579
360765850,-0.0772223,0.0182925,-0.00493545,0.0,0.0,-0.211579
360785694,-0.0727727,0.0273953,-0.00633174,0.0,0.0,-0.211579
360805611,-0.0802719,0.023529,-0.00624501,0.0,0.0,-0.211579
360825374,-0.0843352,0.0195412,-0.00553275,0.0,0.0,-0.211579
360845382,-0.0862373,0.0138261,-0.00601805,0.0,0.0,-0.211579
360865313,-0.079129,0.0271601,-0.0046424,0.0,0.0,-0.211579
360885250,-0.0779683,0.018706,-0.00507473,0.0,0.0,-0.211579
360909976,-0.0916865,0.0251242,-0.006483,0.0,0.0,-0.212632
360924842,-0.086337,0.0248916,-0.00719504,0.0,0.0,-0.212632
360944691,-0.0935213,0.0235727,-0.0055752,0.0,0.0,-0.212632
360969539,-0.0814688,0.0178702,-0.00684046,0.0,0.0,-0.212632
360984373,-0.0807275,0.0176624,-0.00646114,0.0,0.0,-0.214737
361004253,-0.0806618,0.0165895,-0.00559695,0.0,0.0,-0.214737
361024158,-0.0748027,0.0193381,-0.0069527,0.0,0.0,-0.214737
361048882,-0.0986026,0.0213439,-0.0072773,0.0,0.0,-0.214737
361063845,-0.0919915,0.0226488,-0.00724351,0.0,0.0,-0.214737
361083651,-0.0903631,0.0193156,-0.00749774,0.0,0.0,-0.215789
361108629,-0.0792473,0.0154078,-0.00709885,0.0,0.0,-0.217895
361123465,-0.0768514,0.0230778,-0.00654072,0.0,0.0,-0.221053
361143397,-0.0739838,0.0168953,-0.00830534,0.0,0.0,-0.224211
361168198,-0.0932983,0.0171052,-0.00841823,0.0,0.0,-0.225263
361188042,-0.0761952,0.0152277,-0.00633537,0.0,0.0,-0.228421
361202848,-0.079142,0.0160424,-0.00574612,0.0,0.0,-0.228421
361227706,-0.0783217,0.0128668,-0.00751358,0.0,0.0,-0.232632
361247531,-0.0836086,0.0197638,-0.00739175,0.0,0.0,-0.237895
361262483,-0.0802459,0.0192151,-0.00674761,0.0,0.0,-0.237895
361287368,-0.0841753,0.0148419,-0.00555449,0.0,0.0,-0.238947
361307187,-0.0815115,0.0164922,-0.00510161,0.0,0.0,-0.238947
361327045,-0.0760351,0.0108523,-0.00764464,0.0,0.0,-0.238947
361346868,-0.081629,0.020598,-0.00811989,0.0,0.0,-0.24
361366734,-0.0845787,0.0198181,-0.00749083,0.0,0.0,-0.238947
361386672,-0.0803578,0.016737,-0.00825138,0.0,0.0,-0.238947
361406576,-0.0862167,0.0203634,-0.00637386,0.0,0.0,-0.238947
361426536,-0.0835977,0.0152839,-0.00811237,0.0,0.0,-0.24
361446231,-0.0784642,0.0172,-0.00719604,0.0,0.0,-0.24
361466079,-0.086064,0.0220401,-0.00623568,0.0,0.0,-0.24
361485959,-0.0806339,0.0151942,-0.00711561,0.0,0.0,-0.243158
361505913,-0.0821047,0.0167025,-0.00807557,0.0,0.0,-0.270526
361525647,-0.0857222,0.00969852,-0.00782006,0.0,0.0,-0.275789
361545577,-0.0811438,0.0137681,-0.00771428,0.0,0.0,-0.277895
361565450,-0.0815579,0.0231157,-0.00606826,0.0,0.0,-0.278947
361585321,-0.0802775,0.0135448,-0.00913008,0.0,0.0,-0.278947
361605160,-0.0868835,0.0184894,-0.00732635,0.0,0.0,-0.277895
361625039,-0.0893555,0.0142171,-0.00779996,0.0,0.0,-0.277895
361644918,-0.0829627,0.0146483,-0.00727937,0.0,0.0,-0.277895
361664673,-0.0800767,0.0193987,-0.00493602,0.0,0.0,-0.277895
361684800,-0.0816464,0.017229,-0.00859076,0.0,0.0,-0.277895
361704716,-0.0900728,0.0232755,-0.00786467,0.0,0.0,-0.28
361724362,-0.0855489,0.0117122,-0.00792435,0.0,0.0,-0.281053
361749200,-0.082524,0.0239798,-0.00805213,0.0,0.0,-0.287368
361764082,-0.0790964,0.012699,-0.00831726,0.0,0.0,-0.303158
361783974,-0.0915583,0.0215616,-0.0066656,0.0,0.0,-0.308421
361808755,-0.0781907,0.0146864,-0.00801532,0.0,0.0,-0.314737
361823784,-0.0819794,0.0175701,-0.00828768,0.0,0.0,-0.314737
361843555,-0.0851837,0.0200354,-0.00941044,0.0,0.0,-0.314737
361868431,-0.0805011,0.0140464,-0.00751158,0.0,0.0,-0.314737
361888158,-0.0781654,0.0170329,-0.00861204,0.0,0.0,-0.314737
361903037,-0.0825453,0.0263163,-0.0088503,0.0,0.0,-0.313684
361927873,-0.0776111,0.014459,-0.00655633,0.0,0.0,-0.313684
361947864,-0.0649795,0.0155593,-0.00893876,0.0,0.0,-0.313684
361962860,-0.0785396,0.0236965,-0.00815562,0.0,0.0,-0.313684
361987576,-0.0787576,0.00773941,-0.00919004,0.0,0.0,-0.313684
362007540,-0.0808415,0.0231761,-0.00709565,0.0,0.0,-0.313684
362027373,-0.0838352,0.0269224,-0.0073877,0.0,0.0,-0.313684
362047349,-0.084534,0.015775,-0.00776734,0.0,0.0,-0.309474
362067155,-0.0786616,0.0129943,-0.00924175,0.0,0.0,-0.308421
362087068,-0.0841235,0.0318809,-0.00897055,0.0,0.0,-0.307368
362106870,-0.0890983,0.0225251,-0.00847708,0.0,0.0,-0.307368
362126571,-0.0808984,0.0131449,-0.00985973,0.0,0.0,-0.306316
362146397,-0.0847615,0.0221728,-0.00834451,0.0,0.0,-0.306316
362166261,-0.0843811,0.0134242,-0.00914301,0.0,0.0,-0.306316
362186108,-0.0874608,0.0143334,-0.00646914,0.0,0.0,-0.306316
362206111,-0.0800394,0.0147965,-0.00892041,0.0,0.0,-0.306316
362226106,-0.0880924,0.0227813,-0.00865615,0.0,0.0,-0.306316
362245871,-0.0850237,0.0152276,-0.00902322,0.0,0.0,-0.306316
362265763,-0.0823219,0.0167604,-0.00706589,0.0,0.0,-0.306316
362285553,-0.0809617,0.0257539,-0.00770827,0.0,0.0,-0.306316
362305432,-0.0915719,0.0243236,-0.0077923,0.0,0.0,-0.306316
362325213,-0.0833027,0.0269421,-0.00766,0.0,0.0,-0.310526
362345176,-0.0805449,0.0188886,-0.00823827,0.0,0.0,-0.312632
362365056,-0.0855716,0.0219142,-0.00936181,0.0,0.0,-0.312632
362384815,-0.087003,0.0191727,-0.00933648,0.0,0.0,-0.312632
362404681,-0.0797742,0.0134702,-0.00789323,0.0,0.0,-0.312632
362424490,-0.0797713,0.02689,-0.00804163,0.0,0.0,-0.312632
362449369,-0.0842129,0.019778,-0.00803803,0.0,0.0,-0.312632
362464337,-0.0803894,0.0175541,-0.00934564,0.0,0.0,-0.313684
362484248,-0.0789952,0.0154366,-0.0100098,0.0,0.0,-0.316842
362509219,-0.0802938,0.0110132,-0.00832176,0.0,0.0,-0.325263
362523941,-0.0832959,0.0139477,-0.00759757,0.0,0.0,-0.336842
362543803,-0.0781014,0.0123428,-0.00929839,0.0,0.0,-0.335789
362568661,-0.0836683,0.0177368,-0.0109078,0.0,0.0,-0.335789
362588419,-0.0802272,0.0190365,-0.00856919,0.0,0.0,-0.335789
362603376,-0.0795532,0.0154803,-0.00846501,0.0,0.0,-0.335789
362628249,-0.0877062,0.0147268,-0.00798099,0.0,0.0,-0.335789
362647982,-0.0816067,0.00931717,-0.010063,0.0,0.0,-0.335789
362662874,-0.0808627,0.012611,-0.00862048,0.0,0.0,-0.335789
362687768,-0.0865111,0.0135538,-0.00783816,0.0,0.0,-0.335789
362707663,-0.0779488,0.0158237,-0.00964798,0.0,0.0,-0.335789
362727469,-0.082164,0.0221065,-0.0103386,0.0,0.0,-0.335789
362747431,-0.0796654,0.0111505,-0.00904763,0.0,0.0,-0.338947
362767426,-0.0761222,0.00873154,-0.0101818,0.0,0.0,-0.348421
362787176,-0.0870817,0.0154803,-0.00822191,0.0,0.0,-0.365263
362807093,-0.0801816,0.00192234,-0.00941305,0.0,0.0,-0.375789
362826901,-0.0776407,0.0187069,-0.00808461,0.0,0.0,-0.407368
362846739,-0.0793627,0.0165259,-0.0100299,0.0,0.0,-0.407368
362866532,-0.0791118,0.0147278,-0.0109043,0.0,0.0,-0.416842
362886395,-0.0814422,0.0213834,-0.00906776,0.0,0.0,-0.416842
362906283,-0.0774436,0.0100548,-0.0100531,0.0,0.0,-0.418947
362926176,-0.0752927,0.00926292,-0.00886509,0.0,0.0,-0.418947
362946054,-0.075234,0.00200548,-0.00782748,0.0,0.0,-0.418947
362965866,-0.0726742,0.00109986,-0.00564662,0.0,0.0,-0.418947
362985774,-0.0701165,-0.00408857,-0.00677143,0.0,0.0,-0.418947
363005589,-0.0675683,-0.0118336,-0.00581611,0.0,0.0,-0.418947
363025662,-0.0655693,-0.0070607,-0.00795453,0.0,0.0,-0.418947
363045554,-0.0646095,-0.0108077,-0.00856557,0.0,0.0,-0.417895
363065307,-0.0572944,-0.00628466,-0.0123053,0.0,0.0,-0.414737
363085124,-0.0617692,-0.00839101,-0.00925324,0.0,0.0,-0.414737
363104975,-0.0679622,0.000364176,-0.00914128,0.0,0.0,-0.414737
363124850,-0.0697605,-7.61346e-05,-0.00630115,0.0,0.0,-0.414737
363149723,-0.0782302,0.00848936,-0.00567883,0.0,0.0,-0.414737
363164615,-0.0746608,0.00497581,-0.00685149,0.0,0.0,-0.414737
363184367,-0.0769202,0.0207582,-0.00743414,0.0,0.0,-0.414737
363209195,-0.0739167,0.0161492,-0.00930631,0.0,0.0,-0.414737
363224061,-0.0731829,0.0171105,-0.00836139,0.0,0.0,-0.414737
363243923,-0.0791806,0.0083033,-0.00712133,0.0,0.0,-0.415789
363268851,-0.0770129,0.00520833,-0.00608625,0.0,0.0,-0.415789
363288807,-0.0679603,0.00106478,-0.00648807,0.0,0.0,-0.416842
363303778,-0.0625661,-0.00221877,-0.00625643,0.0,0.0,-0.417895
363328507,-0.0622782,-0.0112909,-0.00569162,0.0,0.0,-0.416842
363348319,-0.0629213,-0.0128678,-0.00744505,0.0,0.0,-0.416842
363363229,-0.0643553,-0.014693,-0.00602961,0.0,0.0,-0.418947
363388145,-0.0633716,-0.00636895,-0.00596772,0.0,0.0,-0.418947
363407874,-0.0696274,-0.0062234,-0.0048211,0.0,0.0,-0.42
363422806,-0.0727367,0.000219806,-0.0043591,0.0,0.0,-0.42
363442611,-0.0703708,0.00423214,-0.00458189,0.0,0.0,-0.446316
363467402,-0.0705771,0.00418472,-0.00420515,0.0,0.0,-0.454737
363487264,-0.0701904,-0.00153779,-0.00227863,0.0,0.0,-0.458947
363502176,-0.0596082,-0.00918202,-0.00430423,0.0,0.0,-0.466316
363527102,-0.0492437,-0.0219707,-0.00764579,0.0,0.0,-0.467368
363546965,-0.0397908,-0.0252558,-0.0120287,0.0,0.0,-0.467368
363566954,-0.0341218,-0.0303509,-0.013486,0.0,0.0,-0.468421
363586807,-0.0282675,-0.0347765,-0.0160253,0.0,0.0,-0.468421
363606604,-0.0264841,-0.0334684,-0.0199237,0.0,0.0,-0.468421
363626520,-0.0248063,-0.0396136,-0.0226794,0.0,0.0,-0.468421
363646378,-0.0252062,-0.0335725,-0.0239027,0.0,0.0,-0.468421
363666169,-0.0278366,-0.0342771,-0.0240861,0.0,0.0,-0.48
363686008,-0.020171,-0.0353043,-0.0246619,0.0,0.0,-0.485263
363705794,-0.023614,-0.0309377,-0.0223752,0.0,0.0,-0.490526
363725650,-0.0280084,-0.0410807,-0.024525,0.0,0.0,-0.496842
363745571,-0.0268515,-0.0432402,-0.0221177,0.0,0.0,-0.496842
363765485,-0.0298155,-0.0443691,-0.0203002,0.0,0.0,-0.496842
363785380,-0.0171168,-0.0435984,-0.0234081,0.0,0.0,-0.498947
363805208,-0.0255588,-0.0362657,-0.0243487,0.0,0.0,-0.498947
363825110,-0.0213788,-0.0400278,-0.0282022,0.0,0.0,-0.498947
363850051,-0.00273841,-0.0435609,-0.0333267,0.0,0.0,-0.498947
363864864,0.00857562,-0.0417217,-0.0357251,0.0,0.0,-0.498947
363884721,0.0220303,-0.0453319,-0.0377907,0.0,0.0,-0.498947
363909486,0.0373217,-0.0378166,-0.0400365,0.0,0.0,-0.498947
363924405,0.0515012,-0.040336,-0.0426645,0.0,0.0,-0.503158
363944197,0.0701044,-0.0472095,-0.0449985,0.0,0.0,-0.521395
363964303,0.078913,-0.0456391,-0.0479901,0.0,0.0,-0.520196
363988936,0.093199,-0.0491176,-0.0488423,0.0,0.0,-0.521395
364003878,0.0943512,-0.0555394,-0.0500876,0.0,0.0,-0.521395
364023662,0.110155,-0.0635013,-0.0475865,0.0,0.0,-0.521395
364048537,0.11305,-0.075855,-0.0465685,0.0,0.0,-0.521395
364063430,0.11097,-0.0744397,-0.0408057,0.0,0.0,-0.521395
364083348,0.112404,-0.0838896,-0.039955,0.0,0.0,-0.521395
364108263,0.111888,-0.101876,-0.0343482,0.0,0.0,-0.520196
364123229,0.119268,-0.113133,-0.0346504,0.0,0.0,-0.520196
364142860,0.117699,-0.124682,-0.0307757,0.0,0.0,-0.520196
364167693,0.140444,-0.13638,-0.0277216,0.0,0.0,-0.520196
364187565,0.146398,-0.150807,-0.0270409,0.0,0.0,-0.520196
364202546,0.148465,-0.159428,-0.0267612,0.0,0.0,-0.520196
364227467,0.154908,-0.178601,-0.0270878,0.0,0.0,-0.520196
364247222,0.154619,-0.187312,-0.026696,0.0,0.0,-0.520196
364267055,0.151157,-0.21054,-0.0259388,0.0,0.0,-0.520196
364286907,0.150253,-0.215667,-0.0263916,0.0,0.0,-0.520196
364306760,0.141117,-0.250512,-0.0287882,0.0,0.0,-0.521395
364326679,0.133952,-0.268556,-0.029973,0.0,0.0,-0.521395
364346495,0.122395,-0.303768,-0.0297392,0.0,0.0,-0.527393
364366430,0.11814,-0.329346,-0.0309114,0.0,0.0,-0.505263
364386390,0.115922,-0.330394,-0.031671,0.0,0.0,-0.506316
364406130,0.110639,-0.351472,-0.0326408,0.0,0.0,-0.508421
364425943,0.116093,-0.353977,-0.0346634,0.0,0.0,-0.508421
364446001,0.124276,-0.336937,-0.037642,0.0,0.0,-0.5106
364465819,0.123227,-0.315985,-0.0415599,0.0,0.0,-0.53459
364485692,0.116113,-0.292733,-0.0441584,0.0,0.0,-0.53459
364505527,0.123116,-0.250782,-0.0464453,0.0,0.0,-0.538188
364525364,0.116909,-0.243947,-0.0462083,0.0,0.0,-0.551383
364545144,0.10218,-0.233175,-0.0466012,0.0,0.0,-0.564578
364564945,0.105519,-0.209479,-0.0458796,0.0,0.0,-0.565777
364584911,0.0988772,-0.196449,-0.0448365,0.0,0.0,-0.566977
364609695,0.0808814,-0.169842,-0.0415794,0.0,0.0,-0.572974
364624673,0.0712052,-0.160971,-0.0403006,0.0,0.0,-0.574174
364644585,0.0800024,-0.134495,-0.0378852,0.0,0.0,-0.575373
364664474,0.0964028,-0.117744,-0.0348311,0.0,0.0,-0.575373
364689263,0.105275,-0.0910384,-0.0323671,0.0,0.0,-0.575373
364704146,0.109411,-0.0891876,-0.0286709,0.0,0.0,-0.575373
364724007,0.121047,-0.0869882,-0.0260175,0.0,0.0,-0.575373
364748848,0.116255,-0.101109,-0.025369,0.0,0.0,-0.576573
364763785,0.0966321,-0.112388,-0.0211363,0.0,0.0,-0.576573
364783477,0.0877149,-0.149278,-0.019995,0.0,0.0,-0.576573
364808283,0.0923809,-0.172052,-0.0192757,0.0,0.0,-0.578972
364828208,0.0877248,-0.164427,-0.020373,0.0,0.0,-0.578972
364843105,0.0880019,-0.159376,-0.0208182,0.0,0.0,-0.578972
364867923,0.135324,-0.149523,-0.0225036,0.0,0.0,-0.584969
364887829,0.139421,-0.123183,-0.0240019,0.0,0.0,-0.584969
364902771,0.15113,-0.116753,-0.0256172,0.0,0.0,-0.586169
364927740,0.157018,-0.0984551,-0.0260243,0.0,0.0,-0.589767
364947501,0.143461,-0.0822635,-0.0269666,0.0,0.0,-0.596964
364967357,0.120793,-0.0696767,-0.0273397,0.0,0.0,-0.599364
364987268,0.0761418,-0.0708672,-0.0278212,0.0,0.0,-0.602962
365007099,0.0575211,-0.0785596,-0.0278446,0.0,0.0,-0.604162
365027029,0.0441403,-0.0837887,-0.0290135,0.0,0.0,-0.604162
365046761,0.0378657,-0.091384,-0.0323105,0.0,0.0,-0.604162
365066569,0.0466465,-0.0896587,-0.035715,0.0,0.0,-0.604162
365086392,0.0435172,-0.0869904,-0.0388128,0.0,0.0,-0.606561
365106270,0.0535893,-0.0864111,-0.0423694,0.0,0.0,-0.606561
365126171,0.0626831,-0.0523543,-0.0460475,0.0,0.0,-0.60776
365146098,0.0627895,-0.0489548,-0.0495499,0.0,0.0,-0.610159
365166015,0.0589026,-0.0395409,-0.0525939,0.0,0.0,-0.610159
365185912,0.0425587,-0.0353643,-0.0557753,0.0,0.0,-0.611359
365205730,0.0176837,-0.038033,-0.0579519,0.0,0.0,-0.610159
365225554,0.025201,-0.0293859,-0.0613182,0.0,0.0,-0.610159
365245487,0.0129791,-0.00365815,-0.0635642,0.0,0.0,-0.611359
365265358,0.0407858,-0.00958801,-0.0669421,0.0,0.0,-0.611359
365285161,0.0558865,-0.0164929,-0.0704941,0.0,0.0,-0.611359
365304986,0.0451714,-0.0203747,-0.0725971,0.0,0.0,-0.611359
365324766,0.0285279,-0.0270781,-0.075153,0.0,0.0,-0.611359
365344634,0.0267418,-0.0383001,-0.0772902,0.0,0.0,-0.611359
365364538,0.0254042,-0.0435787,-0.0799645,0.0,0.0,-0.611359
365389490,0.0450054,-0.0453435,-0.0833819,0.0,0.0,-0.611359
365404322,0.0547501,-0.0390609,-0.0842519,0.0,0.0,-0.611359
365424201,0.0705403,-0.0232607,-0.0869206,0.0,0.0,-0.616157
365449121,0.0892369,-0.010238,-0.0922904,0.0,0.0,-0.617356
365464020,0.0857363,-0.0111674,-0.092969,0.0,0.0,-0.617356
365483838,0.0882412,-0.00810249,-0.0959151,0.0,0.0,-0.617356
365508592,0.0921608,0.003579,-0.0971486,0.0,0.0,-0.617356
365528457,0.0924073,0.0302531,-0.0989354,0.0,0.0,-0.617356
365543365,0.0978294,0.0450143,-0.102115,0.0,0.0,-0.617356
365568162,0.0915751,0.0710716,-0.101507,0.0,0.0,-0.617356
365588070,0.0732092,0.050365,-0.102329,0.0,0.0,-0.618556
365603059,0.0758226,0.02651,-0.103291,0.0,0.0,-0.618556
365627857,0.0475682,0.00866776,-0.103325,0.0,0.0,-0.618556
365647669,0.0397916,-0.0143365,-0.103255,0.0,0.0,-0.618556
365667542,0.0332479,-0.0280134,-0.103651,0.0,0.0,-0.618556
365687498,0.0346783,-0.0320034,-0.104455,0.0,0.0,-0.617356
365707384,0.0357581,-0.0301985,-0.10479,0.0,0.0,-0.617356
365727337,0.0219448,-0.0264376,-0.104793,0.0,0.0,-0.617356
365747129,0.0356848,-0.0258985,-0.104725,0.0,0.0,-0.617356
365766826,0.0312331,-0.0208542,-0.103839,0.0,0.0,-0.617356
365786739,0.0256505,-0.0217419,-0.102289,0.0,0.0,-0.617356
365806570,0.0220786,-0.0268521,-0.101028,0.0,0.0,-0.618556
365826416,0.0200309,-0.0324602,-0.099575,0.0,0.0,-0.620955
365846342,0.0182141,-0.0410147,-0.0982635,0.0,0.0,-0.622154
365866174,0.0327118,-0.0477129,-0.0972163,0.0,0.0,-0.620955
365886022,0.0403153,-0.0524061,-0.096727,0.0,0.0,-0.620955
365905888,0.0752734,-0.0555543,-0.0962768,0.0,0.0,-0.616157
365925800,0.121181,-0.0551306,-0.0960442,0.0,0.0,-0.602962
365945639,0.260726,-0.0572744,-0.0958574,0.0,0.0,-0.598164
365965617,0.276452,-0.0641721,-0.0951761,0.0,0.0,-0.598164
365985526,0.268047,-0.0575914,-0.0942509,0.0,0.0,-0.599364
366005459,0.198442,-0.0511026,-0.0931314,0.0,0.0,-0.599364
366025071,0.150488,-0.0425771,-0.0922052,0.0,0.0,-0.598164
366044931,0.114877,-0.0335526,-0.0915985,0.0,0.0,-0.598164
366064908,0.0877984,-0.0302799,-0.0906039,0.0,0.0,-0.598164
366089714,0.150589,-0.066732,-0.0897881,0.0,0.0,-0.595765
366104704,0.145744,-0.0651548,-0.088485,0.0,0.0,-0.595765
366124467,0.162718,-0.0765522,-0.087087,0.0,0.0,-0.595765
366149257,0.169041,-0.0987406,-0.0877802,0.0,0.0,-0.587368
366164175,0.159236,-0.074787,-0.0865946,0.0,0.0,-0.565777
366184050,0.170084,-0.0720902,-0.0865277,0.0,0.0,-0.565777
366208758,0.23175,-0.0357736,-0.0830027,0.0,0.0,-0.53339
366228648,0.280083,-0.00905668,-0.0827195,0.0,0.0,-0.53459
366243566,0.266409,-0.00259421,-0.083591,0.0,0.0,-0.53459
366263584,0.2597,0.00840959,-0.0810984,0.0,0.0,-0.53459
366288385,0.269747,0.00977161,-0.0810364,0.0,0.0,-0.53339
366303280,0.251023,0.0130232,-0.077192,0.0,0.0,-0.518996
366328091,0.214357,0.00664588,-0.0755057,0.0,0.0,-0.511799
366347924,0.168538,-0.000150855,-0.0722171,0.0,0.0,-0.511799
366362838,0.160423,-0.00746702,-0.072368,0.0,0.0,-0.511799
366382669,0.154608,-0.0125326,-0.0685314,0.0,0.0,-0.5106
366407562,0.156221,-0.0214728,-0.0683514,0.0,0.0,-0.506316
366427306,0.140926,-0.0254257,-0.0642732,0.0,0.0,-0.502105
366442226,0.135512,-0.0255057,-0.0648951,0.0,0.0,-0.502105
366466995,0.126799,-0.0255162,-0.0623387,0.0,0.0,-0.495789
366486867,0.108461,-0.0161684,-0.0596587,0.0,0.0,-0.495789
366506910,0.0917988,-0.00726759,-0.0554201,0.0,0.0,-0.491579
366526778,0.0594378,-0.00164282,-0.0557568,0.0,0.0,-0.488421
366546781,0.0413861,0.00529495,-0.0527924,0.0,0.0,-0.491579
366566485,0.0285264,0.011794,-0.0500885,0.0,0.0,-0.490526
366586316,0.0222159,0.0104353,-0.0466405,0.0,0.0,-0.485263
366606166,0.0243615,0.00943051,-0.046442,0.0,0.0,-0.483158
366626026,0.0368254,0.00975124,-0.0432283,0.0,0.0,-0.484211
366645894,0.0338932,0.00760857,-0.0402148,0.0,0.0,-0.486316
366665700,0.0455423,0.000297735,-0.039426,0.0,0.0,-0.487368
366685623,0.0539365,-0.00337776,-0.0376579,0.0,0.0,-0.487368
366705387,0.0603317,-0.00760496,-0.0345004,0.0,0.0,-0.514198
366725259,0.0440289,-0.0262469,-0.032629,0.0,0.0,-0.529792
366745108,0.0180129,-0.0446891,-0.0317166,0.0,0.0,-0.551383
366765180,-0.019448,-0.0648154,-0.0284833,0.0,0.0,-0.571775
366790009,-0.038944,-0.0655392,-0.0277745,0.0,0.0,-0.571775
366804992,-0.0537442,-0.0683213,-0.0269582,0.0,0.0,-0.571775
366824729,-0.114624,-0.0805383,-0.0263242,0.0,0.0,-0.571775
366849666,-0.15814,-0.0794787,-0.0236641,0.0,0.0,-0.571775
366864450,-0.141471,-0.0710233,-0.023099,0.0,0.0,-0.571775
366884297,-0.140517,-0.0562529,-0.0211943,0.0,0.0,-0.571775
366904056,-0.0955129,-0.0433521,-0.0219251,0.0,0.0,-0.571775
366923894,-0.0805233,-0.034726,-0.0235114,0.0,0.0,-0.571775
366943915,-0.062882,-0.033211,-0.0244856,0.0,0.0,-0.571775
366963671,-0.0738191,-0.0247215,-0.0244503,0.0,0.0,-0.571775
366988585,-0.125156,-0.00425582,-0.0216089,0.0,0.0,-0.571775
367003449,-0.128485,0.0007736,-0.0230709,0.0,0.0,-0.571775
367023264,-0.178488,0.0192983,-0.0212267,0.0,0.0,-0.571775
367048105,-0.194481,-0.0134438,-0.0224747,0.0,0.0,-0.571775
367068133,-0.184816,-0.0420912,-0.0218656,0.0,0.0,-0.570575
367083071,-0.177489,-0.038836,-0.020766,0.0,0.0,-0.570575
367107790,-0.171364,-0.0723718,-0.0189186,0.0,0.0,-0.570575
367127669,-0.176271,-0.11815,-0.0174438,0.0,0.0,-0.570575
367142482,-0.177134,-0.126141,-0.0197274,0.0,0.0,-0.570575
367167280,-0.151601,-0.127019,-0.0183364,0.0,0.0,-0.570575
367187138,-0.1092,-0.127045,-0.0184629,0.0,0.0,-0.570575
367207031,-0.0691174,-0.124002,-0.0182281,0.0,0.0,-0.570575
367226937,-0.0368274,-0.0896592,-0.0178146,0.0,0.0,-0.570575
367246801,-0.0135475,0.00351794,-0.016096,0.0,0.0,-0.556181
367266611,-0.0094502,0.0178762,-0.0147339,0.0,0.0,-0.556181
367286477,-0.013039,0.0682711,-0.0149826,0.0,0.0,-0.545386
367306429,-0.0186292,0.130564,-0.0152845,0.0,0.0,-0.538188
367326343,-0.0210842,0.147095,-0.0147535,0.0,0.0,-0.535789
367346362,-0.0192733,0.135329,-0.0136511,0.0,0.0,-0.53339
367365989,-0.0184284,0.123165,-0.0123837,0.0,0.0,-0.511799
367385921,-0.0126275,0.105781,-0.0105187,0.0,0.0,-0.509474
367405735,0.0035691,0.0869533,-0.00934093,0.0,0.0,-0.509474
367425598,0.0264728,0.063799,-0.0113135,0.0,0.0,-0.509474
367445420,0.0508513,0.045307,-0.0109405,0.0,0.0,-0.509474
367465301,0.0540947,0.0253327,-0.00971445,0.0,0.0,-0.509474
367485127,0.0515933,0.00729404,-0.00658802,0.0,0.0,-0.509474
367505057,0.0469345,-0.0739709,-0.00740857,0.0,0.0,-0.511799
367524914,0.0498871,-0.145196,-0.0082641,0.0,0.0,-0.514198
367544788,0.04777,-0.164662,-0.00679688,0.0,0.0,-0.514198
367564620,0.0402964,-0.162141,-0.00308786,0.0,0.0,-0.509474
367584450,0.0330935,-0.13582,-0.00391164,0.0,0.0,-0.5106
367604371,0.038368,-0.112443,-0.0046493,0.0,0.0,-0.5106
367629209,0.0305694,-0.08939,-0.00207097,0.0,0.0,-0.5106
367644145,0.0345088,-0.0712935,-0.000231649,0.0,0.0,-0.5106
367663959,0.0268399,-0.14478,0.00147866,0.0,0.0,-0.5106
367688825,0.0247962,-0.141578,0.00304983,0.0,0.0,-0.5106
367703749,0.0285716,-0.18351,0.00174515,0.0,0.0,-0.5106
367723526,0.0208548,-0.209833,0.0047841,0.0,0.0,-0.5106
367748472,0.0254899,-0.22874,0.00509777,0.0,0.0,-0.5106
367768258,0.0207899,-0.313591,0.00854008,0.0,0.0,-0.517797
367783150,0.0236961,-0.390914,0.00754019,0.0,0.0,-0.552583
367807999,0.0117802,-0.393033,0.0096571,0.0,0.0,-0.562179
367827748,0.0122887,-0.42635,0.0116233,0.0,0.0,-0.578972
367842656,0.00191155,-0.380615,0.0140061,0.0,0.0,-0.578972
367867631,0.00254738,-0.33201,0.0182864,0.0,0.0,-0.58377
367887560,-0.00322398,-0.273355,0.0190207,0.0,0.0,-0.58377
367907273,-0.00279457,-0.225493,0.0199797,0.0,0.0,-0.584969
367927378,0.00530994,-0.189065,0.0221517,0.0,0.0,-0.587368
367947206,-0.000477011,-0.160928,0.0239025,0.0,0.0,-0.592166
367967091,0.00574683,-0.11333,0.0258329,0.0,0.0,-0.610159
367986888,0.0135596,-0.0121042,0.0282617,0.0,0.0,-0.616157
368006666,0.0152975,0.00402468,0.031362,0.0,0.0,-0.616157
368026469,0.0146251,0.00641301,0.0344193,0.0,0.0,-0.619755
368046423,0.00997839,0.00568484,0.037037,0.0,0.0,-0.619755
368066197,0.00335629,-0.0210777,0.0398272,0.0,0.0,-0.622154
368086058,0.000624187,-0.031701,0.0421181,0.0,0.0,-0.629351
368105956,-0.00106668,0.0471798,0.0440672,0.0,0.0,-0.629351
368125849,0.00260258,0.059595,0.0453631,0.0,0.0,-0.629351
368145811,0.00703057,0.0340085,0.0469269,0.0,0.0,-0.630551
368165558,0.00886991,0.00758181,0.0486703,0.0,0.0,-0.63295
368185466,0.00850927,-0.00333877,0.0499958,0.0,0.0,-0.63295
368205332,0.00254589,0.00631893,0.0510482,0.0,0.0,-0.63175
368225189,-0.00356343,-0.000542757,0.0523316,0.0,0.0,-0.63175
368245074,-0.0115331,-0.00498067,0.0536258,0.0,0.0,-0.63175
368264864,-0.0135707,-0.0062858,0.0552117,0.0,0.0,-0.63175
368284647,0.00220916,0.0192713,0.0557959,0.0,0.0,-0.63295
368304497,0.0104141,0.0526078,0.0565323,0.0,0.0,-0.63295
368329411,0.0170374,0.0816382,0.0591539,0.0,0.0,-0.63295
368344301,0.0179814,0.0787055,0.0583532,0.0,0.0,-0.63295
368364136,0.0173238,0.0514161,0.0594965,0.0,0.0,-0.63295
368389036,0.0142011,-0.00277924,0.0614625,0.0,0.0,-0.63295
368403925,0.00705497,-0.0156186,0.0621701,0.0,0.0,-0.63295
368423941,0.00198305,-0.023721,0.0629476,0.0,0.0,-0.63295
368448693,-0.0021395,-0.0255421,0.0628881,0.0,0.0,-0.63175
368468512,-0.00575345,-0.0191747,0.0635692,0.0,0.0,-0.63175
368483402,-0.00795596,-0.013173,0.0644458,0.0,0.0,-0.63175
368508296,-0.00635739,-0.00295003,0.0653572,0.0,0.0,-0.63175
368528020,-0.00574971,0.0145212,0.0663097,0.0,0.0,-0.629351
368542889,-0.00657531,0.0182818,0.0680025,0.0,0.0,-0.625753
368567782,-0.00617199,0.0164089,0.0685112,0.0,0.0,-0.625753
368587628,-0.00698868,0.0222777,0.0695416,0.0,0.0,-0.629351
368607520,-0.00705648,0.0438475,0.0701232,0.0,0.0,-0.629351
368627359,-0.00562318,0.0378857,0.0706251,0.0,0.0,-0.628152
368647224,-0.00202319,0.0313627,0.0707291,0.0,0.0,-0.628152
368667114,0.00464153,0.0231617,0.0705255,0.0,0.0,-0.628152
368682173,0.0125019,0.0466989,0.069574,0.0,0.0,-0.628152
368706921,0.0212371,0.0595967,0.0691513,0.0,0.0,-0.628152
368726833,0.0264631,0.120279,0.0685683,0.0,0.0,-0.628152
368746594,0.0283744,0.190163,0.0681065,0.0,0.0,-0.628152
368766442,0.0271818,0.21541,0.0678904,0.0,0.0,-0.626952
368786267,0.0244464,0.272706,0.0678762,0.0,0.0,-0.622154
368806188,0.0221838,0.282914,0.0677962,0.0,0.0,-0.605361
368826027,0.0230607,0.256425,0.0678801,0.0,0.0,-0.601763
368845893,0.0257184,0.216188,0.0677335,0.0,0.0,-0.601763
368865847,0.0300004,0.191474,0.0671519,0.0,0.0,-0.599364
368885592,0.0325014,0.24657,0.066516,0.0,0.0,-0.598164
368905474,0.0320738,0.23986,0.0658544,0.0,0.0,-0.599364
368925430,0.0323241,0.233613,0.0654505,0.0,0.0,-0.601763
368945355,0.0281163,0.204526,0.0647124,0.0,0.0,-0.601763
368965286,0.023738,0.174211,0.0640658,0.0,0.0,-0.601763
368985041,0.020002,0.144446,0.0631338,0.0,0.0,-0.601763
369004802,0.0196021,0.118059,0.0617773,0.0,0.0,-0.601763
369029636,0.0122797,0.0919074,0.0610644,0.0,0.0,-0.599364
369044663,0.012954,0.0746171,0.0576373,0.0,0.0,-0.599364
369064421,0.00466692,0.0486501,0.0551573,0.0,0.0,-0.599364
369089456,-0.0136815,0.0453456,0.0545663,0.0,0.0,-0.599364
369104249,-0.00940135,0.025315,0.0501166,0.0,0.0,-0.598164
369124023,-0.0140374,0.02775,0.0480599,0.0,0.0,-0.580171
369148877,-0.0222278,0.0217336,0.0455453,0.0,0.0,-0.572974
369168791,-0.0185288,0.00259594,0.0427499,0.0,0.0,-0.547785
369183651,-0.0131569,0.00410407,0.0428686,0.0,0.0,-0.532191
369208528,-0.0153057,-0.0168267,0.0379132,0.0,0.0,-0.528592
369228457,-0.018686,-0.015945,0.0361526,0.0,0.0,-0.527393
369243224,-0.0233957,-0.0187237,0.0359432,0.0,0.0,-0.527393
369263147,-0.0222753,-0.0221757,0.0332971,0.0,0.0,-0.527393
369287871,-0.016435,-0.0244833,0.0325567,0.0,0.0,-0.528592
369302846,-0.0090777,-0.0396145,0.0290043,0.0,0.0,-0.532191
369322731,0.0027304,-0.0375525,0.0280853,0.0,0.0,-0.53339
369347547,0.011185,-0.0364869,0.0245033,0.0,0.0,-0.530991
369367343,0.0372784,-0.0331504,0.0237187,0.0,0.0,-0.532191
369382228,0.0395824,-0.0281874,0.0231175,0.0,0.0,-0.532191
369407070,0.0627563,-0.0212566,0.0207445,0.0,0.0,-0.53339
369426980,0.0430011,-0.0554945,0.0197743,0.0,0.0,-0.53459
369446909,0.0382656,-0.0564001,0.0171302,0.0,0.0,-0.53459
369466635,0.0311872,-0.142508,0.0180488,0.0,0.0,-0.53339
369486640,0.0224253,-0.128781,0.016767,0.0,0.0,-0.53339
369506519,0.0232733,-0.106232,0.0159046,0.0,0.0,-0.53339
369526308,0.0273941,-0.0839034,0.0140249,0.0,0.0,-0.53339
369546228,0.0327472,-0.0602354,0.014227,0.0,0.0,-0.53339
369566108,0.0396966,-0.0387837,0.0155941,0.0,0.0,-0.53339
369585921,0.0466356,-0.0314053,0.0132773,0.0,0.0,-0.53339
369605750,0.0607531,-0.026287,0.0122791,0.0,0.0,-0.532191
369625517,0.0674852,-0.0215638,0.0114427,0.0,0.0,-0.532191
369645424,0.0719555,-0.0102354,0.0130335,0.0,0.0,-0.532191
369665423,0.0689799,-0.0121489,0.0133549,0.0,0.0,-0.535789
369685159,0.0657847,-0.0313201,0.012719,0.0,0.0,-0.569376
369705071,0.07475,-0.0416382,0.0125231,0.0,0.0,-0.580171
369729861,0.0925385,-0.0378698,0.0128783,0.0,0.0,-0.588568
369744892,0.097283,-0.0520791,0.0128975,0.0,0.0,-0.588568
369764818,0.0982443,-0.0497095,0.0121745,0.0,0.0,-0.589767
369789655,0.0944848,-0.0408189,0.0124862,0.0,0.0,-0.592166
369804443,0.109908,-0.0286641,0.010821,0.0,0.0,-0.599364
369824235,0.105073,-0.0266178,0.00984367,0.0,0.0,-0.599364
369844104,0.151578,0.0155665,0.00910359,0.0,0.0,-0.599364
369863948,0.189854,0.0335116,0.00821071,0.0,0.0,-0.599364
369883861,0.214617,0.0265432,0.00687606,0.0,0.0,-0.599364
369903712,0.170359,0.0144584,0.00496134,0.0,0.0,-0.600563
369928598,0.18899,-0.00737848,-0.00126848,0.0,0.0,-0.600563
369943420,0.257721,-0.00436495,-0.00257598,0.0,0.0,-0.600563
369963278,0.456812,-0.0173853,-0.00666537,0.0,0.0,-0.596964
369988195,0.534498,-0.0230714,-0.0112719,0.0,0.0,-0.596964
370008069,0.625725,-0.0220229,-0.0167412,0.0,0.0,-0.600563
370023007,0.599409,-0.0231389,-0.0197282,0.0,0.0,-0.600563
370047886,0.574012,-0.0212757,-0.0270717,0.0,0.0,-0.601763
370067625,0.544465,-0.0172395,-0.0317688,0.0,0.0,-0.604162
370082469,0.628383,-0.0244615,-0.0347963,0.0,0.0,-0.605361
370107426,0.638027,-0.0259964,-0.0402831,0.0,0.0,-0.605361
370127271,0.562017,-0.0480924,-0.0442699,0.0,0.0,-0.605361
370147197,0.388606,-0.0674907,-0.0487774,0.0,0.0,-0.605361
370166982,0.146882,-0.0665778,-0.0534007,0.0,0.0,-0.605361
370186756,0.0286541,-0.0379745,-0.0585451,0.0,0.0,-0.605361
370206626,-0.0702877,-0.025816,-0.063668,0.0,0.0,-0.605361
370226495,-0.0939255,-0.0221891,-0.0685715,0.0,0.0,-0.605361
370246417,-0.142265,-0.0197992,-0.073377,0.0,0.0,-0.605361
370266247,-0.155189,-0.0217966,-0.0787449,0.0,0.0,-0.605361
370286189,-0.181683,-0.0265049,-0.0834325,0.0,0.0,-0.605361
370306078,-0.156394,-0.0345547,-0.0871336,0.0,0.0,-0.605361
370325878,-0.176636,-0.0302955,-0.0916013,0.0,0.0,-0.605361
370345715,-0.2644,-0.0366307,-0.0955823,0.0,0.0,-0.605361
370365641,-0.31624,-0.0502624,-0.098581,0.0,0.0,-0.605361
370385505,-0.39342,-0.0385227,-0.102956,0.0,0.0,-0.605361
370405386,-0.454589,-0.0313112,-0.106201,0.0,0.0,-0.604162
370425208,-0.420701,-0.0276605,-0.107846,0.0,0.0,-0.604162
370445013,-0.443503,-0.0233555,-0.110188,0.0,0.0,-0.604162
370464936,-0.461112,-0.013442,-0.114018,0.0,0.0,-0.604162
370484667,-0.412222,-0.0136707,-0.118055,0.0,0.0,-0.604162
370504653,-0.349874,-0.0152822,-0.120465,0.0,0.0,-0.604162
370524464,-0.293951,-0.0137645,-0.123316,0.0,0.0,-0.602962
370544346,-0.252887,-0.0126367,-0.124938,0.0,0.0,-0.602962
370569281,-0.198244,-0.0295823,-0.127125,0.0,0.0,-0.604162
370584240,-0.169941,-0.0236989,-0.125881,0.0,0.0,-0.604162
370604063,-0.143993,-0.0349147,-0.127232,0.0,0.0,-0.604162
370628843,-0.118029,-0.0414457,-0.128554,0.0,0.0,-0.58257
370643820,-0.103743,-0.0413354,-0.129573,0.0,0.0,-0.58257
370663699,-0.0786672,-0.041276,-0.128366,0.0,0.0,-0.568176
370688592,-0.0568978,-0.0374007,-0.131864,0.0,0.0,-0.565777
370708299,-0.0431578,-0.0304274,-0.131604,0.0,0.0,-0.564578
370723104,-0.0234906,-0.0292579,-0.132462,0.0,0.0,-0.557381
370747887,-0.00760587,-0.022001,-0.133029,0.0,0.0,-0.538188
370767752,-0.000916091,-0.025552,-0.134973,0.0,0.0,-0.53339
370782650,-0.00536929,-0.0216489,-0.133106,0.0,0.0,-0.53339
370807554,-0.00419158,-0.0223329,-0.135273,0.0,0.0,-0.532191
370827455,-0.0157212,-0.0185887,-0.136455,0.0,0.0,-0.532191
370847480,-0.0323705,-0.0177761,-0.136501,0.0,0.0,-0.532191
370867274,-0.0545762,-0.0154235,-0.136526,0.0,0.0,-0.532191
370887095,-0.0607783,-0.0117972,-0.136968,0.0,0.0,-0.532191
370907008,-0.0558624,-0.0132624,-0.13806,0.0,0.0,-0.53339
370926842,-0.0528246,-0.013187,-0.138876,0.0,0.0,-0.53459
370946575,-0.042605,-0.0161905,-0.135818,0.0,0.0,-0.535789
370966402,-0.0295451,-0.0205295,-0.138495,0.0,0.0,-0.53339
370986357,-0.0211087,-0.0275265,-0.137469,0.0,0.0,-0.532191
371006187,-0.0171499,-0.0337728,-0.134207,0.0,0.0,-0.532191
371026061,-0.0311412,-0.0393733,-0.133631,0.0,0.0,-0.532191
