timestamp,q[0],q[1],q[2],q[3],delta_q_reset[0],delta_q_reset[1],delta_q_reset[2],delta_q_reset[3],quat_reset_counter
351001721,-0.757731,-0.00470461,0.0150169,0.652378,0.999936,-4.30971e-11,-7.78655e-10,0.0113486,4
351006688,-0.757721,-0.00473703,0.0150953,0.652387,0.999936,-4.30971e-11,-7.78655e-10,0.0113486,4
351056344,-0.757545,-0.00484488,0.0148647,0.652595,0.999936,-4.30971e-11,-7.78655e-10,0.0113486,4
351106008,-0.757869,-0.00479967,0.0149476,0.652218,0.999936,-4.30971e-11,-7.78655e-10,0.0113486,4
351155674,-0.757675,-0.00469782,0.0147895,0.652447,0.999936,-4.30971e-11,-7.78655e-10,0.0113486,4
351205499,-0.757726,-0.00481098,0.0148855,0.652385,0.999936,-4.30971e-11,-7.78655e-10,0.0113486,4
351254993,-0.757812,-0.00486039,0.0150745,0.652281,0.999936,-4.30971e-11,-7.78655e-10,0.0113486,4
351304659,-0.7578,-0.00481971,0.0152939,0.65229,0.999936,-4.30971e-11,-7.78655e-10,0.0113486,4
351354318,-0.757854,-0.00447644,0.0147967,0.652242,0.999936,-4.30971e-11,-7.78655e-10,0.0113486,4
351403980,-0.757911,-0.00513767,0.0150534,0.652165,0.999936,-4.30971e-11,-7.78655e-10,0.0113486,4
351458698,-0.758011,-0.00513474,0.0153175,0.652041,0.999936,-4.30971e-11,-7.78655e-10,0.0113486,4
351508270,-0.758133,-0.00447098,0.0151694,0.651908,0.999936,-4.30971e-11,-7.78655e-10,0.0113486,4
351552966,-0.757978,-0.00494467,0.0149954,0.652089,0.999936,-4.30971e-11,-7.78655e-10,0.0113486,4
351602628,-0.758318,-0.00509455,0.0153135,0.651685,0.999936,-4.30971e-11,-7.78655e-10,0.0113486,4
351657261,-0.758413,-0.00493746,0.0152857,0.651576,0.999936,-4.30971e-11,-7.78655e-10,0.0113486,4
351706986,-0.758344,-0.00443927,0.0150837,0.651665,0.999936,-4.30971e-11,-7.78655e-10,0.0113486,4
351756635,-0.758316,-0.00467561,0.0149519,0.651699,0.999936,-4.30971e-11,-7.78655e-10,0.0113486,4
351806247,-0.758493,-0.00508416,0.0151675,0.651485,0.999936,-4.30971e-11,-7.78655e-10,0.0113486,4
351855907,-0.758704,-0.00501074,0.0150601,0.651242,0.999936,-4.30971e-11,-7.78655e-10,0.0113486,4
351905568,-0.75865,-0.00475698,0.014875,0.651311,0.999936,-4.30971e-11,-7.78655e-10,0.0113486,4
351955230,-0.758586,-0.0046831,0.0151234,0.651381,0.999936,-4.30971e-11,-7.78655e-10,0.0113486,4
352005138,-0.758773,-0.00471355,0.0151217,0.651163,0.999936,-4.30971e-11,-7.78655e-10,0.0113486,4
352054554,-0.758997,-0.00484059,0.0150125,0.650903,0.999936,-4.30971e-11,-7.78655e-10,0.0113486,4
352104216,-0.759008,-0.00511589,0.0148369,0.650892,0.999936,-4.30971e-11,-7.78655e-10,0.0113486,4
352158844,-0.759078,-0.0051928,0.0148621,0.65081,0.999936,-4.30971e-11,-7.78655e-10,0.0113486,4
352208507,-0.758992,-0.00498279,0.0150899,0.650905,0.999936,-4.30971e-11,-7.78655e-10,0.0113486,4
352253241,-0.759111,-0.00456824,0.0147593,0.650778,0.999936,-4.30971e-11,-7.78655e-10,0.0113486,4
352302864,-0.759276,-0.00517251,0.0148332,0.650579,0.999936,-4.30971e-11,-7.78655e-10,0.0113486,4
352357493,-0.75936,-0.00533109,0.0148916,0.650478,0.999936,-4.30971e-11,-7.78655e-10,0.0113486,4
352407155,-0.759489,-0.00546396,0.0152123,0.65032,0.999936,-4.30971e-11,-7.78655e-10,0.0113486,4
352456817,-0.759465,-0.00479575,0.0149716,0.650358,0.999936,-4.30971e-11,-7.78655e-10,0.0113486,4
352506481,-0.759339,-0.00443935,0.0144624,0.65052,0.999936,-4.30971e-11,-7.78655e-10,0.0113486,4
352556147,-0.759398,-0.00510542,0.0144897,0.650445,0.999936,-4.30971e-11,-7.78655e-10,0.0113486,4
352605804,-0.759674,-0.00556804,0.0150708,0.650106,0.999936,-4.30971e-11,-7.78655e-10,0.0113486,4
352655466,-0.759881,-0.00526537,0.0151364,0.649865,0.999936,-4.30971e-11,-7.78655e-10,0.0113486,4
352705161,-0.759848,-0.00471688,0.014727,0.649917,0.999936,-4.30971e-11,-7.78655e-10,0.0113486,4
352754797,-0.759738,-0.00487437,0.0146169,0.650047,0.999936,-4.30971e-11,-7.78655e-10,0.0113486,4
352804552,-0.759898,-0.00530383,0.0148381,0.649851,0.999936,-4.30971e-11,-7.78655e-10,0.0113486,4
352859082,-0.760074,-0.00527124,0.0148668,0.649645,0.999936,-4.30971e-11,-7.78655e-10,0.0113486,4
352903777,-0.760103,-0.00502928,0.0146514,0.649618,0.999936,-4.30971e-11,-7.78655e-10,0.0113486,4
352953439,-0.759991,-0.00488499,0.0146946,0.64975,0.999936,-4.30971e-11,-7.78655e-10,0.0113486,4
353003109,-0.760136,-0.00499812,0.0148218,0.649576,0.999936,-4.30971e-11,-7.78655e-10,0.0113486,4
353057756,-0.760249,-0.00493287,0.0147986,0.649444,0.999936,-4.30971e-11,-7.78655e-10,0.0113486,4
353107392,-0.760519,-0.00506312,0.0147722,0.649128,0.999936,-4.30971e-11,-7.78655e-10,0.0113486,4
353152089,-0.760345,-0.00526531,0.0148657,0.649328,0.999936,-4.30971e-11,-7.78655e-10,0.0113486,4
353206719,-0.760411,-0.00529508,0.0149554,0.649249,0.999936,-4.30971e-11,-7.78655e-10,0.0113486,4
353256380,-0.760458,-0.00485772,0.01471,0.649202,0.999936,-4.30971e-11,-7.78655e-10,0.0113486,4
353306040,-0.760565,-0.00474085,0.0143426,0.649086,0.999936,-4.30971e-11,-7.78655e-10,0.0113486,4
353355859,-0.760675,-0.00532552,0.014583,0.648948,0.999936,-4.30971e-11,-7.78655e-10,0.0113486,4
353405413,-0.760837,-0.0055966,0.015284,0.648739,0.999936,-4.30971e-11,-7.78655e-10,0.0113486,4
353455028,-0.7609,-0.00514022,0.0151551,0.648672,0.999936,-4.30971e-11,-7.78655e-10,0.0113486,4
353504695,-0.760861,-0.00464569,0.0144637,0.648737,0.999936,-4.30971e-11,-7.78655e-10,0.0113486,4
353559318,-0.760907,-0.00481925,0.0143858,0.648683,0.999936,-4.30971e-11,-7.78655e-10,0.0113486,4
353604116,-0.760961,-0.00561121,0.0148693,0.648603,0.999936,-4.30971e-11,-7.78655e-10,0.0113486,4
353653676,-0.76116,-0.00537737,0.0151367,0.648365,0.999936,-4.30971e-11,-7.78655e-10,0.0113486,4
353703338,-0.761165,-0.00501533,0.0148031,0.64837,0.999936,-4.30971e-11,-7.78655e-10,0.0113486,4
353757968,-0.761157,-0.0050702,0.0147034,0.648382,0.999936,-4.30971e-11,-7.78655e-10,0.0113486,4
353807629,-0.761164,-0.00517517,0.0146718,0.648373,0.999936,-4.30971e-11,-7.78655e-10,0.0113486,4
353852338,-0.761462,-0.00541754,0.0149372,0.648015,0.999936,-4.30971e-11,-7.78655e-10,0.0113486,4
353906953,-0.761531,-0.00540657,0.0149041,0.647934,0.999936,-4.30971e-11,-7.78655e-10,0.0113486,4
353956617,-0.761423,-0.00516483,0.0147886,0.648066,0.999936,-4.30971e-11,-7.78655e-10,0.0113486,4
354006277,-0.761287,-0.00516546,0.0145811,0.64823,0.999936,-4.30971e-11,-7.78655e-10,0.0113486,4
354055941,-0.761482,-0.00520143,0.0147525,0.647997,0.999936,-4.30971e-11,-7.78655e-10,0.0113486,4
354105609,-0.761755,-0.00520377,0.0147854,0.647675,0.999936,-4.30971e-11,-7.78655e-10,0.0113486,4
354155388,-0.761773,-0.0052289,0.0149645,0.647651,0.999936,-4.30971e-11,-7.78655e-10,0.0113486,4
354204927,-0.761673,-0.00534697,0.0149724,0.647767,0.999936,-4.30971e-11,-7.78655e-10,0.0113486,4
354254588,-0.761698,-0.00524127,0.0147632,0.647743,0.999936,-4.30971e-11,-7.78655e-10,0.0113486,4
354304250,-0.761818,-0.00504948,0.0146166,0.647607,0.999936,-4.30971e-11,-7.78655e-10,0.0113486,4
354353913,-0.761782,-0.00509496,0.0144619,0.647651,0.999936,-4.30971e-11,-7.78655e-10,0.0113486,4
354403610,-0.761689,-0.00540354,0.0149323,0.647748,0.999936,-4.30971e-11,-7.78655e-10,0.0113486,4
354458203,-0.761707,-0.00537896,0.0150193,0.647725,0.999936,-4.30971e-11,-7.78655e-10,0.0113486,4
354507865,-0.761772,-0.0051819,0.0150295,0.64765,0.999936,-4.30971e-11,-7.78655e-10,0.0113486,4
354552562,-0.761987,-0.00514929,0.0144149,0.647411,0.999936,-4.30971e-11,-7.78655e-10,0.0113486,4
354602225,-0.761929,-0.00545107,0.0147637,0.647469,0.999936,-4.30971e-11,-7.78655e-10,0.0113486,4
354656862,-0.76194,-0.00554731,0.0149698,0.647451,0.999936,-4.30971e-11,-7.78655e-10,0.0113486,4
354706700,-0.761899,-0.00533031,0.015101,0.647498,0.999936,-4.30971e-11,-7.78655e-10,0.0113486,4
354756177,-0.761794,-0.00483014,0.0145509,0.647638,0.999936,-4.30971e-11,-7.78655e-10,0.0113486,4
354805839,-0.76176,-0.0050383,0.0142413,0.647683,0.999936,-4.30971e-11,-7.78655e-10,0.0113486,4
354855501,-0.76194,-0.00548108,0.0147166,0.647458,0.999936,-4.30971e-11,-7.78655e-10,0.0113486,4
354905170,-0.7621,-0.00546743,0.0152512,0.647256,0.999936,-4.30971e-11,-7.78655e-10,0.0113486,4
354954919,-0.762067,-0.00501883,0.0149885,0.647305,0.999936,-4.30971e-11,-7.78655e-10,0.0113486,4
355004489,-0.761854,-0.0050813,0.0145224,0.647567,0.999936,-4.30971e-11,-7.78655e-10,0.0113486,4
355054152,-0.761827,-0.00539995,0.014553,0.647595,0.999936,-4.30971e-11,-7.78655e-10,0.0113486,4
355103812,-0.762038,-0.00534605,0.014747,0.647342,0.999936,-4.30971e-11,-7.78655e-10,0.0113486,4
355158440,-0.762069,-0.00537172,0.0147565,0.647305,0.999936,-4.30971e-11,-7.78655e-10,0.0113486,4
355203162,-0.761864,-0.00514585,0.0148637,0.647546,0.999936,-4.30971e-11,-7.78655e-10,0.0113486,4
355252850,-0.761911,-0.00530848,0.0148282,0.64749,0.999936,-4.30971e-11,-7.78655e-10,0.0113486,4
355307470,-0.761951,-0.00531331,0.0148641,0.647442,0.999936,-4.30971e-11,-7.78655e-10,0.0113486,4
355357090,-0.76219,-0.0053019,0.014756,0.647163,0.999936,-4.30971e-11,-7.78655e-10,0.0113486,4
355406751,-0.762211,-0.00516156,0.0146877,0.647141,0.999936,-4.30971e-11,-7.78655e-10,0.0113486,4
355456426,-0.762004,-0.00538088,0.0149195,0.647378,0.999936,-4.30971e-11,-7.78655e-10,0.0113486,4
355506231,-0.761932,-0.0053568,0.0149914,0.647461,0.999936,-4.30971e-11,-7.78655e-10,0.0113486,4
355555738,-0.762011,-0.00508504,0.014535,0.647382,0.999936,-4.30971e-11,-7.78655e-10,0.0113486,4
355605400,-0.76214,-0.00515868,0.0144063,0.647231,0.999936,-4.30971e-11,-7.78655e-10,0.0113486,4
355655062,-0.762202,-0.00549596,0.0149206,0.647144,0.999936,-4.30971e-11,-7.78655e-10,0.0113486,4
355704726,-0.762158,-0.00554646,0.0153651,0.647185,0.999936,-4.30971e-11,-7.78655e-10,0.0113486,4
355754490,-0.762159,-0.00510727,0.0150228,0.647196,0.999936,-4.30971e-11,-7.78655e-10,0.0113486,4
355804050,-0.762134,-0.00499292,0.0143012,0.647243,0.999936,-4.30971e-11,-7.78655e-10,0.0113486,4
355858677,-0.762153,-0.00511912,0.0143678,0.647218,0.999936,-4.30971e-11,-7.78655e-10,0.0113486,4
355903373,-0.76218,-0.00552921,0.015148,0.647165,0.999936,-4.30971e-11,-7.78655e-10,0.0113486,4
355953054,-0.762192,-0.00513164,0.0152485,0.647151,0.999936,-4.30971e-11,-7.78655e-10,0.0113486,4
356007698,-0.762192,-0.00503603,0.0151012,0.647155,0.999936,-4.30971e-11,-7.78655e-10,0.0113486,4
356057326,-0.762092,-0.00512933,0.0147673,0.64728,0.999936,-4.30971e-11,-7.78655e-10,0.0113486,4
356106988,-0.762246,-0.00546776,0.0147867,0.647096,0.999936,-4.30971e-11,-7.78655e-10,0.0113486,4
356151684,-0.762372,-0.00526412,0.0151356,0.64694,0.999936,-4.30971e-11,-7.78655e-10,0.0113486,4
356206313,-0.76242,-0.00515193,0.015056,0.646887,0.999936,-4.30971e-11,-7.78655e-10,0.0113486,4
356256006,-0.762078,-0.00510669,0.0148433,0.647295,0.999936,-4.30971e-11,-7.78655e-10,0.0113486,4
356305744,-0.76208,-0.00543352,0.0148198,0.647291,0.999936,-4.30971e-11,-7.78655e-10,0.0113486,4
356355299,-0.762402,-0.0055172,0.0148455,0.646909,0.999936,-4.30971e-11,-7.78655e-10,0.0113486,4
356404962,-0.762539,-0.00521291,0.0149417,0.646749,0.999936,-4.30971e-11,-7.78655e-10,0.0113486,4
356454623,-0.762316,-0.00507343,0.0150616,0.647009,0.999936,-4.30971e-11,-7.78655e-10,0.0113486,4
356504285,-0.762222,-0.00532862,0.0150194,0.64712,0.999936,-4.30971e-11,-7.78655e-10,0.0113486,4
356558950,-0.76227,-0.00537409,0.0150883,0.647062,0.999936,-4.30971e-11,-7.78655e-10,0.0113486,4
356603610,-0.762535,-0.00537711,0.0147022,0.646758,0.999936,-4.30971e-11,-7.78655e-10,0.0113486,4
356653272,-0.762336,-0.00525977,0.0148017,0.646991,0.999936,-4.30971e-11,-7.78655e-10,0.0113486,4
356707900,-0.762331,-0.00528662,0.0148862,0.646994,0.999936,-4.30971e-11,-7.78655e-10,0.0113486,4
356757562,-0.76221,-0.00521664,0.0151759,0.64713,0.999936,-4.30971e-11,-7.78655e-10,0.0113486,4
356807226,-0.76235,-0.00510789,0.0151017,0.646969,0.999936,-4.30971e-11,-7.78655e-10,0.0113486,4
356852069,-0.762682,-0.00557028,0.0146677,0.646583,0.999936,-4.30971e-11,-7.78655e-10,0.0113486,4
356906550,-0.762662,-0.00551458,0.0148803,0.646603,0.999936,-4.30971e-11,-7.78655e-10,0.0113486,4
356956225,-0.762642,-0.00562602,0.0150189,0.646622,0.999936,-4.30971e-11,-7.78655e-10,0.0113486,4
357005874,-0.762488,-0.00575063,0.0150861,0.646801,0.999936,-4.30971e-11,-7.78655e-10,0.0113486,4
357055538,-0.76235,-0.00576533,0.0150088,0.646965,0.999936,-4.30971e-11,-7.78655e-10,0.0113486,4
357105286,-0.762396,-0.00553925,0.0142842,0.646929,0.999936,-4.30971e-11,-7.78655e-10,0.0113486,4
357154860,-0.762459,-0.00503068,0.0142454,0.646861,0.999936,-4.30971e-11,-7.78655e-10,0.0113486,4
357204522,-0.762469,-0.00543611,0.0156747,0.646811,0.999936,-4.30971e-11,-7.78655e-10,0.0113486,4
357254184,-0.762572,-0.00561755,0.0159564,0.646682,0.999936,-4.30971e-11,-7.78655e-10,0.0113486,4
357303847,-0.762614,-0.004958,0.013593,0.646692,0.999936,-4.30971e-11,-7.78655e-10,0.0113486,4
357353509,-0.762413,-0.00613491,0.0150969,0.646886,0.999936,-4.30971e-11,-7.78655e-10,0.0113486,4
357408137,-0.762703,-0.00476369,0.014196,0.646575,0.999936,-4.30971e-11,-7.78655e-10,0.0113486,4
357457803,-0.762493,-0.00595644,0.0144385,0.646808,0.999936,-4.30971e-11,-7.78655e-10,0.0113486,4
357507465,-0.762406,-0.00607516,0.0161485,0.646869,0.999936,-4.30971e-11,-7.78655e-10,0.0113486,4
357552158,-0.762549,-0.00552923,0.0153571,0.646725,0.999936,-4.30971e-11,-7.78655e-10,0.0113486,4
357606786,-0.762482,-0.00614057,0.0150106,0.646807,0.999936,-4.30971e-11,-7.78655e-10,0.0113486,4
357656581,-0.76245,-0.005631,0.0153079,0.646842,0.999936,-4.30971e-11,-7.78655e-10,0.0113486,4
357706111,-0.762937,-0.00497115,0.0146777,0.646287,0.999936,-4.30971e-11,-7.78655e-10,0.0113486,4
357755773,-0.762387,-0.00636617,0.0148542,0.64692,0.999936,-4.30971e-11,-7.78655e-10,0.0113486,4
357805435,-0.762669,-0.00531482,0.0145058,0.646604,0.999936,-4.30971e-11,-7.78655e-10,0.0113486,4
357855099,-0.762893,-0.00514587,0.0158731,0.646309,0.999936,-4.30971e-11,-7.78655e-10,0.0113486,4
357904852,-0.762509,-0.00597323,0.0141056,0.646797,0.999936,-4.30971e-11,-7.78655e-10,0.0113486,4
357954422,-0.762762,-0.00558724,0.0144357,0.646494,0.999936,-4.30971e-11,-7.78655e-10,0.0113486,4
358004086,-0.762687,-0.00556465,0.0161097,0.646543,0.999936,-4.30971e-11,-7.78655e-10,0.0113486,4
358053749,-0.762831,-0.0053775,0.0138803,0.646426,0.999936,-4.30971e-11,-7.78655e-10,0.0113486,4
358108374,-0.762623,-0.00574913,0.0158728,0.646624,0.999936,-4.30971e-11,-7.78655e-10,0.0113486,4
358158038,-0.763016,-0.00528835,0.0142952,0.6462,0.999936,-4.30971e-11,-7.78655e-10,0.0113486,4
358202914,-0.762815,-0.00553343,0.0146294,0.646428,0.999936,-4.30971e-11,-7.78655e-10,0.0113486,4
358252395,-0.76273,-0.00516782,0.014512,0.646534,0.999936,-4.30971e-11,-7.78655e-10,0.0113486,4
358307026,-0.762976,-0.00500634,0.0136231,0.646264,0.999936,-4.30971e-11,-7.78655e-10,0.0113486,4
358356688,-0.762575,-0.00580394,0.015164,0.646696,0.999936,-4.30971e-11,-7.78655e-10,0.0113486,4
358406348,-0.763117,-0.00579595,0.0152346,0.646054,0.999936,-4.30971e-11,-7.78655e-10,0.0113486,4
358456115,-0.762815,-0.00551744,0.0148312,0.646424,0.999936,-4.30971e-11,-7.78655e-10,0.0113486,4
358505675,-0.762834,-0.00580504,0.0155762,0.646381,0.999936,-4.30971e-11,-7.78655e-10,0.0113486,4
358555334,-0.762855,-0.00600902,0.0150628,0.646366,0.999936,-4.30971e-11,-7.78655e-10,0.0113486,4
358605015,-0.762625,-0.00537706,0.0149494,0.646646,0.999936,-4.30971e-11,-7.78655e-10,0.0113486,4
358654659,-0.762803,-0.00558947,0.0153438,0.646425,0.999936,-4.30971e-11,-7.78655e-10,0.0113486,4
358704385,-0.762963,-0.00524558,0.0146291,0.646256,0.999936,-4.30971e-11,-7.78655e-10,0.0113486,4
358753984,-0.762908,-0.00541852,0.014539,0.646321,0.999936,-4.30971e-11,-7.78655e-10,0.0113486,4
358808611,-0.763062,-0.00576958,0.0153835,0.646117,0.999936,-4.30971e-11,-7.78655e-10,0.0113486,4
358858312,-0.763037,-0.00574952,0.014508,0.646167,0.999936,-4.30971e-11,-7.78655e-10,0.0113486,4
358902972,-0.76309,-0.00558807,0.0147891,0.646099,0.999936,-4.30971e-11,-7.78655e-10,0.0113486,4
358952632,-0.762885,-0.00522771,0.0152638,0.646333,0.999936,-4.30971e-11,-7.78655e-10,0.0113486,4
359007427,-0.763051,-0.00554919,0.0146106,0.646149,0.999936,-4.30971e-11,-7.78655e-10,0.0113486,4
359056924,-0.763024,-0.00541636,0.0146193,0.646182,0.999936,-4.30971e-11,-7.78655e-10,0.0113486,4
359106602,-0.762997,-0.00571718,0.0153483,0.646195,0.999936,-4.30971e-11,-7.78655e-10,0.0113486,4
359156252,-0.76307,-0.00593769,0.0152208,0.64611,0.999936,-4.30971e-11,-7.78655e-10,0.0113486,4
359205911,-0.76303,-0.00551421,0.0149321,0.646168,0.999936,-4.30971e-11,-7.78655e-10,0.0113486,4
359255636,-0.763062,-0.00520723,0.014869,0.646133,0.999936,-4.30971e-11,-7.78655e-10,0.0113486,4
359305260,-0.76282,-0.00538003,0.014966,0.646416,0.999936,-4.30971e-11,-7.78655e-10,0.0113486,4
359354896,-0.763231,-0.00551298,0.0141158,0.645948,0.999936,-4.30971e-11,-7.78655e-10,0.0113486,4
359404558,-0.763071,-0.00504917,0.0145275,0.646131,0.999936,-4.30971e-11,-7.78655e-10,0.0113486,4
359454221,-0.762966,-0.00521325,0.0147595,0.646249,0.999936,-4.30971e-11,-7.78655e-10,0.0113486,4
359508872,-0.763102,-0.00540836,0.0148912,0.646084,0.999936,-4.30971e-11,-7.78655e-10,0.0113486,4
359553563,-0.762969,-0.00542952,0.0152766,0.646232,0.999936,-4.30971e-11,-7.78655e-10,0.0113486,4
359603207,-0.762943,-0.00504465,0.0146631,0.64628,0.999936,-4.30971e-11,-7.78655e-10,0.0113486,4
359652869,-0.763128,-0.00526957,0.0141817,0.646071,0.999936,-4.30971e-11,-7.78655e-10,0.0113486,4
359707498,-0.763055,-0.0053745,0.0152688,0.646131,0.999936,-4.30971e-11,-7.78655e-10,0.0113486,4
359757162,-0.76337,-0.00559671,0.0147942,0.645768,0.999936,-4.30971e-11,-7.78655e-10,0.0113486,4
359806947,-0.763265,-0.0050631,0.0140622,0.645913,0.999936,-4.30971e-11,-7.78655e-10,0.0113486,4
359856484,-0.762972,-0.00565951,0.0150068,0.646233,0.999936,-4.30971e-11,-7.78655e-10,0.0113486,4
359906147,-0.763106,-0.00502241,0.0147357,0.646086,0.999936,-4.30971e-11,-7.78655e-10,0.0113486,4
359955810,-0.7632,-0.0056487,0.0144684,0.645975,0.999936,-4.30971e-11,-7.78655e-10,0.0113486,4
360005467,-0.763347,-0.00549435,0.0142857,0.645807,0.999936,-4.30971e-11,-7.78655e-10,0.0113486,4
360055159,-0.763189,-0.00530298,0.0148961,0.645981,0.999936,-4.30971e-11,-7.78655e-10,0.0113486,4
360104795,-0.763155,-0.00574806,0.0153442,0.646007,0.999936,-4.30971e-11,-7.78655e-10,0.0113486,4
360154457,-0.76326,-0.00555715,0.015094,0.645891,0.999936,-4.30971e-11,-7.78655e-10,0.0113486,4
360209086,-0.763274,-0.00523091,0.0151693,0.645875,0.999936,-4.30971e-11,-7.78655e-10,0.0113486,4
360253782,-0.763134,-0.00560181,0.0153054,0.646035,0.999936,-4.30971e-11,-7.78655e-10,0.0113486,4
360303446,-0.763379,-0.00633255,0.0156796,0.645729,0.999936,-4.30971e-11,-7.78655e-10,0.0113486,4
360353294,-0.763343,-0.00571414,0.0153341,0.645786,0.999936,-4.30971e-11,-7.78655e-10,0.0113486,4
360407735,-0.763386,-0.00563323,0.0149237,0.645746,0.999936,-4.30971e-11,-7.78655e-10,0.0113486,4
360457397,-0.763465,-0.00574215,0.0149869,0.64565,0.999936,-4.30971e-11,-7.78655e-10,0.0113486,4
360502093,-0.763357,-0.00582531,0.0154138,0.645766,0.999936,-4.30971e-11,-7.78655e-10,0.0113486,4
360556757,-0.763411,-0.00607427,0.0159312,0.645688,0.999936,-4.30971e-11,-7.78655e-10,0.0113486,4
360606517,-0.763495,-0.00612523,0.0151581,0.645607,0.999936,-4.30971e-11,-7.78655e-10,0.0113486,4
360656048,-0.763416,-0.00582266,0.016099,0.64568,0.999936,-4.30971e-11,-7.78655e-10,0.0113486,4
360705715,-0.763309,-0.00550111,0.0157548,0.645818,0.999936,-4.30971e-11,-7.78655e-10,0.0113486,4
360755370,-0.763353,-0.00563152,0.0154059,0.645773,0.999936,-4.30971e-11,-7.78655e-10,0.0113486,4
360805085,-0.763468,-0.00509231,0.0153776,0.645643,0.999936,-4.30971e-11,-7.78655e-10,0.0113486,4
360854699,-0.763392,-0.00551031,0.0156075,0.645723,0.999936,-4.30971e-11,-7.78655e-10,0.0113486,4
360904357,-0.763578,-0.00501868,0.0146988,0.645528,0.999936,-4.30971e-11,-7.78655e-10,0.0113486,4
360954020,-0.76342,-0.00534302,0.0151233,0.645704,0.999936,-4.30971e-11,-7.78655e-10,0.0113486,4
361003681,-0.763399,-0.00546088,0.0149897,0.64573,0.999936,-4.30971e-11,-7.78655e-10,0.0113486,4
361053370,-0.763622,-0.00546524,0.0149034,0.645469,0.999936,-4.30971e-11,-7.78655e-10,0.0113486,4
361107975,-0.763574,-0.00543468,0.0148498,0.645527,0.999936,-4.30971e-11,-7.78655e-10,0.0113486,4
361157781,-0.763767,-0.00506666,0.0147533,0.645303,0.999936,-4.30971e-11,-7.78655e-10,0.0113486,4
361202330,-0.763417,-0.00539867,0.014882,0.645711,0.999936,-4.30971e-11,-7.78655e-10,0.0113486,4
361256958,-0.763591,-0.00589581,0.0146586,0.645507,0.999936,-4.30971e-11,-7.78655e-10,0.0113486,4
361306621,-0.763342,-0.00551623,0.0150263,0.645797,0.999936,-4.30971e-11,-7.78655e-10,0.0113486,4
361356285,-0.763777,-0.00610682,0.0145329,0.645288,0.999936,-4.30971e-11,-7.78655e-10,0.0113486,4
361406002,-0.763483,-0.00559849,0.0154872,0.645618,0.999936,-4.30971e-11,-7.78655e-10,0.0113486,4
361455615,-0.763657,-0.00593604,0.0149832,0.645421,0.999936,-4.30971e-11,-7.78655e-10,0.0113486,4
361505270,-0.763684,-0.00553689,0.0150676,0.645391,0.999936,-4.30971e-11,-7.78655e-10,0.0113486,4
361554931,-0.763668,-0.00577391,0.0151538,0.645405,0.999936,-4.30971e-11,-7.78655e-10,0.0113486,4
361604594,-0.763594,-0.00572962,0.0154101,0.645488,0.999936,-4.30971e-11,-7.78655e-10,0.0113486,4
361654274,-0.763654,-0.0056441,0.0149756,0.645428,0.999936,-4.30971e-11,-7.78655e-10,0.0113486,4
361704124,-0.76365,-0.00567843,0.0158495,0.645411,0.999936,-4.30971e-11,-7.78655e-10,0.0113486,4
361753583,-0.763598,-0.0057475,0.0151621,0.645488,0.999936,-4.30971e-11,-7.78655e-10,0.0113486,4
361808209,-0.763681,-0.00540732,0.0147548,0.645403,0.999936,-4.30971e-11,-7.78655e-10,0.0113486,4
361857871,-0.763788,-0.00544453,0.0151699,0.645266,0.999936,-4.30971e-11,-7.78655e-10,0.0113486,4
361902568,-0.763767,-0.00556095,0.0150933,0.645292,0.999936,-4.30971e-11,-7.78655e-10,0.0113486,4
361957315,-0.763612,-0.00573674,0.0148585,0.645478,0.999936,-4.30971e-11,-7.78655e-10,0.0113486,4
362006861,-0.763568,-0.00561886,0.0148244,0.645533,0.999936,-4.30971e-11,-7.78655e-10,0.0113486,4
362056520,-0.763733,-0.00547882,0.0154305,0.645325,0.999936,-4.30971e-11,-7.78655e-10,0.0113486,4
362106183,-0.763722,-0.00565778,0.0157569,0.645328,0.999936,-4.30971e-11,-7.78655e-10,0.0113486,4
362155847,-0.763684,-0.00588225,0.0145654,0.6454,0.999936,-4.30971e-11,-7.78655e-10,0.0113486,4
362205573,-0.763784,-0.00550925,0.014853,0.645277,0.999936,-4.30971e-11,-7.78655e-10,0.0113486,4
362255169,-0.76384,-0.00546858,0.0151831,0.645204,0.999936,-4.30971e-11,-7.78655e-10,0.0113486,4
362304831,-0.763641,-0.00619112,0.0154248,0.645427,0.999936,-4.30971e-11,-7.78655e-10,0.0113486,4
362354494,-0.763623,-0.00563031,0.0156972,0.645447,0.999936,-4.30971e-11,-7.78655e-10,0.0113486,4
362404159,-0.763667,-0.00556088,0.0147621,0.645418,0.999936,-4.30971e-11,-7.78655e-10,0.0113486,4
362453819,-0.76394,-0.00530856,0.0149981,0.645091,0.999936,-4.30971e-11,-7.78655e-10,0.0113486,4
362508633,-0.763718,-0.00571291,0.0146436,0.645359,0.999936,-4.30971e-11,-7.78655e-10,0.0113486,4
362553142,-0.763777,-0.0058429,0.0155026,0.645267,0.999936,-4.30971e-11,-7.78655e-10,0.0113486,4
362602804,-0.763731,-0.00544731,0.0148691,0.64534,0.999936,-4.30971e-11,-7.78655e-10,0.0113486,4
362657433,-0.763884,-0.00581181,0.0146228,0.645162,0.999936,-4.30971e-11,-7.78655e-10,0.0113486,4
362707144,-0.763868,-0.00533453,0.0148094,0.645181,0.999936,-4.30971e-11,-7.78655e-10,0.0113486,4
362756835,-0.763911,-0.00566291,0.014972,0.645123,0.999936,-4.30971e-11,-7.78655e-10,0.0113486,4
362806420,-0.763851,-0.00615652,0.0141039,0.645209,0.999936,-4.30971e-11,-7.78655e-10,0.0113486,4
362856082,-0.763841,-0.00515132,0.0151488,0.645206,0.999936,-4.30971e-11,-7.78655e-10,0.0113486,4
362905745,-0.76392,-0.0055909,0.0144454,0.645125,0.999936,-4.30971e-11,-7.78655e-10,0.0113486,4
362955410,-0.763581,-0.00556878,0.014215,0.645532,0.999936,-4.30971e-11,-7.78655e-10,0.0113486,4
363005069,-0.763453,-0.00610455,0.0126703,0.645711,0.999936,-4.30971e-11,-7.78655e-10,0.0113486,4
363054732,-0.763866,-0.00559371,0.0125206,0.645229,0.999936,-4.30971e-11,-7.78655e-10,0.0113486,4
363104395,-0.763827,-0.00551672,0.0134055,0.645259,0.999936,-4.30971e-11,-7.78655e-10,0.0113486,4
363154057,-0.763794,-0.00553874,0.0140796,0.645282,0.999936,-4.30971e-11,-7.78655e-10,0.0113486,4
363208712,-0.76383,-0.005082,0.0146282,0.645231,0.999936,-4.30971e-11,-7.78655e-10,0.0113486,4
363253385,-0.763516,-0.00569076,0.014695,0.645596,0.999936,-4.30971e-11,-7.78655e-10,0.0113486,4
363303163,-0.763498,-0.00533239,0.0129862,0.645658,0.999936,-4.30971e-11,-7.78655e-10,0.0113486,4
363357670,-0.763566,-0.00611185,0.0123149,0.645584,0.999936,-4.30971e-11,-7.78655e-10,0.0113486,4
363407333,-0.763333,-0.00594805,0.0131022,0.645845,0.999936,-4.30971e-11,-7.78655e-10,0.0113486,4
363457009,-0.763215,-0.00564931,0.0137394,0.645974,0.999936,-4.30971e-11,-7.78655e-10,0.0113486,4
363501703,-0.763279,-0.00550777,0.0124306,0.645926,0.999936,-4.30971e-11,-7.78655e-10,0.0113486,4
363556367,-0.764315,-0.00526452,0.0101651,0.644741,0.999936,-4.30971e-11,-7.78655e-10,0.0113486,4
363605982,-0.765105,-0.00474166,0.00935746,0.64382,0.999936,-4.30971e-11,-7.78655e-10,0.0113486,4
363655644,-0.765449,-0.00468718,0.00957463,0.643409,0.999936,-4.30971e-11,-7.78655e-10,0.0113486,4
363705315,-0.765386,-0.00444285,0.00936374,0.643488,0.999936,-4.30971e-11,-7.78655e-10,0.0113486,4
363754968,-0.765196,-0.00541642,0.00888437,0.643713,0.999936,-4.30971e-11,-7.78655e-10,0.0113486,4
363804632,-0.765616,-0.00481772,0.00914675,0.643215,0.999936,-4.30971e-11,-7.78655e-10,0.0113486,4
363854472,-0.766874,-0.00357847,0.00752988,0.641743,0.999936,-4.30971e-11,-7.78655e-10,0.0113486,4
363908921,-0.767421,-0.00116197,0.0059425,0.641115,0.999936,-4.30971e-11,-7.78655e-10,0.0113486,4
363953638,-0.768177,0.000700322,0.00361901,0.640227,0.999936,-4.30971e-11,-7.78655e-10,0.0113486,4
364003281,-0.76857,0.00134602,0.0020822,0.639761,0.999936,-4.30971e-11,-7.78655e-10,0.0113486,4
364057909,-0.767963,0.00162043,-0.000543267,0.640492,0.999936,-4.30971e-11,-7.78655e-10,0.0113486,4
364107677,-0.766782,4.21419e-05,-0.00152278,0.641906,0.999936,-4.30971e-11,-7.78655e-10,0.0113486,4
364157233,-0.766107,-0.000883536,-0.00417186,0.642699,0.999936,-4.30971e-11,-7.78655e-10,0.0113486,4
364201952,-0.76591,-0.000452336,-0.00498409,0.642929,0.999936,-4.30971e-11,-7.78655e-10,0.0113486,4
364256557,-0.765887,-0.000225154,-0.00549067,0.642952,0.999936,-4.30971e-11,-7.78655e-10,0.0113486,4
364306219,-0.766139,-0.00156077,-0.00550723,0.642649,0.999936,-4.30971e-11,-7.78655e-10,0.0113486,4
364355895,-0.766335,-0.00256454,-0.0040647,0.642423,0.999936,-4.30971e-11,-7.78655e-10,0.0113486,4
364405545,-0.766597,-0.00162798,-0.00212362,0.642123,0.999936,-4.30971e-11,-7.78655e-10,0.0113486,4
364455207,-0.767381,0.000467872,0.000423928,0.641191,0.999936,-4.30971e-11,-7.78655e-10,0.0113486,4
364504870,-0.768128,0.00321401,0.0049636,0.640269,0.999936,-4.30971e-11,-7.78655e-10,0.0113486,4
364554531,-0.768081,0.00491268,0.0104185,0.640249,0.999936,-4.30971e-11,-7.78655e-10,0.0113486,4
364604199,-0.767587,0.00637876,0.014254,0.640755,0.999936,-4.30971e-11,-7.78655e-10,0.0113486,4
364654014,-0.76684,0.00819845,0.0152593,0.641604,0.999936,-4.30971e-11,-7.78655e-10,0.0113486,4
364703517,-0.765882,0.0112501,0.0163045,0.642676,0.999936,-4.30971e-11,-7.78655e-10,0.0113486,4
364758150,-0.765336,0.00892963,0.0167329,0.643351,0.999936,-4.30971e-11,-7.78655e-10,0.0113486,4
364807808,-0.764919,0.00435369,0.0176386,0.64387,0.999936,-4.30971e-11,-7.78655e-10,0.0113486,4
364852504,-0.765152,0.00535593,0.0188001,0.643553,0.999936,-4.30971e-11,-7.78655e-10,0.0113486,4
364902307,-0.76545,0.00864057,0.0215752,0.643075,0.999936,-4.30971e-11,-7.78655e-10,0.0113486,4
364956797,-0.765524,0.0098024,0.0265376,0.642785,0.999936,-4.30971e-11,-7.78655e-10,0.0113486,4
365006457,-0.765668,0.00600435,0.029576,0.642528,0.999936,-4.30971e-11,-7.78655e-10,0.0113486,4
365056119,-0.766473,0.00458901,0.0296295,0.641576,0.999936,-4.30971e-11,-7.78655e-10,0.0113486,4
365105782,-0.76736,0.00621795,0.028666,0.640545,0.999936,-4.30971e-11,-7.78655e-10,0.0113486,4
365155444,-0.768305,0.00704777,0.0287639,0.639399,0.999936,-4.30971e-11,-7.78655e-10,0.0113486,4
365205106,-0.769134,0.00491886,0.0298606,0.63837,0.999936,-4.30971e-11,-7.78655e-10,0.0113486,4
365254768,-0.770029,0.00806243,0.0280408,0.637341,0.999936,-4.30971e-11,-7.78655e-10,0.0113486,4
365304430,-0.770875,0.00821566,0.023061,0.636516,0.999936,-4.30971e-11,-7.78655e-10,0.0113486,4
365354097,-0.771641,0.00678227,0.0187619,0.635746,0.999936,-4.30971e-11,-7.78655e-10,0.0113486,4
365403755,-0.772315,0.00790078,0.0156294,0.634998,0.999936,-4.30971e-11,-7.78655e-10,0.0113486,4
365458509,-0.773325,0.00963428,0.0132202,0.633799,0.999936,-4.30971e-11,-7.78655e-10,0.0113486,4
365508065,-0.773773,0.00886534,0.0124307,0.633278,0.999936,-4.30971e-11,-7.78655e-10,0.0113486,4
365552743,-0.774467,0.00756444,0.0103034,0.632485,0.999936,-4.30971e-11,-7.78655e-10,0.0113486,4
365602407,-0.77456,0.00441639,0.00788074,0.632436,0.999936,-4.30971e-11,-7.78655e-10,0.0113486,4
365657033,-0.77464,-0.000892629,0.00646126,0.632369,0.999936,-4.30971e-11,-7.78655e-10,0.0113486,4
365706733,-0.774781,-0.00122286,0.00593697,0.6322,0.999936,-4.30971e-11,-7.78655e-10,0.0113486,4
365756398,-0.77473,-0.000888234,0.00649414,0.632258,0.999936,-4.30971e-11,-7.78655e-10,0.0113486,4
365806019,-0.774355,-0.00187634,0.00680526,0.632713,0.999936,-4.30971e-11,-7.78655e-10,0.0113486,4
365855681,-0.77399,-0.00296892,0.00599629,0.633162,0.999936,-4.30971e-11,-7.78655e-10,0.0113486,4
365905343,-0.77383,-0.0023062,0.00438603,0.633375,0.999936,-4.30971e-11,-7.78655e-10,0.0113486,4
365955006,-0.7737,-0.00158378,0.00424732,0.633536,0.999936,-4.30971e-11,-7.78655e-10,0.0113486,4
366004831,-0.773436,-0.00440242,0.00798183,0.633809,0.999936,-4.30971e-11,-7.78655e-10,0.0113486,4
366054340,-0.773163,-0.00862978,0.0132469,0.634011,0.999936,-4.30971e-11,-7.78655e-10,0.0113486,4
366103995,-0.772833,-0.0106175,0.0157249,0.634326,0.999936,-4.30971e-11,-7.78655e-10,0.0113486,4
366158621,-0.772707,-0.0116195,0.0163774,0.634446,0.999936,-4.30971e-11,-7.78655e-10,0.0113486,4
366208283,-0.772078,-0.0137413,0.0196577,0.635075,0.999936,-4.30971e-11,-7.78655e-10,0.0113486,4
366253065,-0.771834,-0.0159269,0.0237213,0.635182,0.999936,-4.30971e-11,-7.78655e-10,0.0113486,4
366302642,-0.771062,-0.0205918,0.0286196,0.635783,0.999936,-4.30971e-11,-7.78655e-10,0.0113486,4
366357270,-0.770374,-0.0262946,0.0314488,0.636274,0.999936,-4.30971e-11,-7.78655e-10,0.0113486,4
366406932,-0.769957,-0.0286801,0.0318138,0.636657,0.999936,-4.30971e-11,-7.78655e-10,0.0113486,4
366456595,-0.769381,-0.0310865,0.0332919,0.637164,0.999936,-4.30971e-11,-7.78655e-10,0.0113486,4
366506316,-0.76826,-0.0326047,0.0363582,0.638272,0.999936,-4.30971e-11,-7.78655e-10,0.0113486,4
366555919,-0.767701,-0.0330075,0.0380757,0.638824,0.999936,-4.30971e-11,-7.78655e-10,0.0113486,4
366605581,-0.767121,-0.0336468,0.038733,0.639447,0.999936,-4.30971e-11,-7.78655e-10,0.0113486,4
366655244,-0.766346,-0.0338306,0.0382775,0.640394,0.999936,-4.30971e-11,-7.78655e-10,0.0113486,4
366704908,-0.765864,-0.0331851,0.036497,0.641107,0.999936,-4.30971e-11,-7.78655e-10,0.0113486,4
366754602,-0.7656,-0.0329738,0.0342327,0.641559,0.999936,-4.30971e-11,-7.78655e-10,0.0113486,4
366804370,-0.765246,-0.0325652,0.0344792,0.641989,0.999936,-4.30971e-11,-7.78655e-10,0.0113486,4
366858859,-0.765064,-0.0294419,0.0350671,0.642325,0.999936,-4.30971e-11,-7.78655e-10,0.0113486,4
366903555,-0.764788,-0.0253572,0.0346411,0.64285,0.999936,-4.30971e-11,-7.78655e-10,0.0113486,4
366953218,-0.765202,-0.0206347,0.0317039,0.642678,0.999936,-4.30971e-11,-7.78655e-10,0.0113486,4
367002921,-0.765099,-0.0182859,0.0291749,0.642991,0.999936,-4.30971e-11,-7.78655e-10,0.0113486,4
367057561,-0.765171,-0.0158819,0.0266122,0.643081,0.999936,-4.30971e-11,-7.78655e-10,0.0113486,4
367107170,-0.764899,-0.0126178,0.0246409,0.643555,0.999936,-4.30971e-11,-7.78655e-10,0.0113486,4
367156832,-0.76493,-0.00903891,0.0226388,0.643652,0.999936,-4.30971e-11,-7.78655e-10,0.0113486,4
367206494,-0.764921,-0.00196045,0.0190884,0.643839,0.999936,-4.30971e-11,-7.78655e-10,0.0113486,4
367256157,-0.764455,0.0035047,0.0185135,0.644402,0.999936,-4.30971e-11,-7.78655e-10,0.0113486,4
367305819,-0.764379,0.00407988,0.0203466,0.644433,0.999936,-4.30971e-11,-7.78655e-10,0.0113486,4
367355674,-0.764148,0.00315102,0.0192368,0.644746,0.999936,-4.30971e-11,-7.78655e-10,0.0113486,4
367405143,-0.763775,0.00225647,0.0155572,0.645291,0.999936,-4.30971e-11,-7.78655e-10,0.0113486,4
367454806,-0.763972,0.00296108,0.0101223,0.645163,0.999936,-4.30971e-11,-7.78655e-10,0.0113486,4
367504468,-0.763648,0.00156997,0.00955983,0.64556,0.999936,-4.30971e-11,-7.78655e-10,0.0113486,4
367559148,-0.763594,0.00216363,0.0107479,0.645603,0.999936,-4.30971e-11,-7.78655e-10,0.0113486,4
367603890,-0.763282,0.00486078,0.0144606,0.645885,0.999936,-4.30971e-11,-7.78655e-10,0.0113486,4
367653455,-0.76254,0.00792634,0.0191002,0.64661,0.999936,-4.30971e-11,-7.78655e-10,0.0113486,4
367703118,-0.762443,0.00975656,0.021458,0.646626,0.999936,-4.30971e-11,-7.78655e-10,0.0113486,4
367757746,-0.761845,0.0122251,0.0249578,0.647164,0.999936,-4.30971e-11,-7.78655e-10,0.0113486,4
367807411,-0.761409,0.0153772,0.0302716,0.647382,0.999936,-4.30971e-11,-7.78655e-10,0.0113486,4
367852111,-0.760616,0.0203772,0.0374469,0.647801,0.999936,-4.30971e-11,-7.78655e-10,0.0113486,4
367906733,-0.759518,0.0274816,0.0465137,0.648238,0.999936,-4.30971e-11,-7.78655e-10,0.0113486,4
367956395,-0.758663,0.0323264,0.0500686,0.648751,0.999936,-4.30971e-11,-7.78655e-10,0.0113486,4
368006057,-0.757703,0.034439,0.051179,0.649678,0.999936,-4.30971e-11,-7.78655e-10,0.0113486,4
368055723,-0.756898,0.033707,0.0516302,0.650617,0.999936,-4.30971e-11,-7.78655e-10,0.0113486,4
368105383,-0.756335,0.0322261,0.0506391,0.651425,0.999936,-4.30971e-11,-7.78655e-10,0.0113486,4
368155248,-0.755955,0.0319646,0.0491933,0.65199,0.999936,-4.30971e-11,-7.78655e-10,0.0113486,4
368204707,-0.755669,0.0303372,0.0481117,0.652479,0.999936,-4.30971e-11,-7.78655e-10,0.0113486,4
368259334,-0.755087,0.0287492,0.0485071,0.653195,0.999936,-4.30971e-11,-7.78655e-10,0.0113486,4
368304032,-0.755054,0.0290413,0.0470993,0.653324,0.999936,-4.30971e-11,-7.78655e-10,0.0113486,4
368353693,-0.754865,0.0279794,0.0448542,0.653746,0.999936,-4.30971e-11,-7.78655e-10,0.0113486,4
368403418,-0.754669,0.0249177,0.0427504,0.654237,0.999936,-4.30971e-11,-7.78655e-10,0.0113486,4
368457985,-0.754597,0.0238917,0.0427203,0.654361,0.999936,-4.30971e-11,-7.78655e-10,0.0113486,4
368507646,-0.754281,0.0247454,0.0441747,0.654597,0.999936,-4.30971e-11,-7.78655e-10,0.0113486,4
368552342,-0.753864,0.0253448,0.0448701,0.655007,0.999936,-4.30971e-11,-7.78655e-10,0.0113486,4
368602026,-0.753702,0.0249273,0.0441043,0.65526,0.999936,-4.30971e-11,-7.78655e-10,0.0113486,4
368656632,-0.753681,0.0242572,0.0427568,0.655399,0.999936,-4.30971e-11,-7.78655e-10,0.0113486,4
368706295,-0.753853,0.024773,0.0407862,0.655307,0.999936,-4.30971e-11,-7.78655e-10,0.0113486,4
368755961,-0.75398,0.0244668,0.0391922,0.655271,0.999936,-4.30971e-11,-7.78655e-10,0.0113486,4
368805625,-0.754125,0.021504,0.0361804,0.655381,0.999936,-4.30971e-11,-7.78655e-10,0.0113486,4
368855287,-0.75442,0.0169376,0.0301608,0.65548,0.999936,-4.30971e-11,-7.78655e-10,0.0113486,4
368904948,-0.754776,0.0124225,0.0241096,0.655422,0.999936,-4.30971e-11,-7.78655e-10,0.0113486,4
368954731,-0.755075,0.00803887,0.0197037,0.655293,0.999936,-4.30971e-11,-7.78655e-10,0.0113486,4
369004268,-0.75549,0.00418411,0.0159373,0.654953,0.999936,-4.30971e-11,-7.78655e-10,0.0113486,4
369053933,-0.75619,0.000965026,0.0133566,0.654215,0.999936,-4.30971e-11,-7.78655e-10,0.0113486,4
369103593,-0.756944,-0.00166754,0.0125527,0.653357,0.999936,-4.30971e-11,-7.78655e-10,0.0113486,4
369158222,-0.757631,-0.00323291,0.01208,0.652564,0.999936,-4.30971e-11,-7.78655e-10,0.0113486,4
369207930,-0.7584,-0.00409819,0.0103897,0.651694,0.999936,-4.30971e-11,-7.78655e-10,0.0113486,4
369252580,-0.758796,-0.00517877,0.00999922,0.651231,0.999936,-4.30971e-11,-7.78655e-10,0.0113486,4
369307216,-0.759311,-0.00482332,0.00906437,0.650647,0.999936,-4.30971e-11,-7.78655e-10,0.0113486,4
369356870,-0.760115,-0.0030563,0.00765945,0.649736,0.999936,-4.30971e-11,-7.78655e-10,0.0113486,4
369406533,-0.760399,-0.00117975,0.00747431,0.649413,0.999936,-4.30971e-11,-7.78655e-10,0.0113486,4
369456201,-0.760864,-0.00113308,0.00778778,0.648864,0.999936,-4.30971e-11,-7.78655e-10,0.0113486,4
369506048,-0.76099,-0.00150816,0.00886121,0.648702,0.999936,-4.30971e-11,-7.78655e-10,0.0113486,4
369555519,-0.760992,0.00097695,0.00998962,0.648684,0.999936,-4.30971e-11,-7.78655e-10,0.0113486,4
369605183,-0.761344,0.00325996,0.00998956,0.648263,0.999936,-4.30971e-11,-7.78655e-10,0.0113486,4
369654841,-0.761176,0.00423406,0.00991905,0.648456,0.999936,-4.30971e-11,-7.78655e-10,0.0113486,4
369704507,-0.761326,0.00331483,0.00839253,0.648307,0.999936,-4.30971e-11,-7.78655e-10,0.0113486,4
369754255,-0.761292,0.00353925,0.00731657,0.648358,0.999936,-4.30971e-11,-7.78655e-10,0.0113486,4
369803879,-0.761503,0.00408943,0.00807496,0.648098,0.999936,-4.30971e-11,-7.78655e-10,0.0113486,4
369858460,-0.761863,0.00363879,0.00907854,0.647665,0.999936,-4.30971e-11,-7.78655e-10,0.0113486,4
369903156,-0.762163,0.00256368,0.00793871,0.647332,0.999936,-4.30971e-11,-7.78655e-10,0.0113486,4
369952817,-0.763246,-0.00204439,0.00822981,0.646052,0.999936,-4.30971e-11,-7.78655e-10,0.0113486,4
370007463,-0.764564,-0.00711647,0.0118733,0.644399,0.999936,-4.30971e-11,-7.78655e-10,0.0113486,4
370057143,-0.765903,-0.0149993,0.0191275,0.642496,0.999936,-4.30971e-11,-7.78655e-10,0.0113486,4
370106771,-0.766719,-0.0268854,0.0299544,0.64072,0.999936,-4.30971e-11,-7.78655e-10,0.0113486,4
370156433,-0.767592,-0.0396563,0.0404262,0.638432,0.999936,-4.30971e-11,-7.78655e-10,0.0113486,4
370206095,-0.768421,-0.0487787,0.0483181,0.63625,0.999936,-4.30971e-11,-7.78655e-10,0.0113486,4
370255759,-0.769768,-0.0492762,0.0491799,0.634516,0.999936,-4.30971e-11,-7.78655e-10,0.0113486,4
370305609,-0.77142,-0.0447515,0.0440183,0.633222,0.999936,-4.30971e-11,-7.78655e-10,0.0113486,4
370355085,-0.772802,-0.0418177,0.0397638,0.632019,0.999936,-4.30971e-11,-7.78655e-10,0.0113486,4
370404745,-0.774038,-0.0382152,0.0368781,0.630908,0.999936,-4.30971e-11,-7.78655e-10,0.0113486,4
370454407,-0.774935,-0.0319589,0.0324906,0.630396,0.999936,-4.30971e-11,-7.78655e-10,0.0113486,4
370504070,-0.776184,-0.0240488,0.0263449,0.629497,0.999936,-4.30971e-11,-7.78655e-10,0.0113486,4
370558827,-0.777081,-0.0156595,0.0193105,0.628909,0.999936,-4.30971e-11,-7.78655e-10,0.0113486,4
370603394,-0.777241,-0.012075,0.0144609,0.628921,0.999936,-4.30971e-11,-7.78655e-10,0.0113486,4
370653056,-0.777475,-0.00960093,0.0118548,0.628729,0.999936,-4.30971e-11,-7.78655e-10,0.0113486,4
370707684,-0.77778,-0.00657943,0.0104293,0.628416,0.999936,-4.30971e-11,-7.78655e-10,0.0113486,4
370757346,-0.77806,-0.00550347,0.0101797,0.628084,0.999936,-4.30971e-11,-7.78655e-10,0.0113486,4
370807027,-0.778186,-0.0052934,0.0102786,0.627928,0.999936,-4.30971e-11,-7.78655e-10,0.0113486,4
370851896,-0.77839,-0.00607082,0.0113965,0.627649,0.999936,-4.30971e-11,-7.78655e-10,0.0113486,4
370906333,-0.778487,-0.00648396,0.0120699,0.627511,0.999936,-4.30971e-11,-7.78655e-10,0.0113486,4
370955997,-0.778425,-0.00563899,0.0109988,0.627617,0.999936,-4.30971e-11,-7.78655e-10,0.0113486,4
371005658,-0.778083,-0.00519388,0.0089593,0.628076,0.999936,-4.30971e-11,-7.78655e-10,0.0113486,4
371055385,-0.778109,-0.00532473,0.00793683,0.628056,0.999936,-4.30971e-11,-7.78655e-10,0.0113486,4
371105093,-0.777471,-0.00575919,0.00834436,0.628837,0.999936,-4.30971e-11,-7.78655e-10,0.0113486,4
371154645,-0.776528,-0.00619358,0.00935106,0.629983,0.999936,-4.30971e-11,-7.78655e-10,0.0113486,4
371204308,-0.775262,-0.00504926,0.00855397,0.631562,0.999936,-4.30971e-11,-7.78655e-10,0.0113486,4
371258936,-0.773321,-0.0040175,0.00699398,0.633963,0.999936,-4.30971e-11,-7.78655e-10,0.0113486,4
371303640,-0.769983,-0.00540089,0.00741641,0.637998,0.999936,-4.30971e-11,-7.78655e-10,0.0113486,4
371353309,-0.761749,-0.00553647,0.00795473,0.6478,0.999936,-4.30971e-11,-7.78655e-10,0.0113486,4
371407963,-0.746852,-0.00466311,0.00795804,0.664926,0.999936,-4.30971e-11,-7.78655e-10,0.0113486,4
371457585,-0.727014,-0.00404101,0.00728918,0.686572,0.999936,-4.30971e-11,-7.78655e-10,0.0113486,4
371507247,-0.704817,-0.00627898,0.00622727,0.709334,0.999936,-4.30971e-11,-7.78655e-10,0.0113486,4
371551945,-0.688406,-0.00953832,0.00666056,0.725233,0.999936,-4.30971e-11,-7.78655e-10,0.0113486,4
371606571,-0.674182,-0.0137026,0.00895519,0.738384,0.999936,-4.30971e-11,-7.78655e-10,0.0113486,4
371656408,-0.664667,-0.0125644,0.00981018,0.746969,0.999936,-4.30971e-11,-7.78655e-10,0.0113486,4
371705896,-0.656469,-0.00735805,0.00972322,0.754254,0.999936,-4.30971e-11,-7.78655e-10,0.0113486,4
371755558,-0.649495,-0.00339397,0.0093931,0.7603,0.999936,-4.30971e-11,-7.78655e-10,0.0113486,4
371805225,-0.643341,-0.00343109,0.0101488,0.765505,0.999936,-4.30971e-11,-7.78655e-10,0.0113486,4
371854884,-0.638573,-0.00378487,0.0110932,0.769472,0.999936,-4.30971e-11,-7.78655e-10,0.0113486,4
371904619,-0.634535,-0.00309253,0.0112834,0.772805,0.999936,-4.30971e-11,-7.78655e-10,0.0113486,4
371954208,-0.631419,-0.00124976,0.0105089,0.775369,0.999936,-4.30971e-11,-7.78655e-10,0.0113486,4
372003870,-0.629286,0.000234356,0.00932097,0.777118,0.999936,-4.30971e-11,-7.78655e-10,0.0113486,4
372053532,-0.627742,0.00156344,0.00733805,0.778386,0.999936,-4.30971e-11,-7.78655e-10,0.0113486,4
372108160,-0.626389,0.0014262,0.0085788,0.779462,0.999936,-4.30971e-11,-7.78655e-10,0.0113486,4
372157830,-0.626592,0.000899571,0.00997393,0.779284,0.999936,-4.30971e-11,-7.78655e-10,0.0113486,4
372207485,-0.628766,0.000592178,0.0107994,0.777519,0.999936,-4.30971e-11,-7.78655e-10,0.0113486,4
372252181,-0.633644,0.000592981,0.0106384,0.773552,0.999936,-4.30971e-11,-7.78655e-10,0.0113486,4
372306811,-0.641941,0.000222889,0.0102816,0.766685,0.999936,-4.30971e-11,-7.78655e-10,0.0113486,4
372356472,-0.649134,-0.000122327,0.0102679,0.760605,0.999936,-4.30971e-11,-7.78655e-10,0.0113486,4
372406134,-0.653761,0.00120972,0.0092325,0.756644,0.999936,-4.30971e-11,-7.78655e-10,0.0113486,4
372455934,-0.657291,0.00196109,0.00906469,0.75358,0.999936,-4.30971e-11,-7.78655e-10,0.0113486,4
372505459,-0.66064,0.00216196,0.00877236,0.750649,0.999936,-4.30971e-11,-7.78655e-10,0.0113486,4
372555124,-0.663148,0.00329954,0.00885046,0.748429,0.999936,-4.30971e-11,-7.78655e-10,0.0113486,4
372604789,-0.666081,0.00442073,0.00873437,0.745815,0.999936,-4.30971e-11,-7.78655e-10,0.0113486,4
372654446,-0.668905,0.00568795,0.00849575,0.743278,0.999936,-4.30971e-11,-7.78655e-10,0.0113486,4
372704142,-0.67493,0.0059592,0.00899382,0.737803,0.999936,-4.30971e-11,-7.78655e-10,0.0113486,4
372753770,-0.685777,0.00422599,0.0108772,0.727718,0.999936,-4.30971e-11,-7.78655e-10,0.0113486,4
372803485,-0.699506,0.0017179,0.0117191,0.714528,0.999936,-4.30971e-11,-7.78655e-10,0.0113486,4
372858061,-0.714124,0.000454037,0.0124997,0.699908,0.999936,-4.30971e-11,-7.78655e-10,0.0113486,4
372902757,-0.721582,0.00244306,0.0116108,0.692228,0.999936,-4.30971e-11,-7.78655e-10,0.0113486,4
372952421,-0.727634,0.00297026,0.0119221,0.685855,0.999936,-4.30971e-11,-7.78655e-10,0.0113486,4
373007053,-0.732628,0.00113513,0.0143253,0.680478,0.999936,-4.30971e-11,-7.78655e-10,0.0113486,4
373056711,-0.736654,0.000483992,0.0153327,0.676096,0.999936,-4.30971e-11,-7.78655e-10,0.0113486,4
373106373,-0.739642,0.000162308,0.0152728,0.672828,0.999936,-4.30971e-11,-7.78655e-10,0.0113486,4
373156034,-0.742138,-0.000149025,0.0141084,0.670099,0.999936,-4.30971e-11,-7.78655e-10,0.0113486,4
373205699,-0.744294,-0.000914248,0.0132401,0.66772,0.999936,-4.30971e-11,-7.78655e-10,0.0113486,4
373255518,-0.746042,-0.00233769,0.0133074,0.665762,0.999936,-4.30971e-11,-7.78655e-10,0.0113486,4
373305022,-0.747164,-0.00592797,0.0162962,0.664413,0.999936,-4.30971e-11,-7.78655e-10,0.0113486,4
373354684,-0.74763,-0.00772704,0.019167,0.663794,0.999936,-4.30971e-11,-7.78655e-10,0.0113486,4
373404346,-0.748502,-0.0044954,0.0168557,0.662903,0.999936,-4.30971e-11,-7.78655e-10,0.0113486,4
373454009,-0.748933,-0.00325358,0.0147349,0.662474,0.999936,-4.30971e-11,-7.78655e-10,0.0113486,4
373503680,-0.748633,-0.00445595,0.0161758,0.662773,0.999936,-4.30971e-11,-7.78655e-10,0.0113486,4
373558300,-0.748379,-0.00611281,0.0218582,0.662882,0.999936,-4.30971e-11,-7.78655e-10,0.0113486,4
373602997,-0.747811,-0.00700993,0.0287664,0.663252,0.999936,-4.30971e-11,-7.78655e-10,0.0113486,4
373652659,-0.746978,-0.00761542,0.036476,0.663803,0.999936,-4.30971e-11,-7.78655e-10,0.0113486,4
373707289,-0.745781,-0.010214,0.0458506,0.664533,0.999936,-4.30971e-11,-7.78655e-10,0.0113486,4
373756949,-0.74453,-0.0122693,0.0512807,0.665503,0.999936,-4.30971e-11,-7.78655e-10,0.0113486,4
373806767,-0.743731,-0.0139213,0.053271,0.666208,0.999936,-4.30971e-11,-7.78655e-10,0.0113486,4
373856273,-0.742633,-0.015335,0.0549886,0.667261,0.999936,-4.30971e-11,-7.78655e-10,0.0113486,4
373905936,-0.741886,-0.0131093,0.0550467,0.668134,0.999936,-4.30971e-11,-7.78655e-10,0.0113486,4
373955598,-0.74138,-0.00904026,0.0520407,0.669003,0.999936,-4.30971e-11,-7.78655e-10,0.0113486,4
374005260,-0.740798,-0.00683278,0.0482793,0.669956,0.999936,-4.30971e-11,-7.78655e-10,0.0113486,4
374055049,-0.74023,-0.00654027,0.0451479,0.670804,0.999936,-4.30971e-11,-7.78655e-10,0.0113486,4
374104585,-0.739492,-0.00654522,0.0418153,0.671834,0.999936,-4.30971e-11,-7.78655e-10,0.0113486,4
374154247,-0.739083,-0.00718708,0.0390145,0.672446,0.999936,-4.30971e-11,-7.78655e-10,0.0113486,4
374208876,-0.738584,-0.010179,0.0384265,0.672989,0.999936,-4.30971e-11,-7.78655e-10,0.0113486,4
374253615,-0.738091,-0.0152109,0.0412559,0.673267,0.999936,-4.30971e-11,-7.78655e-10,0.0113486,4
374303261,-0.737507,-0.0188694,0.0431481,0.673696,0.999936,-4.30971e-11,-7.78655e-10,0.0113486,4
374352899,-0.737048,-0.0218569,0.042169,0.67417,0.999936,-4.30971e-11,-7.78655e-10,0.0113486,4
374407527,-0.736406,-0.0286349,0.0410833,0.674684,0.999936,-4.30971e-11,-7.78655e-10,0.0113486,4
374457187,-0.735899,-0.0360099,0.0422363,0.674813,0.999936,-4.30971e-11,-7.78655e-10,0.0113486,4
374506849,-0.735636,-0.0401797,0.0437077,0.674771,0.999936,-4.30971e-11,-7.78655e-10,0.0113486,4
374556512,-0.735304,-0.0422096,0.0458821,0.674864,0.999936,-4.30971e-11,-7.78655e-10,0.0113486,4
374606312,-0.735043,-0.0423869,0.0459778,0.675131,0.999936,-4.30971e-11,-7.78655e-10,0.0113486,4
374655837,-0.735416,-0.0390483,0.041325,0.675227,0.999936,-4.30971e-11,-7.78655e-10,0.0113486,4
374705498,-0.736013,-0.0314428,0.0323509,0.675463,0.999936,-4.30971e-11,-7.78655e-10,0.0113486,4
374755157,-0.73674,-0.0207892,0.0212971,0.67552,0.999936,-4.30971e-11,-7.78655e-10,0.0113486,4
374804823,-0.736954,-0.012468,0.0136807,0.67569,0.999936,-4.30971e-11,-7.78655e-10,0.0113486,4
374854512,-0.737535,-0.00778443,0.00961635,0.675195,0.999936,-4.30971e-11,-7.78655e-10,0.0113486,4
374909114,-0.738167,-0.00348621,0.00846314,0.674556,0.999936,-4.30971e-11,-7.78655e-10,0.0113486,4
374953810,-0.738882,0.000663687,0.010414,0.673754,0.999936,-4.30971e-11,-7.78655e-10,0.0113486,4
375003473,-0.739642,0.00423329,0.0129377,0.672863,0.999936,-4.30971e-11,-7.78655e-10,0.0113486,4
375053138,-0.74064,0.00525581,0.0137898,0.67174,0.999936,-4.30971e-11,-7.78655e-10,0.0113486,4
375107810,-0.741856,0.00352228,0.0122214,0.670439,0.999936,-4.30971e-11,-7.78655e-10,0.0113486,4
375157610,-0.742908,0.000694294,0.0107786,0.669307,0.999936,-4.30971e-11,-7.78655e-10,0.0113486,4
375202123,-0.743864,-0.00146485,0.0112374,0.668235,0.999936,-4.30971e-11,-7.78655e-10,0.0113486,4
375251784,-0.744451,-0.00254859,0.0130894,0.667544,0.999936,-4.30971e-11,-7.78655e-10,0.0113486,4
375306414,-0.745145,-0.00251491,0.0136804,0.666757,0.999936,-4.30971e-11,-7.78655e-10,0.0113486,4
375356075,-0.74567,-0.00234878,0.0127577,0.666189,0.999936,-4.30971e-11,-7.78655e-10,0.0113486,4
375405831,-0.745847,-0.00243503,0.0103196,0.666033,0.999936,-4.30971e-11,-7.78655e-10,0.0113486,4
375455401,-0.746037,-0.0023454,0.00843333,0.665847,0.999936,-4.30971e-11,-7.78655e-10,0.0113486,4
375505063,-0.746177,-0.00270065,0.00759199,0.665699,0.999936,-4.30971e-11,-7.78655e-10,0.0113486,4
375554724,-0.746203,-0.00320955,0.00893845,0.665651,0.999936,-4.30971e-11,-7.78655e-10,0.0113486,4
375604387,-0.746174,-0.00361938,0.012379,0.665626,0.999936,-4.30971e-11,-7.78655e-10,0.0113486,4
375654108,-0.745967,0.000115286,0.0150608,0.665813,0.999936,-4.30971e-11,-7.78655e-10,0.0113486,4
375703746,-0.746093,0.00420153,0.0185228,0.665571,0.999936,-4.30971e-11,-7.78655e-10,0.0113486,4
375753373,-0.746052,0.00598863,0.0237944,0.665435,0.999936,-4.30971e-11,-7.78655e-10,0.0113486,4
375808002,-0.745459,0.00758014,0.0306321,0.665805,0.999936,-4.30971e-11,-7.78655e-10,0.0113486,4
375857664,-0.745029,0.0107128,0.0336273,0.666097,0.999936,-4.30971e-11,-7.78655e-10,0.0113486,4
375902373,-0.74443,0.0130319,0.0349826,0.666656,0.999936,-4.30971e-11,-7.78655e-10,0.0113486,4
375952145,-0.743421,0.0157739,0.0345469,0.667745,0.999936,-4.30971e-11,-7.78655e-10,0.0113486,4
376006651,-0.742144,0.0149233,0.0353054,0.669143,0.999936,-4.30971e-11,-7.78655e-10,0.0113486,4
376056313,-0.74082,0.0145784,0.0356704,0.670597,0.999936,-4.30971e-11,-7.78655e-10,0.0113486,4
376105976,-0.739421,0.0160742,0.0352428,0.672128,0.999936,-4.30971e-11,-7.78655e-10,0.0113486,4
376155670,-0.738216,0.0182123,0.0337685,0.673473,0.999936,-4.30971e-11,-7.78655e-10,0.0113486,4
376205363,-0.736918,0.0192279,0.0332604,0.67489,0.999936,-4.30971e-11,-7.78655e-10,0.0113486,4
376254963,-0.735704,0.0184196,0.0334074,0.676228,0.999936,-4.30971e-11,-7.78655e-10,0.0113486,4
376304625,-0.734644,0.016221,0.030987,0.67755,0.999936,-4.30971e-11,-7.78655e-10,0.0113486,4
376354287,-0.73361,0.0127213,0.0262073,0.678946,0.999936,-4.30971e-11,-7.78655e-10,0.0113486,4
376404001,-0.732813,0.0074073,0.0201189,0.680092,0.999936,-4.30971e-11,-7.78655e-10,0.0113486,4
376453627,-0.732175,0.00341755,0.0150286,0.680942,0.999936,-4.30971e-11,-7.78655e-10,0.0113486,4
376508241,-0.731716,0.000925286,0.0129695,0.681486,0.999936,-4.30971e-11,-7.78655e-10,0.0113486,4
376557904,-0.731342,0.000208769,0.0127875,0.681891,0.999936,-4.30971e-11,-7.78655e-10,0.0113486,4
376602599,0.767815,-5.68673e-05,-0.0137914,-0.640523,-0.998435,-1.28818e-09,-2.74022e-10,-0.0559297,5
376657228,0.76632,-0.00330873,-0.0133748,-0.642311,-0.998435,-1.28818e-09,-2.74022e-10,-0.0559297,5
376706890,0.764943,-0.00399897,-0.010779,-0.643996,-0.998435,-1.28818e-09,-2.74022e-10,-0.0559297,5
376756710,0.762974,-0.00244537,-0.00852509,-0.646368,-0.998435,-1.28818e-09,-2.74022e-10,-0.0559297,5
376806215,0.760215,-0.000942513,-0.00948512,-0.649602,-0.998435,-1.28818e-09,-2.74022e-10,-0.0559297,5
376855877,0.757738,-0.00124249,-0.0111884,-0.652462,-0.998435,-1.28818e-09,-2.74022e-10,-0.0559297,5
376905539,0.755356,-0.00307783,-0.0151446,-0.655132,-0.998435,-1.28818e-09,-2.74022e-10,-0.0559297,5
376955203,0.752837,-0.00557351,-0.0178505,-0.657942,-0.998435,-1.28818e-09,-2.74022e-10,-0.0559297,5
377004935,0.751338,-0.00797207,-0.0178515,-0.659628,-0.998435,-1.28818e-09,-2.74022e-10,-0.0559297,5
377054526,0.749685,-0.00939131,-0.0191725,-0.66145,-0.998435,-1.28818e-09,-2.74022e-10,-0.0559297,5
377104198,0.748998,-0.0127162,-0.0234067,-0.662037,-0.998435,-1.28818e-09,-2.74022e-10,-0.0559297,5
377153851,0.748513,-0.0161539,-0.0291872,-0.662281,-0.998435,-1.28818e-09,-2.74022e-10,-0.0559297,5
377208499,0.749017,-0.0180288,-0.031885,-0.661538,-0.998435,-1.28818e-09,-2.74022e-10,-0.0559297,5
377253191,0.749845,-0.0172342,-0.0319862,-0.660615,-0.998435,-1.28818e-09,-2.74022e-10,-0.0559297,5
377302984,0.751237,-0.0151934,-0.0317001,-0.659095,-0.998435,-1.28818e-09,-2.74022e-10,-0.0559297,5
377357467,0.753094,-0.0144514,-0.0306266,-0.657041,-0.998435,-1.28818e-09,-2.74022e-10,-0.0559297,5
377407130,0.75469,-0.0139501,-0.0299053,-0.655251,-0.998435,-1.28818e-09,-2.74022e-10,-0.0559297,5
377456791,0.756895,-0.0103355,-0.029989,-0.652766,-0.998435,-1.28818e-09,-2.74022e-10,-0.0559297,5
377506454,0.758892,-0.00648668,-0.0296718,-0.650508,-0.998435,-1.28818e-09,-2.74022e-10,-0.0559297,5
377556200,0.760763,-0.0066303,-0.0280172,-0.648391,-0.998435,-1.28818e-09,-2.74022e-10,-0.0559297,5
377605778,0.76282,-0.00872752,-0.0252193,-0.64606,-0.998435,-1.28818e-09,-2.74022e-10,-0.0559297,5
377655440,0.763995,-0.00933088,-0.027725,-0.644559,-0.998435,-1.28818e-09,-2.74022e-10,-0.0559297,5
377705103,0.765505,-0.009718,-0.0346114,-0.642425,-0.998435,-1.28818e-09,-2.74022e-10,-0.0559297,5
377754765,0.766064,-0.00905273,-0.0453996,-0.641095,-0.998435,-1.28818e-09,-2.74022e-10,-0.0559297,5
377804478,0.767175,-0.00872974,-0.0541181,-0.639091,-0.998435,-1.28818e-09,-2.74022e-10,-0.0559297,5
377854090,0.768114,-0.00846541,-0.0581776,-0.637608,-0.998435,-1.28818e-09,-2.74022e-10,-0.0559297,5
377908718,0.769288,-0.00764099,-0.0590616,-0.636121,-0.998435,-1.28818e-09,-2.74022e-10,-0.0559297,5
377953414,0.769997,-0.00605466,-0.0590071,-0.635285,-0.998435,-1.28818e-09,-2.74022e-10,-0.0559297,5
378003077,0.770205,-0.00713766,-0.061167,-0.634817,-0.998435,-1.28818e-09,-2.74022e-10,-0.0559297,5
378057705,0.771134,-0.00500784,-0.0630684,-0.633522,-0.998435,-1.28818e-09,-2.74022e-10,-0.0559297,5
378107500,0.771528,6.82721e-05,-0.062643,-0.633104,-0.998435,-1.28818e-09,-2.74022e-10,-0.0559297,5
378157030,0.772083,-0.000757254,-0.0586487,-0.632809,-0.998435,-1.28818e-09,-2.74022e-10,-0.0559297,5
378201726,0.772337,-0.00894735,-0.0504498,-0.633144,-0.998435,-1.28818e-09,-2.74022e-10,-0.0559297,5
378256361,0.772504,-0.0146782,-0.043304,-0.633361,-0.998435,-1.28818e-09,-2.74022e-10,-0.0559297,5
378306017,0.77234,-0.0158435,-0.042122,-0.633613,-0.998435,-1.28818e-09,-2.74022e-10,-0.0559297,5
378355778,0.772371,-0.0158042,-0.0445403,-0.633411,-0.998435,-1.28818e-09,-2.74022e-10,-0.0559297,5
378405341,0.772175,-0.0184843,-0.0457221,-0.633493,-0.998435,-1.28818e-09,-2.74022e-10,-0.0559297,5
378455003,0.771817,-0.0217609,-0.0458222,-0.633818,-0.998435,-1.28818e-09,-2.74022e-10,-0.0559297,5
378504666,0.771306,-0.0242265,-0.0444233,-0.63445,-0.998435,-1.28818e-09,-2.74022e-10,-0.0559297,5
378554328,0.770884,-0.025248,-0.0414688,-0.635123,-0.998435,-1.28818e-09,-2.74022e-10,-0.0559297,5
378608992,0.770211,-0.0276988,-0.0389296,-0.635997,-0.998435,-1.28818e-09,-2.74022e-10,-0.0559297,5
378653838,0.770097,-0.0298394,-0.0415872,-0.63587,-0.998435,-1.28818e-09,-2.74022e-10,-0.0559297,5
378703316,0.769655,-0.0304517,-0.0488978,-0.635857,-0.998435,-1.28818e-09,-2.74022e-10,-0.0559297,5
378757944,0.769807,-0.0310772,-0.0525823,-0.635347,-0.998435,-1.28818e-09,-2.74022e-10,-0.0559297,5
378807606,0.77002,-0.029874,-0.050139,-0.635345,-0.998435,-1.28818e-09,-2.74022e-10,-0.0559297,5
378857269,0.770625,-0.0245927,-0.0421478,-0.635418,-0.998435,-1.28818e-09,-2.74022e-10,-0.0559297,5
378902043,0.771608,-0.0173155,-0.0302967,-0.63514,-0.998435,-1.28818e-09,-2.74022e-10,-0.0559297,5
378956593,0.77255,-0.00822874,-0.0169347,-0.634675,-0.998435,-1.28818e-09,-2.74022e-10,-0.0559297,5
379006256,0.773131,-0.00318049,-0.0117554,-0.634129,-0.998435,-1.28818e-09,-2.74022e-10,-0.0559297,5
379055940,0.773941,-0.00125103,-0.0118119,-0.633146,-0.998435,-1.28818e-09,-2.74022e-10,-0.0559297,5
379105615,0.77416,0.00103631,-0.0129014,-0.632858,-0.998435,-1.28818e-09,-2.74022e-10,-0.0559297,5
379155249,0.774823,0.00332834,-0.0114366,-0.632066,-0.998435,-1.28818e-09,-2.74022e-10,-0.0559297,5
379204906,0.775109,0.00433893,-0.0101342,-0.631732,-0.998435,-1.28818e-09,-2.74022e-10,-0.0559297,5
379254567,0.775423,0.00394413,-0.0113309,-0.631329,-0.998435,-1.28818e-09,-2.74022e-10,-0.0559297,5
379304265,0.77553,0.002842,-0.0108344,-0.631212,-0.998435,-1.28818e-09,-2.74022e-10,-0.0559297,5
379353892,0.775761,0.00233959,-0.00741779,-0.630979,-0.998435,-1.28818e-09,-2.74022e-10,-0.0559297,5
379403554,0.775473,0.00226685,-0.00339481,-0.631368,-0.998435,-1.28818e-09,-2.74022e-10,-0.0559297,5
379458342,0.775966,4.41319e-05,-0.000853299,-0.630774,-0.998435,-1.28818e-09,-2.74022e-10,-0.0559297,5
379507845,0.775887,-0.0062724,0.000750492,-0.63084,-0.998435,-1.28818e-09,-2.74022e-10,-0.0559297,5
379552541,0.77609,-0.0129384,0.00235018,-0.630485,-0.998435,-1.28818e-09,-2.74022e-10,-0.0559297,5
379602204,0.775671,-0.0197644,0.00484731,-0.630809,-0.998435,-1.28818e-09,-2.74022e-10,-0.0559297,5
379656832,0.775793,-0.0223243,0.00939087,-0.630522,-0.998435,-1.28818e-09,-2.74022e-10,-0.0559297,5
379706560,0.775621,-0.0212481,0.00860936,-0.630782,-0.998435,-1.28818e-09,-2.74022e-10,-0.0559297,5
379756157,0.775374,-0.0196374,0.00603354,-0.631168,-0.998435,-1.28818e-09,-2.74022e-10,-0.0559297,5
379805819,0.775379,-0.022094,0.00539102,-0.631087,-0.998435,-1.28818e-09,-2.74022e-10,-0.0559297,5
379855482,0.775047,-0.0262078,0.00964058,-0.631287,-0.998435,-1.28818e-09,-2.74022e-10,-0.0559297,5
379905144,0.774779,-0.0291961,0.0132614,-0.631419,-0.998435,-1.28818e-09,-2.74022e-10,-0.0559297,5
379954832,0.774453,-0.0285612,0.0157091,-0.631792,-0.998435,-1.28818e-09,-2.74022e-10,-0.0559297,5
380004515,0.774039,-0.0240073,0.0131589,-0.632546,-0.998435,-1.28818e-09,-2.74022e-10,-0.0559297,5
380054130,0.774121,-0.0157223,0.00579819,-0.632816,-0.998435,-1.28818e-09,-2.74022e-10,-0.0559297,5
380103793,0.774141,-0.0066252,-0.00236204,-0.632974,-0.998435,-1.28818e-09,-2.74022e-10,-0.0559297,5
380153456,0.77422,-0.00108516,-0.00687633,-0.632879,-0.998435,-1.28818e-09,-2.74022e-10,-0.0559297,5
380208085,0.774395,0.00115527,-0.00795741,-0.632651,-0.998435,-1.28818e-09,-2.74022e-10,-0.0559297,5
380252885,0.774187,0.00205313,-0.00753325,-0.632909,-0.998435,-1.28818e-09,-2.74022e-10,-0.0559297,5
380302443,0.77413,0.00335365,-0.00805595,-0.632967,-0.998435,-1.28818e-09,-2.74022e-10,-0.0559297,5
380357071,0.774073,0.00325518,-0.00920525,-0.633021,-0.998435,-1.28818e-09,-2.74022e-10,-0.0559297,5
380406735,0.773996,0.00249441,-0.00998936,-0.633107,-0.998435,-1.28818e-09,-2.74022e-10,-0.0559297,5
380456396,0.773895,0.00185019,-0.010093,-0.633231,-0.998435,-1.28818e-09,-2.74022e-10,-0.0559297,5
380506105,0.773764,0.00199931,-0.0101569,-0.63339,-0.998435,-1.28818e-09,-2.74022e-10,-0.0559297,5
380555721,0.773456,0.00162725,-0.00999997,-0.633769,-0.998435,-1.28818e-09,-2.74022e-10,-0.0559297,5
380605383,0.773297,0.00107786,-0.0107041,-0.633953,-0.998435,-1.28818e-09,-2.74022e-10,-0.0559297,5
380655045,0.773148,0.00107331,-0.011768,-0.634115,-0.998435,-1.28818e-09,-2.74022e-10,-0.0559297,5
380704708,0.773304,0.000491304,-0.0126807,-0.633909,-0.998435,-1.28818e-09,-2.74022e-10,-0.0559297,5
380754365,0.77369,0.00157847,-0.0138171,-0.633412,-0.998435,-1.28818e-09,-2.74022e-10,-0.0559297,5
380804259,0.773842,0.00231021,-0.0154833,-0.633185,-0.998435,-1.28818e-09,-2.74022e-10,-0.0559297,5
380858661,0.768929,0.000585158,-0.018438,-0.639068,-0.998435,-1.28818e-09,-2.74022e-10,-0.0559297,5
380908323,0.761584,-0.00187733,-0.022115,-0.647686,-0.998435,-1.28818e-09,-2.74022e-10,-0.0559297,5
380953019,0.755354,-0.0024597,-0.0233549,-0.654896,-0.998435,-1.28818e-09,-2.74022e-10,-0.0559297,5
381002682,0.751554,-0.00118319,-0.0196075,-0.659379,-0.998435,-1.28818e-09,-2.74022e-10,-0.0559297,5
381057407,0.748695,0.00193574,-0.0153593,-0.662734,-0.998435,-1.28818e-09,-2.74022e-10,-0.0559297,5
381106974,0.747831,0.00237789,-0.0141884,-0.663733,-0.998435,-1.28818e-09,-2.74022e-10,-0.0559297,5
381156635,0.746222,-0.000354343,-0.0146634,-0.665536,-0.998435,-1.28818e-09,-2.74022e-10,-0.0559297,5
381206297,0.745165,-0.00310531,-0.0152991,-0.666698,-0.998435,-1.28818e-09,-2.74022e-10,-0.0559297,5
