timestamp,timestamp_sample,accel_device_id,gyro_device_id,delta_angle[0],delta_angle[1],delta_angle[2],delta_velocity[0],delta_velocity[1],delta_velocity[2],delta_angle_dt,delta_velocity_dt,delta_velocity_clipping
351002149,351001721,3670026,3670026,1.62955e-05,-1.31506e-05,0.000163336,0.000692588,-0.000324651,-0.0472649,4967,4967,0
351007079,351006688,3670026,3670026,0.000132627,-9.86892e-05,-2.9655e-05,-0.000604651,-0.00182559,-0.0487189,4967,4967,0
351508621,351508270,3670026,3670026,0.000738988,-0.000373885,0.000356428,0.0010647,0.00505922,-0.0489181,4966,4966,0
352005466,352005138,3670026,3670026,-0.000151782,-0.000357135,-0.000339357,0.00204237,0.000615363,-0.0449912,5041,5041,0
352506885,352506481,3670026,3670026,-0.000713107,-0.000575272,7.27258e-05,-0.00405944,0.0110974,-0.0472862,4967,4967,0
353003535,353003109,3670026,3670026,-0.00027292,-7.33603e-05,-0.000571553,0.00146535,-0.000104337,-0.0441577,4974,4974,0
353505020,353504695,3670026,3670026,-0.000288664,-0.000666509,0.00031503,-0.00787637,0.0103483,-0.0489448,4928,4928,0
354006596,354006277,3670026,3670026,-0.000349237,2.6646e-05,-0.000148093,-0.00264487,0.00413099,-0.0488587,4950,4950,0
354508264,354507865,3670026,3670026,0.000648718,-0.000322425,-0.000476286,-0.000230252,0.000144576,-0.0485047,4966,4966,0
355004827,355004489,3670026,3670026,-0.000192161,-0.000548993,0.000191276,-0.00549051,0.00329017,-0.0496056,4964,4964,0
355506648,355506231,3670026,3670026,0.000844791,-0.00023556,-0.000303237,0.000864792,-0.0017303,-0.0475251,4996,4996,0
356008080,356007698,3670026,3670026,0.000387398,-0.000455282,0.00012637,0.000943796,0.00334083,-0.0488425,4959,4959,0
356504655,356504285,3670026,3670026,-0.000273605,-0.000447177,-0.000247778,-0.00251628,-0.00337846,-0.048794,4966,4966,0
357006247,357005874,3670026,3670026,0.000215626,3.30347e-05,-0.000907228,0.000611436,-0.0076942,-0.0428768,4965,4965,0
357507845,357507465,3670026,3670026,0.000528752,-0.00154381,-7.96035e-05,0.00347704,-0.0218638,-0.053882,4970,4970,0
358004474,358004086,3670026,3670026,0.00106287,-0.00153832,-0.000255275,-0.00156978,-0.014119,-0.0561398,4968,4968,0
358506022,358505675,3670026,3670026,0.00211842,-0.00110158,-0.00047827,-0.00509487,-0.00901274,-0.0533848,4969,4969,0
359007752,359007427,3670026,3670026,-0.00170139,0.00112621,0.000402721,-0.00348064,0.00282143,-0.05271,4993,4993,0
359509313,359508872,3670026,3670026,0.000372118,-0.000540599,-0.000126797,-0.0010237,-0.00724844,-0.0383056,4995,4995,0
360005800,360005467,3670026,3670026,-0.00257242,0.000443846,0.000592618,0.0032339,0.00590131,-0.0477255,4958,4958,0
360502419,360502093,3670026,3670026,0.000951614,-0.000372781,0.000199213,0.00336276,-0.00267742,-0.0467229,4967,4967,0
361004004,361003681,3670026,3670026,-0.000870599,0.000576369,-0.000249481,-0.00397755,-0.00173278,-0.0525154,4966,4966,0
361505632,361505270,3670026,3670026,-0.000341168,-0.000113696,4.34644e-05,-0.00129911,-0.00412661,-0.0448061,4967,4967,0
362007305,362006861,3670026,3670026,-0.000191864,-0.000743247,-0.000284794,0.0116881,-0.0044797,-0.0471418,4965,4965,0
362509061,362508633,3670026,3670026,-0.000718595,0.00108079,-0.000353889,-0.010572,-0.00564493,-0.0500476,4994,4994,0
363005450,363005069,3670026,3670026,-0.000488982,0.000587578,0.000183072,-0.00613771,0.00505462,-0.0567659,4966,4966,0
363502025,363501703,3670026,3670026,-0.00113709,0.00122286,0.000192639,-0.0187554,0.000358947,-0.0596648,4981,4981,0
364003727,364003281,3670026,3670026,-0.000258215,0.000556535,0.000600705,-8.91138e-05,0.0173425,-0.0434478,4968,4968,0
364505304,364504870,3670026,3670026,0.000292486,-0.00139764,0.000411845,-0.00408295,0.00169896,-0.0515568,4968,4968,0
365006779,365006457,3670026,3670026,9.14696e-05,0.000318403,-0.000562886,-0.00356707,-0.0210947,-0.0636354,4966,4966,0
365508404,365508065,3670026,3670026,-0.00053111,-0.000134813,-0.000483837,-0.00367456,-0.0228511,-0.0596527,4986,4986,0
366005203,366004831,3670026,3670026,0.00173491,-6.37334e-05,0.000221311,0.000789294,0.006111,-0.0544844,4989,4989,0
366506691,366506316,3670026,3670026,0.00161141,-0.0010015,-0.00120293,0.00367929,-0.0159472,-0.0314264,4988,4988,0
367003303,367002921,3670026,3670026,-0.0021574,0.000620054,0.000293294,-0.0132839,-0.000816949,-0.0587709,5008,5008,0
367504838,367504468,3670026,3670026,0.00151533,-0.000428039,-0.000498005,0.012014,0.00082153,-0.0278616,4966,4966,0
368006380,368006057,3670026,3670026,-0.00111552,0.000205191,-8.9273e-06,-0.0152118,0.013604,-0.0624377,4964,4964,0
368507972,368507646,3670026,3670026,-0.000155587,-0.000292215,2.87627e-05,-0.00640483,-0.00118616,-0.0594924,4967,4967,0
369004607,369004268,3670026,3670026,-0.000357255,0.00129641,0.000571052,-0.00209201,0.0238729,-0.0474673,4965,4965,0
369506373,369506048,3670026,3670026,-0.00043608,-1.96551e-05,9.78937e-05,-0.00021016,0.0032608,-0.0420766,5007,5007,0
370007791,370007463,3670026,3670026,0.00215195,-0.000350252,0.00016472,0.00720318,0.00153227,-0.0418399,4976,4976,0
370504402,370504070,3670026,3670026,-0.00188733,0.00036272,0.00056808,0.00263552,0.0156816,-0.0466323,4967,4967,0
371005983,371005658,3670026,3670026,-0.000145605,5.18475e-05,-0.00101946,-0.00569919,-0.0239035,-0.0541139,4966,4966,0
371507640,371507247,3670026,3670026,0.000840727,0.00071122,-0.0058241,-0.0078344,0.00322127,-0.0586898,4966,4966,0
372004197,372003870,3670026,3670026,0.000777504,-0.000607065,-0.000855078,0.0134775,-0.0159239,-0.0316879,4965,4965,0
372505813,372505459,3670026,3670026,-0.001574,0.000739987,0.0021238,-0.00911156,0.022417,-0.0536227,4966,4966,0
373007404,373007053,3670026,3670026,0.00136812,-9.02929e-05,0.000852141,-0.00128227,-0.00435117,-0.0475517,4791,4791,0
373504054,373503680,3670026,3670026,0.000463906,-0.000413328,-0.000535673,-0.00339917,-0.00927693,-0.0495302,4975,4975,0
374005632,374005260,3670026,3670026,-0.00163617,0.00078465,0.000584681,-0.00661299,0.0179117,-0.0529017,4966,4966,0
374507178,374506849,3670026,3670026,0.000697141,0.000443251,0.000829818,-0.000435942,0.0127641,-0.04782,4953,4953,0
375003842,375003473,3670026,3670026,-9.11956e-05,-0.000590889,0.000126748,-0.00313339,-0.00033498,-0.0493667,4914,4914,0
375505506,375505063,3670026,3670026,0.00160826,0.000212165,-0.000982965,-0.00300182,-0.000312049,-0.0416696,4967,4967,0
376007000,376006651,3670026,3670026,0.000700283,0.000157593,-0.000219876,-0.00167638,-0.00621497,-0.0588646,4960,4960,0
376508588,376508241,3670026,3670026,-0.000747352,0.000402135,0.000946322,-0.00644995,0.00452925,-0.0425568,4775,4775,0
377005272,377004935,3670026,3670026,-0.00142167,0.000209981,0.00166307,-0.0129079,0.0147145,-0.0497169,5030,5030,0
377506830,377506454,3670026,3670026,-4.03215e-05,0.000318823,0.00104754,-0.00555649,-0.00617894,-0.0532478,4960,4960,0
378003400,378003077,3670026,3670026,0.000183855,-0.000852596,-0.000877857,-0.00823986,-0.0278064,-0.0552215,4966,4966,0
378505052,378504666,3670026,3670026,-0.00206351,0.000767984,0.00027361,-0.0139624,0.0171161,-0.0592923,4966,4966,0
379006580,379006256,3670026,3670026,0.00156288,-0.000280272,-0.000518814,0.00886061,-0.0279009,-0.0425236,4965,4965,0
379508196,379507845,3670026,3670026,-0.000697091,-0.00106515,-0.000192976,0.0108396,0.0077943,-0.0306606,4966,4966,0
380004858,380004515,3670026,3670026,0.00205598,-0.000531835,-0.00100074,0.0034539,-0.0308955,-0.051723,4791,4791,0
380506523,380506105,3670026,3670026,-0.00119998,2.58809e-06,0.000549922,-0.00922367,0.01259,-0.0636209,4990,4990,0
381003010,381002682,3670026,3670026,-0.000656598,0.000968317,-0.000286592,-0.00771475,0.00108434,-0.0501192,4966,4966,0
381504655,381504281,3670026,3670026,-0.000503545,-0.00068166,-0.000775792,-0.00738393,-0.0225048,-0.047745,4975,4975,0
382006249,382005861,3670026,3670026,-0.000165304,0.000685925,0.000759689,-0.000316294,0.00746871,-0.0489796,4953,4953,0
382507895,382507496,3670026,3670026,0.000409512,0.000394944,0.000298079,0.000331412,0.0164057,-0.0488086,5011,5011,0
383004429,383004080,3670026,3670026,0.000297437,-0.000639311,-0.00123197,0.00351913,-0.0367292,-0.0499946,4931,4931,0
383506024,383505666,3670026,3670026,-0.000601318,1.52472e-05,0.000831022,-0.00680497,0.00403645,-0.0475192,4773,4773,0
384007673,384007352,3670026,3670026,-0.00118874,0.000916499,0.0002612,-0.0124014,0.0161464,-0.0553831,4983,4983,0
384504205,384503878,3670026,3670026,0.000178548,0.000106586,-0.000586351,0.00421696,-0.0233739,-0.0458948,4966,4966,0
385005900,385005467,3670026,3670026,0.00126657,0.000275271,-0.000382381,0.00157685,-0.0160544,-0.0566932,4907,4907,0
385507485,385507058,3670026,3670026,0.00131262,0.000213896,0.000841375,-0.00924731,0.00294987,-0.0509026,4967,4967,0
386004135,386003682,3670026,3670026,-0.00211182,0.000110393,0.000559412,-0.00407327,-0.00134666,-0.0463872,4967,4967,0
386505625,386505271,3670026,3670026,0.0019024,-0.000775634,-0.00101151,0.00300011,-0.010838,-0.0337569,4966,4966,0
387007206,387006861,3670026,3670026,-0.000657984,0.000265416,-0.000363238,0.00132054,-0.0214739,-0.0466959,4966,4966,0
387508888,387508512,3670026,3670026,-0.000429688,-0.000445657,0.000789752,-0.00967521,0.00341426,-0.0527429,4995,4995,0
388005455,388005075,3670026,3670026,0.00105005,-4.09131e-05,-0.000226703,-0.0110762,0.0105734,-0.06135,4961,4961,0
388507038,388506666,3670026,3670026,-0.00112877,7.31703e-05,-0.000802384,-0.00976611,-0.0218599,-0.0587945,4967,4967,0
389003703,389003289,3670026,3670026,-0.000491541,0.000244533,-0.000100261,0.000453442,-0.0218369,-0.0468638,4965,4965,0
389505212,389504880,3670026,3670026,4.84572e-05,0.000910489,0.000759613,-0.00493456,0.0240336,-0.0427515,4967,4967,0
390006818,390006470,3670026,3670026,-0.000943892,0.000262086,-0.000488624,-0.00753045,-0.0112161,-0.0519753,4967,4967,0
390508403,390508060,3670026,3670026,-0.00106501,0.000233532,2.33855e-05,-0.00242821,0.00407121,-0.0491793,4966,4966,0
391005125,391004758,3670026,3670026,0.000921757,-0.000757873,0.000201281,-0.006069,0.00538521,-0.046744,4986,4986,0
391506715,391506321,3670026,3670026,0.000709982,0.000216803,0.000271967,-0.0106938,0.0144954,-0.0602593,4987,4987,0
392003276,392002899,3670026,3670026,0.000644456,-0.000197942,-0.000140512,0.00356421,0.00468776,-0.0513934,4939,4939,0
392504924,392504489,3670026,3670026,0.000601572,0.00203554,0.000518963,-0.00576944,0.0222166,-0.0488163,4953,4953,0
393006410,393006081,3670026,3670026,0.00112282,-0.000593755,6.63063e-05,0.00550803,-0.0122389,-0.0432162,4965,4965,0
393508017,393507670,3670026,3670026,-0.000372378,-7.1991e-05,-0.000849571,-0.00691822,-0.00491079,-0.0479479,4966,4966,0
394004635,394004295,3670026,3670026,-0.00223126,-0.000784579,-0.000118844,-0.00923184,9.72224e-05,-0.0495538,4966,4966,0
394506386,394506056,3670026,3670026,0.00016608,-0.000165732,-1.8438e-05,-0.00924437,0.00430881,-0.0578352,4989,4989,0
395002888,395002516,3670026,3670026,0.000190525,-0.000712755,-0.000354706,-0.00025196,-0.0103417,-0.0492474,4926,4926,0
395504482,395504101,3670026,3670026,7.36326e-06,0.000218278,0.00076635,0.00359518,-0.00865139,-0.0464627,4967,4967,0
396006057,396005692,3670026,3670026,-0.00171435,0.000914988,0.000303355,-0.0112598,-0.00619458,-0.0549928,4967,4967,0
396507658,396507282,3670026,3670026,-0.000395867,9.89005e-06,-0.000111176,-0.0117359,-0.00700854,-0.0560761,4965,4965,0
397004260,397003908,3670026,3670026,0.000816852,-0.000986738,-7.41692e-05,0.00769868,-0.0159192,-0.0391607,4967,4967,0
397505858,397505498,3670026,3670026,0.000984244,-0.000168465,0.00047464,-0.00115161,-0.00379043,-0.0499346,4967,4967,0
398002627,398002243,3670026,3670026,-0.00172003,0.000564143,-0.000250462,0.00110577,-0.000712055,-0.038805,4993,4993,0
398504091,398503716,3670026,3670026,0.000582744,0.000654083,-0.000483598,0.00120145,-0.015365,-0.0396871,4969,4969,0
399005651,399005328,3670026,3670026,0.000861945,-9.72385e-05,0.000163051,-0.00341473,-0.00105296,-0.0522274,4984,4984,0
399507224,399506895,3670026,3670026,-0.00117882,-0.000175455,-7.20855e-05,-0.00547119,-0.00790523,-0.0504315,4965,4965,0
400003972,400003520,3670026,3670026,-0.00124339,0.000171866,-0.000223349,-0.00728698,-0.00516952,-0.0530973,4967,4967,0
400505523,400505119,3670026,3670026,0.000288131,-0.000799336,-6.06939e-05,-0.0010788,-0.0150391,-0.0526792,4975,4975,0
401007084,401006702,3670026,3670026,0.000703494,-0.000108608,0.000573456,-0.00229801,0.00475841,-0.0529982,4967,4967,0
401508836,401508389,3670026,3670026,9.33587e-05,0.000312557,0.000226868,0.00239047,0.00842285,-0.0453073,4994,4994,0
402005246,402004918,3670026,3670026,-4.02149e-05,-0.000928418,-0.000758681,-0.00324364,-0.0261371,-0.0429798,4966,4966,0
402506884,402506511,3670026,3670026,0.000361436,-0.000341431,-0.000667175,-0.00153516,-0.012567,-0.0375616,4968,4968,0
403003504,403003134,3670026,3670026,-0.000412618,0.00022722,3.00568e-05,0.00628886,-0.00150979,-0.0406977,4966,4966,0
403505102,403504725,3670026,3670026,-0.000527542,-0.00071128,0.000913772,-0.00587906,0.00670167,-0.0591533,4967,4967,0
404006707,404006317,3670026,3670026,-0.00093461,-0.000519571,0.000950843,-0.0113111,-0.00438297,-0.0629857,4968,4968,0
404508253,404507908,3670026,3670026,0.000638821,0.000849663,0.00103672,-0.0122096,0.0283202,-0.0619777,4967,4967,0
405004950,405004622,3670026,3670026,0.0021161,0.000803979,0.000590487,-0.00842625,0.00996725,-0.0524626,4997,4997,0
405506466,405506137,3670026,3670026,-4.48346e-05,0.000294273,-0.00259369,-0.00407331,0.00937546,-0.0352593,4976,4976,0
406003124,406002749,3670026,3670026,-0.00157324,0.00107651,0.000620185,-0.0152528,0.0110944,-0.0572262,4965,4965,0
406504672,406504340,3670026,3670026,-0.000177749,0.000362375,4.82819e-05,-0.0119268,0.0223787,-0.0632329,4966,4966,0
407006312,407005934,3670026,3670026,0.000130763,-2.7006e-05,0.00065724,-0.00218481,0.00157256,-0.049122,4967,4967,0
407507926,407507523,3670026,3670026,-0.00159985,0.00129963,0.000864461,-0.00749314,0.0160236,-0.0516909,4967,4967,0
408009524,408009179,3670026,3670026,0.000499895,0.000443085,5.40935e-05,0.00543411,-0.00880989,-0.0445028,4999,4999,0
408506264,408505837,3670026,3670026,-0.00171005,0.000274483,0.000792469,-0.011316,0.0111327,-0.0592904,4988,4988,0
409002733,409002365,3670026,3670026,-0.000395847,0.00015432,0.000802369,-0.00935279,0.0113289,-0.0497194,4966,4966,0
409504345,409503956,3670026,3670026,0.00193287,1.00405e-05,0.000132447,0.00142102,-0.00126562,-0.045763,4966,4966,0
410005965,410005549,3670026,3670026,-0.00399627,0.000590208,0.000239724,-0.000951078,0.00509153,-0.0403414,4966,4966,0
410507524,410507139,3670026,3670026,-0.000452899,5.12624e-05,0.000696863,-0.0116555,0.0150724,-0.0531691,4966,4966,0
411004106,411003765,3670026,3670026,-0.000967649,0.00041366,-0.000163342,-0.0156862,0.00338043,-0.0583307,4962,4962,0
411505719,411505358,3670026,3670026,0.000100874,-0.00127662,-0.000891303,0.0045412,-0.0202527,-0.0438196,4968,4968,0
412002410,412002076,3670026,3670026,-0.00142063,0.000490502,0.000202018,-0.0156938,0.0209075,-0.0597577,4991,4991,0
412503953,412503575,3670026,3670026,0.00104911,0.00062841,0.000408101,0.00333838,0.0201586,-0.0401039,4968,4968,0
413005551,413005226,3670026,3670026,0.000699752,0.000122782,0.000422503,0.00178142,0.00773218,-0.0396241,4988,4988,0
413507123,413506757,3670026,3670026,0.000151662,-0.000442937,-0.000254211,0.00576558,-0.0209024,-0.0406335,4967,4967,0
414003704,414003382,3670026,3670026,-0.000321012,-0.00116397,-0.000349482,-0.00897507,0.000829937,-0.0506988,4966,4966,0
414505369,414505020,3670026,3670026,0.00206642,0.000162087,-0.000952554,0.00823631,-0.0249669,-0.0412581,4993,4993,0
415006955,415006566,3670026,3670026,-0.000230271,0.000742828,0.00145569,-0.00821401,0.0358838,-0.0539056,4966,4966,0
415508700,415508286,3670026,3670026,-0.000156891,-1.67431e-05,-0.00062777,-0.00168235,-0.00294269,-0.0477951,4988,4988,0
416005106,416004784,3670026,3670026,-0.000706025,0.000598636,0.00126598,-0.000794209,0.0308284,-0.0485697,4958,4958,0
416506702,416506376,3670026,3670026,0.000559513,-0.00281036,-0.0011535,-0.00236709,-0.0402498,-0.0545809,4966,4966,0
417003334,417003004,3670026,3670026,0.000189228,0.000747791,0.000287848,-0.0061558,0.00232866,-0.0548636,4968,4968,0
417504935,417504593,3670026,3670026,-0.000200248,0.000222215,0.000551596,-0.00238785,-0.00509036,-0.0494533,4966,4966,0
418006558,418006185,3670026,3670026,0.00122989,-0.000520233,-8.15658e-05,0.00771118,0.00307592,-0.0391003,4964,4964,0
418508211,418507777,3670026,3670026,-0.000764799,0.000299347,0.000216887,-0.00834633,-0.00101293,-0.0533802,4966,4966,0
419004747,419004403,3670026,3670026,-2.60818e-05,0.000138788,-0.000687345,-9.48694e-06,-0.00291728,-0.04599,4966,4966,0
419506412,419506076,3670026,3670026,1.29441e-05,0.000189243,0.000364137,-0.00503833,0.00137867,-0.0497667,4986,4986,0
420002947,420002621,3670026,3670026,0.00390652,0.000280011,0.000331866,-0.00531993,0.0106719,-0.0574461,4967,4967,0
420504588,420504215,3670026,3670026,-0.00163942,0.000794053,0.000971749,-0.0120379,0.024234,-0.057978,4968,4968,0
421006129,421005805,3670026,3670026,0.000628687,-0.00147725,-0.000666105,0.00186678,-0.0353773,-0.0448057,4966,4966,0
421507810,421507399,3670026,3670026,-0.000474053,-0.000526163,-0.000541454,0.00111342,-0.0161818,-0.0462489,4965,4965,0
422009387,422008990,3670026,3670026,-0.000271259,-0.000236859,-0.000881977,-0.00476102,-0.0286237,-0.0518251,4967,4967,0
422505960,422505616,3670026,3670026,-0.000632955,0.000195821,-0.000248502,-0.0123769,0.0124887,-0.0578885,4967,4967,0
423002631,423002305,3670026,3670026,1.43133e-05,0.000559738,0.000102224,-0.00582861,0.00225098,-0.0533689,4988,4988,0
423504163,423503834,3670026,3670026,0.000453356,-0.000335888,-0.00151043,-0.00367992,-0.0196196,-0.0477085,4966,4966,0
424005761,424005427,3670026,3670026,9.95612e-05,-0.00109318,-0.00127957,-0.00633547,-0.0265253,-0.0532494,4965,4965,0
424507457,424507059,3670026,3670026,0.000221686,-0.000476627,9.53329e-06,0.00438261,0.00461213,-0.0414318,5003,5003,0
425008995,425008615,3670026,3670026,1.32522e-06,-0.000140492,0.00059114,-0.0064908,-0.00128257,-0.0494711,4971,4971,0
425505591,425505241,3670026,3670026,0.00138427,-0.000143351,-0.000618635,0.00674245,-0.00989045,-0.0426113,4971,4971,0
426002214,426001863,3670026,3670026,-0.000478886,0.000274397,-0.000179194,-0.00203873,0.00604165,-0.0514353,4950,4950,0
426503913,426503585,3670026,3670026,0.000686026,0.000517361,0.000463606,0.00338889,0.0272565,-0.0390478,4993,4993,0
427005373,427005049,3670026,3670026,0.000600569,-0.000978116,-0.000789774,0.00591644,-0.0288729,-0.0455446,4963,4963,0
427506972,427506640,3670026,3670026,-0.000577914,0.000631663,0.000705581,-0.00303844,0.0199324,-0.0504505,4966,4966,0
428003589,428003267,3670026,3670026,0.000984114,-0.000434126,-0.00019856,0.0106595,-0.0112922,-0.0353357,4964,4964,0
428505239,428504859,3670026,3670026,-0.00117742,0.000327482,-8.05281e-06,-0.00734117,-0.00358205,-0.0524874,4966,4966,0
429006803,429006456,3670026,3670026,0.000465672,-0.000591862,-0.0006126,0.00193332,-0.00649509,-0.044044,4970,4970,0
429508432,429508088,3670026,3670026,0.00130531,-0.000497537,-0.000761886,0.00779394,-0.0317044,-0.0403875,4983,4983,0
430005224,430004765,3670026,3670026,0.00016529,0.000439387,3.70549e-05,0.00127722,0.00289764,-0.0507452,4979,4979,0
430506640,430506263,3670026,3670026,0.000314105,-7.44874e-05,0.000270672,-0.003448,0.00332111,-0.0477702,4946,4946,0
431003226,431002890,3670026,3670026,0.000682057,0.00012174,-3.37885e-05,-0.00411599,-0.0125414,-0.0516816,4966,4966,0
431504901,431504483,3670026,3670026,-0.00145659,4.8046e-05,0.000275209,-0.00891204,0.00138993,-0.0548051,4967,4967,0
432006497,432006075,3670026,3670026,2.65868e-05,-0.000245209,-6.00558e-05,0.00746076,-0.00770589,-0.0376225,4966,4966,0
432508058,432507668,3670026,3670026,0.000814604,0.000295176,-0.00041831,-0.000206733,-0.00342676,-0.0467838,4967,4967,0
433009607,433009261,3670026,3670026,0.00139644,-0.000429131,-0.000913869,0.00362602,-0.000950904,-0.034293,4967,4967,0
433506341,433506009,3670026,3670026,-0.000280257,0.00023843,0.000163026,-0.0087509,0.00947396,-0.0581842,4999,4999,0
434002836,434002514,3670026,3670026,0.000501226,0.000165873,0.000241319,-0.00185811,0.00302435,-0.0527093,4967,4967,0
434504493,434504159,3670026,3670026,-0.00145118,0.00154837,0.000862449,-0.00824971,0.0203228,-0.0517859,5010,5010,0
435006121,435005699,3670026,3670026,0.00021011,-8.90322e-05,-0.000135486,0.00402017,0.00307534,-0.0458281,4966,4966,0
435507661,435507292,3670026,3670026,0.000665041,-2.39282e-05,-0.000267872,0.000706747,0.00471731,-0.0342435,4966,4966,0
436009255,436008885,3670026,3670026,-0.00072029,-4.49849e-05,0.000612863,-0.0108163,0.00111445,-0.0531724,4966,4966,0
436505863,436505512,3670026,3670026,0.00156845,-0.0016715,-0.000903641,0.00627688,-0.030286,-0.0407871,4966,4966,0
437002608,437002277,3670026,3670026,-0.000504186,-4.25186e-05,-0.000252362,-0.00656512,0.00169574,-0.0559916,4980,4980,0
437504109,437503780,3670026,3670026,-0.000125371,9.67518e-05,0.000914807,0.00468694,-0.00757677,-0.0445652,5014,5014,0
438005699,438005325,3670026,3670026,0.00152118,0.000834798,0.000859268,0.00163669,0.0205143,-0.0444359,4967,4967,0
438507251,438506917,3670026,3670026,-0.00208035,0.000665698,0.000378277,-0.00969176,0.0119834,-0.0546405,4965,4965,0
439008881,439008512,3670026,3670026,0.000438604,0.000156123,-0.000400615,-0.00193724,-0.000591596,-0.0451189,4968,4968,0
439505512,439505170,3670026,3670026,-0.000560917,0.000194071,0.00139625,-0.0127686,0.00382262,-0.0508433,4999,4999,0
440007122,440006730,3670026,3670026,-0.000842115,-5.83773e-05,-0.000527957,-0.00585586,-0.00535638,-0.0468144,4966,4966,0
440503798,440503473,3670026,3670026,0.00106976,0.00092692,0.00016758,0.00375825,0.00493243,-0.0483953,4991,4991,0
441005339,441004964,3670026,3670026,-0.00103395,-0.000742921,-0.000633534,0.000132572,0.00265729,-0.0434811,4984,4984,0
441506961,441506543,3670026,3670026,-0.000839018,0.00174901,0.00113654,-0.0105007,0.0161782,-0.0558566,4966,4966,0
442008523,442008139,3670026,3670026,2.76689e-05,-0.000349718,-0.000629388,-0.00575271,-0.00526318,-0.04975,4969,4969,0
442505084,442504763,3670026,3670026,-0.00137039,-0.000652386,-0.000526814,-0.00677486,0.00828967,-0.0480812,4966,4966,0
443006744,443006356,3670026,3670026,-0.000643076,-0.000164311,-0.000169479,-0.00283594,-0.000978086,-0.0370617,4966,4966,0
443508298,443507949,3670026,3670026,9.38948e-05,-0.000502532,-0.000218164,-0.0055245,-0.0076664,-0.0486374,4966,4966,0
444005031,444004705,3670026,3670026,0.000921534,-0.000155348,0.000101026,0.00631442,-0.0156951,-0.0415693,4986,4986,0
444506588,444506173,3670026,3670026,4.90571e-05,0.00019703,-0.000605828,-0.00644204,-0.0145652,-0.0499383,4927,4927,0
445003217,445002797,3670026,3670026,0.000508895,-0.000375004,0.000315644,-0.00996304,-0.0046067,-0.0513069,4967,4967,0
445504832,445504390,3670026,3670026,-0.00104265,-0.000309138,-0.00040396,-0.00726042,-0.0038871,-0.0524142,4966,4966,0
446006325,446005992,3670026,3670026,0.00105965,-0.000327395,-0.000179602,0.00675294,-0.0286169,-0.0453753,4975,4975,0
446507977,446507592,3670026,3670026,0.00083107,0.000192833,-0.000651517,0.000793948,0.000973217,-0.037958,4979,4979,0
447009558,447009169,3670026,3670026,-0.00115927,-0.00120164,-0.000805534,-0.0119684,-0.00243,-0.0541649,4964,4964,0
447506408,447505954,3670026,3670026,0.000472638,0.000454559,0.000774729,0.00013481,0.0142116,-0.0444389,4993,4993,0
448002792,448002424,3670026,3670026,-0.00104962,7.20186e-06,-6.36506e-05,-8.00966e-05,0.00564812,-0.0461035,4967,4967,0
448504347,448504017,3670026,3670026,7.05451e-05,0.000214583,-4.85334e-05,-0.00667745,-0.00914753,-0.0555955,4966,4966,0
449005940,449005613,3670026,3670026,0.000220098,-0.000693348,-0.000342097,0.00820123,-0.0270089,-0.0380093,4969,4969,0
449507588,449507215,3670026,3670026,0.00223139,0.000821154,-0.000147559,0.00543954,-0.00130839,-0.0455989,4926,4926,0
450009237,450008797,3670026,3670026,-0.000366241,6.33963e-05,0.00176893,-0.0087224,0.0388734,-0.0528345,4965,4965,0
450505779,450505425,3670026,3670026,-0.00107485,0.000160317,-7.61143e-05,-0.00815906,0.0154538,-0.0557613,4964,4964,0
451002603,451002192,3670026,3670026,-0.000643631,0.00064584,0.000853681,-0.0124425,0.0330249,-0.0437451,4977,4977,0
451504019,451503647,3670026,3670026,0.00126788,-0.000424085,0.000157413,0.00298403,-0.0126638,-0.0456436,4967,4967,0
452005625,452005243,3670026,3670026,-0.00124349,0.000126145,9.48486e-05,-0.00347252,0.00742388,-0.0401799,4970,4970,0
452507168,452506832,3670026,3670026,0.00120822,-0.000313172,0.000362993,0.0007271,0.00158282,-0.0606344,4965,4965,0
453008764,453008440,3670026,3670026,0.000974704,-0.000929162,-5.93429e-05,-0.00752206,0.0197442,-0.0600787,4977,4977,0
453505410,453505053,3670026,3670026,-0.000978683,0.000132185,-0.000481192,-0.00866923,-0.0279081,-0.0498673,4966,4966,0
454006995,454006647,3670026,3670026,0.000305842,2.37794e-05,3.89369e-05,-0.00231578,0.00327878,-0.0431839,4965,4965,0
454503840,454503480,3670026,3670026,-0.000646928,-1.20362e-05,-0.000222547,-0.00435854,0.0132067,-0.0372424,4987,4987,0
455005292,455004920,3670026,3670026,-0.00184509,0.00111641,0.000786995,-0.00906504,0.00202279,-0.0533235,4998,4998,0
455506890,455506461,3670026,3670026,0.00016762,-0.000715577,-0.000593664,0.00470606,-0.0276723,-0.0378369,4966,4966,0
456008391,456008059,3670026,3670026,0.000632919,0.000658087,0.000242305,-0.00993777,0.000709422,-0.060833,4927,4927,0
456505012,456504682,3670026,3670026,0.000368167,-0.000281911,-0.000690207,-0.0132323,-0.0214532,-0.0450739,4966,4966,0
457006683,457006276,3670026,3670026,-0.00119105,-0.000375101,0.000886141,-0.0118167,0.0338054,-0.0589548,4966,4966,0
457508214,457507870,3670026,3670026,-0.000988509,0.000194224,0.000747078,-0.00640543,0.0140992,-0.0537144,4965,4965,0
458005039,458004667,3670026,3670026,-0.00162364,-0.000809451,-4.86313e-05,-0.00252651,-0.0198424,-0.0483557,4990,4990,0
458506463,458506104,3670026,3670026,0.000366518,0.00163547,-4.82091e-05,0.010636,-0.018471,-0.0386237,4979,4979,0
459008068,459007688,3670026,3670026,-0.000809132,0.000576463,0.000200136,-0.0117287,0.0378527,-0.0541853,4970,4970,0
459504741,459504315,3670026,3670026,0.000737946,-0.000779559,0.00112187,-0.00905555,0.0125082,-0.0588,4925,4925,0
460006286,460005909,3670026,3670026,0.0033134,-0.00133762,-0.000654802,0.0039707,-0.00760181,-0.0484251,4968,4968,0
460507825,460507499,3670026,3670026,-0.000868539,0.000803715,0.000556033,-0.00688886,0.00735116,-0.049297,4966,4966,0
461009478,461009093,3670026,3670026,-0.0010348,0.000578626,0.000393674,-0.0116594,0.0105379,-0.052813,4948,4948,0
461506353,461505920,3670026,3670026,-0.00169148,0.000211314,-0.000122187,-0.0143385,0.00929237,-0.0571672,4999,4999,0
462002762,462002352,3670026,3670026,0.000897876,0.000323705,0.000383055,-0.00166269,0.000357573,-0.0503648,4970,4970,0
462504329,462503945,3670026,3670026,0.000703859,-0.00109261,-0.000318118,-0.00779028,0.00982731,-0.0493004,4970,4970,0
463005917,463005536,3670026,3670026,-0.000470224,0.000995135,0.000628518,-0.0161777,0.0220949,-0.0621833,4967,4967,0
463507554,463507129,3670026,3670026,0.000608935,-0.0010815,0.000248316,-0.00561157,0.00174738,-0.0542432,4966,4966,0
464009050,464008724,3670026,3670026,0.000467986,0.000863011,-0.000199269,-0.0115234,0.013031,-0.0542676,4931,4931,0
464505741,464505351,3670026,3670026,0.000140378,0.00140546,0.00158794,-0.0103307,0.0265499,-0.054338,4966,4966,0
465002526,465002159,3670026,3670026,0.000583687,-0.000290999,-0.00137506,-0.00104738,-0.0290897,-0.0494724,4991,4991,0
465503990,465503602,3670026,3670026,-8.46145e-05,0.000357752,-0.000285336,-0.00404436,-0.0130124,-0.0537074,4956,4956,0
466005493,466005166,3670026,3670026,0.000911772,-0.000177139,-0.00126445,-0.000224253,-0.0323986,-0.041777,4962,4962,0
466507084,466506760,3670026,3670026,-0.00140939,-0.000725954,0.00075007,0.00148842,-0.00640232,-0.0434379,4966,4966,0
467008768,467008355,3670026,3670026,0.000448313,-0.00080645,-9.63621e-05,0.00480426,-0.0271126,-0.0497553,4966,4966,0
467505440,467504984,3670026,3670026,0.0014892,-0.000461308,-0.000544315,0.010314,-0.0304425,-0.0395599,4969,4969,0
468007015,468006576,3670026,3670026,0.000222307,-0.000311586,0.000573254,-0.00381851,0.000507574,-0.0558823,4966,4966,0
468503823,468503404,3670026,3670026,7.94369e-05,0.00259867,0.000255354,-0.00491701,0.0253168,-0.0461379,4994,4994,0
469005265,469004874,3670026,3670026,0.00106685,-0.000555138,-0.000616836,0.00894795,-0.0315152,-0.0328954,4989,4989,0
469506716,469506392,3670026,3670026,-0.000522708,0.000406605,0.000653183,-0.0105096,-0.000118258,-0.0554381,4967,4967,0
470008435,470007986,3670026,3670026,0.000627106,-0.000412734,4.91173e-05,0.00663274,0.00192267,-0.0372227,4967,4967,0
470505035,470504613,3670026,3670026,0.000759423,-3.66895e-05,0.00126497,-0.0151712,0.034832,-0.051381,4966,4966,0
471006616,471006208,3670026,3670026,0.000510558,0.00117676,0.000887986,-0.00720693,0.0112815,-0.0521791,4967,4967,0
471508234,471507801,3670026,3670026,0.00111631,-0.000151743,-0.000779369,-0.00270301,-0.0276716,-0.0460103,4966,4966,0
472004784,472004431,3670026,3670026,0.000748795,-0.000223916,-0.000152046,-0.000745886,-0.00298342,-0.0484982,4778,4778,0
472506435,472506065,3670026,3670026,-0.00177601,0.00020726,0.00029894,-0.00843349,-0.00101986,-0.0512835,4983,4983,0
473007960,473007618,3670026,3670026,0.000733434,-0.00114242,-0.000185424,-0.00534845,-0.0243124,-0.0456194,4967,4967,0
473504639,473504245,3670026,3670026,-0.000816481,-0.000641979,-0.000610947,-0.0150018,-0.0124631,-0.0508866,4966,4966,0
474006177,474005841,3670026,3670026,-0.00152459,0.000490616,-0.000202871,-0.0138502,0.00767032,-0.0587341,4968,4968,0
474507763,474507438,3670026,3670026,0.000176642,-8.03325e-05,0.000355948,0.00392788,-0.0268549,-0.0467374,4936,4936,0
475009422,475009081,3670026,3670026,0.000568368,0.000411211,-0.000611638,0.00351037,-0.00721182,-0.0472346,5020,5020,0
475506002,475505655,3670026,3670026,-0.00101244,-8.80306e-05,3.52826e-05,-0.0102593,0.0154368,-0.0581452,4966,4966,0
476002700,476002375,3670026,3670026,-0.00108955,-0.000602559,-0.000390251,-0.00253359,-0.0154637,-0.0416742,4933,4933,0
476504215,476503877,3670026,3670026,0.000451097,0.000448757,-0.000488268,-0.00374065,0.00151736,-0.0495084,4951,4951,0
477005849,477005472,3670026,3670026,0.000159212,0.000732804,0.00118623,-0.00775362,0.0406531,-0.0574386,4967,4967,0
477507388,477507066,3670026,3670026,0.000248321,-0.000489198,0.000485583,-0.00268853,-0.000860014,-0.0437946,4966,4966,0
478009033,478008660,3670026,3670026,-0.000481912,0.000284693,0.00146946,-0.00324353,0.0228406,-0.0488681,4967,4967,0
478505632,478505284,3670026,3670026,0.000603404,-0.00025276,-0.00094746,-0.00551918,-0.0192577,-0.0482019,4928,4928,0
479002260,479001915,3670026,3670026,0.000808231,0.000904072,-0.000171137,0.000598512,0.00258207,-0.0433491,4963,4963,0
479503926,479503553,3670026,3670026,-0.00180404,0.00038862,3.99564e-05,7.53747e-05,0.0068687,-0.0438303,4935,4935,0
480005435,480005105,3670026,3670026,0.00124486,0.000267485,-0.00069569,0.00269802,-0.0326872,-0.0413594,4968,4968,0
480507028,480506699,3670026,3670026,-0.000850388,0.000164367,-2.24547e-05,0.00156507,-0.00363529,-0.0430927,4966,4966,0
481008721,481008297,3670026,3670026,-0.000348741,-0.00021356,0.000680136,-0.00739652,0.00497443,-0.0484158,4945,4945,0
481505247,481504920,3670026,3670026,0.00189147,-3.37075e-05,4.68692e-07,0.00357117,-0.0105922,-0.0429513,4966,4966,0
482006895,482006514,3670026,3670026,-0.000559668,-0.000503235,0.000448929,-0.00788627,-0.0057319,-0.0549866,4966,4966,0
482503531,482503183,3670026,3670026,-0.000830283,-0.000243253,-0.000670714,0.00356912,-0.0260699,-0.0456504,5007,5007,0
483005186,483004806,3670026,3670026,-9.62869e-05,-0.000128481,0.000206527,-7.10662e-05,-0.00826866,-0.0465685,4989,4989,0
483506649,483506326,3670026,3670026,0.00275839,0.000910048,-5.43269e-05,0.00218794,-0.0118911,-0.0472278,4962,4962,0
484008264,484007924,3670026,3670026,0.000535396,0.000104643,0.000146311,0.00156811,0.00721284,-0.0441645,4963,4963,0
484504927,484504555,3670026,3670026,-0.0002579,0.000321505,0.000117754,-0.00203194,0.0101863,-0.0453213,4969,4969,0
485006589,485006146,3670026,3670026,0.000546169,-0.000329145,-0.000428337,0.00184098,-0.00843275,-0.0324072,4964,4964,0
485508090,485507740,3670026,3670026,-0.000776339,-0.000802125,0.000150115,-0.00684704,0.0145842,-0.0550713,4966,4966,0
486004756,486004368,3670026,3670026,-0.000444946,0.000108594,0.000203829,-0.0105742,0.00266393,-0.0557049,4963,4963,0
486506412,486506038,3670026,3670026,3.71964e-05,-4.05108e-05,0.000962075,0.000626057,0.0199915,-0.0481031,4990,4990,0
487008020,487007557,3670026,3670026,0.000802299,-5.58e-05,-0.000276339,0.00255899,0.00408349,-0.0417261,4967,4967,0
487504512,487504185,3670026,3670026,-8.29419e-05,0.000368723,-0.000260843,-0.00712374,-0.00166566,-0.0564428,4966,4966,0
488006105,488005779,3670026,3670026,0.000909996,2.33995e-05,0.000382166,0.000229488,-0.0064612,-0.0440124,4967,4967,0
488507701,488507379,3670026,3670026,-0.00121673,-2.91583e-05,0.000519876,-0.0108291,0.0170845,-0.0538175,4924,4924,0
489009365,489008969,3670026,3670026,-0.000651814,0.000977682,0.000121109,-0.0112881,0.00870232,-0.0545795,4968,4968,0
489505939,489505595,3670026,3670026,0.00106146,-0.000513321,-0.00155296,-0.00270059,-0.0291305,-0.0407921,4966,4966,0
490002660,490002289,3670026,3670026,7.71886e-05,-0.000157894,-4.10989e-05,-0.000350404,0.00976667,-0.047182,4929,4929,0
490504211,490503817,3670026,3670026,0.00291432,0.000164197,-0.000449884,0.00941499,-0.0195028,-0.042797,4931,4931,0
491005785,491005412,3670026,3670026,-0.00121622,-0.000895128,-0.000860012,0.0103078,-0.0318546,-0.0379383,4966,4966,0
491507332,491507006,3670026,3670026,-0.000402671,-0.000280406,-0.00056016,-0.00204211,-0.0268901,-0.0551485,4967,4967,0
492008928,492008600,3670026,3670026,0.000784952,-0.000410146,-0.000769223,0.00563881,-0.0166213,-0.0350925,4967,4967,0
492505618,492505274,3670026,3670026,0.00159106,-0.000852966,-0.000241871,0.00613941,-0.00812429,-0.0366056,4973,4973,0
493002200,493001856,3670026,3670026,-0.000899039,-0.000305185,-0.000613325,-0.000812542,-0.0247339,-0.0449582,4967,4967,0
493503914,493503536,3670026,3670026,0.000295188,-0.000186364,8.03359e-05,-0.00370165,-0.00908749,-0.057143,4993,4993,0
494005413,494005044,3670026,3670026,-0.00122669,0.000440376,0.00165806,-0.00472867,0.0284808,-0.0511648,4966,4966,0
494506967,494506639,3670026,3670026,0.000480876,-0.00019033,-0.000517587,0.003857,-0.0159121,-0.0389805,4966,4966,0
495008562,495008239,3670026,3670026,-0.000435524,0.00121803,0.000196239,0.00503419,0.0175019,-0.0423381,4972,4972,0
495505230,495504861,3670026,3670026,0.0017227,-0.000723219,-0.000527804,0.00517822,-0.00436218,-0.0471146,4966,4966,0
496006900,496006559,3670026,3670026,-0.000357671,-0.000562126,-0.00122214,-0.00447976,-0.0247781,-0.0556317,5050,5050,0
496503451,496503084,3670026,3670026,-2.66873e-05,0.00104684,0.000191474,-0.00711897,0.00505314,-0.051784,4967,4967,0
497005145,497004778,3670026,3670026,-0.00261665,0.000255855,-0.000349882,-0.00907026,-0.00166112,-0.0484199,4989,4989,0
497506593,497506272,3670026,3670026,-0.000538671,-4.91614e-05,-6.66767e-05,-0.0096795,-0.00326064,-0.0466455,4967,4967,0
498008299,498007905,3670026,3670026,0.000225445,0.00384017,0.00137608,-0.00770375,0.0333987,-0.0539292,5005,5005,0
498504927,498504496,3670026,3670026,-0.00074566,-6.33685e-05,-0.000551548,-0.00131064,-0.00352561,-0.049188,4967,4967,0
499006415,499006088,3670026,3670026,0.000103986,-0.00063967,0.000208056,0.00427681,-0.00766338,-0.0482302,4963,4963,0
499508041,499507683,3670026,3670026,-1.13787e-06,-0.000290367,-0.00049837,-0.00522413,-0.0140984,-0.0593936,4917,4917,0
500004654,500004311,3670026,3670026,-5.12369e-06,-2.62487e-05,-0.00474673,-0.00380872,-0.00368408,-0.0517164,4966,4966,0
500506399,500506035,3670026,3670026,0.00125257,-0.00199853,-0.0107815,0.0167276,-0.00443095,-0.0217652,4982,4982,0
501007882,501007501,3670026,3670026,-0.000969634,-0.000885788,-0.000136577,-0.00627531,0.032673,-0.0561873,4909,4909,0
501504495,501504127,3670026,3670026,0.000554954,0.00110508,0.00163785,-0.000249314,-0.00990628,-0.0513362,4966,4966,0
502006110,502005722,3670026,3670026,0.00099666,-0.00136194,0.00102644,0.0119538,-0.00753313,-0.0437928,4967,4967,0
502507700,502507319,3670026,3670026,-0.000913618,-0.000404106,0.00013198,-0.00343641,-0.0114263,-0.0386176,4969,4969,0
503009282,503008913,3670026,3670026,0.00109371,0.000314205,0.000410571,-0.00661491,0.00631426,-0.0499147,4969,4969,0
503505929,503505539,3670026,3670026,0.00119211,-0.00108138,-0.000339124,0.0110094,-0.017052,-0.0367766,4965,4965,0
504002689,504002324,3670026,3670026,-0.0018543,0.000520529,0.000645833,-0.00901478,0.0124367,-0.0574554,4988,4988,0
504504146,504503763,3670026,3670026,-0.000635275,-0.000209635,-0.00117811,-0.00564016,-0.01833,-0.0520324,4968,4968,0
505005739,505005355,3670026,3670026,0.00021277,-0.000756906,0.000529863,-0.00716068,0.00245603,-0.0433499,4965,4965,0
505507274,505506949,3670026,3670026,-0.000469308,0.000706329,0.000720231,-0.00897976,0.020179,-0.0554106,4964,4964,0
506008990,506008548,3670026,3670026,0.000189747,0.000800508,0.000762519,0.000608731,0.0300541,-0.0457491,4928,4928,0
506505614,506505225,3670026,3670026,-8.24635e-05,0.000264075,0.000472682,-0.000172587,-0.00785615,-0.0507005,5019,5019,0
507002195,507001800,3670026,3670026,0.000789128,-0.000777771,-0.000613745,0.000224865,-0.0273155,-0.0477793,4966,4966,0
507504027,507503573,3670026,3670026,0.000767663,0.0010385,0.000937455,-0.00795429,0.0219304,-0.0589158,4990,4990,0
508005371,508004993,3670026,3670026,-0.00139634,0.000442576,-0.000919127,0.00233441,-0.0196973,-0.0457391,4969,4969,0
508506958,508506583,3670026,3670026,-5.82766e-05,2.20305e-05,-0.0025918,-0.00138583,0.013836,-0.0352645,4966,4966,0
509008557,509008177,3670026,3670026,-0.00151143,-0.00132871,-0.000296168,-0.0102461,0.00930578,-0.0629596,4966,4966,0
509505243,509504805,3670026,3670026,0.000266368,-0.000855127,-0.000557503,-0.00494944,0.0013561,-0.052196,4966,4966,0
510006790,510006401,3670026,3670026,-0.00109421,0.00123792,0.0007957,-0.00702562,0.00917156,-0.0499579,4967,4967,0
510503422,510503031,3670026,3670026,-0.00233929,0.000785671,0.00102442,-0.00722079,0.0233215,-0.0457399,4966,4966,0
511005173,511004763,3670026,3670026,0.000368573,-0.000643546,-0.000291399,0.0049885,-0.0105676,-0.0431908,4988,4988,0
511506593,511506217,3670026,3670026,0.00213687,0.00111315,-0.000600994,-0.00201692,-0.00114038,-0.0431584,4962,4962,0
512008293,512007813,3670026,3670026,0.00119421,-0.00046688,-0.000634526,0.00641328,-0.0267663,-0.0401063,4968,4968,0
512504761,512504440,3670026,3670026,-0.00146088,-0.00126364,-0.000975083,-0.00618422,-0.0308277,-0.0527512,4966,4966,0
513006402,513006076,3670026,3670026,-0.00277551,0.00043325,-0.00134305,0.000264927,-0.0209519,-0.0469419,5008,5008,0
513508018,513507629,3670026,3670026,-0.000502724,-0.000335429,-0.000468604,-0.00108131,-0.0274702,-0.0468024,4964,4964,0
514004605,514004258,3670026,3670026,0.00111119,0.000594028,-0.000647246,0.00345287,-0.0116606,-0.0382646,4967,4967,0
514506335,514506004,3670026,3670026,-0.000259529,-0.000140633,6.50827e-05,0.000878992,-0.000639481,-0.0426519,4992,4992,0
515007866,515007446,3670026,3670026,0.00100502,0.00137781,0.000404815,-0.0129481,0.00661453,-0.0551081,4966,4966,0
515504513,515504075,3670026,3670026,-0.0010406,0.000392607,-0.000635544,-0.00370855,-0.00705906,-0.0512418,4967,4967,0
516005998,516005669,3670026,3670026,-5.89514e-05,-0.000183877,0.000992741,-0.00658089,0.0185574,-0.0523386,4967,4967,0
516507629,516507265,3670026,3670026,0.000673497,-0.000485236,-0.000680249,0.00200181,-0.00250359,-0.0404832,4965,4965,0
517009295,517008861,3670026,3670026,0.000172479,-0.000324701,-0.000274434,0.00385177,-0.017624,-0.0437944,4969,4969,0
517505834,517505486,3670026,3670026,-0.000445584,-0.000215417,0.000496701,-0.00674221,0.00307288,-0.0551179,4966,4966,0
518002618,518002254,3670026,3670026,0.000148461,0.000432103,0.00105581,-0.0045185,-0.00317415,-0.054881,4978,4978,0
518504159,518503796,3670026,3670026,-0.00442051,0.000574207,0.00117317,-0.0114456,0.0124547,-0.0570768,4990,4990,0
519005655,519005322,3670026,3670026,0.00182241,-0.000181448,-0.00106675,-0.00106944,-0.0327663,-0.0385197,4973,4973,0
519507234,519506899,3670026,3670026,-0.00150586,0.000962561,-0.00065193,-0.000992705,0.00711367,-0.0456757,4967,4967,0
520008823,520008496,3670026,3670026,-0.000720479,-0.000141649,0.00057515,-0.0108066,-0.00443475,-0.0546297,4969,4969,0
520505478,520505122,3670026,3670026,-0.000750053,5.81519e-05,-0.00268604,-0.00111783,0.0136438,-0.0541752,4967,4967,0
521002140,521001796,3670026,3670026,0.000182654,-0.000606561,-0.00110267,0.00241,-0.0312639,-0.0529234,4992,4992,0
521503895,521503511,3670026,3670026,0.000957255,0.000799544,-0.000513731,-0.00315054,-0.0126069,-0.0456481,5002,5002,0
522005370,522004941,3670026,3670026,0.000322077,-9.13594e-05,-0.000230615,0.0051267,-0.0137757,-0.0434183,4968,4968,0
522506932,522506547,3670026,3670026,-0.00157334,-0.000477973,0.000993765,-0.0154918,0.0198041,-0.0613483,4982,4982,0
523008505,523008130,3670026,3670026,0.000863276,-0.000226464,-0.000114879,0.00527972,-0.00867398,-0.0406409,4968,4968,0
523505193,523504757,3670026,3670026,-0.000267886,2.67984e-05,0.000508918,-0.00191645,-0.00405943,-0.0496666,4966,4966,0
524006682,524006352,3670026,3670026,-0.0012682,0.00017969,-0.00179602,-0.000814412,0.00681174,-0.0584927,4967,4967,0
524503348,524502990,3670026,3670026,-0.0012667,2.53314e-05,-0.00982234,-0.00771582,-0.00253506,-0.0477608,4929,4929,0
525005158,525004798,3670026,3670026,-3.51848e-05,-0.000352748,-0.00208184,-0.00796031,-0.0158132,-0.0594372,5039,5039,0
525506566,525506238,3670026,3670026,0.000815006,1.48387e-05,0.00108894,0.00784139,0.00421472,-0.0475018,5000,5000,0
526008089,526007764,3670026,3670026,-0.000449061,0.000531233,0.000953458,0.00255338,0.00219806,-0.0469289,4966,4966,0
526504721,526504393,3670026,3670026,0.000217995,0.000330667,0.00121436,-0.00122084,0.0193788,-0.0393209,4964,4964,0
527006360,527005987,3670026,3670026,-0.00275078,-0.000587383,0.000656754,-0.0011374,-0.00984846,-0.0448986,4964,4964,0
527507995,527507600,3670026,3670026,5.72442e-05,-0.000129498,0.000318507,0.00555374,0.0031983,-0.0488768,4965,4965,0
528004593,528004210,3670026,3670026,0.000574147,-0.000293199,-0.000841729,0.00578036,-0.0229384,-0.0503817,4966,4966,0
528506411,528505993,3670026,3670026,0.00054682,0.000192464,7.37743e-05,0.00695339,0.0106673,-0.0462527,4994,4994,0
529007753,529007415,3670026,3670026,-0.000166976,-0.00045011,0.000239641,-0.00182115,-0.00444274,-0.0401796,4977,4977,0
529504362,529504029,3670026,3670026,-0.00025908,-0.000268348,0.000276777,-0.00109222,-0.00378261,-0.0395554,4967,4967,0
530006001,530005624,3670026,3670026,-0.000749896,-9.07575e-05,0.000604312,0.00072493,0.000980338,-0.0442982,4967,4967,0
530507544,530507218,3670026,3670026,-0.000881561,0.000457957,0.000527998,-0.00983338,0.0135447,-0.0584771,4964,4964,0
531009252,531008812,3670026,3670026,-0.000213559,6.59203e-05,-9.51523e-05,-0.0058453,-0.00148407,-0.0535576,4963,4963,0
531505833,531505441,3670026,3670026,-0.000809327,0.000160825,0.000950652,-0.00251662,0.0148988,-0.0506092,4967,4967,0
532007394,532007040,3670026,3670026,-0.000795071,0.000288054,0.000599354,-0.00885763,0.00160141,-0.0538579,4795,4795,0
532504032,532503673,3670026,3670026,0.00181737,-0.000370534,0.000504551,0.00666922,0.00410115,-0.0438939,4974,4974,0
533005658,533005258,3670026,3670026,-0.00115379,-0.000141927,-0.00109165,0.000343185,-0.031602,-0.0492314,4962,4962,0
533507236,533506853,3670026,3670026,0.00125375,-0.000323152,-0.00132603,0.00938573,-0.0259206,-0.0407658,4967,4967,0
534008769,534008448,3670026,3670026,-0.00115675,-0.000203979,2.00678e-05,0.00198421,-0.00651012,-0.0454009,4967,4967,0
534505468,534505109,3670026,3670026,-0.000179459,0.000698856,0.000178327,-0.000715289,0.0138348,-0.0440897,5000,5000,0
535002051,535001705,3670026,3670026,-0.00153353,-0.000116197,-0.000817035,0.0060311,-0.0167724,-0.0509313,4967,4967,0
535503822,535503492,3670026,3670026,0.000166418,-0.000272114,-0.000422048,0.00573248,-0.000236824,-0.0479822,4996,4996,0
536005350,536004922,3670026,3670026,0.000830835,-0.000551586,-0.000303811,-0.00455645,-0.0184382,-0.0393372,4994,4994,0
536506855,536506488,3670026,3670026,0.00101568,-0.0002049,0.000623251,0.00813339,0.00487196,-0.0378706,4966,4966,0
537008474,537008084,3670026,3670026,-0.000498173,0.00060778,0.000435382,-0.00358623,0.00555774,-0.0530521,4967,4967,0
537505038,537504711,3670026,3670026,0.000329053,-0.00043029,-0.00114719,0.00361263,-0.0341551,-0.0491477,4966,4966,0
538006632,538006307,3670026,3670026,-0.00152878,0.00222388,0.000284816,-0.0108752,-0.00819226,-0.0596633,4966,4966,0
538503288,538502936,3670026,3670026,0.00187937,-0.0013173,4.69711e-05,0.0108571,-0.00899851,-0.0430413,4968,4968,0
539004879,539004529,3670026,3670026,-0.00110169,0.000383566,0.000329791,-0.00626237,0.00360045,-0.0476323,4769,4769,0
539506521,539506155,3670026,3670026,0.00211943,-0.000117801,-0.00103116,0.0109732,-0.0135518,-0.0425333,4948,4948,0
540008090,540007719,3670026,3670026,-0.000430392,8.81145e-05,-0.000377409,0.000267765,-0.00915376,-0.0552193,4966,4966,0
540504673,540504347,3670026,3670026,-0.000889304,0.000180442,0.000817162,-0.00561948,0.00478249,-0.0507195,4965,4965,0
541006330,541005950,3670026,3670026,-0.00141549,0.00133468,0.000625577,-0.00151395,0.0162766,-0.0481845,4974,4974,0
541507904,541507537,3670026,3670026,0.000705998,-8.59399e-05,-0.00065199,0.00661709,0.00376558,-0.038426,4967,4967,0
542004512,542004165,3670026,3670026,0.000484663,-5.48073e-05,-0.00176393,-0.00362023,-0.0117103,-0.0526003,4966,4966,0
542506124,542505773,3670026,3670026,-0.000694431,-0.00101519,-0.00197148,0.00812974,-0.0304561,-0.0436052,4976,4976,0
543007836,543007399,3670026,3670026,0.000372277,-1.68748e-05,0.0035488,0.00317501,0.0078975,-0.0441837,4986,4986,0
543504375,543503985,3670026,3670026,0.00110212,-7.33465e-05,0.000800536,0.00526319,0.011301,-0.0515548,4968,4968,0
544005902,544005578,3670026,3670026,0.000377736,0.000234522,-0.000223822,-0.00326489,-0.00484228,-0.0588662,4966,4966,0
544507590,544507173,3670026,3670026,-0.00182152,-0.000273551,0.000616914,-0.00251994,0.00559031,-0.038602,4963,4963,0
545009138,545008768,3670026,3670026,0.00191939,0.00250864,0.000452828,-0.00511459,0.0159522,-0.0491926,4965,4965,0
545505750,545505397,3670026,3670026,0.00103158,-0.00190262,-0.00148857,0.00619744,-0.0343092,-0.0449173,4967,4967,0
546007390,546006991,3670026,3670026,-0.00104071,0.000201505,-0.000199966,-0.00715488,0.0042019,-0.0607177,4962,4962,0
546504084,546503663,3670026,3670026,-0.000551272,0.000122406,0.000939144,-0.00287224,-0.000253619,-0.058226,4988,4988,0
547005603,547005215,3670026,3670026,-0.000628043,-0.00086407,-0.000619672,5.75196e-05,-0.0270551,-0.0485065,4966,4966,0
547507133,547506811,3670026,3670026,0.000471279,-0.000276639,3.556e-06,0.0013281,0.00565582,-0.0408841,4960,4960,0
548008728,548008404,3670026,3670026,-0.000211505,0.000656845,0.000162505,0.00481202,0.0122675,-0.045201,4966,4966,0
548505393,548505067,3670026,3670026,-3.20513e-05,0.000566775,0.000517197,-0.00884425,0.0226685,-0.0579173,5000,5000,0
549007027,549006632,3670026,3670026,2.59826e-05,-0.000133299,-0.000130255,-0.00112493,-0.00276367,-0.0486315,4967,4967,0
549503617,549503257,3670026,3670026,-0.00080415,0.000392433,0.000565685,-0.0042937,0.0121749,-0.051476,4964,4964,0
550005290,550004911,3670026,3670026,0.000876987,-0.000973577,-0.00139,0.00453922,-0.0248132,-0.0328454,4941,4941,0
550506773,550506446,3670026,3670026,-0.000460529,-0.000702439,0.00066483,-0.00338225,-0.001323,-0.0484645,4966,4966,0
551008415,551008089,3670026,3670026,-0.000693303,-9.53436e-05,0.000140204,-0.00699823,0.00648435,-0.0618224,5014,5014,0
551505092,551504670,3670026,3670026,-0.00123253,7.31046e-05,0.000116844,-0.00435372,-0.00633183,-0.0603591,4965,4965,0
552006724,552006265,3670026,3670026,0.00101288,0.000254259,0.000382972,0.00429528,-0.00461132,-0.0509511,4966,4966,0
552503264,552502894,3670026,3670026,0.000254213,-0.000111843,-0.000747922,-0.000311208,-0.00435833,-0.0450005,4967,4967,0
553004830,553004488,3670026,3670026,-3.0705e-05,0.000265921,0.000175794,-0.00170063,-0.00318392,-0.0490668,4966,4966,0
553506479,553506144,3670026,3670026,0.000132995,-0.000395395,-0.00102201,-0.00331023,-0.0256081,-0.0510378,4984,4984,0
554008046,554007715,3670026,3670026,5.70192e-05,0.00156567,-0.000266812,-0.00123547,-0.00172131,-0.0465047,4995,4995,0
554504629,554504308,3670026,3670026,-0.0015207,3.38495e-05,0.000767361,-0.012204,0.0156697,-0.0570797,4968,4968,0
555006233,555005901,3670026,3670026,-0.000504699,0.000920972,0.000638105,-0.00664056,0.011611,-0.0578424,4966,4966,0
555507820,555507497,3670026,3670026,-0.000872877,-0.00107615,0.000269477,0.0135314,-0.00943699,-0.0389779,4967,4967,0
556004527,556004125,3670026,3670026,0.000381996,-0.000129328,0.00033301,0.0113689,0.0134422,-0.0422493,4918,4918,0
556506063,556505721,3670026,3670026,0.000123261,0.00120507,0.000341857,0.000676073,0.0107221,-0.0536886,4962,4962,0
557007780,557007391,3670026,3670026,-0.000108303,0.000323531,0.000750063,0.00176661,0.0215497,-0.0458085,4992,4992,0
557504273,557503944,3670026,3670026,0.000997757,-3.6112e-05,0.000747565,0.00981479,0.018031,-0.0375677,4966,4966,0
558005907,558005539,3670026,3670026,-0.000691833,0.000345126,0.00011607,0.00466299,0.00836043,-0.0418666,4966,4966,0
558507460,558507134,3670026,3670026,-0.0011403,9.35179e-05,9.055e-05,-0.0172008,0.0015053,-0.0625872,4965,4965,0
559009051,559008728,3670026,3670026,0.000385935,0.000524012,-4.1111e-06,-0.000752032,0.0190663,-0.0506394,4966,4966,0
559505748,559505358,3670026,3670026,9.32393e-05,-0.000255641,-0.00106628,-0.00550815,-0.0223871,-0.0561343,4966,4966,0
560007310,560006953,3670026,3670026,-3.59636e-05,-0.00026968,-0.000699248,-0.000566318,-0.0299343,-0.0492293,4965,4965,0
560504124,560503698,3670026,3670026,-0.00130647,1.46544e-05,0.000554518,-0.00653812,-0.00427846,-0.0544885,4993,4993,0
561005604,561005176,3670026,3670026,-0.000475994,0.000674477,0.000758849,-0.00598862,0.0103545,-0.0558773,4966,4966,0
561507139,561506772,3670026,3670026,-0.00171343,0.00058119,0.000494607,-0.00449226,0.0158614,-0.0514303,4967,4967,0
562008789,562008400,3670026,3670026,0.00286181,-0.000897902,-0.000640783,0.0101603,-0.0116936,-0.0381025,4999,4999,0
562505378,562504995,3670026,3670026,0.00109082,-0.000402609,-0.000411845,0.00584505,-0.0098424,-0.0381103,4965,4965,0
563006994,563006591,3670026,3670026,-0.000131678,-0.000165358,-0.000390965,0.00220126,-0.0030693,-0.0436142,4967,4967,0
563503567,563503219,3670026,3670026,-0.000954692,-0.000270123,-0.000213948,-0.00488836,-0.00543746,-0.0530481,4966,4966,0
564005319,564004989,3670026,3670026,0.000308883,-0.000424186,-0.0010238,0.0028957,-0.0276363,-0.0491424,4973,4973,0
564506821,564506409,3670026,3670026,0.00118971,0.000647805,0.000250564,0.0013674,0.00986348,-0.0522169,4966,4966,0
565008433,565008007,3670026,3670026,-2.58123e-05,-0.000617403,-0.000622632,-0.00609787,-0.0352128,-0.0562283,4969,4969,0
565505073,565504633,3670026,3670026,0.000674682,-0.000163858,-0.000759056,-0.00208247,-0.0217861,-0.0538784,4966,4966,0
566006597,566006228,3670026,3670026,2.02743e-05,-0.00236342,3.05989e-05,-1.10588e-05,-0.0101639,-0.0457626,4963,4963,0
566503301,566502857,3670026,3670026,0.000893439,-0.000366046,-0.000642272,0.00264389,-0.0129409,-0.0432266,4966,4966,0
567004798,567004452,3670026,3670026,0.00214197,-0.000267097,-0.000280058,0.000291336,-0.00606534,-0.043044,4966,4966,0
567506608,567506199,3670026,3670026,0.000700767,-6.15748e-05,-0.000519308,-0.00249338,-0.00092871,-0.0437036,4978,4978,0
568008013,568007644,3670026,3670026,-0.00112822,0.000792413,0.000898584,-0.00545694,0.0324469,-0.0557768,4959,4959,0
568504643,568504271,3670026,3670026,0.000510647,-0.000521289,-0.00130105,0.00964803,-0.0320063,-0.0454693,4966,4966,0
569006197,569005866,3670026,3670026,0.000639185,-9.49272e-05,0.000121002,0.00815612,0.00433166,-0.0419346,4966,4966,0
569502828,569502497,3670026,3670026,-0.000746366,0.000597762,0.00102347,-0.00571228,0.0140605,-0.0513966,4968,4968,0
570004479,570004091,3670026,3670026,-0.00168328,0.000124703,-0.000249547,-0.0110111,-0.0109113,-0.0601539,4967,4967,0
570506038,570505685,3670026,3670026,-9.24148e-05,0.000153162,-0.000213613,0.00603333,-0.00390264,-0.041245,4966,4966,0
571007761,571007386,3670026,3670026,-0.00161531,0.000192323,0.00067487,-0.0149432,0.00525337,-0.0594831,4994,4994,0
571504290,571503911,3670026,3670026,-0.000658242,-2.90417e-05,-0.000183987,-0.00842327,-0.0146966,-0.0570449,4968,4968,0
572005894,572005504,3670026,3670026,0.000221193,-0.000248613,6.18491e-05,0.00259524,-0.00448605,-0.0447855,4966,4966,0
572507491,572507101,3670026,3670026,-0.000177408,0.000579587,0.00101133,-0.00220721,0.0222008,-0.0512823,4966,4966,0
573009022,573008695,3670026,3670026,0.00179032,-0.000576779,-0.000808676,0.00704711,-0.0227304,-0.0386725,4966,4966,0
573505668,573505324,3670026,3670026,-0.0011819,0.000372497,5.08352e-05,-0.00456717,0.0126829,-0.053725,4967,4967,0
574007279,574006923,3670026,3670026,0.00166992,-0.000439783,-0.00119825,0.00423131,-0.0319691,-0.0475196,4938,4938,0
574504016,574503692,3670026,3670026,4.71596e-05,0.000266294,0.00119114,0.00169956,0.0199538,-0.0474463,4990,4990,0
575005485,575005160,3670026,3670026,-0.000396384,1.83239e-05,-0.000176544,0.00309039,0.00700037,-0.0436011,4971,4971,0
575507065,575506740,3670026,3670026,7.51667e-05,0.000325757,-0.000160114,0.00117123,-0.0120566,-0.0478999,4968,4968,0
576008660,576008337,3670026,3670026,-0.00128148,-6.18916e-05,0.000179244,-0.012945,-0.00100101,-0.0594537,4924,4924,0
576505293,576504962,3670026,3670026,0.000276984,-0.000374805,0.000126996,-0.00186589,0.000286946,-0.0512436,4964,4964,0
577006954,577006558,3670026,3670026,-0.000476241,0.000263167,0.000769716,0.002953,0.0299814,-0.0461883,4965,4965,0
577503554,577503215,3670026,3670026,0.000376853,-0.000283011,-6.60548e-05,0.00290262,-0.0104311,-0.0448731,4994,4994,0
578005256,578004884,3670026,3670026,-0.000623178,0.000142702,-0.000120505,-0.00983102,-0.0132382,-0.0575376,4990,4990,0
578506797,578506377,3670026,3670026,0.000561021,4.30537e-05,0.000181393,0.00944821,0.00349851,-0.0381932,4966,4966,0
579008308,579007975,3670026,3670026,-0.000987221,0.000448302,0.000612859,-0.00133871,0.00330396,-0.053348,4969,4969,0
579504926,579504603,3670026,3670026,0.000410615,7.72232e-05,0.000503774,0.00533981,0.000592776,-0.04425,4967,4967,0
580006547,580006205,3670026,3670026,0.00112791,-0.00106283,-0.00137696,0.00740618,-0.0280024,-0.0441526,4940,4940,0
580503301,580502825,3670026,3670026,-0.00106467,0.000363942,0.00024786,-0.000460593,-0.000698606,-0.0435593,4966,4966,0
581004813,581004421,3670026,3670026,-0.000467703,0.000798398,0.000317299,-0.00432494,0.00337625,-0.0523062,4966,4966,0
581506361,581506016,3670026,3670026,0.000299041,0.000143516,7.78688e-05,0.00156048,0.0022568,-0.0519289,4966,4966,0
582008018,582007693,3670026,3670026,-0.00118689,0.000843463,0.0010149,-0.0074567,0.023114,-0.0531972,4984,4984,0
582504613,582504242,3670026,3670026,0.000136797,0.000186077,3.53525e-06,-0.00366513,-0.00415986,-0.0520745,4964,4964,0
583006276,583005836,3670026,3670026,0.00237114,5.52384e-05,-0.000931673,0.00551061,-0.0213393,-0.0418003,4966,4966,0
583507815,583507432,3670026,3670026,-0.000875973,0.000706802,0.00132873,0.00287038,0.0253841,-0.0467935,4967,4967,0
584004384,584004060,3670026,3670026,-0.000917811,-0.00028476,0.000380486,-0.0049591,-0.00518386,-0.0516934,4965,4965,0
584506040,584505656,3670026,3670026,-0.00102973,0.000543809,0.00127894,-0.000976111,0.0228722,-0.0491132,4966,4966,0
585007606,585007251,3670026,3670026,0.00170179,-0.000983345,-9.16879e-05,0.0126001,-0.000257924,-0.0365725,4966,4966,0
585504320,585503988,3670026,3670026,-0.000855521,0.000480224,0.000480319,-0.00778101,0.0174514,-0.0571771,4976,4976,0
586005899,586005475,3670026,3670026,-0.000611671,-4.16589e-05,5.01706e-05,0.00101946,0.00431092,-0.0489698,4966,4966,0
586507444,586507071,3670026,3670026,-0.000451387,-0.000107884,0.000156406,-0.00106109,-0.000396995,-0.0497838,4955,4955,0
587008997,587008666,3670026,3670026,0.000298105,-0.000696359,-0.000273578,0.000826872,-0.00520599,-0.042028,4966,4966,0
587505753,587505385,3670026,3670026,-0.000488743,0.000168865,0.000422624,-0.00248785,0.00641382,-0.0517884,5034,5034,0
588007285,588006891,3670026,3670026,-0.000222067,3.20594e-05,0.000574207,0.00566926,0.00385293,-0.0431071,4966,4966,0
588503864,588503520,3670026,3670026,-0.000678868,0.00060191,0.000650108,-0.00719561,0.020336,-0.056607,4967,4967,0
589005611,589005284,3670026,3670026,0.000285928,-8.90663e-05,1.6771e-05,0.000468071,0.00298113,-0.05303,4978,4978,0
589507086,589506711,3670026,3670026,-0.000121539,0.000226614,0.000104641,0.000801027,0.000466346,-0.0460521,4964,4964,0
590008728,590008306,3670026,3670026,-0.00177524,0.00154713,0.00105073,-0.0150656,0.0109927,-0.0591661,4963,4963,0
590505372,590504936,3670026,3670026,0.00103175,0.000457961,-0.00035032,0.00849895,-0.00912053,-0.0359348,4966,4966,0
591006857,591006531,3670026,3670026,0.00189933,5.11461e-05,-0.000743754,-2.6853e-05,-0.0205151,-0.048899,4966,4966,0
591503505,591503160,3670026,3670026,0.0004206,-0.00013424,-0.000626446,-0.00136582,-0.00115287,-0.0462031,4947,4947,0
592005099,592004755,3670026,3670026,0.000196468,0.00062532,0.000170886,-0.000191858,-0.00116954,-0.0529385,4966,4966,0
592506804,592506481,3670026,3670026,-0.0024694,0.00039877,0.000171976,-0.0131259,0.00289735,-0.0606063,4976,4976,0
593008327,593007948,3670026,3670026,-0.000944553,-0.000296991,-0.000902254,-0.00546354,-0.0267837,-0.058114,4968,4968,0
593504952,593504576,3670026,3670026,0.000982192,8.45976e-05,-0.000747998,0.00807129,-0.0241079,-0.0401748,4965,4965,0
594006499,594006174,3670026,3670026,0.000442455,-0.000669424,-0.000875665,0.00479703,-0.0136243,-0.0442906,4968,4968,0
594503178,594502801,3670026,3670026,0.00022011,-0.000757674,-9.69198e-05,0.000582093,-0.00332449,-0.0468197,4967,4967,0
595004831,595004399,3670026,3670026,0.000487636,-0.000301814,-0.000415717,0.00205388,-0.00749829,-0.0488952,4969,4969,0
595506341,595505992,3670026,3670026,0.00135771,0.00062844,0.000186046,0.00960992,0.00668505,-0.037376,4967,4967,0
596008010,596007687,3670026,3670026,-0.00107355,0.000734159,0.0010902,-0.000874131,0.0177087,-0.0487515,4985,4985,0
596504543,596504217,3670026,3670026,-0.00101402,2.43552e-05,9.94426e-05,-0.00780989,-0.00399659,-0.0579101,4967,4967,0
597006183,597005813,3670026,3670026,7.50416e-05,2.7864e-05,-0.000361112,0.00142302,-0.00840927,-0.0449095,4963,4963,0
597507781,597507408,3670026,3670026,-7.20201e-05,0.000390917,-0.000616171,-0.0045077,-0.00523424,-0.0494542,4966,4966,0
598004367,598004039,3670026,3670026,0.000621504,8e-05,0.0001346,-0.00336564,-0.00615321,-0.0525037,4969,4969,0
598505984,598505633,3670026,3670026,0.00127068,-0.000574209,-0.00140329,0.0062073,-0.0302029,-0.0444038,4967,4967,0
599007568,599007227,3670026,3670026,-0.00087561,0.000124779,-0.00013681,-0.000707589,-0.00743296,-0.055236,4965,4965,0
599504374,599503954,3670026,3670026,-0.000813171,-0.000366308,0.000438724,-0.00518373,0.003511,-0.0594414,4998,4998,0
600005863,600005484,3670026,3670026,0.00123976,-0.000815233,-0.0010477,0.00978378,-0.00424746,-0.0321705,4997,4997,0
600507419,600507049,3670026,3670026,-0.000718269,0.000148724,0.000376257,-0.00261359,0.00529446,-0.0504033,4965,4965,0
601009055,601008644,3670026,3670026,-0.000729334,0.000554236,0.000152093,-0.00428859,-0.00130401,-0.0513554,4966,4966,0
