timestamp,timestamp_sample,accel_device_id,gyro_device_id,delta_angle[0],delta_angle[1],delta_angle[2],delta_velocity[0],delta_velocity[1],delta_velocity[2],delta_angle_dt,delta_velocity_dt,delta_velocity_clipping
351003524,351002369,4259850,4325386,2.15912e-05,1.43672e-05,0.000150303,0.00137948,0.000960136,-0.0475799,4993,4968,0
351007462,351007349,4259850,4325386,0.000163693,-3.59303e-05,-1.47652e-05,-0.000348531,-0.00114702,-0.0486645,4980,4965,0
351506386,351506277,4259850,4325386,8.42913e-06,-0.000415483,0.000440705,-0.00117126,0.0103513,-0.0456373,4931,4654,0
352005209,352005034,4259850,4325386,-0.00014892,-0.000309994,-0.000281687,0.00259524,0.000753038,-0.0534061,4996,5974,0
352508712,352508599,4259850,4325386,-0.00024219,-0.000575608,0.000266293,-0.00312369,0.0114806,-0.0478409,4987,4988,0
353002485,353002366,4259850,4325386,-0.000319353,-0.000108876,-0.00048115,0.00195688,-8.44806e-05,-0.0429285,4988,4974,0
353506333,353506217,4259850,4325386,-5.28386e-05,-0.000693753,0.000467757,-0.00593214,0.0107628,-0.0493459,4964,4926,0
354004980,354004862,4259850,4325386,-0.000442312,0.000160149,-0.000554724,-0.00394583,0.00122296,-0.0468262,4987,4767,0
354508314,354508147,4259850,4325386,0.00064327,-0.000310743,-0.000525351,0.000310129,0.000649672,-0.0472137,4971,4926,0
355006532,355006368,4259850,4325386,7.20769e-05,-0.000668374,0.000242606,-0.00527681,0.00244232,-0.0519425,4989,4982,0
355505381,355505246,4259850,4325386,0.000700333,-0.000170434,-0.000383553,0.000891086,0.00210206,-0.045161,4977,4928,0
356009022,356008893,4259850,4325386,0.000502922,-0.000352615,0.000114896,0.003087,0.00245786,-0.0467735,4982,4929,0
356502296,356502176,4259850,4325386,0.000163335,-0.000386821,-0.000455464,-0.00171944,-0.00475621,-0.0439692,4988,4747,0
357006297,357006146,4259850,4325386,0.000327037,9.17837e-05,-0.000836693,0.00116196,-0.00507853,-0.0438976,4963,4972,0
357504793,357504672,4259850,4325386,0.00341026,-0.00129229,-0.000523675,0.00687259,-0.00815677,-0.0473563,4988,4930,0
358003989,358003877,4259850,4325386,0.00150777,-0.00202163,-0.000177913,0.00222939,-0.00839066,-0.0498753,4987,4933,0
358507734,358507622,4259850,4325386,0.00140652,-0.000168598,-0.000521893,-0.0145447,-0.0039387,-0.0542547,4991,4938,0
359005354,359005201,4259850,4325386,0.00109633,0.00125966,-7.18263e-05,-0.0125666,-0.00390597,-0.0555537,4987,4986,0
359508761,359508619,4259850,4325386,-0.000126858,-0.000779572,-4.03569e-05,0.000660095,-0.00464897,-0.0361124,4987,4932,0
360007505,360007393,4259850,4325386,-0.0020886,2.03069e-05,0.00049815,0.00944677,0.00182673,-0.041496,5006,4886,0
360505752,360505630,4259850,4325386,-2.83694e-05,-0.000498189,-0.000204113,0.000741084,-0.00253876,-0.0458221,4987,4927,0
361004875,361004389,4259850,4325386,-0.000852991,0.000608831,-0.000254493,-0.00404301,0.000343071,-0.049937,4973,4923,0
361508404,361508289,4259850,4325386,5.38458e-05,0.000365625,-0.000345581,-0.00340303,-0.00332023,-0.0398092,4991,4657,0
362007354,362007186,4259850,4325386,-0.000110745,-0.000674707,-0.00046408,0.011468,-0.00823402,-0.0495513,5011,4900,0
362505792,362505638,4259850,4325386,0.000418356,-0.000365319,0.00030515,-0.0138904,0.00269289,-0.0505082,4954,4930,0
363009498,363009379,4259850,4325386,-0.000336919,-0.000329864,0.000365945,0.013066,-0.0142912,-0.0450316,4987,4996,0
363502909,363502736,4259850,4325386,-0.00126055,0.00126473,0.000334886,-0.015558,-0.00214743,-0.0569055,4999,4930,0
364006527,364006390,4259850,4325386,0.00102754,-0.000293896,-0.000646027,0.00509652,-0.00879009,-0.0372831,4966,4927,0
364505354,364505211,4259850,4325386,0.000448991,-0.00149181,0.000345231,-0.00421632,-0.00016763,-0.0501645,4971,4971,0
365004046,365003900,4259850,4325386,0.00161129,-6.22913e-05,1.74449e-05,0.00878277,-0.00755043,-0.0524649,4988,4759,0
365507763,365507642,4259850,4325386,0.000164364,-0.000523536,-0.000438715,0.00165649,-0.0278749,-0.0525208,4987,4980,0
366006727,366006399,4259850,4325386,0.001895,-0.000279013,-4.90845e-05,0.00526189,-0.00530835,-0.0617481,4988,5914,0
366505446,366505311,4259850,4325386,0.00155236,-0.000541696,-0.000620878,0.00537578,0.00295116,-0.0313989,4955,4735,0
367004158,367003992,4259850,4325386,-0.00235836,0.00074441,0.000594998,-0.0114193,0.01738,-0.0544714,5035,4927,0
367502793,367502665,4259850,4325386,-0.000639847,0.000825396,0.000828947,0.005265,0.0175997,-0.0309098,4785,3940,0
368006547,368006406,4259850,4325386,-0.0010615,0.000111229,-0.000204789,-0.0151671,0.00997464,-0.0592949,4988,4928,0
368505288,368505163,4259850,4325386,0.000291433,-0.000340705,-0.000624397,0.00130037,-0.00252152,-0.0500933,4991,4927,0
369004032,369003919,4259850,4325386,-0.00099227,0.00144371,0.000699054,-0.00545055,0.022918,-0.0491552,4991,4764,0
369507822,369507658,4259850,4325386,-9.26876e-05,-0.000202487,-0.000150054,0.00356367,0.00216608,-0.0375632,4986,4943,0
370005136,370005017,4259850,4325386,0.000517036,0.000675833,0.000929716,0.000827741,0.0205011,-0.0504845,5032,4910,0
370503828,370503671,4259850,4325386,-0.00248311,0.000658326,0.000944864,0.00117243,0.0237808,-0.0510526,4988,4926,0
371007558,371007416,4259850,4325386,-0.000934248,0.000414414,-0.000149201,-0.011957,-0.0155576,-0.0562244,4990,4987,0
371505787,371505671,4259850,4325386,0.000835361,0.000751964,-0.00600944,-0.00595014,0.00853358,-0.054573,4963,4925,0
372005798,372004427,4259850,4325386,0.000691027,-0.000498531,-0.000833861,0.013699,-0.0176261,-0.0454479,4988,5912,0
372508574,372508467,4259850,4325386,0.000412243,-3.8647e-05,0.0015644,0.0122483,0.0128107,-0.0397712,5017,4918,0
373007071,373006928,4259850,4325386,0.00148006,-0.000124021,0.000781728,-0.000196604,-0.00464825,-0.0473741,4990,4925,0
373506580,373506460,4259850,4325386,-0.000344529,1.39855e-05,0.000295432,-0.0024937,0.00225001,-0.0508843,4983,4923,0
374005209,374005094,4259850,4325386,-0.00178003,0.000750139,0.000524644,-0.00899224,0.0091502,-0.0554066,4978,4934,0
374503892,374503696,4259850,4325386,-5.37004e-05,0.000515635,-0.000524965,-0.0102774,-0.00466393,-0.0542458,4996,4929,0
375007664,375007529,4259850,4325386,1.21534e-05,-0.000519009,0.000622688,-0.00210906,0.00129354,-0.0485537,4958,4962,0
375506377,375506188,4259850,4325386,0.00170186,0.000187924,-0.000972954,-0.00451377,-0.00770536,-0.0517887,4984,5838,0
376005078,376004942,4259850,4325386,0.000565573,0.000396193,-0.000298225,-0.00689821,0.00571794,-0.0643868,4989,4768,0
376507884,376507686,4259850,4325386,-0.000661363,0.000243968,0.00020101,-0.00372232,-0.016233,-0.0489706,4987,5912,0
377006902,377006443,4259850,4325386,-0.00148185,0.000192095,0.00151283,-0.00181557,0.0237139,-0.050475,4987,5916,0
377504887,377504746,4259850,4325386,0.000805181,0.000414021,0.000274371,-0.00344006,-0.0103056,-0.049304,4987,4926,0
378003641,378003507,4259850,4325386,0.000411282,-0.00092172,-0.000945818,-0.0114931,-0.0231792,-0.0509017,4987,4869,0
378507525,378507416,4259850,4325386,-0.000404895,0.000719226,0.000692077,-0.00569048,0.0286876,-0.0543686,4956,4918,0
379006165,379006001,4259850,4325386,0.00151518,8.06494e-05,-0.000260752,0.01008,-0.0237055,-0.0445225,4987,4941,0
379504868,379504755,4259850,4325386,-0.00278252,-1.68671e-05,0.00129542,-0.00819446,0.0088665,-0.0438074,4986,4959,0
380008824,380008712,4259850,4325386,4.26206e-05,0.000518132,0.000818215,-0.0110553,0.0348382,-0.0582433,4984,4865,0
380507464,380507339,4259850,4325386,-0.00106877,0.000110773,0.000765562,-0.00666263,0.0153551,-0.0625148,4983,4992,0
381005613,381005502,4259850,4325386,-0.000907353,0.00111233,0.000295052,-0.00465245,0.00931992,-0.0437515,4970,4960,0
381504350,381504218,4259850,4325386,0.000307906,-0.00100256,-0.000934664,-0.00398738,-0.0223572,-0.041116,4988,4928,0
382008085,382007965,4259850,4325386,0.000207068,0.000406371,0.00023791,0.00605911,-0.00359447,-0.044496,4990,4932,0
382506910,382506792,4259850,4325386,-0.000437265,0.0006836,0.000577073,-0.00352021,0.0230721,-0.0516537,5002,4968,0
383006291,383005597,4259850,4325386,-0.000557905,-0.000394215,-0.00108753,-0.00576389,-0.0185592,-0.0637385,4976,5914,0
383509337,383509220,4259850,4325386,-0.000808793,0.00102589,0.000112314,-0.00138308,0.0134909,-0.0411639,4992,4961,0
384008139,384007978,4259850,4325386,-0.00136609,0.00101623,0.000159998,-0.00783131,0.014602,-0.0444614,4990,4118,0
384506862,384506752,4259850,4325386,-0.00117142,0.000460281,-0.000131106,-0.0102538,-0.0151281,-0.0538913,5013,4903,0
385005959,385005755,4259850,4325386,0.00137135,0.000334533,-0.000291664,0.00203567,-0.0129459,-0.0689437,5257,5937,0
385504357,385504241,4259850,4325386,0.00269008,-0.000419037,-0.000378136,-0.00914022,-0.0218098,-0.0530924,4990,4963,0
386008194,386008046,4259850,4325386,7.66212e-05,0.000530283,0.00118999,0.000269851,0.0164534,-0.0431295,5031,4926,0
386507218,386507068,4259850,4325386,0.00109263,-0.000430058,-0.0015022,0.000371227,-0.0282388,-0.039046,4956,4967,0
387005652,387005492,4259850,4325386,0.000887967,0.000614221,-0.000274201,0.000443317,-0.00899915,-0.0427306,4986,4936,0
387509347,387509236,4259850,4325386,-0.000450082,-0.000502873,0.000787247,-0.00936408,-7.24623e-05,-0.0511606,4984,4997,0
388003124,388003005,4259850,4325386,0.00194206,-0.000649661,-0.00106139,0.00347212,-0.0135017,-0.0468244,4988,4965,0
388507088,388506941,4259850,4325386,-0.000769281,-5.34345e-05,-0.000990203,-0.00904403,-0.0268655,-0.0534557,4960,4928,0
389005683,389005503,4259850,4325386,-0.000900689,-1.90861e-06,-4.90159e-05,-0.00149914,-0.00668287,-0.0538817,4987,5727,0
389504379,389504262,4259850,4325386,-0.00085219,0.00121458,0.00087355,-0.00933779,0.0287035,-0.0477242,4991,4959,0
390008388,390008199,4259850,4325386,-0.00109135,0.000353058,0.000542849,-0.0099852,-0.00205141,-0.0588694,4977,5907,0
390506889,390506758,4259850,4325386,-0.000771241,3.31663e-05,0.0010562,-0.00621749,0.00195092,-0.0502454,4980,4959,0
391006596,391005518,4259850,4325386,0.000997992,-0.000692474,0.000146766,-0.0031644,0.000793484,-0.0469297,4992,4942,0
391504383,391504271,4259850,4325386,-0.000865041,-3.61278e-05,-5.19148e-05,-0.0135274,0.0193114,-0.0559439,4988,4928,0
392003324,392003174,4259850,4325386,0.000528957,-0.000166173,4.93429e-05,0.00514812,0.00907605,-0.0514879,4936,4925,0
392506890,392506770,4259850,4325386,0.00114098,0.00147579,2.86646e-05,0.00544197,-0.01517,-0.0439106,4988,5000,0
393005679,393005570,4259850,4325386,0.00108887,-0.000193716,0.00059806,0.00466808,0.000943503,-0.0470817,5032,4921,0
393504659,393504517,4259850,4325386,0.000647869,-0.000206618,0.000121652,0.011537,-0.0112962,-0.0399189,5000,4765,0
394008460,394008303,4259850,4325386,0.000122722,-0.000176624,0.00120631,-0.00682748,0.0289979,-0.0434927,5265,4919,0
394507146,394506788,4259850,4325386,0.000324128,-0.000143964,6.20839e-05,-0.00915915,-0.00170351,-0.0591571,4994,4988,0
395005645,395005537,4259850,4325386,-2.49194e-05,-0.000349676,-0.000218225,-0.00803573,-0.00236286,-0.0513465,4990,4926,0
395503459,395503296,4259850,4325386,-0.000176459,0.000564347,0.00139027,-0.004449,0.0113277,-0.0554317,4987,4925,0
396007489,396007228,4259850,4325386,-0.00207605,0.001215,0.000785304,-0.00984224,0.0148392,-0.0492166,4977,4975,0
396505902,396505796,4259850,4325386,0.00146138,-0.000763341,-0.00151583,-0.00248155,-0.0282914,-0.0436585,4988,4929,0
397004700,397004554,4259850,4325386,0.000810574,-0.00086227,-9.59458e-05,0.007213,-0.0178605,-0.0427891,4988,4959,0
397508599,397508456,4259850,4325386,0.00023987,-0.000447939,3.52141e-05,0.00635746,-0.0114858,-0.0451641,4971,4928,0
398002345,398002185,4259850,4325386,-0.00182373,0.000775855,-0.000191251,0.000400295,0.00220074,-0.0414293,4989,4928,0
398505954,398505808,4259850,4325386,-0.000452556,0.00092686,-0.000728734,-5.32154e-05,-0.0168013,-0.0451461,4986,4966,0
399004541,399004354,4259850,4325386,0.000569005,-0.00016684,0.000216595,-0.00365665,0.0081371,-0.0602815,5276,6031,0
399508281,399507811,4259850,4325386,-0.00127752,-0.000108473,4.5707e-05,-0.00641262,-0.000571371,-0.0516674,4989,4921,0
400006803,400006677,4259850,4325386,-0.000918265,0.000843193,0.000656843,-0.00743592,0.0266057,-0.0525403,5050,4946,0
400506421,400505824,4259850,4325386,0.000319315,-0.000788657,-5.25341e-05,-0.000976202,-0.014868,-0.0527388,4990,4988,0
401004890,401004694,4259850,4325386,0.000629486,-0.000225238,0.00040236,-0.00697073,-0.000748419,-0.0680943,4976,5914,0
401508924,401508666,4259850,4325386,-0.000101255,0.000405511,0.000328787,0.00274643,0.00910354,-0.057477,5001,5915,0
402002862,402002752,4259850,4325386,0.000699034,-0.000476633,-0.000435457,0.00797526,-0.0122506,-0.0385179,4957,4956,0
402506446,402506332,4259850,4325386,0.00111714,-0.000268276,-0.000264134,-0.00646427,0.00372327,-0.0368573,4988,4958,0
403005717,403005588,4259850,4325386,0.00107878,-8.50928e-05,0.000748494,0.000863439,0.0124945,-0.0400922,4980,4933,0
403503982,403503847,4259850,4325386,-8.69591e-05,-0.00120398,0.00090499,-0.00343415,-0.00410225,-0.0581273,4986,4928,0
404008001,404007843,4259850,4325386,-0.00127276,-0.000374607,0.00160535,-0.0124292,0.0197666,-0.0610685,4954,4931,0
404506454,404506346,4259850,4325386,-0.000118817,0.000605519,0.00026343,-0.0110085,0.0183883,-0.0585649,4988,4928,0
405005311,405005104,4259850,4325386,0.00214051,0.000722288,0.000605181,-0.0043583,0.0141489,-0.0488907,4987,4924,0
405504074,405503920,4259850,4325386,-0.000473145,0.000409036,-0.00249281,-0.00262638,0.000832928,-0.0362094,4957,4958,0
406002731,406002615,4259850,4325386,-0.00111882,0.000987496,0.000476592,-0.0173195,-0.00252662,-0.0589421,4987,4927,0
406507259,406507099,4259850,4325386,0.000810421,0.000776827,0.000648293,-0.00327177,0.00760551,-0.0600521,4957,4947,0
407005733,407005616,4259850,4325386,0.000411886,5.64242e-05,0.000354032,-0.00185547,0.00135687,-0.0467207,4988,4790,0
407504654,407504372,4259850,4325386,-0.00190069,0.000490689,-8.78014e-05,-0.00986835,-0.00500937,-0.045411,4988,4650,0
408008451,408008345,4259850,4325386,0.00017865,0.00119782,0.000401245,0.000141459,0.0122129,-0.0453948,4955,4353,0
408507021,408506876,4259850,4325386,-0.00177787,0.000404948,0.00109688,-0.0087671,0.0211348,-0.0554529,4981,4930,0
409005745,409005628,4259850,4325386,0.000279038,-1.43826e-05,0.000134397,0.00159016,0.0169967,-0.0447963,4987,4923,0
409504522,409504386,4259850,4325386,0.00192015,6.91428e-05,0.000310501,0.00370269,-0.0024911,-0.0460819,4987,4927,0
410007746,410007633,4259850,4325386,-0.003816,0.000563539,0.000131937,-0.000479417,0.00119116,-0.0437224,4990,4957,0
410506654,410506542,4259850,4325386,-0.00051588,-0.000251833,0.000391971,-0.0112955,0.00646754,-0.0513467,4991,4960,0
411005480,411005298,4259850,4325386,-0.000950205,0.000643313,0.000792327,-0.0151435,0.0151415,-0.0546206,4983,4931,0
411504009,411503901,4259850,4325386,0.000244323,-0.000975453,4.80924e-06,0.0123833,-0.0203212,-0.0430479,4968,4928,0
412002773,412002659,4259850,4325386,-0.00138494,0.000575789,0.000171319,-0.0152697,0.0228598,-0.0566944,4988,4925,0
412506515,412506402,4259850,4325386,0.00157329,-0.00039986,-0.00097839,0.00951257,-0.0264874,-0.0409,4989,4918,0
413005293,413005163,4259850,4325386,0.000377165,0.000513711,0.000668474,-0.000635067,0.0154996,-0.0432843,4990,4725,0
413504036,413503916,4259850,4325386,0.000574438,0.000607291,0.000584886,-0.00384585,0.00746091,-0.0518845,4979,4937,0
414007516,414007381,4259850,4325386,-0.000260504,-0.000863849,0.000900471,-0.00318124,0.00860775,-0.0526918,4962,4928,0
414506339,414505919,4259850,4325386,0.00199607,0.000108017,-0.00101375,0.00547057,-0.0273978,-0.0439157,4988,4930,0
415004829,415004675,4259850,4325386,-0.000637424,9.25944e-05,-0.000233406,-0.0160355,0.00614049,-0.0530618,4987,4942,0
415508750,415508611,4259850,4325386,-6.13961e-05,-3.47254e-05,-0.000643003,-0.00313437,0.000426387,-0.0476678,4988,4988,0
416002362,416002226,4259850,4325386,-0.00221494,0.00055602,-2.66998e-05,-0.0180618,-0.00293028,-0.0589873,4984,4926,0
416506087,416505938,4259850,4325386,0.00189208,-0.00325448,-0.000978377,0.00745753,-0.0295631,-0.0430192,4991,4689,0
417004911,417004693,4259850,4325386,0.000224624,0.000661438,0.00050897,-0.00301314,-0.00316635,-0.0633326,4991,5908,0
417507596,417507484,4259850,4325386,-0.000384919,9.17856e-05,-0.000161113,-0.00051306,-0.00191093,-0.0449782,4975,4927,0
418006641,418006461,4259850,4325386,0.00098975,-0.000321516,0.000107119,0.00804569,0.00732041,-0.0422368,4964,4923,0
418505113,418505000,4259850,4325386,0.000759416,-0.000180312,-0.000482166,0.00139899,-0.0139596,-0.0462449,4990,4768,0
419003882,419003757,4259850,4325386,0.000197219,-4.85093e-05,-0.000454527,0.0032853,0.00658323,-0.0388456,4989,4930,0
419502773,419502615,4259850,4325386,0.000150506,-1.50103e-05,-0.000887572,-0.0018153,-0.00440311,-0.0426538,4997,4998,0
420006433,420006305,4259850,4325386,0.00372868,2.11135e-05,1.07308e-05,0.00751587,-0.0155972,-0.0452783,4992,4982,0
420505907,420505746,4259850,4325386,-0.00140135,0.000786074,0.0012496,-0.00374762,0.0280458,-0.0635543,5269,5958,0
421004345,421004223,4259850,4325386,0.00140751,-0.00106063,0.000156143,0.00854816,-0.00895233,-0.0451383,4985,4968,0
421507897,421507672,4259850,4325386,-0.000304143,-0.000573163,-0.000497838,0.00299902,-0.0155444,-0.0443742,4963,4927,0
422006391,422006273,4259850,4325386,0.00140345,0.000149025,-0.000590598,0.0109077,-0.00711361,-0.0442075,4988,4994,0
422505147,422505031,4259850,4325386,-0.000116666,-0.00031225,-0.000950198,-0.00800315,-0.00759448,-0.0496786,4983,4924,0
423003968,423003848,4259850,4325386,1.17797e-05,0.00066825,0.000406476,-0.00578542,-0.00028709,-0.0527175,5006,4931,0
423502681,423502545,4259850,4325386,0.00120884,-0.00052373,-0.00123355,0.00631986,-4.43945e-05,-0.0371456,4988,4927,0
424006605,424006466,4259850,4325386,-0.000167822,-0.000929105,-0.00121739,-0.0124739,-0.0172437,-0.0542476,5049,4941,0
424505236,424505048,4259850,4325386,-0.000938801,-2.80217e-05,0.000590823,0.000596117,0.00432257,-0.0462092,4990,4927,0
425009043,425008896,4259850,4325386,6.59407e-05,-0.000140691,0.000599737,-0.00622896,0.000756118,-0.0484621,4976,4928,0
425502674,425502560,4259850,4325386,-8.6747e-05,0.000712774,0.000605633,0.00275743,0.0183988,-0.0481132,4988,4929,0
426006429,426006309,4259850,4325386,-2.07183e-05,0.000120642,0.000116982,-6.29188e-05,-0.00110836,-0.0494144,4992,4955,0
426505217,426505068,4259850,4325386,0.0012941,0.000231916,-0.000223617,0.00892966,0.0215702,-0.0412581,4988,4922,0
427004255,427004091,4259850,4325386,0.000835951,-0.000617462,-9.62549e-05,0.00990612,-0.0108462,-0.0433499,5256,4735,0
427507788,427507638,4259850,4325386,-0.000398397,0.000564501,0.000666557,0.000567246,0.0204488,-0.0500992,4995,4927,0
428006886,428006773,4259850,4325386,0.000424597,-0.000589346,-0.00104637,-0.00118101,-0.0216228,-0.0452104,4989,4923,0
428506212,428506034,4259850,4325386,-0.0012621,0.000676498,0.000198116,-0.00883962,0.00611658,-0.0467119,4994,4929,0
429009547,429009413,4259850,4325386,-0.000223389,-0.000552427,-0.000346138,-0.00390414,-0.0103821,-0.0514426,4970,4927,0
429508158,429508031,4259850,4325386,0.00163782,-0.000197148,-0.000641751,0.00948711,-0.020178,-0.0428156,4987,4930,0
430006910,430006792,4259850,4325386,0.000316107,0.000321161,-0.000165184,0.0011236,-0.00455322,-0.0523465,4991,4990,0
430505663,430505547,4259850,4325386,0.000266326,1.11571e-05,-0.000232986,-0.00279452,0.000968414,-0.0466319,4988,4969,0
431004175,431003887,4259850,4325386,0.00059608,0.000131923,2.32273e-05,-0.00404646,-0.0151656,-0.0504814,4998,4936,0
431507729,431507600,4259850,4325386,-0.00135632,7.52255e-05,0.000337196,-0.000474023,0.00929245,-0.0447702,4754,4920,0
432006586,432006407,4259850,4325386,-7.38775e-05,-0.00015221,5.347e-05,0.00767174,-0.00800587,-0.0413421,4973,4972,0
432505260,432505112,4259850,4325386,-0.00040456,0.0003532,-8.00517e-05,0.00396019,0.00826866,-0.0418181,4987,4927,0
433009030,433008857,4259850,4325386,0.000903617,-0.000169601,-0.000403151,0.00597094,0.0142221,-0.0335433,4987,4653,0
433502809,433502628,4259850,4325386,-1.61976e-05,-0.000796234,-0.000721437,0.00101943,-0.00759019,-0.0549185,4988,5910,0
434006692,434006515,4259850,4325386,0.000343777,0.000153338,-0.000326794,-0.00246026,-0.00805201,-0.0504298,4965,4923,0
434505408,434505134,4259850,4325386,-0.00121693,0.00156442,0.000737011,-0.0028632,0.0240685,-0.0488011,4992,4928,0
435004137,435004028,4259850,4325386,-0.000161837,0.000209706,0.000384291,2.66821e-05,0.0116791,-0.0487995,4956,4928,0
435508606,435508087,4259850,4325386,0.000622506,-1.9609e-05,-0.00035265,0.00294995,-0.00377172,-0.0438188,4991,5788,0
436007457,436007339,4259850,4325386,0.000332825,0.00010346,-0.000288665,-0.0104182,-0.014873,-0.0531615,4987,4998,0
436506822,436506106,4259850,4325386,0.00162437,-0.00155055,-0.000933327,0.00338909,-0.0287282,-0.05292,4996,5916,0
437005170,437005015,4259850,4325386,-0.00019683,0.00101703,0.00030453,-0.00576014,0.0231072,-0.0569193,5002,5000,0
437503846,437503668,4259850,4325386,-0.00021814,0.000269555,0.00137004,0.00147869,0.00576559,-0.057456,4992,5865,0
438007212,438006859,4259850,4325386,0.00219731,0.000472326,0.000224793,0.00927714,0.00222225,-0.0435148,4984,4929,0
438505748,438505616,4259850,4325386,-0.00150156,0.0001781,-0.000181823,-0.00639272,-0.0209458,-0.0514901,4988,4963,0
439009106,439008914,4259850,4325386,0.000456413,0.000175685,-0.000408197,-0.0020112,-0.00165167,-0.0452606,4987,4874,0
439503056,439502927,4259850,4325386,0.000593087,-0.000557833,-0.00129132,0.00153484,-0.0198923,-0.038808,4957,4930,0
440006542,440006425,4259850,4325386,-0.000682994,-0.000276612,-0.000688845,-0.00397733,-0.00858271,-0.0451512,4987,4974,0
440505304,440505186,4259850,4325386,0.00120854,0.000575101,-0.000419595,0.0101941,-0.0206512,-0.0486807,4985,5003,0
441004186,441003999,4259850,4325386,-0.00124725,-0.000621821,-0.00034213,0.00367994,-0.0017063,-0.0417907,4976,4938,0
441507864,441507701,4259850,4325386,-0.000760295,0.00172229,0.00118069,-0.00402867,0.0202635,-0.0520343,5003,4888,0
442006608,442006497,4259850,4325386,0.000852079,-0.000759819,-0.000643945,0.00400418,-0.0201376,-0.0434218,4989,4968,0
442504304,442504182,4259850,4325386,-0.00132666,-0.000757113,-0.000153299,-0.00706864,0.0115803,-0.0501901,4979,4974,0
443008091,443007937,4259850,4325386,-0.000581691,-0.00021507,-2.6921e-05,-0.000122734,0.00456224,-0.0353197,4971,4965,0
443506786,443506659,4259850,4325386,0.000357592,-0.000506733,-0.000881543,-0.00391014,-0.00865067,-0.0440864,4988,4929,0
444006495,444005420,4259850,4325386,0.000863964,-0.000192999,-4.26748e-05,0.00688365,-0.0195564,-0.0429576,4981,4927,0
444504372,444504174,4259850,4325386,0.00149545,-0.000527528,-0.000620325,0.00741991,-0.0209337,-0.0389469,4985,4928,0
445003266,445003073,4259850,4325386,0.000581424,-0.000355188,8.99239e-05,-0.00904424,-0.00841988,-0.0509694,4969,4969,0
445506840,445506677,4259850,4325386,-0.000857275,0.000413144,0.000131108,-0.0168068,0.0307367,-0.0545544,4987,4955,0
446006059,446005936,4259850,4325386,0.00114028,6.34478e-06,0.000343421,0.00687748,-0.0135539,-0.0501912,4990,4944,0
446504815,446504692,4259850,4325386,0.000461022,0.000633779,0.000621294,0.0010546,0.00388345,-0.0386751,4979,4927,0
447008601,447008465,4259850,4325386,-0.000503706,-0.00192468,-0.00109932,-0.0097673,-0.00776944,-0.045609,4963,4957,0
447507602,447507487,4259850,4325386,0.000841002,-2.24899e-05,0.000101557,0.00987843,-0.000125041,-0.0447646,4992,4930,0
448006286,448006122,4259850,4325386,-0.000661993,-0.000252774,-8.14974e-05,-0.000332437,-0.014264,-0.0515975,4988,4984,0
448505125,448504718,4259850,4325386,0.000141589,0.000240583,-4.40163e-06,-0.00366663,-0.019016,-0.0528207,4995,4995,0
449008573,449008458,4259850,4325386,-0.00030728,-0.000549533,-0.00112494,-0.00807705,-0.00932421,-0.0446803,4995,4971,0
449507638,449507490,4259850,4325386,0.00218338,0.00107772,0.000255825,0.0073839,0.00864948,-0.0491649,5264,4929,0
450006083,450005972,4259850,4325386,-0.00129955,-0.000303305,-0.000759791,-0.010781,-0.0160064,-0.0524339,4987,4961,0
450503844,450503732,4259850,4325386,-0.000496774,-0.000375669,-0.000579813,-0.00602328,-0.00553994,-0.0500952,4988,4975,0
451002653,451002513,4259850,4325386,-0.000788841,0.000664078,0.000691875,-0.00881753,0.03181,-0.0459626,4966,4969,0
451506511,451506400,4259850,4325386,0.00141572,-0.00121063,-0.000740864,0.00589754,-0.0278271,-0.0406349,4965,4927,0
452005198,452005040,4259850,4325386,-0.00184861,7.70237e-05,0.000498892,-0.00536145,0.0161277,-0.0415532,4988,4928,0
452503506,452503389,4259850,4325386,0.000216155,1.84878e-05,6.85824e-05,-0.000526184,0.0109999,-0.0586726,4967,4930,0
453007119,453007000,4259850,4325386,-0.000647925,-0.000583355,-0.000300047,-0.00407831,0.00229621,-0.052622,4989,4768,0
453506128,453505758,4259850,4325386,-0.000919217,0.000106916,-0.000357288,-0.00835521,-0.0203418,-0.0497894,4991,4929,0
454009764,454009647,4259850,4325386,0.000725273,0.000418745,-0.000184294,-0.00602043,0.0155077,-0.0539605,4972,4780,0
454503549,454503427,4259850,4325386,-0.00129974,4.83732e-05,-5.31337e-05,-0.00171157,0.0150826,-0.0363062,4987,4927,0
455007137,455007018,4259850,4325386,-0.00155272,0.00110329,0.000549048,-0.00226459,-0.00849408,-0.0450496,4987,4928,0
455505939,455505776,4259850,4325386,0.000244889,-2.51787e-05,-0.000362174,0.00878346,-0.0299552,-0.041648,4988,4952,0
456009856,456009580,4259850,4325386,0.000648389,0.00050323,0.000487759,-0.00588931,-0.00650399,-0.0584233,4960,4929,0
456508386,456508279,4259850,4325386,-0.000396568,0.000242412,0.00130774,-0.00644172,0.0239764,-0.0448,4955,4933,0
457006734,457006588,4259850,4325386,-0.00133625,-0.000424622,0.000793473,-0.0106394,0.0313629,-0.0560647,4986,4923,0
457509517,457509390,4259850,4325386,-0.000189687,0.000280956,0.000721191,-0.00173654,0.0170445,-0.0369005,4767,3938,0
458003175,458003057,4259850,4325386,0.000518854,-0.00087693,8.39982e-06,0.00633601,-0.0299715,-0.0434414,4985,4924,0
458507384,458506806,4259850,4325386,0.000361824,0.00169178,-0.000101634,0.0122275,-0.0177095,-0.043183,4991,4925,0
459005673,459005561,4259850,4325386,-0.00207203,5.45294e-05,-0.00020075,-0.0103113,-6.43886e-05,-0.058891,4988,4748,0
459504798,459504586,4259850,4325386,0.000686768,-0.000720136,0.000896876,-0.0126394,0.00931159,-0.0712754,5255,6069,0
460007710,460007566,4259850,4325386,0.00355323,-0.001121,-0.000805587,-0.0092463,0.00752364,-0.0529578,4987,4966,0
460504938,460504828,4259850,4325386,-0.000626379,0.00121336,-0.000120196,-0.01146,-0.0150345,-0.0548699,4988,4933,0
461008484,461008370,4259850,4325386,-0.000925771,0.000256536,0.000532542,-0.0111839,0.0151956,-0.0505739,5008,4904,0
461502247,461501849,4259850,4325386,0.000546548,-0.000504394,-0.000452426,0.00271572,-0.0240971,-0.0404541,4986,4928,0
462005700,462005591,4259850,4325386,0.000785336,-0.000406472,-0.000416343,0.00112728,-0.0243323,-0.0432861,4988,4929,0
462504512,462504352,4259850,4325386,0.00069095,-0.00112022,-0.000433701,-0.00747871,0.00669258,-0.049641,4989,4971,0
463008419,463008301,4259850,4325386,0.00070141,0.0010835,0.000723088,-0.00844201,0.0151464,-0.0538669,4982,4928,0
463506969,463506853,4259850,4325386,0.000737429,-0.000886439,-0.000188857,-0.00620844,-0.0015393,-0.0546691,4988,4972,0
464006227,464006110,4259850,4325386,0.00102337,0.000377808,-0.000670909,-0.00257408,-0.00430471,-0.0415458,4987,4939,0
464504981,464504868,4259850,4325386,-0.000908593,0.000816094,0.00118085,-0.0149004,0.0281386,-0.0531338,4987,4967,0
465003288,465003129,4259850,4325386,6.4014e-05,-0.000222415,-0.00143892,-0.00397478,-0.0261249,-0.0504143,4985,4930,0
465506982,465506874,4259850,4325386,-0.000475947,0.000862051,0.000407591,-0.0075079,0.000311926,-0.0479337,4987,4973,0
466006290,466005633,4259850,4325386,0.00108083,-0.000243282,-0.0011686,-0.00277185,-0.0198094,-0.0464794,4979,5918,0
466504696,466504567,4259850,4325386,-0.00260056,-4.24875e-05,0.000383053,-0.0146729,0.0212046,-0.0497618,4930,4661,0
467007792,467007640,4259850,4325386,0.0011824,-0.000742155,0.000677452,0.00146861,0.00113645,-0.0550573,4991,4928,0
467502023,467501910,4259850,4325386,-0.000144284,0.00100751,0.00194897,-0.00590718,0.0378629,-0.0524193,4991,4925,0
468005962,468005799,4259850,4325386,0.000432486,-0.000494197,4.2476e-05,-0.00418541,-0.00171719,-0.0537055,4958,4956,0
468504616,468504414,4259850,4325386,0.000497432,0.00234499,0.000301412,-0.00076308,0.0219319,-0.0485625,4991,5002,0
469003279,469003168,4259850,4325386,0.000240791,0.000657795,0.00087674,0.00432951,0.00766864,-0.0446436,4983,4924,0
469503112,469503002,4259850,4325386,0.00152889,-0.000114213,-0.00124974,-0.00527258,-0.0250577,-0.0444703,4967,4961,0
470006302,470006172,4259850,4325386,-0.00115711,0.000484102,0.00120075,-0.00326144,0.0198244,-0.0521051,4986,4928,0
470505210,470504931,4259850,4325386,0.000483734,7.77211e-07,0.00103245,-0.0140991,0.023233,-0.0605524,4988,5891,0
471008802,471008676,4259850,4325386,0.000148316,0.000824839,-0.00035793,0.00685279,-0.0185534,-0.0470314,4988,4933,0
471507231,471507098,4259850,4325386,0.00154226,3.43006e-05,-0.000725389,-0.000292841,-0.0221182,-0.0465635,4969,4974,0
472006264,472006141,4259850,4325386,0.000619507,-0.000455438,-0.000148525,0.00372374,-0.0144254,-0.0535651,4963,4927,0
472504573,472504453,4259850,4325386,0.000190208,-0.000193054,-0.000566385,-0.00584782,-0.0276531,-0.0446228,4989,4928,0
473004461,473003213,4259850,4325386,0.000400134,-0.000605843,0.000605896,-0.00359006,0.0188654,-0.0617931,4990,5859,0
473507115,473507004,4259850,4325386,-0.00157345,0.000151251,0.000829574,-0.0116862,0.0183871,-0.0528726,4965,4925,0
474005863,474005721,4259850,4325386,-0.00146942,0.000188894,-0.000493145,-0.0119166,-0.00161854,-0.0543536,4994,4974,0
474509122,474508970,4259850,4325386,-7.23176e-05,-0.000190006,0.000160183,0.00626453,-0.0240884,-0.0484754,4970,4928,0
475008826,475008718,4259850,4325386,0.000401661,0.000482401,-0.000449324,0.00765503,-0.0101674,-0.0461783,4988,4967,0
475502606,475502493,4259850,4325386,0.00041053,-0.00097624,-0.000977854,0.00411954,-0.0233703,-0.0445784,4987,4956,0
476006503,476006375,4259850,4325386,-0.000371959,0.000853646,0.000951074,-0.0116395,0.0349438,-0.0427359,4969,4971,0
476505661,476505541,4259850,4325386,0.00079387,0.00033196,-0.000694509,-0.000218961,-0.0056737,-0.046242,4987,4779,0
477004689,477004504,4259850,4325386,-0.00146089,0.000519157,0.000614027,-0.00973512,0.025794,-0.0585369,4962,4961,0
477508159,477508045,4259850,4325386,0.000271511,-0.000564851,0.000434331,-0.000765067,0.000604786,-0.0455205,4986,4979,0
478006916,478006802,4259850,4325386,-0.00139419,0.00048257,0.00101831,-0.014712,0.0185216,-0.0538887,4982,4928,0
478506448,478506014,4259850,4325386,0.000540785,-0.000263559,-0.000981129,-0.00541925,-0.0157804,-0.0574322,4989,5915,0
479005017,479004909,4259850,4325386,0.000321637,0.000973057,-0.000554375,-0.000601419,-0.0165413,-0.0488805,4953,4762,0
479503976,479503825,4259850,4325386,-0.00215934,0.000449332,0.000295169,0.000719373,0.0115039,-0.0449017,5259,4927,0
480008025,480007870,4259850,4325386,0.000504004,-0.000257957,-0.000522202,-0.00357421,-0.0268845,-0.0417298,4979,4973,0
480506727,480506532,4259850,4325386,-0.000841494,0.000422208,-0.000152265,0.0023784,-0.00407295,-0.0458758,4988,4953,0
481005509,481005351,4259850,4325386,-0.000356382,-5.6473e-05,-0.00020076,-0.00247764,-0.0184744,-0.0457311,4999,5001,0
481508708,481508538,4259850,4325386,0.000601843,0.000217885,-0.00101035,-0.00893396,-0.0185912,-0.0430297,4988,4971,0
482008507,482007299,4259850,4325386,-0.000629366,-0.000440495,0.000322532,-0.00804447,-0.000807727,-0.0558515,4990,4966,0
482505734,482505603,4259850,4325386,-0.0012341,-0.000275149,-0.000458995,-0.005457,-0.00840946,-0.0451121,4988,4927,0
483004490,483004364,4259850,4325386,0.000196476,-0.000113747,0.000740335,-0.00143029,-0.00298837,-0.0488295,4989,4930,0
483503279,483503162,4259850,4325386,-0.000117993,0.00128537,0.00058628,-0.0104017,0.0246123,-0.0551037,5029,4898,0
484006555,484006446,4259850,4325386,-0.000466583,0.000544141,0.000311635,-0.00510595,0.016874,-0.051368,5032,4930,0
484505274,484505080,4259850,4325386,-0.000149809,0.000330063,0.000254943,0.000740698,0.0105484,-0.0445988,4988,4964,0
485004494,485004383,4259850,4325386,-0.000562027,0.000378205,0.000299347,0.0035402,0.00984137,-0.0388142,4987,4951,0
485508824,485508214,4259850,4325386,-0.000779038,-0.000789083,0.000142019,-0.0051591,0.0181217,-0.0615166,4964,5920,0
486002461,486002351,4259850,4325386,0.000119918,-0.000315121,-0.000373235,-0.00573944,-0.0136969,-0.0508363,4922,4922,0
486506462,486506313,4259850,4325386,-0.000231405,0.000145478,0.000986535,-0.000179291,0.0290196,-0.0509531,4992,4928,0
487005127,487004987,4259850,4325386,-0.000178138,0.00040308,0.000646748,-0.00560155,0.0128266,-0.0452263,4963,4769,0
487503765,487503620,4259850,4325386,0.000241249,0.000143158,-0.000459695,-0.00548565,0.000124329,-0.0519937,4990,4958,0
488007475,488007360,4259850,4325386,0.000689003,-0.000206903,-0.00010045,0.0058448,-0.0142752,-0.0457083,4977,4927,0
488506249,488506118,4259850,4325386,-0.000477782,-0.00024202,-0.000729938,-0.00517938,-0.0179796,-0.0456292,4987,4991,0
489009703,489009497,4259850,4325386,-0.000601336,0.000999963,0.000137671,-0.012624,0.00686145,-0.0520347,4970,4967,0
489503751,489503638,4259850,4325386,0.00123212,0.000157398,-0.000517692,0.00983162,-0.00836362,-0.0364025,4990,4998,0
490002711,490002563,4259850,4325386,4.2504e-05,-8.30114e-05,2.27941e-05,-0.00147664,0.0140626,-0.0451994,4924,4735,0
490506360,490506215,4259850,4325386,0.00230405,-0.000355483,-0.00126728,0.00259564,-0.0375671,-0.0477245,4990,4928,0
491005064,491004899,4259850,4325386,-0.00100011,-0.000628993,-0.000292566,0.0134284,-0.0249211,-0.0395056,4984,4927,0
491508811,491508693,4259850,4325386,-0.000968917,3.89403e-05,-0.000110543,-0.0110031,-0.00852467,-0.0551103,5036,4924,0
492007851,492007637,4259850,4325386,0.000307362,0.000148422,-0.000122744,0.00905781,-0.0073812,-0.038215,4968,4967,0
492506391,492506173,4259850,4325386,0.00163596,-0.000857457,-0.000333686,0.00547863,-0.012877,-0.0406488,4999,4999,0
493005036,493004922,4259850,4325386,-0.00132453,0.000166214,4.63219e-05,-0.00716383,0.0215931,-0.0520465,4984,4958,0
493503965,493503811,4259850,4325386,0.000394487,-0.000206986,2.28241e-05,-0.00305892,-0.0106583,-0.0552865,4994,4929,0
494007605,494007465,4259850,4325386,0.000164229,-0.000104005,0.00086706,0.0107074,0.020886,-0.045155,5003,4931,0
494506332,494506201,4259850,4325386,0.000407448,-7.73443e-05,-0.000125783,0.00448573,-0.00748311,-0.049758,4994,5884,0
495005185,495004978,4259850,4325386,-0.00213147,0.00139118,9.34238e-05,-0.00912132,0.00843266,-0.0530808,5024,4908,0
495509000,495508863,4259850,4325386,-0.000637301,-8.82826e-05,-0.000703551,-0.00795127,-0.0307064,-0.0581193,4972,4928,0
496008631,496007492,4259850,4325386,-0.000569275,-0.000408662,-0.00106561,-0.0133793,-0.00956201,-0.054561,5033,4917,0
496506312,496506205,4259850,4325386,0.00107567,0.00143911,0.00110132,-0.00768937,0.02766,-0.0473621,4986,4954,0
497005198,497005050,4259850,4325386,-0.00230698,4.52308e-05,-0.00047286,-0.00791307,-0.0112552,-0.0406374,4984,4928,0
497504337,497504225,4259850,4325386,0.000125684,-0.000615651,-0.000323702,-0.00331637,-0.00797418,-0.0466482,4992,4984,0
498008348,498008202,4259850,4325386,-7.4091e-05,0.00384957,0.00144149,-0.00528081,0.0316521,-0.0495032,4960,4661,0
498506830,498506725,4259850,4325386,-0.000420961,0.000108208,-0.000157265,-0.00622086,0.00203646,-0.0490786,4952,4926,0
499005649,499005496,4259850,4325386,0.000159787,-0.000475925,0.00052076,0.0012291,-0.000620039,-0.0539675,4986,4963,0
499509576,499509420,4259850,4325386,-0.000312345,-5.10558e-05,4.43635e-07,-0.00837514,0.000977707,-0.0573537,4982,4932,0
500003161,500003020,4259850,4325386,-0.000188002,-1.46759e-05,-0.00458823,0.0017076,0.00201174,-0.0485559,5007,4904,0
500502897,500502786,4259850,4325386,-0.00119579,-0.000295581,-0.0104039,0.0165972,-0.00123987,-0.0222373,5014,4907,0
501006713,501006586,4259850,4325386,-0.00137592,-0.000550863,-0.00115211,-0.00639804,0.00183921,-0.0579616,4958,4960,0
501506249,501505263,4259850,4325386,0.000476802,0.00104729,0.00147233,0.00264785,-0.0110872,-0.060613,4988,5908,0
502004212,502004061,4259850,4325386,-0.000241448,-0.000364564,0.00171194,0.00078235,0.024411,-0.0559477,4989,4947,0
502508371,502507768,4259850,4325386,-0.000790182,-0.000390427,2.95307e-05,-0.00286516,-0.0102219,-0.0380495,4984,4966,0
503006828,503006695,4259850,4325386,0.00149432,-0.000357401,-0.000724746,0.000933126,-0.0180657,-0.0454082,4961,4930,0
503505397,503505285,4259850,4325386,0.000712289,-0.000742711,0.000173736,0.0120411,-0.00227293,-0.0401072,4989,4982,0
504004479,504004044,4259850,4325386,-0.00167534,0.000585563,0.00109629,-0.0016539,0.0216503,-0.0587089,4989,5755,0
504507666,504507442,4259850,4325386,-0.000808191,0.00108452,0.00126602,-0.0106002,0.0222745,-0.0588575,4990,5482,0
505006512,505006051,4259850,4325386,0.000216389,-0.000704659,0.000522341,-0.00493358,-0.0020987,-0.0452072,4988,4940,0
505504952,505504841,4259850,4325386,1.53618e-05,-3.87905e-05,-0.000282147,-0.00697033,-0.0128157,-0.0534755,5022,4913,0
506009077,506008828,4259850,4325386,-0.000337161,0.0009648,0.000964939,0.00345611,0.0302715,-0.0577109,5262,5910,0
506502469,506502324,4259850,4325386,-5.43883e-06,0.000537218,0.000405704,-0.00716053,0.00123539,-0.056661,4981,4928,0
507005996,507005807,4259850,4325386,-0.00105167,0.000608602,0.000442294,-0.0132743,0.000661729,-0.0556539,4969,4927,0
507504746,507504333,4259850,4325386,0.000884757,0.00102817,0.00112369,-0.00634933,0.0202673,-0.0568145,4990,4999,0
508007859,508007746,4259850,4325386,-0.00143835,0.000497206,-0.000667873,-0.00792688,-0.000951995,-0.0466011,4968,4928,0
508506480,508506370,4259850,4325386,-0.00025185,0.000226521,-0.00223377,-0.00251261,0.0202471,-0.0380111,4987,4921,0
509005240,509005106,4259850,4325386,4.18666e-05,-0.00178867,-0.000361982,0.0118803,-0.0327902,-0.0480762,4995,4968,0
509503990,509503850,4259850,4325386,0.00035156,-0.00106387,-0.000598685,0.00231367,-0.00777427,-0.0454379,4957,4926,0
510009243,510007602,4259850,4325386,-0.000917717,0.00148395,0.000863962,-0.00422267,0.0223927,-0.0545811,4986,5981,0
510506232,510505999,4259850,4325386,-0.000375581,-8.09614e-05,0.000298808,0.00545026,0.00791187,-0.0396344,4978,4970,0
511005234,511005035,4259850,4325386,0.000470941,-0.000615158,-0.000114997,0.00319762,-0.00143138,-0.0453394,4982,4967,0
511502990,511502878,4259850,4325386,0.00177605,0.00164626,0.000749265,0.000553131,-0.00911831,-0.0484746,4987,4636,0
512006259,512006124,4259850,4325386,0.00123744,0.000298295,0.000680846,0.00635856,0.00516601,-0.0462422,4978,4863,0
512505670,512504894,4259850,4325386,-0.00120505,-0.00134438,-0.00110723,-0.00783699,-0.023475,-0.0500546,4990,4876,0
513008897,513008786,4259850,4325386,-0.00355299,0.00105677,-0.00071986,-0.00635147,0.00278478,-0.0517206,4959,4926,0
513507502,513507390,4259850,4325386,0.000101449,-0.000250879,-0.000465755,0.00128051,-0.0270229,-0.0455651,4985,4791,0
514006139,514005985,4259850,4325386,0.000688352,0.0010103,-0.0010366,-0.00355056,0.00705894,-0.0449215,4985,4983,0
514504605,514504409,4259850,4325386,-0.000539038,-9.42838e-05,0.000641691,-0.00112474,-0.00175393,-0.0485661,4988,4990,0
515007916,515007777,4259850,4325386,0.00112702,0.00130463,0.000221423,-0.0121149,0.00711483,-0.052568,5019,4914,0
515506529,515506410,4259850,4325386,-0.00143634,0.000675579,1.89071e-05,-0.00581533,-0.0130304,-0.0525691,4961,4960,0
516005417,516005305,4259850,4325386,-0.000622301,-0.000163756,0.00101753,-0.0110669,0.0260404,-0.0527352,5004,4956,0
516504541,516504431,4259850,4325386,-0.000144674,0.0001503,0.00053081,0.00573051,-0.00663963,-0.0465048,4988,4939,0
517008298,517008177,4259850,4325386,0.00035075,9.96845e-06,0.000480635,0.00220553,-0.00241819,-0.0470903,4967,4936,0
517502394,517502235,4259850,4325386,0.000135426,-0.000242566,0.000377005,2.75966e-05,-0.0169085,-0.0544248,4954,4946,0
518005850,518005694,4259850,4325386,-0.000380468,-0.000201398,0.000235305,0.00455564,-0.00508831,-0.0446419,4987,4930,0
518505634,518505451,4259850,4325386,-0.00390469,0.000849444,0.00155684,-0.00509017,0.0217132,-0.0604969,4987,5914,0
519004510,519004336,4259850,4325386,0.00201278,-2.30066e-05,-0.000467342,0.00559167,-0.0250768,-0.0373389,4956,4953,0
519508125,519507460,4259850,4325386,-0.00155145,0.000984281,-0.000647694,-0.00163223,0.00669517,-0.0448926,4944,4929,0
520006446,520006338,4259850,4325386,0.000477125,-0.000608094,-0.000833529,-0.00100398,-0.024375,-0.0500561,4974,4972,0
520505089,520504974,4259850,4325386,-0.00112439,8.62494e-05,-0.00293132,-0.000419871,0.00869736,-0.0533809,4987,4932,0
521003841,521003734,4259850,4325386,-0.000572113,-0.00019025,-0.00092561,-0.00654325,-0.0159434,-0.0564734,4983,4963,0
521502735,521502599,4259850,4325386,0.00152174,0.000259283,-0.000235134,0.003415,-0.0169125,-0.0391878,4986,4714,0
522006954,522006524,4259850,4325386,0.000303536,-0.000191427,-0.00050603,0.00368038,-0.0133957,-0.0428011,5032,4922,0
522504621,522504501,4259850,4325386,0.000381483,-0.00157957,-0.00150679,0.000393729,-0.0393522,-0.0493182,4990,4928,0
523008553,523008405,4259850,4325386,0.000770517,-0.000152656,-3.16573e-05,0.00596906,-0.00686883,-0.0416907,4969,4930,0
523507195,523507005,4259850,4325386,-0.000446397,0.000342848,0.000314647,-0.000687901,0.00218306,-0.0524437,4983,5742,0
524005896,524005784,4259850,4325386,-0.0014078,-0.000275481,-0.00229143,0.000887377,-0.000496124,-0.0543164,5003,4892,0
524505137,524504699,4259850,4325386,-0.0015976,-8.15956e-05,-0.00977523,0.00493687,-0.0120769,-0.0558351,4964,5917,0
525003415,525003282,4259850,4325386,0.00107959,-0.000369403,-0.00249005,-0.00796642,-0.0152016,-0.0574735,4986,4935,0
525507309,525507029,4259850,4325386,0.000927932,-7.72378e-06,0.00100197,0.00890628,-0.00274078,-0.0500638,4989,4929,0
526010696,526010572,4259850,4325386,-4.79435e-05,0.000549628,0.000894589,0.000805912,0.000337482,-0.0492841,5013,4624,0
526504204,526504091,4259850,4325386,-0.000295385,0.000415862,0.00115412,-0.00185714,0.0178719,-0.0403333,5030,4913,0
527008521,527007955,4259850,4325386,-0.00297525,-0.000556916,0.000525883,0.0016975,-0.00494797,-0.0513752,4992,5914,0
527506787,527506634,4259850,4325386,-0.000367006,-7.31751e-05,0.00062664,0.00473043,0.00637611,-0.052091,4978,4926,0
528005503,528005314,4259850,4325386,0.000436671,-0.000339258,-0.000977861,0.00509191,-0.0246262,-0.0503302,4992,4931,0
528504196,528504068,4259850,4325386,-0.00142741,0.000697155,0.000746772,-0.00945949,0.0322627,-0.0548284,4986,4754,0
529007981,529007816,4259850,4325386,-4.71798e-05,-0.000469148,8.87358e-05,0.000461401,-0.00218833,-0.0383448,4987,4930,0
529506949,529506835,4259850,4325386,-0.000421037,-0.000480876,0.000293292,0.00330926,-0.00699432,-0.0353737,5019,4912,0
530005453,530005335,4259850,4325386,-0.000767242,-4.87851e-05,0.00062433,-0.00170118,-0.00107403,-0.0481405,4989,4929,0
530509318,530509203,4259850,4325386,-0.000554438,0.000480036,0.000829405,-0.000387052,0.0236121,-0.0521292,4994,4927,0
531008036,531007857,4259850,4325386,0.000148477,-0.000253949,-0.000133802,-0.00223232,-0.00588299,-0.0531534,4959,4928,0
531506742,531506603,4259850,4325386,-0.000548656,0.000155389,0.000853268,0.00192832,0.0184444,-0.0478085,4993,4926,0
532005465,532005355,4259850,4325386,0.00058109,4.27406e-05,-0.000565506,-0.00604078,-0.0142491,-0.0548777,4987,4994,0
532504239,532504114,4259850,4325386,0.00168647,-0.000253872,0.000585209,0.00878025,0.00378163,-0.0459966,4974,4928,0
533007821,533007599,4259850,4325386,-0.00262497,0.000539342,3.78405e-05,-0.0155882,0.000756951,-0.0561513,4993,4976,0
533506357,533506168,4259850,4325386,0.00118979,3.72189e-05,-0.000398383,0.0131273,-0.00322305,-0.0426945,4987,4968,0
534005240,534005014,4259850,4325386,-0.000908877,-0.000164412,3.82543e-06,-0.000536755,-0.000429261,-0.0481674,4983,4983,0
534503814,534503687,4259850,4325386,-0.000941462,0.000485918,0.000468254,-0.00407361,0.0127033,-0.0477848,4988,4981,0
535002559,535002445,4259850,4325386,-0.00154939,-8.1027e-05,-0.000837263,0.00492689,-0.00867276,-0.0519313,4985,4932,0
535506410,535506300,4259850,4325386,0.0006412,-0.000214652,-0.00063199,0.000363295,0.00416554,-0.0546063,4952,4961,0
536005443,536005202,4259850,4325386,0.00108212,-0.00062566,-0.000506453,-0.00623665,-0.0183225,-0.0380095,4996,5003,0
536503958,536503843,4259850,4325386,-0.000695484,0.000263007,0.00157946,-0.00493612,0.0134423,-0.052483,4990,4927,0
537006626,537006514,4259850,4325386,-0.000566283,0.00063661,-0.000328832,-0.0044126,0.00141364,-0.0519679,4991,4926,0
537505367,537505170,4259850,4325386,0.000469117,-0.000429189,-0.00111465,0.000629318,-0.0322311,-0.0490969,4948,4932,0
538009234,538009086,4259850,4325386,-0.00120276,0.00244019,0.000834066,0.00132708,0.0342196,-0.0477295,4941,4666,0
538502803,538502687,4259850,4325386,0.00156452,-0.000979751,0.000394182,0.0110896,0.000293016,-0.0456762,4988,4927,0
539006546,539006433,4259850,4325386,-0.00107295,0.000569471,0.000691448,-0.0044216,0.0120791,-0.0461871,4987,4929,0
539505374,539505247,4259850,4325386,0.00136059,0.00058507,-6.74334e-05,0.0110596,0.00851732,-0.0466434,4993,4991,0
540004096,540003954,4259850,4325386,-0.000139222,9.44763e-05,0.000804859,0.00418701,-0.00148756,-0.0533265,4991,4776,0
540507922,540507766,4259850,4325386,-8.82144e-05,0.00016162,0.000473644,0.00582605,0.00997488,-0.0376019,4996,4982,0
541007531,541006458,4259850,4325386,-0.00137497,0.00132516,0.000775114,0.00219309,0.0202783,-0.047281,4988,4976,0
541505504,541505325,4259850,4325386,-0.000433909,0.000134172,0.000355007,-0.00755513,0.00754209,-0.0511653,4959,4927,0
542004090,542003982,4259850,4325386,0.000823916,-0.000120391,-0.00196528,-0.00323666,-0.0128086,-0.0491446,4982,4871,0
542502843,542502733,4259850,4325386,-0.000809968,-2.17186e-05,-0.000505595,0.00839609,0.0087756,-0.0467147,4980,4930,0
543006593,543006483,4259850,4325386,-0.000619449,0.000200563,0.0034604,-0.00331446,0.00864018,-0.0529995,4989,4928,0
543505691,543505518,4259850,4325386,0.00145403,-0.000233197,0.000676725,0.00730259,-0.00279019,-0.0653599,5263,6022,0
544004745,544004614,4259850,4325386,0.000664922,-6.62891e-06,-0.000290625,0.000208453,-0.00844662,-0.0553781,4969,4927,0
544508451,544508249,4259850,4325386,-0.00173552,-0.000228391,0.000715216,0.00040357,0.0112316,-0.0379553,4993,4988,0
545007109,545007002,4259850,4325386,0.00160486,0.00204351,-0.000498683,-0.00421992,-0.00549622,-0.0508622,4986,4969,0
545507583,545506311,4259850,4325386,0.000964759,-0.00187608,-0.0014801,0.00264469,-0.0332236,-0.045806,4991,4975,0
546005212,546005068,4259850,4325386,8.09816e-05,-0.000295285,-0.000536539,0.00818651,-0.0238952,-0.0468379,4988,4927,0
546504142,546503992,4259850,4325386,-0.000513533,0.000201647,0.00090024,-0.00269937,-0.00022397,-0.0585233,4994,4992,0
547007757,547007582,4259850,4325386,-0.00165239,-0.000327423,0.000746926,-0.0101705,-0.00144014,-0.0519513,4981,4927,0
547506710,547506514,4259850,4325386,0.000347475,-7.98712e-05,-0.000127708,0.0011294,0.00625389,-0.0418706,4989,4922,0
548005205,548005090,4259850,4325386,-0.00106368,0.000498276,3.24962e-05,-0.009313,0.00222015,-0.057244,4986,4970,0
548504278,548504077,4259850,4325386,0.000210714,0.000168453,-0.000343644,-0.00784463,0.00473188,-0.054715,4967,4967,0
549003352,549002612,4259850,4325386,0.00153601,0.000121042,2.98064e-05,0.00394569,-0.00442351,-0.058629,4992,5814,0
549506518,549506355,4259850,4325386,-0.000274127,0.000107583,0.00061134,0.00540495,0.00439867,-0.0546474,4988,5911,0
550005340,550005188,4259850,4325386,0.000998301,-0.000942916,-0.00129085,0.00593525,-0.0185232,-0.0313725,4942,4749,0
550504474,550504324,4259850,4325386,6.13644e-05,-0.000582001,0.000118838,-0.00410254,-0.00164542,-0.0473998,4987,4928,0
551007880,551007762,4259850,4325386,-0.000452919,-0.000320689,-0.000348716,-0.00308516,-0.00961592,-0.0551681,5000,4970,0
551506948,551506835,4259850,4325386,-0.00112044,0.000239095,0.000205946,-0.000927088,0.0180094,-0.0544172,4938,4922,0
552005789,552005664,4259850,4325386,0.000743477,0.000493532,0.000504179,0.00272689,0.00270302,-0.054824,5029,4922,0
552504823,552504672,4259850,4325386,5.11342e-05,-9.56828e-05,-0.00052765,-0.00263712,-0.000622726,-0.0564086,5212,5970,0
553003227,553003108,4259850,4325386,0.000585848,7.80204e-05,-7.61853e-05,-0.00164367,-0.00724391,-0.047182,4985,4870,0
553507461,553506855,4259850,4325386,0.000178466,-0.000370932,-0.00103787,-0.0054405,-0.0221847,-0.0508301,4989,4941,0
554005729,554005612,4259850,4325386,0.000502079,0.00132759,-0.000706969,-0.000368253,-0.00586026,-0.0478336,4975,4929,0
554504135,554504024,4259850,4325386,-0.00143189,-0.000236564,-0.000241169,-0.0119356,0.00282761,-0.0518669,4940,4759,0
555007813,555007667,4259850,4325386,-8.15021e-05,0.00103878,0.000861194,-0.00168979,0.0188868,-0.0539498,4985,4928,0
555506702,555506531,4259850,4325386,-0.00156188,-0.000341218,0.000883613,0.00767167,0.0101027,-0.0505051,4942,4936,0
556005301,556005185,4259850,4325386,0.000597992,-0.000204569,1.4211e-05,0.0149506,0.0082472,-0.0447892,4979,4991,0
556504055,556503944,4259850,4325386,-0.000504183,0.00119135,-9.75353e-05,-0.00470503,0.00970687,-0.0525063,4988,4938,0
557007894,557007693,4259850,4325386,-0.000320249,0.000344229,0.000732347,0.00365919,0.0218308,-0.0558822,4987,5917,0
557506854,557506697,4259850,4325386,0.00221213,-0.000775165,-0.000645957,0.00953422,-0.0246546,-0.0414354,4958,4956,0
558004818,558004664,4259850,4325386,-0.00136248,0.00037928,0.00065772,0.00296564,0.012837,-0.0462562,4988,4972,0
558508275,558507940,4259850,4325386,-0.00127158,0.00015522,0.000177217,-0.0171254,0.011172,-0.0578371,4994,4944,0
559006372,559006174,4259850,4325386,-0.000989767,0.000304996,-0.000473968,-0.00575046,0.00978934,-0.0578307,4990,5869,0
559505044,559504929,4259850,4325386,0.00091658,-0.000591511,-0.00116081,-0.000531261,-0.0259671,-0.0511103,4982,4967,0
560003867,560003751,4259850,4325386,0.000490827,0.000154867,0.00135079,0.012583,0.00018844,-0.042015,5024,4915,0
560507806,560507672,4259850,4325386,-0.000531457,0.000509286,0.0016586,-0.000234937,0.0267629,-0.0530518,4991,4924,0
561006462,561006320,4259850,4325386,-0.000364253,0.000624665,0.000873773,-0.00341744,0.00768007,-0.0430155,4975,3794,0
561505142,561504959,4259850,4325386,-0.00197878,-6.2254e-05,0.000168753,-0.00935514,0.00016813,-0.0551275,4993,4927,0
562008838,562008702,4259850,4325386,0.00274309,-0.000716661,-0.000383335,0.011185,-0.0073339,-0.0386527,4966,4663,0
562507588,562507460,4259850,4325386,0.000499245,-0.000857913,-0.000773452,0.00496433,-0.0272534,-0.0414227,4988,4929,0
563006328,563006219,4259850,4325386,-3.79298e-05,-0.000338419,-0.000455225,0.00340509,-0.00329064,-0.0410046,4988,4968,0
563505118,563504989,4259850,4325386,-0.00113946,0.00013755,-3.81943e-05,-0.00529834,0.00892361,-0.0523528,4992,4843,0
564004092,564003917,4259850,4325386,0.0010098,-0.000381711,-0.000689916,0.00754627,-0.021701,-0.0457781,4987,4986,0
564507741,564507616,4259850,4325386,0.00136439,0.000644516,0.000130481,0.00583512,-0.00108553,-0.0498144,5035,4929,0
565006386,565006260,4259850,4325386,0.00166742,-0.000901317,-0.000403024,0.0076533,-0.0338741,-0.0434097,5005,4901,0
565505124,565505008,4259850,4325386,0.00093871,-0.000207695,-0.00085254,-0.00375933,-0.0226262,-0.0527083,4988,4877,0
566009490,566009360,4259850,4325386,-0.000128322,-0.00232578,-5.17828e-05,-0.000520846,-0.00162955,-0.0430827,5004,4926,0
566503354,566503195,4259850,4325386,0.00102319,-0.000318738,-0.000593342,0.00107655,-0.0119604,-0.0449823,4969,4973,0
567007569,567007457,4259850,4325386,0.00120993,0.000212415,0.000434739,-0.00585879,-0.0129451,-0.0494629,4969,4967,0
567506269,567506136,4259850,4325386,0.000824919,-1.71569e-05,-0.000353239,-0.00027819,0.00750728,-0.0428686,4979,4930,0
568004947,568004787,4259850,4325386,-0.00082901,7.757e-07,-0.000743416,-0.0110715,-0.0191246,-0.0592145,4991,4935,0
568508657,568508531,4259850,4325386,-0.00208336,0.000646473,7.11523e-05,-0.013224,0.00111826,-0.0578359,4983,4971,0
569007618,569007394,4259850,4325386,0.00113471,-0.000373971,-0.000491656,0.0124421,-0.0148559,-0.0408913,4975,4957,0
569506255,569506049,4259850,4325386,0.00105288,0.000181531,-5.75738e-05,0.0106426,0.00410816,-0.0409204,4988,4944,0
570005128,570004812,4259850,4325386,-0.00167019,0.00017133,-0.000303951,-0.0127781,-0.00876324,-0.0545029,4989,4767,0
570503787,570503637,4259850,4325386,-0.000899521,0.000526319,9.9287e-05,-0.00585435,0.0185025,-0.0492991,4966,4928,0
571007811,571007665,4259850,4325386,-0.00148229,7.06211e-05,0.000510492,-0.0148394,-0.00392668,-0.0540471,5003,4928,0
571506222,571506074,4259850,4325386,-0.00128961,0.000449559,0.000773784,-0.0110372,0.00937145,-0.0537211,4986,4932,0
572004952,572004833,4259850,4325386,4.16247e-05,-0.000116414,0.000467404,0.00218844,-0.000241409,-0.0468073,4987,4968,0
572508793,572508678,4259850,4325386,0.000277474,0.000338329,0.000773952,0.0088457,0.0102981,-0.0465123,4964,4964,0
573007486,573007340,4259850,4325386,0.00120018,-1.80522e-05,0.000342304,0.010153,0.0133534,-0.0424494,4988,4929,0
573506483,573506102,4259850,4325386,-0.00110381,0.00033777,0.000161137,-0.00171504,0.0154017,-0.060825,4991,5909,0
574005102,574004957,4259850,4325386,0.00198436,-5.99292e-05,5.40481e-05,0.013224,-0.00930262,-0.041322,5009,4908,0
574504971,574504166,4259850,4325386,-4.26424e-05,0.0002644,0.00131019,0.0062041,0.0205668,-0.055863,4988,5823,0
575008138,575007916,4259850,4325386,-0.000121966,0.00019039,-0.000594312,0.00193042,-0.00289468,-0.047878,4977,4929,0
575506807,575506672,4259850,4325386,0.000296717,0.000351036,-0.000251388,0.00274747,-0.0121332,-0.0482616,4983,4930,0
576005162,576004894,4259850,4325386,0.00117762,-0.000324776,-0.000586512,0.0120764,-0.0178992,-0.0431697,4969,4930,0
576507870,576507759,4259850,4325386,0.000156866,-0.000778866,-0.000168681,0.00358004,-0.00533663,-0.0445624,4951,4686,0
577006510,577006391,4259850,4325386,-0.00120866,0.000520793,0.000974146,-0.000232501,0.0288452,-0.0524027,4988,4976,0
577505338,577505151,4259850,4325386,0.000165225,-0.000166814,5.65518e-06,-0.00122725,-0.0115011,-0.0582118,4986,5912,0
578004115,578003970,4259850,4325386,0.000782459,-0.000165541,-0.000979908,-0.00367552,-0.0344957,-0.0506001,4984,4994,0
578508023,578507902,4259850,4325386,0.000951519,-0.000146717,-0.000183939,0.0121842,-0.00642719,-0.0400033,4935,4938,0
579006598,579006488,4259850,4325386,-0.00086885,0.000529892,-0.000307608,-0.00151285,0.00210076,-0.0513799,4986,4962,0
579505676,579505178,4259850,4325386,0.000428139,0.000129547,0.000555279,0.00809485,0.00141843,-0.0562401,4976,5916,0
580009068,580008956,4259850,4325386,-0.000259718,-0.000213201,-0.000783972,-0.00763421,-0.0116923,-0.0522955,4968,4980,0
580502319,580502200,4259850,4325386,-0.00069053,0.000134296,0.000104699,-0.000542748,-0.00644418,-0.0396913,4992,4771,0
581006298,581006139,4259850,4325386,-0.000176188,0.000808942,0.000435875,-0.00139112,0.0102682,-0.0489084,4990,4926,0
581504869,581504747,4259850,4325386,-0.000209313,0.000302608,-0.000264383,0.00380198,0.00353038,-0.050665,5033,4918,0
582008564,582008452,4259850,4325386,-0.00112972,0.000803486,0.00101538,-0.00266226,0.0268883,-0.0493312,4990,4925,0
582507316,582507208,4259850,4325386,-0.000234202,5.27313e-05,0.000234315,0.000708516,0.000661095,-0.046876,4987,4943,0
583006324,583006117,4259850,4325386,0.00249072,0.000178818,-0.000885094,0.00524264,-0.0216569,-0.0435598,4964,4928,0
583509967,583509718,4259850,4325386,0.00108073,4.13434e-05,0.000411307,0.0145662,0.00299874,-0.0481369,4991,5804,0
584003604,584003494,4259850,4325386,-0.00021013,-0.000540446,-0.000397941,0.000657983,-0.0264746,-0.0462376,4994,4922,0
584507603,584507458,4259850,4325386,-0.000285135,0.000269647,0.00081164,0.013421,0.0147771,-0.042081,5051,4949,0
585006116,585005993,4259850,4325386,-0.000224614,9.0973e-06,0.000901647,0.00780823,0.0227411,-0.0465937,4987,4928,0
585505283,585504754,4259850,4325386,-0.000764452,0.000509017,0.000628222,-0.00558818,0.0218197,-0.0540344,4981,4930,0
586008640,586008499,4259850,4325386,0.000124522,-1.6534e-06,-0.000209832,0.00140499,-0.00123357,-0.0528003,4987,4991,0
586507493,586507347,4259850,4325386,-0.000459629,-0.000151503,0.000131475,-0.00025345,-0.000435237,-0.049179,4957,4930,0
587005913,587005799,4259850,4325386,8.45524e-05,-0.000611389,3.02201e-05,0.00300646,-0.00642211,-0.0413549,5064,4958,0
587504543,587504384,4259850,4325386,-0.000402192,5.12371e-05,-0.000281138,-0.00523513,0.00159229,-0.0522903,5007,4904,0
588008795,588008612,4259850,4325386,0.000305907,-0.000164868,3.66725e-05,0.0104575,-0.000209144,-0.043648,4971,4931,0
588507694,588507529,4259850,4325386,0.00137909,-0.00023767,0.000154194,0.00853414,-7.78035e-05,-0.044239,4968,4928,0
589006373,589006047,4259850,4325386,0.000279204,-8.36795e-05,-4.50551e-05,0.00310371,0.00117923,-0.0511799,4941,4932,0
589504916,589504803,4259850,4325386,-0.000190377,0.000366837,-6.30636e-05,0.000286635,-0.00574379,-0.0493484,4988,4687,0
590008777,590008635,4259850,4325386,-0.00165711,0.00144387,0.000925535,-0.0131657,0.0121569,-0.0552688,4962,4960,0
590502480,590502322,4259850,4325386,-0.00066763,0.0015365,0.000468597,-0.00182534,0.0207534,-0.0501496,4988,4929,0
591006209,591006069,4259850,4325386,0.00247855,-6.00829e-05,-0.000507333,0.00395849,-0.016102,-0.0428166,4981,4954,0
591504997,591504876,4259850,4325386,0.000113986,-2.97046e-05,-0.000590357,-0.00180452,-0.0048773,-0.0462242,4968,4931,0
592004101,592003976,4259850,4325386,0.000120746,0.000858286,0.000267779,0.000502029,0.00626208,-0.0530975,4962,4929,0
592507450,592507335,4259850,4325386,-0.00255818,0.000479491,0.000408462,-0.0124331,0.0100806,-0.0572227,4986,4928,0
593006210,593006095,4259850,4325386,0.00100349,-0.00068616,-0.000992883,0.0111832,-0.0236944,-0.0441899,4987,4977,0
593505005,593504853,4259850,4325386,0.00106886,0.000149566,-0.000574973,0.00955576,-0.0194282,-0.0405407,4965,4927,0
594008731,594008601,4259850,4325386,-0.000214185,-0.000209379,-0.00061802,-0.00262444,-0.00198563,-0.0460491,4987,4783,0
594507053,594506920,4259850,4325386,-0.000515968,-0.000545823,0.000115704,0.00292457,-0.00165256,-0.0411943,4988,4932,0
595006040,595005913,4259850,4325386,0.00041015,-0.000371492,-0.000333466,-0.0022137,-0.00464205,-0.0517701,4954,4926,0
595504619,595504430,4259850,4325386,-0.000701172,0.00132395,0.00126889,-0.000999452,0.0270472,-0.0567015,4988,5523,0
596009580,596008195,4259850,4325386,-0.00099563,0.000766699,0.00122528,0.00277384,0.0203023,-0.0451938,5000,4884,0
596507131,596507024,4259850,4325386,-0.000764229,0.000610339,0.00103751,0.000365595,0.0281505,-0.0500698,4960,4963,0
597005844,597005698,4259850,4325386,5.4695e-05,3.21793e-05,-0.000290708,0.00417395,-0.0060753,-0.0428127,4990,4928,0
597509047,597508934,4259850,4325386,-0.000382155,0.000619188,-0.00020469,-0.00577148,0.00306798,-0.0502606,4961,4928,0
598002820,598002667,4259850,4325386,0.00121782,0.000120593,-0.000171646,0.0018783,-0.0104273,-0.0479537,4986,4948,0
598506587,598506473,4259850,4325386,0.00135337,-0.0005943,-0.00135856,0.000620918,-0.0315704,-0.0464396,5042,4921,0
599005324,599005213,4259850,4325386,-0.000431091,9.54743e-05,0.000162539,0.00280339,-0.00716944,-0.0584786,4970,4924,0
599504422,599504230,4259850,4325386,-0.000832475,-0.000381388,0.000356629,-0.00358104,0.00685718,-0.0565536,4993,4929,0
600008002,600007866,4259850,4325386,0.000995413,-0.000731683,-0.00131987,0.000151617,-0.0158638,-0.0413547,4986,4928,0
600506557,600506442,4259850,4325386,-0.000420985,-0.000140934,7.99287e-05,-0.00163075,-0.00125659,-0.0454277,4987,4923,0
601009924,601009699,4259850,4325386,-0.000718338,0.000570118,0.000275201,-0.00192006,0.000721431,-0.048409,4993,4955,0
601503628,601503461,4259850,4325386,0.000715268,-0.000160333,-0.000141039,0.0114699,-0.00771724,-0.0414953,4981,4954,0
