timestamp,lat,lon,alt,alt_ellipsoid,delta_alt,eph,epv,terrain_alt,lat_lon_reset_counter,alt_reset_counter,terrain_alt_valid,dead_reckoning
351001721,34.0356178317,108.757445592,425.944,397.357,-0.0,1.11611,1.68998,425.851,2,0,1,0
351011669,34.035617833,108.75744557,425.944,397.357,-0.0,1.11632,1.69013,425.851,2,0,1,0
351200541,34.0356178502,108.757445235,425.947,397.375,-0.0,1.11602,1.68986,425.856,2,0,1,0
351403980,34.0356178609,108.757444892,425.953,397.396,-0.0,1.11591,1.69029,425.871,2,0,1,0
351602628,34.0356179029,108.757444505,425.968,397.425,-0.0,1.11581,1.69018,425.888,2,0,1,0
351801276,34.0356179149,108.757444185,425.984,397.456,-0.0,1.11572,1.69006,425.897,2,0,1,0
352000097,34.0356178834,108.757443878,425.998,397.486,-0.0,1.11564,1.69049,425.914,2,0,1,0
352203540,34.0356178432,108.757443598,426.016,397.518,-0.0,1.11555,1.69037,425.925,2,0,1,0
352407155,34.0356177999,108.757443335,426.031,397.548,-0.0,1.11549,1.69024,425.929,2,0,1,0
352605804,34.0356177603,108.757443128,426.042,397.576,-0.0,1.11542,1.69012,425.953,2,0,1,0
352804552,34.0356176823,108.757442897,426.06,397.609,-0.0,1.11533,1.69054,425.955,2,0,1,0
352998135,34.0356176054,108.757442621,426.068,397.633,-0.0,1.1197,1.69131,425.956,2,0,1,0
353206719,34.0356175454,108.75744231,426.081,397.662,-0.0,1.11518,1.69028,425.975,2,0,1,0
353405413,34.0356175245,108.757442072,426.093,397.69,-0.0,1.11508,1.69015,425.992,2,0,1,0
353604116,34.0356174918,108.75744185,426.108,397.722,-0.0,1.11499,1.69056,425.991,2,0,1,0
353807629,34.0356174475,108.757441605,426.113,397.742,-0.0,1.1149,1.69041,425.989,2,0,1,0
354006277,34.0356173917,108.757441269,426.113,397.758,-0.0,1.11482,1.69027,425.989,2,0,1,0
354204927,34.0356173166,108.757440941,426.113,397.775,-0.0,1.11475,1.69067,425.986,2,0,1,0
354403610,34.0356172358,108.757440611,426.111,397.789,-0.0,1.11468,1.69052,425.996,2,0,1,0
354602225,34.0356171365,108.757440337,426.111,397.806,-0.0,1.11459,1.69037,425.992,2,0,1,0
354805839,34.0356170581,108.757440049,426.11,397.821,-0.0,1.11449,1.69076,425.993,2,0,1,0
355004489,34.035616991,108.757439761,426.11,397.837,-0.0,1.1144,1.69059,425.995,2,0,1,0
355203162,34.0356169456,108.757439469,426.109,397.852,-0.0,1.11434,1.69043,425.994,2,0,1,0
355401785,34.0356168576,108.757439175,426.107,397.867,-0.0,1.11425,1.69082,425.984,2,0,1,0
355605400,34.0356167718,108.757438897,426.099,397.874,-0.0,1.11417,1.69065,425.978,2,0,1,0
355799083,34.0356167251,108.75743862,426.092,397.882,-0.0,1.11851,1.69134,425.98,2,0,1,0
356007698,34.0356166712,108.757438311,426.081,397.888,-0.0,1.11867,1.69132,425.97,2,0,1,0
356206313,34.0356165955,108.757438057,426.073,397.894,-0.0,1.11391,1.6907,425.966,2,0,1,0
356404962,34.0356165318,108.757437792,426.067,397.903,-0.0,1.11384,1.69053,425.951,2,0,1,0
356603610,34.0356164588,108.757437558,426.056,397.907,-0.0,1.11377,1.69036,425.943,2,0,1,0
356802259,34.0356164082,108.75743734,426.046,397.911,-0.0,1.1137,1.69075,425.946,2,0,1,0
357000909,34.0356163741,108.757437144,426.042,397.922,-0.0,1.11363,1.69057,425.94,2,0,1,0
357204522,34.0356163476,108.757436963,426.038,397.931,-0.0,1.11356,1.69039,425.931,2,0,1,0
357403172,34.0356162898,108.757436812,426.029,397.937,-0.0,1.1135,1.69076,425.923,2,0,1,0
357601820,34.0356162412,108.757436671,426.019,397.94,-0.0,1.11344,1.69058,425.917,2,0,1,0
357805435,34.0356162038,108.757436518,426.011,397.944,-0.0,1.11337,1.6904,425.916,2,0,1,0
357999118,34.035616166,108.757436378,426.007,397.951,-0.0,1.11311,1.69063,425.901,2,0,1,0
358197921,34.0356161177,108.757436199,425.996,397.952,-0.0,1.11306,1.69046,425.893,2,0,1,0
358406348,34.0356160815,108.757436007,425.983,397.95,-0.0,1.11322,1.69043,425.877,2,0,1,0
358605015,34.0356160678,108.75743583,425.97,397.947,-0.0,1.11317,1.69026,425.875,2,0,1,0
358808611,34.0356160516,108.757435631,425.965,397.953,-0.0,1.11311,1.69008,425.875,2,0,1,0
359007427,34.0356160142,108.757435439,425.958,397.956,-0.0,1.11307,1.69046,425.863,2,0,1,0
359205911,34.035616,108.757435244,425.951,397.957,-0.0,1.11301,1.69028,425.86,2,0,1,0
359404558,34.035615994,108.757435034,425.944,397.959,-0.0,1.11757,1.69162,425.857,2,0,1,0
359603207,34.0356159627,108.757434808,425.936,397.96,-0.0,1.11749,1.69141,425.849,2,0,1,0
359801957,34.0356159481,108.757434631,425.93,397.961,-0.0,1.11743,1.69121,425.843,2,0,1,0
360005467,34.0356159478,108.757434444,425.922,397.961,-0.0,1.11736,1.69101,425.836,2,0,1,0
360204119,34.0356159761,108.757434205,425.922,397.968,-0.0,1.1127,1.69043,425.836,2,0,1,0
360407735,34.0356160144,108.757433972,425.921,397.974,-0.0,1.11315,1.69053,425.833,2,0,1,0
360606517,34.0356160433,108.757433759,425.913,397.973,-0.0,1.1179,1.69188,425.823,2,0,1,0
360805085,34.0356160572,108.757433583,425.906,397.973,-0.0,1.11801,1.69173,425.816,2,0,1,0
361003681,34.0356161084,108.75743343,425.896,397.97,-0.0,1.118,1.69151,425.808,2,0,1,0
361197364,34.0356161553,108.757433345,425.892,397.973,-0.0,1.11773,1.69172,425.807,2,0,1,0
361406002,34.0356161041,108.757433368,425.885,397.974,-0.0,1.11331,1.6907,425.792,2,0,1,0
361604594,34.0356160961,108.757433383,425.875,397.97,-0.0,1.11335,1.6905,425.778,2,0,1,0
361808209,34.0356160756,108.757433339,425.864,397.966,-0.0,1.11808,1.69125,425.777,2,0,1,0
362006861,34.0356160871,108.7574333,425.851,397.96,-0.0,1.11809,1.69105,425.763,2,0,1,0
362205573,34.0356161184,108.757433263,425.837,397.952,-0.0,1.11805,1.69142,425.748,2,0,1,0
362404159,34.0356161312,108.757433208,425.821,397.943,-0.0,1.11336,1.69028,425.731,2,0,1,0
362602804,34.0356161631,108.757433146,425.811,397.94,-0.0,1.11804,1.69102,425.728,2,0,1,0
362801454,34.0356161978,108.757433091,425.807,397.943,-0.0,1.11333,1.69046,425.727,2,0,1,0
363000103,34.0356162129,108.757433022,425.804,397.948,-0.0,1.11332,1.69027,425.719,2,0,1,0
363203718,34.0356162456,108.757432954,425.799,397.949,-0.0,1.11797,1.691,0.0,2,0,0,0
363402367,34.0356162801,108.757432901,425.792,397.947,-0.0,1.11326,1.6899,0.0,2,0,0,0
363605982,34.035616331,108.757432815,425.783,397.943,-0.0,1.11323,1.69026,0.0,2,0,0,0
363804632,34.0356163897,108.757432743,425.774,397.94,-0.0,1.11785,1.691,0.0,2,0,0,0
364003281,34.0356164159,108.757432684,425.765,397.936,-0.0,1.11779,1.69081,0.0,2,0,0,0
364196983,34.0356164296,108.757432661,425.756,397.932,-0.0,1.11747,1.69104,0.0,2,0,0,0
364395817,34.0356164943,108.75743259,425.743,397.922,-0.0,1.11743,1.69086,0.0,2,0,0,0
364599228,34.0356165942,108.757432443,425.73,397.913,-0.0,1.11282,1.68978,0.0,2,0,0,0
364807808,34.0356167007,108.757432287,425.733,397.919,-0.0,1.11298,1.68976,0.0,2,0,0,0
365006457,34.0356168315,108.75743201,425.755,397.945,-0.0,1.11292,1.69013,0.0,2,0,0,0
365195385,34.035616996,108.757431642,425.81,398.001,-0.0,1.11724,1.69071,0.0,2,0,0,0
365398788,34.0356171507,108.757431144,425.909,398.102,-0.0,1.11259,1.68964,0.0,2,0,0,0
365597482,34.0356172502,108.757430627,426.035,398.228,-0.0,1.11713,1.69091,0.0,2,0,0,0
365806019,34.0356172846,108.75742975,426.203,398.394,-0.0,1.11265,1.68998,0.0,2,0,0,0
366004831,34.0356175259,108.757428957,426.384,398.573,-0.0,1.11259,1.68981,0.0,2,0,0,0
366203317,34.0356176094,108.757428173,426.57,398.756,-0.0,1.11717,1.69109,0.0,2,0,0,0
366401966,34.0356175582,108.757427379,426.745,398.93,-0.0,1.11709,1.6909,0.0,2,0,0,0
366605581,34.0356177009,108.757426723,426.89,399.073,-0.0,1.11701,1.69071,0.0,2,0,0,0
366804370,34.0356177539,108.757426171,426.954,399.137,-0.0,1.11244,1.68964,0.0,2,0,0,0
366997913,34.0356180516,108.757425665,426.983,399.165,-0.0,1.11669,1.69076,0.0,2,0,0,0
367206494,34.0356183038,108.7574254,427.011,399.193,-0.0,1.11242,1.68984,0.0,2,0,0,0
367405143,34.0356186022,108.757425086,427.034,399.215,-0.0,1.11242,1.68967,0.0,2,0,0,0
367603890,34.0356189081,108.757424694,427.017,399.196,-0.0,1.11241,1.69004,0.0,2,0,0,0
367807411,34.0356192062,108.757424266,426.957,399.136,-0.0,1.1124,1.68987,0.0,2,0,0,0
368006057,34.0356195173,108.757423461,426.868,399.045,-0.0,1.11685,1.69059,0.0,2,0,0,0
368199740,34.0356198982,108.757422382,426.793,398.969,-0.0,1.11656,1.69083,0.0,2,0,0,0
368398427,34.0356201257,108.757420911,426.76,398.935,-0.0,1.11212,1.68977,0.0,2,0,0,0
368597041,34.0356204922,108.757419033,426.779,398.952,-0.0,1.11655,1.69047,0.0,2,0,0,0
368805625,34.0356208039,108.757416733,426.827,398.996,-0.0,1.11228,1.68957,0.0,2,0,0,0
369004268,34.0356211068,108.757414328,426.893,399.059,-0.0,1.11227,1.68994,0.0,2,0,0,0
369202946,34.0356213471,108.757411843,426.971,399.133,-0.0,1.11678,1.69066,0.0,2,0,0,0
369401568,34.0356215304,108.757409257,427.028,399.183,-0.0,1.11675,1.69048,0.0,2,0,0,0
369605183,34.0356216141,108.75740666,427.029,399.178,-0.0,1.1122,1.68997,0.0,2,0,0,0
369798865,34.0356216834,108.757404267,426.988,399.132,-0.0,1.11644,1.69054,0.0,2,0,0,0
370007463,34.0356215637,108.75740165,426.954,399.091,-0.0,1.11216,1.68964,0.0,2,0,0,0
370206095,34.0356214429,108.75739951,426.949,399.079,-0.0,1.11213,1.68948,0.0,2,0,0,0
370404745,34.0356216211,108.757397517,426.975,399.098,-0.0,1.1121,1.68986,0.0,2,0,0,0
370603394,34.0356221477,108.757395629,427.039,399.155,-0.0,1.11206,1.6897,0.0,2,0,0,0
370802043,34.0356227324,108.757393927,427.12,399.227,-0.0,1.11202,1.68954,0.0,2,0,0,0
371005658,34.0356231822,108.757392406,427.178,399.274,-0.0,1.11197,1.68938,0.0,2,0,0,0
371204308,34.0356236524,108.757390893,427.198,399.283,-0.0,1.11194,1.68976,0.0,2,0,0,0
371402976,34.0356239807,108.757389422,427.179,399.253,-0.0,1.11191,1.6896,0.0,2,0,0,0
371601605,34.0356242432,108.757388045,427.173,399.236,-0.0,1.11188,1.68944,0.0,2,0,0,0
371805225,34.0356243808,108.75738675,427.193,399.244,-0.0,1.11186,1.68981,0.0,2,0,0,0
372003870,34.0356244743,108.757385642,427.21,399.249,-0.0,1.11184,1.68964,0.0,2,0,0,0
372202520,34.0356244903,108.757384668,427.212,399.242,-0.0,1.11184,1.69001,0.0,2,0,0,0
372401169,34.0356243631,108.757383786,427.229,399.247,-0.0,1.11183,1.68984,0.0,2,0,0,0
372604789,34.0356242177,108.75738292,427.256,399.264,-0.0,1.11184,1.68967,0.0,2,0,0,0
372798502,34.0356240603,108.757382018,427.293,399.288,-0.0,1.1161,1.69079,0.0,2,0,0,0
373007053,34.0356238211,108.757380973,427.328,399.311,-0.0,1.11189,1.68988,0.0,2,0,0,0
373205699,34.0356234568,108.757380065,427.339,399.309,-0.0,1.11193,1.68972,0.0,2,0,0,0
373399393,34.0356230322,108.757379155,427.314,399.271,-0.0,1.11621,1.69028,0.0,2,0,0,0
373598029,34.0356225587,108.757378214,427.273,399.218,-0.0,1.11179,1.68979,0.0,2,0,0,0
373806767,34.0356221055,108.757377145,427.229,399.161,-0.0,1.11203,1.68978,0.0,2,0,0,0
374005260,34.0356219957,108.757375932,427.196,399.115,-0.0,1.11654,1.6905,0.0,2,0,0,0
374208876,34.0356219646,108.757374689,427.196,399.103,-0.0,1.11207,1.68946,0.0,2,0,0,0
374407527,34.0356221599,108.757373377,427.215,399.109,-0.0,1.11212,1.68984,0.0,2,0,0,0
374606312,34.0356225311,108.757372046,427.245,399.125,-0.0,1.11215,1.68968,0.0,2,0,0,0
374804823,34.0356231044,108.757370835,427.285,399.153,-0.0,1.11218,1.68952,0.0,2,0,0,0
375003473,34.0356237418,108.757369688,427.339,399.194,-0.0,1.11222,1.68989,0.0,2,0,0,0
375202123,34.0356242687,108.757368631,427.382,399.223,-0.0,1.11224,1.68973,0.0,2,0,0,0
375400836,34.0356246324,108.75736755,427.354,399.183,-0.0,1.11227,1.68955,0.0,2,0,0,0
375604387,34.0356250104,108.757366618,427.259,399.074,-0.0,1.1123,1.68992,0.0,2,0,0,0
375803037,34.0356253482,108.757365763,427.162,398.965,-0.0,1.1124,1.68981,0.0,2,0,0,0
376006651,34.0356258981,108.75736469,427.16,398.95,-0.0,1.11245,1.68965,0.0,2,0,0,0
376205363,34.0356265546,108.757363395,427.279,399.055,-0.0,1.11248,1.68949,0.0,2,0,0,0
376404001,34.0356269795,108.75736209,427.446,399.21,-0.0,1.11252,1.68986,0.0,2,0,0,0
376597633,34.0356273077,108.757360886,427.571,399.322,-0.0,1.11689,1.69043,0.0,2,0,0,0
376806215,34.0356274352,108.75735967,427.614,399.352,-0.0,1.11265,1.68953,0.0,2,0,0,0
377004935,34.0356274735,108.757358529,427.581,399.306,-0.0,1.11266,1.68937,0.0,2,0,0,0
377203513,34.0356275227,108.757357331,427.511,399.222,-0.0,1.11265,1.68975,0.0,2,0,0,0
377402162,34.0356275012,108.757355951,427.427,399.124,-0.0,1.11259,1.68959,0.0,2,0,0,0
377600811,34.0356274677,108.757354492,427.337,399.018,-0.0,1.1125,1.68943,0.0,2,0,0,0
377799461,34.0356276045,108.757352844,427.253,398.921,-0.0,1.11241,1.68981,0.0,2,0,0,0
378003077,34.0356278586,108.757351044,427.189,398.843,-0.0,1.11631,1.69054,0.0,2,0,0,0
378201726,34.0356280859,108.757349089,427.161,398.802,-0.0,1.11219,1.68949,0.0,2,0,0,0
378405341,34.0356284791,108.757346931,427.164,398.791,-0.0,1.1121,1.68934,0.0,2,0,0,0
378604007,34.0356290371,108.757344567,427.189,398.8,-0.0,1.11204,1.68973,0.0,2,0,0,0
378807606,34.0356295576,108.757341932,427.222,398.816,-0.0,1.112,1.68958,0.0,2,0,0,0
379006256,34.0356300315,108.757339238,427.269,398.845,-0.0,1.11201,1.68944,0.0,2,0,0,0
379195165,34.0356304039,108.757336642,427.315,398.873,-0.0,1.11185,1.68969,0.0,2,0,0,0
379398588,34.0356308051,108.757334024,427.361,398.899,-0.0,1.11191,1.68955,0.0,2,0,0,0
379597238,34.0356311108,108.757331664,427.387,398.905,-0.0,1.11198,1.68942,0.0,2,0,0,0
379805819,34.0356312953,108.757329378,427.348,398.848,-0.0,1.11225,1.68998,0.0,2,0,0,0
380004515,34.0356312434,108.757327254,427.267,398.746,-0.0,1.11667,1.69082,0.0,2,0,0,0
380203119,34.0356311156,108.757325174,427.224,398.685,-0.0,1.11236,1.68971,0.0,2,0,0,0
380401767,34.0356309483,108.757323243,427.263,398.704,-0.0,1.11242,1.69012,0.0,2,0,0,0
380605383,34.035630698,108.757321542,427.387,398.808,-0.0,1.11247,1.68999,0.0,2,0,0,0
380804259,34.0356304851,108.757320037,427.545,398.946,-0.0,1.11253,1.68987,0.0,2,0,0,0
380997716,34.0356303737,108.757318465,427.675,399.056,-0.0,1.11239,1.69014,0.0,2,0,0,0
381206297,34.0356302801,108.75731691,427.762,399.123,-0.0,1.11264,1.69018,0.0,2,0,0,0
381404947,34.0356300165,108.757315731,427.807,399.147,-0.0,1.11266,1.69007,0.0,2,0,0,0
381603721,34.0356297574,108.75731477,427.804,399.124,-0.0,1.11735,1.691,0.0,2,0,0,0
381807214,34.0356295667,108.757313757,427.745,399.045,-0.0,1.11263,1.69037,0.0,2,0,0,0
382005861,34.0356294557,108.757312668,427.639,398.919,-0.0,1.11726,1.69133,0.0,2,0,0,0
382199583,34.0356294102,108.75731155,427.525,398.786,-0.0,1.11694,1.69103,0.0,2,0,0,0
382398263,34.0356293534,108.757310389,427.437,398.678,-0.0,1.1123,1.6904,0.0,2,0,0,0
382606776,34.0356292778,108.757308944,427.389,398.61,-0.0,1.11243,1.69044,0.0,2,0,0,0
382805425,34.0356292082,108.757307382,427.405,398.605,-0.0,1.11235,1.69032,0.0,2,0,0,0
383004080,34.0356290937,108.757305647,427.451,398.631,-0.0,1.11695,1.69128,0.0,2,0,0,0
383202785,34.0356289622,108.757303824,427.528,398.688,-0.0,1.11682,1.69172,0.0,2,0,0,0
383401373,34.03562885,108.757302149,427.599,398.739,-0.0,1.1167,1.69157,0.0,2,0,0,0
383605039,34.0356288346,108.757300543,427.608,398.728,-0.0,1.11655,1.69142,0.0,2,0,0,0
383803638,34.0356287989,108.75729887,427.559,398.659,-0.0,1.11639,1.69185,0.0,2,0,0,0
384002369,34.0356287358,108.757297195,427.491,398.571,-0.0,1.11623,1.6917,0.0,2,0,0,0
384200938,34.0356286378,108.757295333,427.39,398.451,-0.0,1.11157,1.69045,0.0,2,0,0,0
384404553,34.0356284938,108.757293208,427.245,398.285,-0.0,1.11147,1.69086,0.0,2,0,0,0
384598236,34.0356285131,108.757290979,427.093,398.114,-0.0,1.11561,1.69163,0.0,2,0,0,0
384806875,34.0356287148,108.75728823,426.971,397.971,-0.0,1.11127,1.69054,0.0,2,0,0,0
385005467,34.0356287851,108.757285347,426.972,397.953,-0.0,1.1112,1.69095,0.0,2,0,0,0
385199150,34.0356286776,108.757282335,427.075,398.035,-0.0,1.11538,1.69173,0.0,2,0,0,0
385407733,34.0356285547,108.757279238,427.286,398.226,-0.0,1.11104,1.69063,0.0,2,0,0,0
385606382,34.0356285347,108.757276542,427.529,398.449,-0.0,1.11097,1.69103,0.0,2,0,0,0
385805031,34.0356287175,108.757274147,427.74,398.64,-0.0,1.1109,1.69087,0.0,2,0,0,0
386003682,34.035628905,108.757272065,427.904,398.783,-0.0,1.11535,1.69179,0.0,2,0,0,0
386202331,34.035629032,108.757270132,427.998,398.858,-0.0,1.11521,1.69161,0.0,2,0,0,0
386400980,34.0356289997,108.757268379,428.065,398.905,-0.0,1.11509,1.69201,0.0,2,0,0,0
386604591,34.0356289072,108.757266731,428.047,398.867,-0.0,1.11497,1.69182,0.0,2,0,0,0
386803246,34.0356289826,108.75726525,427.978,398.778,-0.0,1.11042,1.69058,0.0,2,0,0,0
387006861,34.0356290866,108.757264085,427.877,398.657,-0.0,1.11473,1.69205,0.0,2,0,0,0
387205511,34.035629256,108.757263064,427.815,398.575,-0.0,1.1102,1.6908,0.0,2,0,0,0
387404161,34.0356294802,108.757262213,427.742,398.482,-0.0,1.1145,1.69168,0.0,2,0,0,0
387602809,34.0356294945,108.757261382,427.644,398.365,-0.0,1.10999,1.69046,0.0,2,0,0,0
387801631,34.0356292226,108.757260604,427.557,398.258,-0.0,1.11002,1.69094,0.0,2,0,0,0
388005075,34.0356288364,108.757259929,427.48,398.159,-0.0,1.11438,1.69181,0.0,2,0,0,0
388208691,34.0356283971,108.75725924,427.394,398.054,-0.0,1.11002,1.69072,0.0,2,0,0,0
388407340,34.0356282801,108.757258417,427.313,397.954,-0.0,1.10995,1.69054,0.0,2,0,0,0
388606212,34.0356284276,108.757257372,427.297,397.917,-0.0,1.10988,1.69093,0.0,2,0,0,0
388799673,34.0356287814,108.757256134,427.306,397.907,-0.0,1.10965,1.6906,0.0,2,0,0,0
388998324,34.0356293382,108.757254698,427.338,397.919,-0.0,1.11407,1.69145,0.0,2,0,0,0
389206907,34.0356299908,108.757253098,427.387,397.948,-0.0,1.10976,1.6904,0.0,2,0,0,0
389405734,34.0356307373,108.757251451,427.441,397.98,-0.0,1.11423,1.69181,0.0,2,0,0,0
389609227,34.0356314878,108.757249485,427.485,398.004,-0.0,1.11416,1.69161,0.0,2,0,0,0
389807820,34.0356321118,108.75724774,427.511,398.011,-0.0,1.1096,1.69041,0.0,2,0,0,0
390006470,34.0356325852,108.7572461,427.501,397.981,-0.0,1.11403,1.6918,0.0,2,0,0,0
390205210,34.035633009,108.757244655,427.451,397.912,-0.0,1.10951,1.6906,0.0,2,0,0,0
390403769,34.0356333294,108.757243228,427.37,397.81,-0.0,1.10946,1.69041,0.0,2,0,0,0
390597453,34.0356335805,108.757241892,427.284,397.704,-0.0,1.11359,1.69163,0.0,2,0,0,0
390806071,34.0356338455,108.757240657,427.214,397.615,-0.0,1.10934,1.69059,0.0,2,0,0,0
391004758,34.0356340908,108.757239286,427.159,397.539,-0.0,1.10929,1.69095,0.0,2,0,0,0
391208300,34.0356344006,108.757237585,427.1,397.462,-0.0,1.10925,1.69075,0.0,2,0,0,0
391406950,34.0356345335,108.757235678,427.051,397.392,-0.0,1.10922,1.69055,0.0,2,0,0,0
391605600,34.0356345799,108.757233497,427.025,397.346,-0.0,1.10918,1.69091,0.0,2,0,0,0
391804266,34.0356347558,108.757231143,427.021,397.323,-0.0,1.10918,1.69071,0.0,2,0,0,0
392002899,34.0356349594,108.75722856,427.034,397.314,-0.0,1.11359,1.69147,0.0,2,0,0,0
392201590,34.0356350844,108.757225781,427.059,397.32,-0.0,1.10912,1.69086,0.0,2,0,0,0
392405166,34.0356351824,108.757222915,427.109,397.35,-0.0,1.10912,1.69066,0.0,2,0,0,0
392603815,34.0356351091,108.757220195,427.189,397.411,-0.0,1.10914,1.69046,0.0,2,0,0,0
392802464,34.0356350177,108.757217549,427.29,397.49,-0.0,1.10916,1.69026,0.0,2,0,0,0
393006081,34.0356348954,108.75721506,427.4,397.58,-0.0,1.1092,1.69062,0.0,2,0,0,0
393204730,34.0356347821,108.757212738,427.505,397.665,-0.0,1.10928,1.69043,0.0,2,0,0,0
393403382,34.0356347492,108.757210627,427.599,397.74,-0.0,1.10938,1.69024,0.0,2,0,0,0
393597064,34.0356345121,108.757208651,427.673,397.794,-0.0,1.1136,1.69141,0.0,2,0,0,0
393805645,34.0356341966,108.757206815,427.731,397.832,-0.0,1.10959,1.69042,0.0,2,0,0,0
393994551,34.0356339946,108.757205299,427.743,397.823,-0.0,1.11381,1.69102,0.0,2,0,0,0
394207919,34.0356336902,108.757203774,427.734,397.794,-0.0,1.10974,1.69006,0.0,2,0,0,0
394406560,34.0356334219,108.757202534,427.71,397.751,-0.0,1.10981,1.69042,0.0,2,0,0,0
394600245,34.035633204,108.757201439,427.69,397.711,-0.0,1.10969,1.69009,0.0,2,0,0,0
394799074,34.0356330317,108.75720041,427.707,397.708,-0.0,1.10977,1.6899,0.0,2,0,0,0
394997590,34.0356329012,108.757199455,427.733,397.714,-0.0,1.10988,1.69027,0.0,2,0,0,0
395206130,34.0356328743,108.757198544,427.773,397.734,-0.0,1.11025,1.69023,0.0,2,0,0,0
395404776,34.0356329252,108.757197598,427.828,397.769,-0.0,1.11039,1.69004,0.0,2,0,0,0
395603586,34.0356329763,108.757196387,427.896,397.816,-0.0,1.11054,1.6904,0.0,2,0,0,0
395802076,34.0356330889,108.757195056,427.988,397.888,-0.0,1.1107,1.69021,0.0,2,0,0,0
396005692,34.0356332886,108.757193497,428.074,397.955,-0.0,1.11088,1.69002,0.0,2,0,0,0
396204341,34.03563331,108.757192162,428.129,397.99,-0.0,1.11106,1.68984,0.0,2,0,0,0
396403181,34.0356332457,108.757190909,428.146,397.987,-0.0,1.11124,1.6902,0.0,2,0,0,0
396606608,34.0356331461,108.757189767,428.145,397.966,-0.0,1.11143,1.69001,0.0,2,0,0,0
396805257,34.035632894,108.757188895,428.131,397.931,-0.0,1.11157,1.69037,0.0,2,0,0,0
396998941,34.0356325738,108.757188221,428.091,397.872,-0.0,1.11588,1.69093,0.0,2,0,0,0
397207634,34.0356321774,108.757187591,428.063,397.824,-0.0,1.11178,1.68999,0.0,2,0,0,0
397406173,34.0356318839,108.757186903,428.051,397.792,-0.0,1.11182,1.6898,0.0,2,0,0,0
397599856,34.0356318116,108.757186153,428.052,397.773,-0.0,1.11613,1.69091,0.0,2,0,0,0
397798551,34.0356319573,108.757185132,428.057,397.758,-0.0,1.11166,1.68983,0.0,2,0,0,0
397997250,34.035632401,108.757183893,428.066,397.746,-0.0,1.11619,1.69054,0.0,2,0,0,0
398205739,34.035632925,108.757182347,428.065,397.726,-0.0,1.11183,1.69016,0.0,2,0,0,0
398404388,34.0356333986,108.757180797,428.04,397.681,-0.0,1.1118,1.68998,0.0,2,0,0,0
398608004,34.0356338145,108.757179027,427.975,397.596,-0.0,1.11176,1.68981,0.0,2,0,0,0
398806693,34.0356341199,108.757177257,427.888,397.489,-0.0,1.11175,1.68963,0.0,2,0,0,0
399005328,34.0356343194,108.757175711,427.802,397.383,-0.0,1.11171,1.69,0.0,2,0,0,0
399203954,34.0356345047,108.7571742,427.741,397.302,-0.0,1.11166,1.68983,0.0,2,0,0,0
399407570,34.0356346188,108.757172616,427.697,397.239,-0.0,1.11165,1.68966,0.0,2,0,0,0
399606229,34.0356346314,108.757171089,427.663,397.185,-0.0,1.11162,1.68949,0.0,2,0,0,0
399804870,34.0356345579,108.75716962,427.609,397.11,-0.0,1.11161,1.68986,0.0,2,0,0,0
399998553,34.0356344179,108.757168129,427.554,397.036,-0.0,1.11139,1.68955,0.0,2,0,0,0
400207136,34.0356341489,108.757166466,427.525,396.987,-0.0,1.11157,1.69006,0.0,2,0,0,0
400405806,34.0356337708,108.757164888,427.476,396.918,-0.0,1.11155,1.68988,0.0,2,0,0,0
400604436,34.0356333974,108.757163108,427.444,396.866,-0.0,1.11152,1.68972,0.0,2,0,0,0
400803133,34.0356329976,108.757161202,427.424,396.826,-0.0,1.11148,1.68955,0.0,2,0,0,0
401001735,34.0356326586,108.757158979,427.424,396.806,-0.0,1.11142,1.68991,0.0,2,0,0,0
401200421,34.0356324402,108.757156682,427.462,396.824,-0.0,1.11134,1.68974,0.0,2,0,0,0
401404003,34.0356323816,108.757154389,427.545,396.889,-0.0,1.11126,1.68957,0.0,2,0,0,0
401602651,34.035632521,108.757152266,427.657,396.982,-0.0,1.1112,1.68993,0.0,2,0,0,0
401806268,34.0356328435,108.757149981,427.8,397.106,-0.0,1.11119,1.68976,0.0,2,0,0,0
402004918,34.0356331374,108.757147815,427.943,397.23,-0.0,1.11121,1.68959,0.0,2,0,0,0
402203569,34.0356333354,108.757145886,428.05,397.32,-0.0,1.11132,1.68995,0.0,2,0,0,0
402407184,34.0356333568,108.757144204,428.081,397.333,-0.0,1.11143,1.68977,0.0,2,0,0,0
402605838,34.0356332023,108.757142847,428.019,397.255,-0.0,1.11152,1.6896,0.0,2,0,0,0
402804485,34.0356330181,108.757141583,427.873,397.094,-0.0,1.11161,1.68997,0.0,2,0,0,0
403003134,34.0356328416,108.757140542,427.684,396.889,-0.0,1.11191,1.68994,0.0,2,0,0,0
403206750,34.0356326966,108.757139816,427.469,396.66,-0.0,1.11197,1.68976,0.0,2,0,0,0
403405557,34.0356325655,108.757139026,427.282,396.457,-0.0,1.11201,1.68959,0.0,2,0,0,0
403604050,34.0356323264,108.757138136,427.131,396.293,-0.0,1.11206,1.68996,0.0,2,0,0,0
403802700,34.035632107,108.757137028,427.025,396.174,-0.0,1.11218,1.68984,0.0,2,0,0,0
404006317,34.0356322242,108.757135805,426.949,396.084,-0.0,1.11229,1.68971,0.0,2,0,0,0
404205086,34.035632534,108.757134291,426.906,396.026,-0.0,1.11234,1.68954,0.0,2,0,0,0
404403660,34.0356331874,108.757132252,426.88,395.986,-0.0,1.11239,1.68991,0.0,2,0,0,0
404602266,34.0356336869,108.757129945,426.888,395.979,-0.0,1.11242,1.68973,0.0,2,0,0,0
404800916,34.0356342621,108.757127499,426.923,395.999,-0.0,1.11245,1.68956,0.0,2,0,0,0
404999625,34.0356347083,108.757125005,426.988,396.051,-0.0,1.11247,1.68993,0.0,2,0,0,0
405203187,34.0356349204,108.7571224,427.083,396.134,-0.0,1.11248,1.68976,0.0,2,0,0,0
405406799,34.0356351693,108.757119854,427.165,396.204,-0.0,1.11251,1.6896,0.0,2,0,0,0
405600482,34.0356350397,108.75711783,427.204,396.231,-0.0,1.11233,1.68982,0.0,2,0,0,0
405799222,34.03563481,108.757115805,427.194,396.211,-0.0,1.11239,1.68965,0.0,2,0,0,0
405997784,34.0356347021,108.757114071,427.163,396.169,-0.0,1.11244,1.68949,0.0,2,0,0,0
406206365,34.0356344098,108.757112439,427.14,396.135,-0.0,1.11268,1.68946,0.0,2,0,0,0
406405015,34.0356340963,108.757111215,427.128,396.112,-0.0,1.11272,1.68983,0.0,2,0,0,0
406603779,34.0356336778,108.757110276,427.112,396.081,-0.0,1.11275,1.68965,0.0,2,0,0,0
406802315,34.0356332308,108.757109301,427.093,396.048,-0.0,1.11276,1.69002,0.0,2,0,0,0
407000967,34.0356328315,108.757108166,427.07,396.009,-0.0,1.11275,1.68984,0.0,2,0,0,0
407204582,34.0356323156,108.757106621,427.038,395.961,-0.0,1.11275,1.68967,0.0,2,0,0,0
407403234,34.0356318265,108.757104909,426.998,395.905,-0.0,1.11273,1.6895,0.0,2,0,0,0
407601882,34.0356314595,108.75710301,426.959,395.85,-0.0,1.11271,1.68987,0.0,2,0,0,0
407805498,34.0356313162,108.757100787,426.924,395.799,-0.0,1.11268,1.6897,0.0,2,0,0,0
408004180,34.0356312035,108.757098379,426.919,395.778,-0.0,1.11265,1.68954,0.0,2,0,0,0
408202801,34.0356309873,108.757095921,426.947,395.791,-0.0,1.11261,1.68938,0.0,2,0,0,0
408406415,34.0356308294,108.757093472,426.997,395.826,-0.0,1.1126,1.68975,0.0,2,0,0,0
408605062,34.0356306583,108.757091256,427.065,395.879,-0.0,1.1126,1.68959,0.0,2,0,0,0
408793982,34.0356304893,108.757089441,427.126,395.926,-0.0,1.11238,1.68929,0.0,2,0,0,0
408997399,34.0356302332,108.757087588,427.207,395.994,-0.0,1.11236,1.68967,0.0,2,0,0,0
409205981,34.0356300259,108.757085928,427.303,396.077,-0.0,1.11253,1.68965,0.0,2,0,0,0
409404635,34.0356298602,108.7570846,427.397,396.157,-0.0,1.11248,1.6895,0.0,2,0,0,0
409603284,34.0356299837,108.757083455,427.472,396.218,-0.0,1.11241,1.68934,0.0,2,0,0,0
409801932,34.0356303088,108.757082422,427.525,396.258,-0.0,1.11237,1.68972,0.0,2,0,0,0
410000583,34.03563093,108.757081446,427.56,396.28,-0.0,1.11231,1.68956,0.0,2,0,0,0
410204199,34.0356317903,108.757080513,427.575,396.284,-0.0,1.11226,1.6894,0.0,2,0,0,0
410403007,34.0356326416,108.757079617,427.582,396.279,-0.0,1.11221,1.68925,0.0,2,0,0,0
410601498,34.0356333688,108.757078655,427.573,396.257,-0.0,1.11216,1.68963,0.0,2,0,0,0
410800149,34.0356338846,108.757077684,427.552,396.224,-0.0,1.11211,1.68947,0.0,2,0,0,0
411003765,34.0356343521,108.757076553,427.52,396.181,-0.0,1.11203,1.68932,0.0,2,0,0,0
411202540,34.0356347911,108.757075265,427.491,396.141,-0.0,1.11195,1.68917,0.0,2,0,0,0
411406035,34.0356351748,108.757073848,427.471,396.111,-0.0,1.11187,1.68955,0.0,2,0,0,0
411604682,34.0356354085,108.757072329,427.462,396.092,-0.0,1.11181,1.6894,0.0,2,0,0,0
411798365,34.0356356035,108.757070678,427.466,396.087,-0.0,1.11158,1.68912,0.0,2,0,0,0
411997085,34.0356358095,108.757068824,427.486,396.098,-0.0,1.11156,1.6895,0.0,2,0,0,0
412205606,34.0356360807,108.757066677,427.536,396.138,-0.0,1.11174,1.68949,0.0,2,0,0,0
412404248,34.0356362815,108.757064671,427.592,396.185,-0.0,1.1117,1.68935,0.0,2,0,0,0
412602899,34.0356364893,108.757062626,427.646,396.229,-0.0,1.11167,1.6892,0.0,2,0,0,0
412801606,34.0356365664,108.757060732,427.686,396.259,-0.0,1.11162,1.68958,0.0,2,0,0,0
413005226,34.0356365133,108.757059091,427.709,396.274,-0.0,1.11155,1.68943,0.0,2,0,0,0
413203815,34.0356363962,108.757057574,427.704,396.261,-0.0,1.11149,1.68928,0.0,2,0,0,0
413402465,34.0356362998,108.757056134,427.663,396.213,-0.0,1.11142,1.68966,0.0,2,0,0,0
413601167,34.0356361754,108.757054749,427.605,396.149,-0.0,1.11135,1.68951,0.0,2,0,0,0
413799767,34.0356360136,108.757053541,427.553,396.089,-0.0,1.11128,1.68935,0.0,2,0,0,0
414003382,34.0356356989,108.757052502,427.5,396.029,-0.0,1.11121,1.68973,0.0,2,0,0,0
414207002,34.0356353857,108.757051393,427.45,395.974,-0.0,1.11119,1.68957,0.0,2,0,0,0
414405657,34.0356350013,108.757050075,427.41,395.928,-0.0,1.11117,1.68942,0.0,2,0,0,0
414604299,34.0356347195,108.757048425,427.388,395.9,-0.0,1.11117,1.68927,0.0,2,0,0,0
414797983,34.0356343806,108.757046576,427.354,395.861,-0.0,1.111,1.68951,0.0,2,0,0,0
415001600,34.035634024,108.757044435,427.322,395.822,-0.0,1.11103,1.68936,0.0,2,0,0,0
415200265,34.0356336833,108.75704219,427.287,395.78,-0.0,1.11106,1.68921,0.0,2,0,0,0
415398900,34.0356337235,108.757040047,427.247,395.734,-0.0,1.1111,1.68907,0.0,2,0,0,0
415607483,34.0356340796,108.75703807,427.212,395.692,-0.0,1.11134,1.68959,0.0,2,0,0,0
415806133,34.0356345924,108.757036432,427.187,395.66,-0.0,1.11136,1.68944,0.0,2,0,0,0
416004784,34.03563524,108.757034995,427.165,395.63,-0.0,1.11585,1.69015,0.0,2,0,0,0
416203434,34.0356359022,108.757033568,427.148,395.607,-0.0,1.11131,1.68915,0.0,2,0,0,0
416402084,34.0356364276,108.757032212,427.143,395.594,-0.0,1.1113,1.68952,0.0,2,0,0,0
416600800,34.0356368979,108.757030824,427.146,395.59,-0.0,1.1113,1.68938,0.0,2,0,0,0
416799386,34.0356374178,108.757029163,427.157,395.596,-0.0,1.11132,1.68922,0.0,2,0,0,0
417003004,34.0356379342,108.757027086,427.18,395.613,-0.0,1.11135,1.6896,0.0,2,0,0,0
417206619,34.0356383715,108.757024714,427.221,395.649,-0.0,1.11585,1.69031,0.0,2,0,0,0
417405271,34.0356386787,108.757022213,427.271,395.697,-0.0,1.11143,1.68931,0.0,2,0,0,0
417603914,34.0356388455,108.757019724,427.348,395.771,-0.0,1.11151,1.68916,0.0,2,0,0,0
417802569,34.0356387572,108.757017467,427.429,395.85,-0.0,1.11162,1.68954,0.0,2,0,0,0
418006185,34.0356387777,108.757015162,427.531,395.948,-0.0,1.11615,1.69025,0.0,2,0,0,0
418199869,34.0356387675,108.757013119,427.618,396.032,-0.0,1.11601,1.69049,0.0,2,0,0,0
418398523,34.0356384394,108.757011103,427.714,396.126,-0.0,1.11178,1.68948,0.0,2,0,0,0
418597170,34.0356382613,108.75700919,427.811,396.221,-0.0,1.11631,1.69018,0.0,2,0,0,0
418805758,34.0356379418,108.75700738,427.884,396.293,-0.0,1.11219,1.68931,0.0,2,0,0,0
419004403,34.0356376166,108.757005753,427.926,396.333,-0.0,1.11226,1.68916,0.0,2,0,0,0
419203054,34.0356372291,108.757004254,427.923,396.329,-0.0,1.11231,1.68954,0.0,2,0,0,0
419401712,34.0356368116,108.757002752,427.889,396.294,-0.0,1.11234,1.68939,0.0,2,0,0,0
419605320,34.0356364211,108.757001274,427.839,396.244,-0.0,1.11236,1.68923,0.0,2,0,0,0
419803972,34.0356359227,108.756999787,427.785,396.19,-0.0,1.11238,1.68961,0.0,2,0,0,0
420002621,34.0356353751,108.75699841,427.749,396.155,-0.0,1.11239,1.68946,0.0,2,0,0,0
420201283,34.0356350192,108.756997122,427.741,396.149,-0.0,1.1169,1.69016,0.0,2,0,0,0
420404888,34.0356350404,108.756995941,427.746,396.155,-0.0,1.11234,1.68916,0.0,2,0,0,0
420603719,34.0356351419,108.756994839,427.76,396.17,-0.0,1.11234,1.68954,0.0,2,0,0,0
420807155,34.0356352286,108.75699379,427.779,396.191,-0.0,1.11233,1.68939,0.0,2,0,0,0
421005805,34.0356353931,108.756992705,427.797,396.211,-0.0,1.1123,1.68925,0.0,2,0,0,0
421199490,34.0356358124,108.756991619,427.816,396.233,-0.0,1.11658,1.69034,0.0,2,0,0,0
421398253,34.0356363467,108.75699037,427.832,396.251,-0.0,1.11201,1.68933,0.0,2,0,0,0
421596790,34.0356369053,108.756988958,427.843,396.263,-0.0,1.11196,1.68918,0.0,2,0,0,0
421805373,34.0356374745,108.756987188,427.845,396.266,-0.0,1.11213,1.68917,0.0,2,0,0,0
422004023,34.0356378323,108.756985182,427.86,396.282,-0.0,1.11211,1.68955,0.0,2,0,0,0
422202776,34.0356380733,108.756983099,427.883,396.307,-0.0,1.11208,1.68939,0.0,2,0,0,0
422406287,34.0356382713,108.756980921,427.924,396.351,-0.0,1.11205,1.68976,0.0,2,0,0,0
422604942,34.0356384737,108.756978931,427.97,396.397,-0.0,1.11202,1.6896,0.0,2,0,0,0
422803591,34.0356385394,108.756976913,428.008,396.436,-0.0,1.11195,1.68945,0.0,2,0,0,0
423002305,34.0356384609,108.756975038,428.053,396.481,-0.0,1.11192,1.68929,0.0,2,0,0,0
423205859,34.0356381535,108.756973176,428.103,396.533,-0.0,1.11188,1.68966,0.0,2,0,0,0
423404509,34.0356378764,108.756971386,428.173,396.605,-0.0,1.11184,1.68951,0.0,2,0,0,0
423603161,34.0356376375,108.75696962,428.234,396.666,-0.0,1.11181,1.68935,0.0,2,0,0,0
423801897,34.0356372512,108.756967982,428.26,396.691,-0.0,1.11175,1.6892,0.0,2,0,0,0
424005427,34.0356368759,108.756966302,428.251,396.682,-0.0,1.11171,1.68957,0.0,2,0,0,0
424204077,34.0356363849,108.756964721,428.218,396.649,-0.0,1.11166,1.68942,0.0,2,0,0,0
424397761,34.0356357789,108.756963116,428.175,396.606,-0.0,1.1114,1.68913,0.0,2,0,0,0
424606371,34.0356351846,108.756961113,428.135,396.567,-0.0,1.11153,1.68912,0.0,2,0,0,0
424804998,34.0356346017,108.756959033,428.1,396.532,-0.0,1.11147,1.6895,0.0,2,0,0,0
425003644,34.0356339506,108.756956725,428.072,396.504,-0.0,1.11141,1.68935,0.0,2,0,0,0
425202312,34.0356332944,108.756954142,428.047,396.479,-0.0,1.11134,1.6892,0.0,2,0,0,0
425400957,34.0356329311,108.756951376,428.03,396.46,-0.0,1.11125,1.68958,0.0,2,0,0,0
425604562,34.0356329011,108.756948668,428.038,396.466,-0.0,1.11116,1.68942,0.0,2,0,0,0
425803215,34.0356332324,108.756946163,428.058,396.484,-0.0,1.1111,1.68927,0.0,2,0,0,0
426001863,34.0356336908,108.756943886,428.085,396.507,-0.0,1.11106,1.68964,0.0,2,0,0,0
426200516,34.0356342875,108.756941684,428.11,396.529,-0.0,1.11104,1.68948,0.0,2,0,0,0
426404130,34.0356349201,108.756939504,428.1,396.517,-0.0,1.11106,1.68933,0.0,2,0,0,0
426607748,34.0356353739,108.756937502,428.061,396.478,-0.0,1.11112,1.68918,0.0,2,0,0,0
426806429,34.0356358831,108.756935624,428.02,396.436,-0.0,1.1112,1.68955,0.0,2,0,0,0
427005049,34.0356364086,108.756933876,427.994,396.409,-0.0,1.1113,1.6894,0.0,2,0,0,0
427198732,34.0356368014,108.756932327,427.997,396.409,-0.0,1.11554,1.68996,0.0,2,0,0,0
427407315,34.0356371019,108.756930721,428.024,396.434,-0.0,1.1115,1.68911,0.0,2,0,0,0
427605966,34.0356374024,108.756929181,428.065,396.473,-0.0,1.11162,1.68949,0.0,2,0,0,0
427804616,34.0356376669,108.756927782,428.127,396.534,-0.0,1.11172,1.68934,0.0,2,0,0,0
428003267,34.0356377942,108.7569264,428.202,396.608,-0.0,1.11181,1.68919,0.0,2,0,0,0
428201917,34.0356380315,108.756925098,428.271,396.675,-0.0,1.11188,1.68957,0.0,2,0,0,0
428400710,34.0356381717,108.756923761,428.284,396.687,-0.0,1.11193,1.68941,0.0,2,0,0,0
428604186,34.0356381274,108.75692252,428.253,396.655,-0.0,1.11195,1.68926,0.0,2,0,0,0
428802835,34.0356381741,108.756921271,428.195,396.597,-0.0,1.11195,1.68912,0.0,2,0,0,0
429006456,34.0356381848,108.756919833,428.132,396.535,-0.0,1.11193,1.68949,0.0,2,0,0,0
429205241,34.035638152,108.756918313,428.074,396.477,-0.0,1.11192,1.68935,0.0,2,0,0,0
429398787,34.0356381098,108.756916522,428.023,396.428,-0.0,1.11169,1.68906,0.0,2,0,0,0
429607370,34.0356379762,108.75691442,427.978,396.384,-0.0,1.11187,1.68906,0.0,2,0,0,0
429806065,34.0356379111,108.756912402,427.943,396.35,-0.0,1.11181,1.68945,0.0,2,0,0,0
430004765,34.0356378699,108.756910207,427.919,396.326,-0.0,1.11174,1.6893,0.0,2,0,0,0
430208288,34.0356378039,108.756907761,427.891,396.297,-0.0,1.11164,1.68968,0.0,2,0,0,0
430406938,34.0356377775,108.756905296,427.86,396.265,-0.0,1.11158,1.68953,0.0,2,0,0,0
430605589,34.0356377604,108.756902839,427.839,396.243,-0.0,1.1115,1.68938,0.0,2,0,0,0
430804306,34.0356377094,108.756900359,427.818,396.22,-0.0,1.11141,1.68922,0.0,2,0,0,0
431002890,34.0356377016,108.756898026,427.808,396.208,-0.0,1.11134,1.6896,0.0,2,0,0,0
431201554,34.0356377468,108.756895801,427.811,396.21,-0.0,1.11126,1.68945,0.0,2,0,0,0
431405160,34.0356379299,108.756893826,427.828,396.223,-0.0,1.11119,1.68929,0.0,2,0,0,0
431603830,34.0356381746,108.756892062,427.841,396.233,-0.0,1.11113,1.68966,0.0,2,0,0,0
431802460,34.0356386585,108.756890587,427.856,396.245,-0.0,1.11107,1.6895,0.0,2,0,0,0
432006075,34.0356391455,108.756889296,427.87,396.256,-0.0,1.11102,1.68987,0.0,2,0,0,0
432199760,34.035639459,108.756888109,427.879,396.264,-0.0,1.11077,1.68956,0.0,2,0,0,0
432398433,34.0356396028,108.756886988,427.894,396.278,-0.0,1.11073,1.6894,0.0,2,0,0,0
432606993,34.0356396073,108.756885909,427.92,396.302,-0.0,1.11088,1.68937,0.0,2,0,0,0
432805644,34.035639564,108.756884891,427.932,396.312,-0.0,1.11082,1.68974,0.0,2,0,0,0
433009261,34.0356394672,108.756883907,427.904,396.283,-0.0,1.11074,1.68957,0.0,2,0,0,0
433207912,34.0356392827,108.756883075,427.845,396.224,-0.0,1.11067,1.68941,0.0,2,0,0,0
433406562,34.0356391393,108.756882109,427.777,396.155,-0.0,1.1106,1.68978,0.0,2,0,0,0
433605214,34.0356390287,108.756880972,427.728,396.106,-0.0,1.11053,1.68961,0.0,2,0,0,0
433803926,34.035639042,108.756879523,427.708,396.086,-0.0,1.11047,1.68945,0.0,2,0,0,0
434002514,34.0356390329,108.75687778,427.712,396.091,-0.0,1.11043,1.68981,0.0,2,0,0,0
434201166,34.0356388327,108.75687571,427.729,396.108,-0.0,1.11042,1.68964,0.0,2,0,0,0
434404781,34.0356385431,108.75687342,427.758,396.137,-0.0,1.11048,1.68947,0.0,2,0,0,0
434608398,34.0356382331,108.756871113,427.805,396.184,-0.0,1.11059,1.68984,0.0,2,0,0,0
434807054,34.0356378569,108.756868997,427.862,396.239,-0.0,1.11072,1.68967,0.0,2,0,0,0
435005699,34.0356374476,108.756867114,427.928,396.305,-0.0,1.11087,1.68951,0.0,2,0,0,0
435204350,34.0356370595,108.756865306,428.003,396.379,-0.0,1.11103,1.68934,0.0,2,0,0,0
435403182,34.035636632,108.756863662,428.087,396.461,-0.0,1.1112,1.68972,0.0,2,0,0,0
435596687,34.0356362132,108.756862335,428.144,396.518,-0.0,1.11118,1.68941,0.0,2,0,0,0
435805268,34.0356357306,108.756860862,428.147,396.519,-0.0,1.11154,1.68938,0.0,2,0,0,0
436008885,34.0356352259,108.75685959,428.083,396.454,-0.0,1.11606,1.69061,0.0,2,0,0,0
436207696,34.0356346319,108.756858518,428.01,396.381,-0.0,1.11172,1.68957,0.0,2,0,0,0
436406186,34.0356339371,108.756857645,427.948,396.32,-0.0,1.11622,1.69025,0.0,2,0,0,0
436604840,34.0356332537,108.75685659,427.898,396.27,-0.0,1.11177,1.68977,0.0,2,0,0,0
436803488,34.0356325851,108.756855282,427.855,396.228,-0.0,1.11178,1.6896,0.0,2,0,0,0
437002277,34.0356318821,108.756853868,427.828,396.203,-0.0,1.11177,1.68943,0.0,2,0,0,0
437205759,34.0356312658,108.756852162,427.814,396.191,-0.0,1.11175,1.6898,0.0,2,0,0,0
437404406,34.035630703,108.75685031,427.815,396.193,-0.0,1.11171,1.68963,0.0,2,0,0,0
437603057,34.0356302048,108.756848388,427.83,396.21,-0.0,1.11166,1.68946,0.0,2,0,0,0
437801776,34.0356298533,108.756846323,427.869,396.251,-0.0,1.11158,1.68983,0.0,2,0,0,0
438005325,34.0356295398,108.756844158,427.918,396.3,-0.0,1.1115,1.68966,0.0,2,0,0,0
438203976,34.035629431,108.756842092,427.978,396.359,-0.0,1.11144,1.68949,0.0,2,0,0,0
438397659,34.0356292984,108.756840103,428.046,396.426,-0.0,1.11568,1.69058,0.0,2,0,0,0
438606361,34.0356291438,108.756838186,428.114,396.494,-0.0,1.11128,1.6897,0.0,2,0,0,0
438804893,34.0356289206,108.756836299,428.17,396.549,-0.0,1.11118,1.68953,0.0,2,0,0,0
439003544,34.0356285783,108.756834777,428.241,396.621,-0.0,1.11108,1.68937,0.0,2,0,0,0
439202196,34.0356283183,108.756833317,428.307,396.689,-0.0,1.11098,1.68974,0.0,2,0,0,0
439400897,34.0356280493,108.756831977,428.361,396.744,-0.0,1.11088,1.68958,0.0,2,0,0,0
439604464,34.0356276816,108.756830684,428.348,396.733,-0.0,1.11077,1.68941,0.0,2,0,0,0
439803117,34.0356273181,108.756829527,428.271,396.658,-0.0,1.11065,1.68978,0.0,2,0,0,0
440001764,34.0356271196,108.756828324,428.158,396.546,-0.0,1.11501,1.69047,0.0,2,0,0,0
440200414,34.0356271205,108.756826836,428.022,396.409,-0.0,1.11038,1.68945,0.0,2,0,0,0
440404031,34.0356272485,108.756825,427.883,396.269,-0.0,1.11026,1.68982,0.0,2,0,0,0
440602682,34.0356273568,108.75682303,427.781,396.165,-0.0,1.11015,1.68965,0.0,2,0,0,0
440806299,34.0356277046,108.756820865,427.715,396.098,-0.0,1.11004,1.68948,0.0,2,0,0,0
441004964,34.0356279278,108.756818663,427.684,396.066,-0.0,1.10993,1.68931,0.0,2,0,0,0
441203601,34.035628082,108.756816223,427.67,396.05,-0.0,1.10985,1.68968,0.0,2,0,0,0
441407219,34.035628028,108.756813465,427.65,396.027,-0.0,1.10976,1.68951,0.0,2,0,0,0
441605869,34.0356279537,108.756810757,427.646,396.021,-0.0,1.10967,1.68988,0.0,2,0,0,0
441804519,34.0356279101,108.756808039,427.678,396.05,-0.0,1.10959,1.6897,0.0,2,0,0,0
441998204,34.0356278501,108.756805567,427.735,396.106,-0.0,1.11372,1.69023,0.0,2,0,0,0
442206787,34.0356278871,108.756803016,427.828,396.196,-0.0,1.10943,1.68936,0.0,2,0,0,0
442405438,34.0356278831,108.756800831,427.914,396.279,-0.0,1.10936,1.68972,0.0,2,0,0,0
442604090,34.0356278142,108.756798728,427.984,396.347,-0.0,1.10929,1.68955,0.0,2,0,0,0
442802740,34.0356276772,108.756796686,428.053,396.411,-0.0,1.10921,1.68938,0.0,2,0,0,0
443006356,34.0356274151,108.756794727,428.087,396.442,-0.0,1.10914,1.68974,0.0,2,0,0,0
443205183,34.0356271142,108.756792989,428.088,396.44,-0.0,1.10908,1.68957,0.0,2,0,0,0
443403658,34.035626777,108.756791397,428.056,396.404,-0.0,1.10903,1.6894,0.0,2,0,0,0
443602308,34.0356265182,108.756789795,428.009,396.356,-0.0,1.10896,1.68977,0.0,2,0,0,0
443805970,34.0356263697,108.756788211,427.961,396.306,-0.0,1.10889,1.6896,0.0,2,0,0,0
444004705,34.0356261832,108.756786711,427.924,396.267,-0.0,1.10882,1.68943,0.0,2,0,0,0
444203228,34.0356259017,108.756785048,427.889,396.229,-0.0,1.10877,1.68927,0.0,2,0,0,0
444406844,34.0356256153,108.756783151,427.877,396.213,-0.0,1.1087,1.68964,0.0,2,0,0,0
444605495,34.0356252814,108.756780986,427.895,396.227,-0.0,1.10867,1.68948,0.0,2,0,0,0
444804240,34.0356249499,108.75677869,427.93,396.257,-0.0,1.10865,1.68932,0.0,2,0,0,0
444997830,34.0356246067,108.756776501,427.983,396.304,-0.0,1.10847,1.68955,0.0,2,0,0,0
445206414,34.0356243753,108.756774186,428.069,396.384,-0.0,1.1087,1.68952,0.0,2,0,0,0
445405064,34.035624327,108.756772095,428.188,396.494,-0.0,1.10875,1.68936,0.0,2,0,0,0
445603773,34.0356245746,108.756769995,428.325,396.627,-0.0,1.10882,1.68973,0.0,2,0,0,0
445802366,34.0356250101,108.756767947,428.463,396.759,-0.0,1.10886,1.68957,0.0,2,0,0,0
446001017,34.0356252857,108.756765921,428.601,396.89,-0.0,1.10891,1.68941,0.0,2,0,0,0
446204636,34.0356253011,108.756763868,428.736,397.018,-0.0,1.10895,1.68925,0.0,2,0,0,0
446403314,34.0356252467,108.756761991,428.862,397.138,-0.0,1.109,1.68962,0.0,2,0,0,0
446601936,34.0356252804,108.756760228,428.96,397.23,-0.0,1.10903,1.68946,0.0,2,0,0,0
446800586,34.0356253384,108.75675866,429.004,397.269,-0.0,1.10905,1.68982,0.0,2,0,0,0
447004205,34.035625422,108.756757277,428.975,397.236,-0.0,1.10906,1.68965,0.0,2,0,0,0
447202855,34.0356254448,108.756755958,428.914,397.17,-0.0,1.10905,1.68947,0.0,2,0,0,0
447406494,34.0356255418,108.756754458,428.827,397.081,-0.0,1.10899,1.68984,0.0,2,0,0,0
447605122,34.0356257188,108.756752831,428.734,396.984,-0.0,1.10893,1.68967,0.0,2,0,0,0
447798806,34.0356258234,108.756750975,428.625,396.873,-0.0,1.10869,1.68937,0.0,2,0,0,0
447997457,34.0356260574,108.756748957,428.523,396.771,-0.0,1.10864,1.68921,0.0,2,0,0,0
448206041,34.0356263489,108.756746766,428.454,396.702,-0.0,1.10878,1.68972,0.0,2,0,0,0
448404693,34.0356266997,108.756744532,428.403,396.651,-0.0,1.10871,1.68956,0.0,2,0,0,0
448603343,34.0356271665,108.756742186,428.359,396.606,-0.0,1.10865,1.6894,0.0,2,0,0,0
448801997,34.0356276847,108.756739689,428.334,396.579,-0.0,1.1086,1.68924,0.0,2,0,0,0
449005613,34.0356281767,108.756737036,428.318,396.561,-0.0,1.10853,1.68961,0.0,2,0,0,0
449204262,34.0356286274,108.756734305,428.307,396.547,-0.0,1.10846,1.68945,0.0,2,0,0,0
449402919,34.0356290375,108.75673151,428.302,396.54,-0.0,1.10841,1.6893,0.0,2,0,0,0
449601563,34.0356295333,108.756728704,428.318,396.553,-0.0,1.10836,1.68967,0.0,2,0,0,0
449805180,34.0356300536,108.756725992,428.348,396.58,-0.0,1.10831,1.68952,0.0,2,0,0,0
450008797,34.0356305669,108.756723406,428.401,396.631,-0.0,1.10829,1.68936,0.0,2,0,0,0
450207451,34.035630972,108.756721092,428.466,396.691,-0.0,1.10826,1.68921,0.0,2,0,0,0
450406099,34.0356311941,108.756718933,428.541,396.763,-0.0,1.10823,1.68959,0.0,2,0,0,0
450604750,34.035631328,108.756716995,428.623,396.84,-0.0,1.1082,1.68944,0.0,2,0,0,0
450803401,34.0356313431,108.756715307,428.699,396.911,-0.0,1.10817,1.68929,0.0,2,0,0,0
451002192,34.0356312428,108.756713763,428.741,396.948,-0.0,1.10814,1.68915,0.0,2,0,0,0
451205669,34.0356311063,108.756712306,428.754,396.956,-0.0,1.10811,1.68953,0.0,2,0,0,0
451399357,34.0356309447,108.756710974,428.744,396.941,-0.0,1.10789,1.68924,0.0,2,0,0,0
451607937,34.0356308486,108.75670945,428.716,396.907,-0.0,1.10805,1.68923,0.0,2,0,0,0
451806735,34.035630815,108.756707976,428.683,396.868,-0.0,1.10802,1.68909,0.0,2,0,0,0
452005243,34.0356308742,108.756706448,428.646,396.826,-0.0,1.11231,1.69033,0.0,2,0,0,0
452203890,34.0356309371,108.756704719,428.61,396.783,-0.0,1.10794,1.68932,0.0,2,0,0,0
452402552,34.0356309583,108.75670279,428.57,396.738,-0.0,1.10792,1.68918,0.0,2,0,0,0
452601253,34.0356309382,108.756700618,428.532,396.694,-0.0,1.1081,1.68969,0.0,2,0,0,0
452804809,34.0356309115,108.756698303,428.487,396.643,-0.0,1.10817,1.68954,0.0,2,0,0,0
453008440,34.0356309038,108.756695918,428.468,396.618,-0.0,1.10828,1.68939,0.0,2,0,0,0
453207077,34.0356307527,108.756693607,428.466,396.611,-0.0,1.10843,1.68924,0.0,2,0,0,0
453405784,34.0356306981,108.756691132,428.498,396.637,-0.0,1.10858,1.68962,0.0,2,0,0,0
453604379,34.0356307715,108.756688558,428.533,396.665,-0.0,1.10871,1.68947,0.0,2,0,0,0
453798086,34.0356309185,108.756685931,428.568,396.693,-0.0,1.10867,1.68918,0.0,2,0,0,0
454006647,34.0356312762,108.756682945,428.601,396.718,-0.0,1.1133,1.69002,0.0,2,0,0,0
454205318,34.035631809,108.756680114,428.611,396.72,-0.0,1.10917,1.68955,0.0,2,0,0,0
454403950,34.0356324155,108.756677316,428.625,396.727,-0.0,1.10934,1.6894,0.0,2,0,0,0
454607566,34.0356330346,108.756674541,428.657,396.753,-0.0,1.10949,1.68977,0.0,2,0,0,0
454806217,34.0356335625,108.756671942,428.697,396.784,-0.0,1.10962,1.68962,0.0,2,0,0,0
455004920,34.0356339051,108.756669262,428.716,396.795,-0.0,1.10975,1.68946,0.0,2,0,0,0
455203519,34.0356340366,108.756666436,428.71,396.781,-0.0,1.10987,1.6893,0.0,2,0,0,0
455402170,34.0356339293,108.756663662,428.706,396.772,-0.0,1.10999,1.68968,0.0,2,0,0,0
455605789,34.0356335841,108.756661084,428.736,396.794,-0.0,1.11008,1.68952,0.0,2,0,0,0
455804439,34.0356331749,108.7566589,428.796,396.848,-0.0,1.11015,1.68936,0.0,2,0,0,0
455998123,34.0356327829,108.756656973,428.864,396.909,-0.0,1.11438,1.69046,0.0,2,0,0,0
456206708,34.0356322183,108.756655265,428.94,396.978,-0.0,1.11032,1.68958,0.0,2,0,0,0
456405357,34.0356316049,108.756653943,428.994,397.025,-0.0,1.11041,1.68995,0.0,2,0,0,0
456604008,34.0356310916,108.756652686,428.98,397.003,-0.0,1.11049,1.68977,0.0,2,0,0,0
456807625,34.03563057,108.756651626,428.921,396.937,-0.0,1.11056,1.68959,0.0,2,0,0,0
457001310,34.0356302762,108.756650581,428.855,396.866,-0.0,1.11476,1.69068,0.0,2,0,0,0
457200155,34.0356300693,108.756649385,428.774,396.778,-0.0,1.11484,1.6905,0.0,2,0,0,0
457398613,34.0356298579,108.756647913,428.678,396.675,-0.0,1.11491,1.69032,0.0,2,0,0,0
457607218,34.0356297062,108.756646224,428.565,396.556,-0.0,1.11521,1.69084,0.0,2,0,0,0
457800880,34.0356296118,108.756644504,428.493,396.48,-0.0,1.11497,1.69051,0.0,2,0,0,0
457999677,34.0356295279,108.75664238,428.443,396.424,-0.0,1.11499,1.69033,0.0,2,0,0,0
458208116,34.0356294205,108.756639786,428.381,396.356,-0.0,1.11079,1.68944,0.0,2,0,0,0
458406766,34.0356293484,108.756636996,428.315,396.285,-0.0,1.11077,1.68981,0.0,2,0,0,0
458605416,34.0356293951,108.756634077,428.281,396.246,-0.0,1.11073,1.68964,0.0,2,0,0,0
458804262,34.0356294531,108.756631259,428.265,396.227,-0.0,1.11069,1.68947,0.0,2,0,0,0
458997752,34.0356295931,108.756628799,428.276,396.234,-0.0,1.11488,1.69055,0.0,2,0,0,0
459206335,34.0356297133,108.756626277,428.302,396.256,-0.0,1.11059,1.68967,0.0,2,0,0,0
459405006,34.0356297719,108.756623801,428.349,396.299,-0.0,1.11054,1.6895,0.0,2,0,0,0
459603733,34.0356296271,108.756621364,428.413,396.358,-0.0,1.11049,1.68934,0.0,2,0,0,0
459807255,34.0356294625,108.756618812,428.482,396.422,-0.0,1.11045,1.6897,0.0,2,0,0,0
460005909,34.0356293887,108.756616145,428.557,396.492,-0.0,1.1149,1.69039,0.0,2,0,0,0
460204557,34.0356295732,108.756613262,428.647,396.577,-0.0,1.11033,1.68989,0.0,2,0,0,0
460403272,34.0356298251,108.756610263,428.747,396.674,-0.0,1.11028,1.68972,0.0,2,0,0,0
460601862,34.0356300115,108.756607154,428.863,396.786,-0.0,1.11023,1.68954,0.0,2,0,0,0
460800510,34.0356302101,108.756603987,428.987,396.908,-0.0,1.11018,1.68937,0.0,2,0,0,0
461004145,34.0356305269,108.756601095,429.109,397.026,-0.0,1.11011,1.68973,0.0,2,0,0,0
461202837,34.0356309101,108.756598615,429.18,397.092,-0.0,1.11004,1.68956,0.0,2,0,0,0
461401429,34.0356312348,108.756596393,429.212,397.118,-0.0,1.11442,1.69079,0.0,2,0,0,0
461600080,34.0356315043,108.756594422,429.242,397.143,-0.0,1.11429,1.6906,0.0,2,0,0,0
461803698,34.0356317225,108.756592568,429.271,397.166,-0.0,1.10973,1.68957,0.0,2,0,0,0
462002352,34.0356318566,108.756590852,429.284,397.171,-0.0,1.10964,1.6894,0.0,2,0,0,0
462205968,34.0356319574,108.756589241,429.272,397.152,-0.0,1.10955,1.68976,0.0,2,0,0,0
462404665,34.0356320049,108.756587794,429.25,397.122,-0.0,1.10945,1.6896,0.0,2,0,0,0
462603267,34.0356319157,108.756586303,429.211,397.076,-0.0,1.11375,1.69028,0.0,2,0,0,0
462801919,34.0356317895,108.756584531,429.154,397.013,-0.0,1.10924,1.68927,0.0,2,0,0,0
463005536,34.0356317091,108.756582377,429.081,396.936,-0.0,1.11353,1.69049,0.0,2,0,0,0
463204198,34.0356315737,108.756580095,429.012,396.861,-0.0,1.10907,1.68948,0.0,2,0,0,0
463402838,34.0356313451,108.756577527,428.939,396.783,-0.0,1.10898,1.68931,0.0,2,0,0,0
463601489,34.0356312726,108.756574882,428.878,396.717,-0.0,1.11325,1.69054,0.0,2,0,0,0
463800178,34.0356312924,108.756572019,428.823,396.657,-0.0,1.11315,1.69036,0.0,2,0,0,0
464003793,34.0356314966,108.756568836,428.775,396.605,-0.0,1.11305,1.69019,0.0,2,0,0,0
464207376,34.0356317753,108.756565497,428.732,396.559,-0.0,1.11293,1.69057,0.0,2,0,0,0
464406026,34.0356321786,108.756562368,428.721,396.545,-0.0,1.1085,1.68955,0.0,2,0,0,0
464604683,34.0356327813,108.756559521,428.741,396.561,-0.0,1.10844,1.68939,0.0,2,0,0,0
464798361,34.0356334232,108.756556988,428.785,396.601,-0.0,1.11249,1.69048,0.0,2,0,0,0
464997168,34.0356339518,108.756554712,428.826,396.637,-0.0,1.11245,1.69031,0.0,2,0,0,0
465205596,34.0356344869,108.756552572,428.853,396.659,-0.0,1.1084,1.68945,0.0,2,0,0,0
465404247,34.0356349213,108.756550703,428.87,396.67,-0.0,1.10839,1.68929,0.0,2,0,0,0
465602957,34.0356352454,108.756549068,428.881,396.677,-0.0,1.10838,1.68966,0.0,2,0,0,0
465801707,34.0356353858,108.756547615,428.903,396.695,-0.0,1.10837,1.6895,0.0,2,0,0,0
466005166,34.0356355336,108.756546441,428.918,396.707,-0.0,1.11268,1.69018,0.0,2,0,0,0
466203817,34.0356359127,108.756545511,428.878,396.664,-0.0,1.1083,1.68918,0.0,2,0,0,0
466402469,34.035636555,108.756544736,428.816,396.6,-0.0,1.10826,1.68955,0.0,2,0,0,0
466601227,34.0356373398,108.756544133,428.741,396.525,-0.0,1.10822,1.68939,0.0,2,0,0,0
466799771,34.0356380838,108.756543433,428.676,396.46,-0.0,1.11248,1.69062,0.0,2,0,0,0
467003389,34.035638701,108.756542478,428.61,396.395,-0.0,1.11239,1.69045,0.0,2,0,0,0
467207009,34.0356392942,108.756541132,428.548,396.333,-0.0,1.11231,1.69028,0.0,2,0,0,0
467405779,34.0356397677,108.756539402,428.494,396.279,-0.0,1.11223,1.69011,0.0,2,0,0,0
467604308,34.0356400764,108.75653744,428.451,396.236,-0.0,1.11217,1.6905,0.0,2,0,0,0
467797992,34.035640278,108.756535111,428.415,396.199,-0.0,1.11188,1.69018,0.0,2,0,0,0
468006576,34.0356405098,108.75653221,428.396,396.179,-0.0,1.10781,1.68933,0.0,2,0,0,0
468205335,34.0356407483,108.756529194,428.392,396.174,-0.0,1.1078,1.68917,0.0,2,0,0,0
468403878,34.0356410198,108.756525834,428.41,396.191,-0.0,1.10777,1.68955,0.0,2,0,0,0
468607498,34.0356415472,108.756522176,428.452,396.229,-0.0,1.10774,1.68939,0.0,2,0,0,0
468806146,34.0356421811,108.756518815,428.521,396.296,-0.0,1.10772,1.68923,0.0,2,0,0,0
469004874,34.0356427835,108.756515834,428.615,396.386,-0.0,1.10771,1.6896,0.0,2,0,0,0
469203450,34.0356434963,108.756513061,428.697,396.464,-0.0,1.1077,1.68944,0.0,2,0,0,0
469397134,34.0356442565,108.756510446,428.736,396.499,-0.0,1.11175,1.69052,0.0,2,0,0,0
469605722,34.0356453023,108.756507899,428.723,396.482,-0.0,1.10765,1.68964,0.0,2,0,0,0
469804421,34.03564628,108.756505715,428.7,396.454,-0.0,1.10762,1.68947,0.0,2,0,0,0
470003019,34.0356469696,108.756503759,428.685,396.434,-0.0,1.11186,1.69015,0.0,2,0,0,0
470206636,34.0356475418,108.756501751,428.675,396.419,-0.0,1.10755,1.68967,0.0,2,0,0,0
470405289,34.0356479924,108.756499764,428.655,396.395,-0.0,1.10754,1.68951,0.0,2,0,0,0
470603939,34.0356484008,108.75649757,428.623,396.358,-0.0,1.10753,1.68935,0.0,2,0,0,0
470807556,34.0356487132,108.756495336,428.586,396.317,-0.0,1.10755,1.68973,0.0,2,0,0,0
471006208,34.0356490422,108.75649297,428.558,396.286,-0.0,1.10757,1.68956,0.0,2,0,0,0
471204858,34.0356494405,108.756490494,428.552,396.276,-0.0,1.10758,1.6894,0.0,2,0,0,0
471403531,34.0356496563,108.756488021,428.566,396.285,-0.0,1.10759,1.68976,0.0,2,0,0,0
471602161,34.035649864,108.756485437,428.588,396.303,-0.0,1.10759,1.68959,0.0,2,0,0,0
471805778,34.03565018,108.756482886,428.625,396.336,-0.0,1.11188,1.69026,0.0,2,0,0,0
472004431,34.0356506475,108.756480494,428.68,396.387,-0.0,1.11187,1.69064,0.0,2,0,0,0
472203080,34.0356511806,108.756478233,428.739,396.442,-0.0,1.10761,1.68961,0.0,2,0,0,0
472401777,34.0356519447,108.756476122,428.78,396.479,-0.0,1.1119,1.69029,0.0,2,0,0,0
472605349,34.0356526154,108.75647405,428.801,396.496,-0.0,1.11189,1.69067,0.0,2,0,0,0
472804177,34.0356534005,108.756472291,428.801,396.493,-0.0,1.10765,1.68963,0.0,2,0,0,0
473002651,34.0356541892,108.756470536,428.761,396.45,-0.0,1.10768,1.68945,0.0,2,0,0,0
473206269,34.0356549243,108.756468734,428.697,396.383,-0.0,1.11193,1.69068,0.0,2,0,0,0
473404919,34.0356556095,108.756467042,428.624,396.308,-0.0,1.10771,1.68964,0.0,2,0,0,0
473603709,34.0356562884,108.756465259,428.548,396.229,-0.0,1.10773,1.68947,0.0,2,0,0,0
473807184,34.0356569509,108.756463185,428.458,396.137,-0.0,1.10778,1.6893,0.0,2,0,0,0
474005841,34.0356575061,108.756461007,428.375,396.053,-0.0,1.1078,1.68967,0.0,2,0,0,0
474204490,34.0356579867,108.756458594,428.299,395.975,-0.0,1.10782,1.6895,0.0,2,0,0,0
474403250,34.0356585035,108.756456121,428.22,395.893,-0.0,1.10784,1.68934,0.0,2,0,0,0
474601793,34.0356589253,108.756453493,428.187,395.858,-0.0,1.10785,1.68971,0.0,2,0,0,0
474805410,34.0356591945,108.756450736,428.198,395.866,-0.0,1.10789,1.68954,0.0,2,0,0,0
475004061,34.0356593852,108.756448113,428.254,395.919,-0.0,1.10793,1.68939,0.0,2,0,0,0
475202777,34.035659637,108.756445501,428.347,396.009,-0.0,1.10798,1.68923,0.0,2,0,0,0
475401374,34.035660027,108.756442915,428.461,396.12,-0.0,1.10801,1.6896,0.0,2,0,0,0
475604980,34.0356605627,108.756440616,428.592,396.25,-0.0,1.10804,1.68944,0.0,2,0,0,0
475803632,34.0356610126,108.756438432,428.707,396.365,-0.0,1.10808,1.68928,0.0,2,0,0,0
476002375,34.0356613564,108.75643635,428.763,396.422,-0.0,1.10811,1.68913,0.0,2,0,0,0
476205901,34.0356617515,108.756434544,428.768,396.43,-0.0,1.10812,1.6895,0.0,2,0,0,0
476399585,34.0356620323,108.756432897,428.74,396.405,-0.0,1.10796,1.68921,0.0,2,0,0,0
476608169,34.0356623059,108.756431263,428.727,396.396,-0.0,1.10818,1.6892,0.0,2,0,0,0
476806898,34.0356625156,108.756429851,428.75,396.422,-0.0,1.10821,1.68957,0.0,2,0,0,0
477005472,34.0356626568,108.756428631,428.788,396.463,-0.0,1.10825,1.68941,0.0,2,0,0,0
477204127,34.0356626692,108.756427638,428.825,396.502,-0.0,1.10826,1.68926,0.0,2,0,0,0
477402774,34.0356625996,108.7564266,428.844,396.523,-0.0,1.11259,1.69049,0.0,2,0,0,0
477601444,34.0356625046,108.756425535,428.85,396.532,-0.0,1.10827,1.68948,0.0,2,0,0,0
477805042,34.0356623788,108.756424164,428.861,396.545,-0.0,1.10828,1.68932,0.0,2,0,0,0
478003693,34.0356623127,108.756422578,428.871,396.556,-0.0,1.1083,1.68969,0.0,2,0,0,0
478202344,34.0356622379,108.75642077,428.872,396.559,-0.0,1.10832,1.68952,0.0,2,0,0,0
478401025,34.0356621169,108.756418655,428.866,396.555,-0.0,1.10834,1.68935,0.0,2,0,0,0
478604613,34.0356619571,108.756416142,428.864,396.556,-0.0,1.10836,1.68972,0.0,2,0,0,0
478798335,34.0356618507,108.756413448,428.87,396.565,-0.0,1.10818,1.68941,0.0,2,0,0,0
478996952,34.0356617366,108.756410395,428.879,396.577,-0.0,1.1082,1.68978,0.0,2,0,0,0
479205563,34.0356617704,108.756406855,428.905,396.606,-0.0,1.10843,1.68975,0.0,2,0,0,0
479399218,34.0356619036,108.756403603,428.933,396.637,-0.0,1.10827,1.68944,0.0,2,0,0,0
479607801,34.0356620472,108.756400129,428.963,396.671,-0.0,1.1085,1.68942,0.0,2,0,0,0
479806454,34.0356622477,108.756396943,428.997,396.709,-0.0,1.10855,1.68979,0.0,2,0,0,0
480005105,34.0356624057,108.756393939,429.044,396.76,-0.0,1.1086,1.68962,0.0,2,0,0,0
480203755,34.0356624377,108.756391046,429.097,396.818,-0.0,1.11298,1.69031,0.0,2,0,0,0
480402406,34.0356623843,108.756388243,429.15,396.874,-0.0,1.10865,1.68982,0.0,2,0,0,0
480601209,34.0356622022,108.756385638,429.202,396.932,-0.0,1.10869,1.68964,0.0,2,0,0,0
480799710,34.0356618904,108.756383265,429.263,396.998,-0.0,1.10872,1.68947,0.0,2,0,0,0
481003352,34.0356614792,108.756381051,429.321,397.061,-0.0,1.10875,1.68984,0.0,2,0,0,0
481206943,34.035661022,108.756379032,429.342,397.087,-0.0,1.10878,1.68967,0.0,2,0,0,0
481405729,34.0356605376,108.756377256,429.318,397.068,-0.0,1.10882,1.68951,0.0,2,0,0,0
481599291,34.0356602655,108.756375597,429.247,397.003,-0.0,1.11291,1.69004,0.0,2,0,0,0
481797931,34.0356601411,108.756373932,429.165,396.927,-0.0,1.10867,1.68958,0.0,2,0,0,0
482006514,34.0356600722,108.756372333,429.068,396.836,-0.0,1.10888,1.68956,0.0,2,0,0,0
482205264,34.0356599244,108.756370745,428.971,396.744,-0.0,1.10891,1.6894,0.0,2,0,0,0
482398876,34.0356599177,108.756368821,428.876,396.653,-0.0,1.11301,1.69049,0.0,2,0,0,0
482607433,34.0356600766,108.756366507,428.778,396.559,-0.0,1.10896,1.68961,0.0,2,0,0,0
482806085,34.0356602772,108.756364017,428.699,396.485,-0.0,1.109,1.68944,0.0,2,0,0,0
483004806,34.0356604614,108.756361243,428.635,396.427,-0.0,1.10903,1.68981,0.0,2,0,0,0
483198421,34.0356606154,108.756358248,428.59,396.388,-0.0,1.10887,1.6895,0.0,2,0,0,0
483407005,34.0356607378,108.756354869,428.553,396.358,-0.0,1.10911,1.68947,0.0,2,0,0,0
483600689,34.0356608284,108.756351759,428.551,396.362,-0.0,1.10894,1.6897,0.0,2,0,0,0
483799392,34.0356610322,108.756348735,428.568,396.384,-0.0,1.10896,1.68954,0.0,2,0,0,0
484007924,34.0356613656,108.756345861,428.606,396.428,-0.0,1.10918,1.68952,0.0,2,0,0,0
484206575,34.0356617558,108.756343373,428.649,396.474,-0.0,1.10918,1.68936,0.0,2,0,0,0
484400263,34.0356621314,108.756341075,428.69,396.519,-0.0,1.10899,1.68959,0.0,2,0,0,0
484598925,34.0356625833,108.756338782,428.734,396.567,-0.0,1.10899,1.68943,0.0,2,0,0,0
484807495,34.035663076,108.756336561,428.792,396.63,-0.0,1.10918,1.68941,0.0,2,0,0,0
485006146,34.0356634224,108.756334745,428.838,396.681,-0.0,1.10917,1.68978,0.0,2,0,0,0
485204798,34.0356636345,108.756333084,428.837,396.685,-0.0,1.10916,1.6896,0.0,2,0,0,0
485403462,34.0356637617,108.756331542,428.806,396.659,-0.0,1.10912,1.68943,0.0,2,0,0,0
485607106,34.0356638396,108.756329923,428.768,396.625,-0.0,1.1091,1.68979,0.0,2,0,0,0
485805722,34.0356638665,108.7563283,428.729,396.592,-0.0,1.10907,1.68962,0.0,2,0,0,0
486004368,34.0356638436,108.756326511,428.693,396.563,-0.0,1.10904,1.68944,0.0,2,0,0,0
486203052,34.0356638075,108.756324648,428.667,396.543,-0.0,1.10902,1.68981,0.0,2,0,0,0
486401671,34.0356636881,108.756322585,428.655,396.538,-0.0,1.10901,1.68963,0.0,2,0,0,0
486600322,34.0356635805,108.756320579,428.645,396.534,-0.0,1.10898,1.68946,0.0,2,0,0,0
486799162,34.0356635172,108.756318435,428.646,396.543,-0.0,1.10895,1.68982,0.0,2,0,0,0
487002590,34.0356635558,108.756316013,428.641,396.546,-0.0,1.10895,1.68965,0.0,2,0,0,0
