timestamp,timestamp_sample,xyz[0],xyz[1],xyz[2]
351005674,351005442,0.004996,0.0022066,0.0179297
351008160,351007924,0.0108442,-0.0019644,0.01366
351028019,351027789,0.0206603,-0.00739734,0.00807437
351046653,351046413,0.0155985,0.00189176,-0.0423088
351066516,351066282,0.022672,0.0153038,-0.00677371
351087610,351087383,-0.00316626,-0.00507961,0.0369592
351108720,351108493,0.00659034,0.0285691,0.0254603
351126104,351125873,0.018583,-0.0144582,-0.0435363
351147217,351146979,-0.018984,0.0081586,-0.00283249
351168365,351168142,0.0252844,-0.0073222,0.015243
351185768,351185539,0.0312824,0.014906,0.00898976
351206977,351206749,-0.0125983,0.0106879,-0.0201177
351227913,351227680,0.0145462,-0.0124552,-0.0165882
351249027,351248803,0.0153483,0.0290525,0.0307208
351266399,351266169,-0.00943688,-0.0318293,-0.00583148
351287501,351287274,-0.0225614,0.0481919,-0.0373901
351308610,351308380,0.0657286,-0.00702838,0.02819
351325995,351325765,-0.0760597,-0.00716546,0.00153526
351347098,351346868,-0.00838807,0.0419905,-0.0166772
351368205,351367974,0.0946368,-0.0137454,0.0177157
351389311,351389081,-0.0694985,-0.040523,0.00374953
351406691,351406464,0.0255209,0.0588337,-0.00827386
351427816,351427589,0.106696,-0.0194601,0.0538844
351449006,351448772,-0.0940365,-0.0495912,0.00081282
351466419,351466185,0.0229365,0.0502487,-0.0400767
351487389,351487164,0.122351,-0.000301692,0.0569541
351508500,351508270,-0.0787512,-0.0557498,0.0253547
351525881,351525652,0.00674986,0.0503553,-0.0562769
351546985,351546758,0.120045,0.0229994,0.0353578
351568118,351567882,-0.0341632,-0.0579514,0.0438598
351587959,351587731,-0.0978348,0.00408006,-0.0522969
351606578,351606352,0.116136,0.053994,0.0149361
351626456,351626221,-0.0172164,-0.050963,0.0470606
351647559,351647325,-0.109933,-0.0261385,-0.0277172
351666175,351665948,0.0764985,0.0519606,-0.0164263
351686040,351685813,0.0382027,-0.0182406,0.0538969
351707223,351706986,-0.0819382,-0.0449422,-0.00758256
351728351,351728122,-0.0303969,0.0109898,-0.0545429
351745811,351745585,0.0720675,0.0315844,0.0507566
351766784,351766556,-0.0525684,-0.0234793,0.0234616
351787845,351787620,-0.0554654,-0.0329858,-0.0530974
351808949,351808726,0.0498903,0.0137573,-0.0177169
351826341,351826108,-0.0034839,0.0192109,0.0547438
351847475,351847248,-0.0529637,-0.0337011,-0.0355259
351868546,351868321,-0.00225508,-0.0267162,-0.0482652
351885943,351885702,0.0343743,0.0451585,0.0571556
351907040,351906809,-0.0449768,0.0152918,0.00173836
351928142,351927915,-0.0125125,-0.0455383,-0.0526555
351949274,351949050,0.0245999,-0.0311205,0.00152089
351966636,351966404,-0.00795991,0.0531413,0.0339679
351987784,351987559,-0.014661,0.00888786,-0.0339002
352009007,352008772,0.00517645,-0.0526324,-0.0401757
352026238,352026000,-0.00017546,0.0324573,0.053016
352047339,352047105,0.000710282,0.0477354,0.00103251
352068436,352068211,0.00716116,-0.0318142,-0.0520959
352085825,352085593,-0.020768,-0.0101715,0.0361366
352106924,352106699,0.0120214,0.0692007,0.0387096
352128029,352127805,0.0326747,0.0280757,-0.0231868
352149161,352148919,-0.0218827,-0.0744009,-0.0409451
352166521,352166294,-0.0200756,0.027142,0.0437968
352187634,352187403,0.053603,0.06225,0.0221449
352207490,352207266,0.00926566,-0.04197,-0.0389146
352226131,352225890,-0.0673128,-0.0160986,0.00778631
352246006,352245761,0.0530706,0.071264,0.040792
352267181,352266957,0.0767767,0.00429292,-0.000584313
352288203,352287969,-0.0631231,-0.0699989,-0.0393256
352305574,352305348,-0.00500708,0.042779,0.0145406
352326682,352326454,0.11842,0.0594986,0.0431592
352347788,352347561,0.0327748,-0.0398868,0.0051533
352368899,352368670,-0.150088,-0.0477125,-0.0508436
352386274,352386049,0.0767805,0.0675015,0.0281523
352407383,352407155,0.146419,0.00642789,0.0608261
352428489,352428262,-0.0764907,-0.0709848,-0.0177189
352445877,352445645,-0.0350919,0.0519295,-0.0410769
352467004,352466769,0.164071,0.0451133,0.0527234
352488087,352487859,0.0538465,-0.0504567,0.0608731
352509228,352508996,-0.161815,-0.0425072,-0.0445211
352526626,352526398,0.0692481,0.0725822,-0.023972
352547835,352547607,0.155145,-0.000232764,0.0766466
352568784,352568558,-0.0532527,-0.0672942,0.0411952
352586168,352585939,-0.074946,0.0516539,-0.080267
352607282,352607047,0.140096,0.0366675,0.0146244
352628422,352628198,0.0848586,-0.0527193,0.0832014
352645765,352645533,-0.143107,0.00473727,-0.0602987
352666872,352666641,0.0313151,0.0651492,-0.0650338
352687974,352687747,0.128633,0.00728468,0.0520434
352705388,352705161,-0.104399,-0.0485011,0.00557348
352726465,352726236,-0.0681613,0.0219788,-0.0644322
352747566,352747341,0.0790071,0.0435584,-0.00942759
352768675,352768447,0.0519455,-0.00259736,0.0555429
352786148,352785909,-0.0721868,-0.024843,-0.0344187
352806028,352805798,0.0379042,0.0190382,-0.0179025
352827029,352826805,0.0633868,0.0137491,0.0472275
352848146,352847922,-0.0472716,-0.010826,0.00894284
352865518,352865289,-0.00203125,-0.00312257,-0.0411405
352886622,352886395,0.0578466,0.0272086,0.0407511
352907728,352907503,0.00311335,0.0186354,0.0456099
352928882,352928652,-0.0584973,-0.00792384,-0.0464753
352946220,352945990,0.0295224,-0.0123164,0.0100821
352967365,352967142,0.0423362,0.0109686,0.0692949
352988432,352988204,-0.015706,0.0195876,-0.00619857
353005810,353005585,-0.0147639,-0.0186288,-0.0481022
353026919,353026692,0.0240436,-0.0211856,0.0531777
353048026,353047798,0.0195337,0.0146857,0.0574471
353069225,353068990,-0.000587202,0.0203698,-0.0428736
353086661,353086437,-0.0297482,-0.0154552,-0.0101769
353107623,353107392,0.00147219,0.00945418,0.0722128
353128731,353128499,0.0428231,0.0226475,0.0146867
353146105,353145880,-0.0333502,-0.0197619,-0.0513697
353167244,353167013,-0.0520542,-0.0158115,0.0266572
353188327,353188096,0.0352491,0.0197289,0.0535424
353209433,353209207,0.0870585,0.0077469,-0.0110063
353226816,353226581,-0.094777,-0.0151554,-0.0326337
353247926,353247692,-0.0527451,0.0199444,0.030898
353269021,353268795,0.102743,0.00975129,0.0379942
353286410,353286176,-0.0375284,-0.0337418,-0.0326963
353307517,353307288,-0.146045,0.0282454,-0.0233427
353328657,353328421,0.0308274,0.0479367,0.0149088
353346121,353345885,0.0931603,-0.0536778,0.0191577
353367120,353366877,-0.134892,-0.0260397,-0.0333858
353386971,353386743,-0.0692908,0.0690181,-0.0230607
353406841,353406609,0.176954,-0.0125676,0.0389352
353425461,353425230,-0.0646343,-0.0587198,-0.00206897
353446567,353446337,-0.168174,0.0515998,-0.0484881
353467671,353467443,0.0577662,0.0705077,-0.0158056
353488775,353488549,0.166016,-0.0466916,0.0464739
353506162,353505932,-0.154614,-0.0236879,-0.0114294
353527268,353527039,-0.0898986,0.0813023,-0.0452006
353548372,353548146,0.134977,0.0325299,-0.000124544
353565766,353565526,-0.0299636,-0.0697145,0.0382136
353586897,353586673,-0.139805,0.0265479,-0.0368575
353608044,353607819,0.0150877,0.0676206,-0.0379831
353629331,353629095,0.117925,-0.0165012,0.0254587
353646455,353646227,-0.0863106,-0.0295498,0.00812724
353667556,353667333,-0.0637841,0.0521752,-0.0334457
353688673,353688439,0.0643628,0.0390828,-0.00104867
353706053,353705823,-0.0149174,-0.044626,0.0242462
353727156,353726929,-0.075199,-0.00078143,-0.0275359
353748312,353748083,0.0139299,0.0341931,-0.0153758
353769374,353769142,0.0647339,0.00105249,0.0304556
353786786,353786563,-0.0582387,-0.0194649,-0.0261375
353809103,353808872,-0.0439494,0.00581689,-0.0410209
353828965,353828736,0.052473,0.0111036,0.0423945
353846348,353846118,-0.021514,-0.0105032,0.00295152
353867547,353867319,-0.0633904,0.00881187,-0.0634024
353888689,353888460,0.0277003,0.0090842,-0.00267484
353909666,353909436,0.055707,-0.0087667,0.072807
353927051,353926818,-0.0545096,0.00759694,-0.0551136
353948162,353947926,-0.0232662,0.014263,-0.0729261
353968066,353967837,0.0499446,-0.00574942,0.0734879
353986650,353986413,-0.0120457,-0.0099897,0.0115842
354006505,354006277,-0.0422551,0.0251879,-0.0948863
354027619,354027387,0.0109461,0.000474947,0.00441946
354048719,354048491,0.027889,-0.0230802,0.0973734
354066105,354065872,-0.0106293,0.0137084,-0.0591847
354087212,354086979,-0.0198152,0.0277717,-0.0706588
354108311,354108085,-0.0149415,-0.0048284,0.0458402
354125740,354125505,0.0315978,-0.0181292,0.01618
354146940,354146711,0.00762614,0.0176593,-0.0688551
354168083,354167860,-0.0387962,0.0259667,-0.0192758
354185291,354185061,0.0119115,-0.0277192,0.0422514
354206414,354206179,0.0604134,-0.0121274,-0.0150774
354227502,354227274,-0.0171731,0.0170035,-0.0319594
354248608,354248381,-0.0607347,0.0268265,0.0158456
354266003,354265775,0.0543171,-0.0327999,-0.00387304
354287093,354286869,0.0573312,-0.0305412,-0.0142237
354308212,354307977,-0.0349749,0.0139812,0.0130041
354329314,354329082,-0.0801074,0.0501674,0.0195077
354346693,354346464,0.078354,-0.0366822,-0.0351272
354367800,354367570,0.0262379,-0.0276949,0.0173234
354388929,354388698,-0.0612915,0.0312219,0.0432359
354406332,354406104,0.0303384,0.00418478,-0.0412421
354427521,354427297,0.077343,-0.0550897,-0.0345003
354448541,354448312,-0.0293454,-0.00558147,0.0367059
354465878,354465653,-0.0161203,0.0525375,0.00217161
354486991,354486759,0.0712357,-0.0209825,-0.0546447
354508105,354507865,0.0232331,-0.0557764,-0.0177854
354527963,354527730,-0.0821394,0.0363933,0.0538518
354546578,354546354,0.0472857,0.0220316,-0.0132373
354567694,354567460,0.0685757,-0.0460745,-0.0468794
354587555,354587325,-0.0857895,-0.0140529,0.00397758
354606177,354605948,-0.0030765,0.0501917,0.0385833
354626092,354625870,0.104616,-0.0352231,-0.0156694
354647156,354646926,-0.0407841,-0.0428534,-0.0333854
354668261,354668034,-0.113305,0.0392395,-0.00479068
354685727,354685496,0.118343,0.00878875,0.031322
354706933,354706700,0.05418,-0.0597867,-0.0115228
354727851,354727623,-0.1433,-0.00168659,-0.044157
354748954,354748727,-0.0621065,0.0695517,-0.00612099
354766340,354766109,0.151981,-0.0556796,0.0533383
354787454,354787220,-0.0486165,-0.0558343,-0.0192558
354808591,354808367,-0.147172,0.0583891,-0.0666043
354825943,354825711,0.131381,0.00186474,0.0492829
354847039,354846810,0.0839064,-0.0888079,0.0484739
354868140,354867916,-0.112784,-0.00509275,-0.0400865
354886778,354886543,-0.0105777,0.0800545,-0.0329787
354906631,354906404,0.129069,-0.0521893,0.0663846
354927738,354927511,-0.0121529,-0.073948,0.0309293
354945168,354944939,-0.0674039,0.090881,-0.0674484
354966436,354966206,0.0779729,0.0193846,0.0207264
354987335,354987105,0.0645141,-0.0810837,0.065485
355005964,355005731,-0.0737309,0.0187806,-0.0383818
355025827,355025594,0.00564327,0.0688985,-0.0386646
355046930,355046700,0.0454357,-0.0173531,0.0373888
355068029,355067807,0.00306105,-0.0669705,0.0252465
355089161,355088913,-0.0194813,0.00631712,-0.0300349
355106522,355106295,0.0121152,0.0424706,0.0193221
355127634,355127401,-0.00746389,-0.0279403,0.0363721
355147496,355147267,-0.00412464,-0.0272952,-0.0372917
355166125,355165891,0.019622,0.0395412,0.00671632
355186002,355185775,-0.0011351,0.00357943,0.0431678
355207106,355206875,-0.025505,-0.0283046,-0.0340445
355228338,355228108,0.0168744,-0.0140905,-0.0488768
355245801,355245570,0.00406616,0.0182848,0.0645475
355266685,355266455,-0.0227167,-0.0022971,0.0148957
355287792,355287562,-0.00249573,-0.0119387,-0.0696013
355308893,355308668,0.0234192,0.00242809,-0.0283321
355326276,355326050,-0.0230273,0.0122512,0.0805747
355347386,355347156,-0.0091111,-0.00271476,-0.0342756
355368497,355368264,0.0250086,-0.0134761,-0.0821543
355385870,355385645,-0.0196301,0.00293955,0.0692613
355406983,355406751,-0.0184598,0.00737384,0.0472767
355428085,355427858,0.0384936,-0.00389952,-0.0558509
355449199,355448967,0.0159256,0.00368938,-0.0501076
355466601,355466373,-0.0627025,0.0206159,0.0725332
355487733,355487509,0.037633,-0.00311629,0.0136304
355508945,355508718,0.069341,-0.0280272,-0.0571924
355526172,355525941,-0.0841572,0.020247,0.0168129
355547280,355547047,-0.0167235,0.0207518,0.050694
355568381,355568154,0.104766,-0.0304779,0.00484548
355585766,355585535,-0.0755957,0.00232944,-0.0353533
355606878,355606645,-0.0899075,0.0578029,0.0143957
355627980,355627754,0.0724194,0.0114246,0.0312788
355645364,355645130,0.0351171,-0.0596062,-0.0219255
355666468,355666237,-0.142944,0.0467813,-0.023663
355687569,355687343,-0.0416115,0.0762035,0.00777684
355708679,355708449,0.137466,-0.0280751,0.0246005
355728547,355728317,0.0185223,-0.0732446,0.000351295
355747183,355746955,-0.136423,0.0823851,-0.0211932
355767133,355766908,0.084238,0.0265253,0.00668324
355788142,355787911,0.115403,-0.0916327,0.0182709
355805519,355805290,-0.140423,0.0474961,-0.0109803
355826633,355826410,-0.0165723,0.0906221,-0.010495
355847724,355847503,0.117501,-0.0381812,0.00472359
355868838,355868609,0.0257096,-0.100087,0.0145594
355886225,355885991,-0.0839547,0.0890562,-0.0148044
355907369,355907145,0.0652007,0.0473846,-0.00651506
355928431,355928204,0.0714608,-0.0831929,0.00633689
355945812,355945582,-0.0892934,0.022634,-0.00542342
355966918,355966692,0.00292082,0.0905547,-0.000961662
355988032,355987799,0.0711185,-0.0103981,0.0131174
356009186,356008950,-0.00790591,-0.0799599,-0.00570249
356026572,356026349,-0.0322028,0.0619498,-0.00465637
356047793,356047562,0.0580883,0.0467422,0.0361338
356068737,356068501,0.0277855,-0.0460382,0.0138523
356086105,356085882,-0.0578614,0.0148026,-0.0530783
356107221,356106988,0.0305416,0.046027,0.0153587
356128330,356128098,0.0679254,-0.015848,0.0762317
356149430,356149204,-0.0412689,-0.0420776,-0.00692448
356166811,356166582,-0.0210761,0.0462806,-0.0544082
356187922,356187690,0.0694413,0.0128036,0.0728233
356209025,356208795,0.015303,-0.0475112,0.0764036
356226409,356226177,-0.0622105,0.0280777,-0.100702
356247550,356247323,0.0470835,0.0508664,-0.0183703
356268618,356268387,0.0553223,-0.0181714,0.107486
356286022,356285793,-0.060848,-0.0305166,-0.0615538
356305973,356305744,0.0150575,0.0514115,-0.0816587
356326981,356326747,0.0446931,0.0236088,0.066723
356345607,356345366,-0.0387953,-0.0551586,0.0421769
356366745,356366516,-0.0263565,-0.00186462,-0.0872131
356386567,356386339,0.0358937,0.0637465,-0.0151894
356407693,356407467,-0.00297777,-0.00147736,0.0796494
356428774,356428551,-0.0340895,-0.0635969,0.0143529
356446174,356445935,0.0469974,0.0363053,-0.0593717
356467270,356467039,0.0149151,0.0557332,0.0344061
356488374,356488145,-0.0482384,-0.0203752,0.0446485
356505764,356505528,0.0216776,-0.0253991,-0.0542529
356526860,356526633,0.0480993,0.043835,0.0114434
356547997,356547773,-0.0337248,0.0377601,0.057576
356569167,356568930,-0.0428421,-0.0344286,-0.0184206
356586628,356586402,0.0642389,-0.018435,-0.0229129
356607560,356607335,0.00850331,0.0572614,0.058308
356628674,356628442,-0.054238,0.0334285,0.0174739
356646043,356645820,0.0365777,-0.0626451,-0.0622267
356667187,356666962,0.0271589,0.00106836,0.0347247
356688266,356688035,-0.01927,0.069942,0.06946
356709368,356709142,-0.0299787,0.0150573,-0.0256246
356726750,356726525,0.0202301,-0.0623234,-0.0371397
356747859,356747630,0.0154191,0.0261797,0.0687948
356768964,356768737,-0.0145315,0.0697437,0.0490123
356786344,356786119,0.00306568,-0.0592474,-0.0774851
356807454,356807226,-0.0123715,-0.0455164,-0.00520697
356828654,356828424,-0.00215391,0.0613156,0.0848017
356848557,356848330,0.0211388,0.0567759,0.0244442
356867048,356866819,-0.00277182,-0.0821024,-0.100629
356888160,356887927,-0.0213938,-0.0715232,-0.0580116
356908021,356907791,0.0145782,0.0428805,0.0842949
356926661,356926415,0.00543726,0.0630436,0.0929359
356946514,356946281,-0.0458818,-0.018264,-0.0457181
356967614,356967385,-0.0570096,-0.0438419,-0.12354
356988722,356988492,-0.0156608,-0.0200698,-0.115159
357006104,357005874,0.0990947,0.0254648,0.0520402
357027209,357026980,0.0873184,-0.00144634,0.0903507
357048310,357048086,0.0394825,-0.0499856,0.0867868
357065699,357065468,-0.147184,-0.0115879,-0.0172174
357086809,357086577,-0.160177,0.0619544,-0.0489016
357108043,357107820,-0.110477,0.124522,-0.0540875
357129221,357128983,-0.046585,0.145277,-0.0226874
357146406,357146172,0.171195,-0.0323346,0.0314511
357167506,357167278,0.191848,-0.105554,0.0253926
357188610,357188385,0.197429,-0.154398,0.0151315
357205995,357205765,0.0540462,-0.111123,-0.0180928
357227095,357226870,0.0355023,-0.0550333,-0.0173094
357248206,357247977,0.0232672,0.00646663,-0.0238993
357269321,357269087,0.00853821,0.0538826,-0.030263
357286690,357286465,-0.254647,0.19585,-0.00381387
357307807,357307583,-0.27593,0.19347,0.00606897
357328910,357328678,-0.292097,0.179872,0.0166509
357346334,357346107,-0.204012,0.00107681,0.0306894
357367431,357367208,-0.186182,-0.0160147,0.0375699
357388649,357388410,-0.195986,-0.0188573,0.0477985
357409622,357409379,-0.181826,-0.0174136,0.0425582
357426996,357426762,0.165581,-0.145319,-0.00978035
357448105,357447867,0.150648,-0.152659,-0.0072774
357469209,357468974,0.146382,-0.158927,-0.00949412
357486581,357486355,0.323337,-0.0907415,-0.0633076
357507698,357507465,0.319861,-0.0714888,-0.0715317
357527562,357527326,0.280385,-0.0199173,-0.079506
357546179,357545950,0.14729,0.0685384,-0.0556373
357566039,357565815,0.0594115,0.0859679,-0.0244604
357587153,357586921,0.0520209,0.0807076,-0.021101
357608257,357608028,0.0636534,0.0792439,-0.0324996
357625731,357625498,-0.163204,0.0795723,0.0752702
357646830,357646602,-0.15764,0.0716609,0.0773883
357668041,357667813,-0.128415,0.0485248,0.0795884
357688958,357688729,-0.0864224,0.0163458,0.0877665
357706345,357706111,-0.182691,-0.0751584,0.11506
357727446,357727217,-0.147947,-0.085546,0.114271
357748550,357748323,-0.1116,-0.0946354,0.112624
357765944,357765711,-0.113066,-0.023173,0.00915592
357787042,357786812,-0.112837,-0.0294343,0.00972717
357808152,357807924,-0.0798527,-0.0227904,0.00504567
357825529,357825300,-0.0443475,0.17578,-0.0898807
357846642,357846410,-0.0803592,0.20905,-0.0793117
357867740,357867513,-0.0764246,0.239473,-0.067554
357888871,357888646,-0.111704,0.246086,-0.0688187
357906286,357906052,-0.0129977,0.122308,-0.0545122
357927483,357927255,-0.0176935,0.113455,-0.0425374
357948442,357948214,-0.0175879,0.0895781,-0.0343495
357965826,357965597,0.133409,-0.183285,-0.00547953
357986935,357986702,0.118709,-0.179516,-0.00592711
358008034,358007808,0.132595,-0.17302,-0.0101543
358029157,358028916,0.107377,-0.164536,-0.017451
358046523,358046298,0.180186,-0.161592,-0.0190286
358067634,358067403,0.174559,-0.152423,-0.0272142
358087494,358087268,0.153958,-0.099535,-0.0158153
358108611,358108374,0.138964,-0.0870486,-0.0284668
358125982,358125757,-0.0154933,0.056252,0.0219454
358147088,358146862,-0.000163804,0.0378513,0.0193972
358168224,358167987,0.0631132,0.000400515,-0.0242608
358185671,358185446,-0.0278739,0.0445404,0.0135681
358206876,358206648,0.0685296,-0.016576,-0.030965
358227807,358227578,0.188313,-0.0160186,-0.020724
358248908,358248674,0.060216,-0.0527109,-0.00391997
358266276,358266052,0.112096,-0.079628,0.00723631
358287391,358287159,0.0613757,0.0248324,-0.0195639
358308498,358308267,-0.212945,0.111674,0.0218303
358325871,358325646,-0.186971,0.0775511,0.0145896
358348237,358347998,0.0111425,-0.0821747,-0.0294303
358368090,358367861,-0.124682,0.0835339,0.00851088
358389203,358388974,-0.0624163,0.000247078,0.0251687
358407831,358407591,0.0212758,-0.0199625,0.0253181
358427685,358427455,0.0828635,-0.0016284,0.00432902
358448847,358448623,0.0313035,-0.00908719,-0.0570454
358466321,358466093,0.0179734,0.0306517,-0.00339651
358487280,358487049,-0.0571222,-0.00517364,0.0492177
358508383,358508155,0.141238,-0.0850356,-0.027816
358525769,358525537,0.146963,-0.0412335,-0.0409274
358546876,358546645,-0.100568,0.0423208,0.00164691
358567975,358567750,-0.00340629,-0.0364506,0.0106788
358586621,358586376,0.0913581,0.0232133,0.0144143
358606479,358606241,0.0314928,0.00447583,-0.0492272
358627614,358627379,-0.0544537,-0.0257246,-0.0133054
358648679,358648451,-0.0404301,0.0387095,0.0536461
358666070,358665836,-0.0146166,-0.018521,0.029466
358687174,358686940,0.0408359,-0.0363615,-0.0343899
358707050,358706824,-0.0941411,0.0415092,0.00338588
358728248,358728023,-0.0268965,-0.0081871,0.00754911
358745532,358745299,0.0672061,-0.0430191,-0.00624998
358766629,358766399,0.0030358,0.0509929,0.00751593
358787731,358787505,-0.0500813,-0.0472418,0.0180711
358810086,358809854,0.0858161,-0.00304081,0.00953467
358826236,358826002,0.0923344,0.00923994,0.0025662
358847327,358847100,-0.071511,0.0433969,-0.00251376
358868439,358868206,0.0240614,-0.0521155,-0.021457
358885818,358885588,0.0456956,-0.0333418,0.00116524
358906922,358906696,-0.0257421,0.015247,0.0210912
358928033,358927801,0.0104,-0.0182618,-0.0281742
358949144,358948916,-0.04603,0.00816013,0.000353864
358966515,358966290,-0.041821,0.00777348,0.0210696
358987742,358987513,0.109496,-0.0710575,-0.0208948
359008906,359008674,0.0192265,0.0549726,-0.00208974
359026153,359025926,-0.0112261,0.0733355,0.00254374
359047223,359046990,0.0171406,-0.0434503,-0.0326518
359068336,359068100,0.049511,0.0373804,-0.00167642
359089430,359089203,-0.0141185,0.0289648,-0.0170309
359108059,359107827,0.0550332,-0.0510098,-0.0229772
359127930,359127694,-0.0360078,-0.0384088,0.000343136
359149024,359148799,-0.0907904,-0.0354119,0.036647
359166410,359166179,-0.0384181,-0.0384255,0.0036316
359187517,359187287,0.0426895,0.0585443,-0.00670505
359208657,359208428,-0.0217631,0.0183471,-0.0136582
359226008,359225775,-0.00719659,-0.0216967,-0.0066631
359247156,359246911,0.0335489,-0.0457949,0.0201928
359267152,359266920,0.058932,0.0164642,0.0267476
359286849,359286613,0.0540685,-0.0274135,-0.0384883
359305488,359305260,0.0794698,-0.0445541,-0.0442612
359326585,359326345,-0.104701,0.0728081,0.0314953
359345199,359344963,-0.0553153,0.00937495,0.021589
359368775,359368553,0.0716379,0.0190177,-0.0465384
359386221,359385989,-0.0244785,0.049401,-0.0118616
359407266,359407041,-0.0866658,-0.0303232,0.00696664
359428373,359428147,0.124561,-0.0296272,0.0137261
359445765,359445532,0.0374947,0.0448131,-0.0090459
359466866,359466636,0.0704584,-0.00840291,-0.0360513
359487981,359487750,0.00289791,0.0506781,-0.000270915
359509104,359508872,-0.080065,-0.0325572,0.00289822
359526537,359526309,-0.0556722,-0.068648,-0.0178799
359547743,359547512,0.00431515,0.0571476,0.0250337
359568673,359568443,-0.044645,-0.00123063,-0.00786732
359586055,359585825,-0.0462301,-0.0283181,-0.00336939
359607163,359606935,-0.0381885,0.0068532,0.0077351
359628268,359628038,0.023999,0.0113881,0.0476059
359649378,359649144,0.188105,-0.0526999,-0.0137125
359666751,359666526,0.225881,-0.0429392,-0.00841178
359687863,359687634,0.00246436,0.0649145,-0.0203693
359708972,359708742,-0.0108905,-0.0353546,-0.0309683
359726353,359726129,0.0265468,-0.013196,-0.013532
359747465,359747235,0.100945,-0.00627043,0.041825
359768560,359768335,0.0780532,-0.0590736,-0.025066
359788468,359788243,0.0518518,0.0257469,-0.0232468
359807179,359806947,-0.0850178,0.0996164,-0.0138163
359828157,359827929,-0.139149,-0.0359809,-0.00237997
359848062,359847833,-0.0334407,-0.0192732,-0.00346492
359866702,359866469,0.0103474,0.0186189,0.0327147
359886513,359886281,-0.0679328,0.00178557,0.00735588
359907624,359907389,-0.109893,-0.0208059,-0.0301055
359928725,359928497,-0.119062,0.0500137,0.0224167
359946109,359945876,-0.143048,0.0679267,0.0322208
359967233,359966992,0.112641,-0.0504888,0.0272685
359988314,359988089,0.0323093,0.0443056,-0.00635379
360006953,360006714,-0.0938777,0.0571212,-0.00622949
360026815,360026580,-0.0658188,-0.0460661,0.000861107
360047907,360047680,0.111521,-0.0484035,0.0284422
360065368,360065139,0.077838,0.00991454,0.0424232
360086648,360086419,0.0726772,-0.0152546,-0.0100306
360107507,360107278,0.0217824,0.0266982,-0.00951785
360128612,360128385,-0.15953,0.00336331,0.0345713
360146001,360145769,-0.140352,-0.0324062,0.0200824
360167100,360166873,0.130497,-0.013191,0.0099578
360188213,360187981,-0.0130642,0.0448925,-0.00283644
360209316,360209086,-0.0849571,-0.0323435,-0.0179242
360226694,360226469,-0.0677657,-0.00525324,-0.0149712
360247801,360247574,-0.0440937,0.0315301,0.0238876
360268915,360268681,0.106504,-0.083762,-0.00858085
360286290,360286062,0.159693,-0.068265,-0.00543738
360307410,360307182,0.0543379,0.0130731,0.0119369
360328557,360328327,-0.135499,-0.0111322,-0.0386603
360348512,360348281,-0.0536354,0.00617423,-0.0390696
360366989,360366763,-0.0275035,0.0559875,0.0214881
360388109,360387871,0.0520955,-0.0461938,0.0264606
360409224,360408983,0.0512526,0.00782724,-0.0202431
360426584,360426358,-0.00120614,0.0297539,-0.017305
360447696,360447464,-0.18052,0.00283286,0.00433289
360467560,360467331,9.81483e-05,-0.0420155,-0.0318649
360486183,360485953,0.0650525,-0.0135687,-0.00214638
360506043,360505818,0.0977362,-0.0335609,0.0185858
360527156,360526924,0.056041,-0.0279733,-0.0252983
360548267,360548037,-0.116548,0.0798487,-0.0032754
360565644,360565412,-0.127462,0.0746555,-0.00362578
360586793,360586564,-0.0203664,-0.0296745,-0.0191664
360607959,360607727,0.0708118,0.0437651,0.0256001
360628959,360628735,-0.0905761,0.00604968,-0.0218723
360646345,360646114,-0.0252964,-0.0508917,-0.0106169
360667458,360667225,-0.174374,0.0728493,0.0177002
360688554,360688329,-0.0680629,-0.0389487,0.0201878
360705947,360705715,-0.0105139,-0.0795351,-0.0204803
360727048,360726817,0.0392447,0.0211633,0.0152461
360748154,360747930,-0.10151,0.030502,0.0129921
360765535,360765303,-0.0601356,-0.0164211,0.0087017
360786641,360786412,-0.133992,0.0487622,0.00243375
360807743,360807515,-0.0658724,-0.0616137,0.0091159
360825130,360824900,-0.0486195,-0.0592847,-0.0164528
360846251,360846021,0.0537755,0.0467314,0.0139113
360867390,360867163,-0.0590751,0.011427,-0.0212793
360888604,360888372,-0.0791611,0.0660399,0.0107751
360905829,360905601,-0.183906,0.0818127,0.0211986
360926930,360926705,0.0068998,-0.0687243,0.00754288
360948040,360947811,0.143403,-0.0183401,-0.00284472
360969162,360968919,-0.0931181,0.0595769,0.0108223
360986527,360986299,-0.0623925,0.011472,0.0099145
361007654,361007425,-0.0809353,0.0283534,-5.03292e-05
361027498,361027271,-0.107464,-0.00632099,0.0229189
361048604,361048376,0.113461,-0.0630223,0.00266518
361065991,361065764,0.114193,-0.00524958,0.00591077
361087113,361086875,-0.0214366,0.0339633,-0.0156645
361109450,361109219,-0.123702,0.0581116,0.00595686
361125641,361125413,-0.155549,0.0674124,0.0144508
361146787,361146560,-0.0802836,-0.0150505,0.0353004
361167799,361167570,0.112806,-0.0354821,-0.00829118
361188910,361188674,-0.0806004,0.0805781,-0.010652
361206279,361206054,-0.0932859,0.0452294,-0.00299341
361227391,361227161,-0.116628,0.0587501,0.0122617
361248504,361248270,-0.0749369,-0.0351881,0.0150491
361265878,361265649,-0.0540101,-0.0741579,0.0032661
361286988,361286756,0.0208989,0.0227464,0.00708781
361308089,361307862,-0.0213689,0.0114659,-0.0370172
361329205,361328972,-0.125659,0.0895046,0.0286691
361346581,361346351,-0.136466,0.0275646,0.0336982
361367685,361367457,-0.0108609,-0.0846397,-0.02167
361388867,361388642,-0.0424926,-0.00116135,0.0196643
361407484,361407253,0.0348557,-0.0259495,0.0220104
361427448,361427215,-0.00215772,0.0694121,0.029015
361448382,361448158,-0.0371856,0.0116584,-0.0138573
361465771,361465540,-0.015922,-0.0391404,-0.0453924
361486880,361486647,0.0012048,0.0011502,0.0111231
361507992,361507766,-0.00618096,-0.0198398,0.0128072
361525362,361525135,0.0245755,-0.00250807,0.00375572
361546478,361546243,-0.0257084,0.049711,0.0133796
361567622,361567390,-0.00636066,-0.0665413,-0.0221861
361586224,361585988,-0.0583727,0.0202765,0.0454796
361606065,361605836,0.0314338,-0.0454633,0.0168278
361627169,361626942,0.0597898,0.0287838,0.00178292
361647033,361646807,-0.0117065,0.0144666,-0.0120191
361668248,361668022,-0.0112731,-0.0109173,-0.00743848
361685649,361685410,-0.0218914,0.0175118,0.027066
361706630,361706404,0.0863191,-0.0393662,-0.0124536
361727733,361727508,-0.0553216,0.0810623,-0.00904634
361748844,361748614,-0.0679876,0.0263819,-0.0169089
361766227,361765997,0.0110445,0.0344262,0.0289462
361787375,361787151,0.120919,-0.0679457,-0.0142461
361808439,361808209,-0.0834201,0.0715264,0.018909
361825814,361825587,0.0156295,-0.00583395,0.00429267
361846922,361846697,0.0448674,-0.00627641,0.0380904
361868035,361867805,0.032014,0.00182215,-0.0283788
361889145,361888912,-0.0829128,0.0340658,0.0282706
361906515,361906292,0.020516,-0.0569253,0.0172103
361927628,361927398,-0.0174764,-0.026263,-0.0417161
361948807,361948580,-0.0779659,0.0391383,0.0363789
361966266,361966041,-0.0128752,-0.00392935,0.019504
361987227,361986994,-0.00554534,0.0396835,0.0111242
362008340,362008106,-0.0282561,0.0183317,-0.0556917
362029435,362029207,0.0297423,-0.0680544,0.00202722
362046822,362046588,0.0273079,-0.0658166,0.00684892
362067931,362067695,-0.0390631,0.0487009,0.0172469
362089026,362088801,0.0360347,-0.0614898,0.0163949
362106421,362106183,0.0415521,-0.0582264,-0.00515975
362127519,362127289,0.000418057,0.0826362,0.0257533
362148629,362148396,0.019446,-0.0749846,-0.0096878
362166007,362165777,0.00110393,-0.0462797,0.0121533
362187125,362186886,0.0764684,0.0137299,-0.0207327
362207008,362206780,-0.036165,0.0268693,0.0275559
362228203,362227974,0.0635772,-0.0634646,0.000394795
362245475,362245236,0.0113329,-0.00417875,-0.00325987
362266575,362266344,0.00700857,0.0186217,-0.0377785
362287679,362287449,0.0256693,-0.0308836,0.00777252
362308779,362308556,0.109843,-0.0106664,0.00542313
362326180,362325944,0.0021822,-0.0084538,-0.0118891
362347313,362347087,-0.00158904,0.0152484,0.00852006
362365907,362365674,-0.0235363,-0.00986657,0.0311617
362385769,362385536,0.0378253,-0.0207432,0.00861769
362406872,362406644,-0.00236097,0.0566818,-0.0314696
362427974,362427748,0.000430955,-0.000671494,0.0200093
362449084,362448853,0.0518716,-0.0461522,-0.00614328
362466496,362466272,-0.0610362,0.0609478,0.00560388
362487638,362487415,-0.0195863,-0.0214044,-0.0140871
362508863,362508633,0.00157051,-0.00748309,-0.0182752
362526056,362525829,0.0231437,0.0038612,-0.0242875
362547166,362546935,-0.0582966,0.0249954,0.0296194
362568276,362568043,-0.00578157,-0.0318632,0.0388109
362589377,362589148,-0.00641717,0.0449189,-0.0456615
362606754,362606529,-0.00924592,0.0248644,0.0202592
362627866,362627636,0.0648126,-0.0421192,-0.00605822
362648968,362648742,-0.010929,0.0689417,0.0211107
362666352,362666124,-0.0269494,-0.0170451,-0.0248496
362687473,362687247,0.0787779,-0.0267874,-0.00366808
362708563,362708338,-0.0588306,0.0301148,0.0350647
362729673,362729443,-0.0038152,-0.043207,0.0275018
362747083,362746855,-0.00737041,0.0354057,-0.0259399
362767044,362766812,-0.0383222,0.0924109,-0.0185805
362788023,362787797,0.0744734,-0.0735545,-0.0288192
362806663,362806420,0.00436285,0.0769672,0.00379232
362826514,362826285,-0.0593495,-0.0016045,-0.0141488
362847623,362847391,-0.0229395,-0.0440376,0.0247394
362868728,362868499,-0.00688945,0.0389994,0.0325193
362886111,362885880,-0.0184274,-0.0466048,-0.0216165
362907226,362906986,-0.0251363,0.0660448,0.0116223
362928323,362928095,0.00566927,0.0254556,-0.0166233
362945715,362945474,-0.00535112,0.0225631,-0.0169517
362966805,362966580,-0.0407153,0.0413635,-0.0436491
362987916,362987688,0.00224996,0.0326029,0.0108971
363009070,363008846,-0.0178332,0.0191735,0.0184579
363026483,363026256,0.00498652,-0.0490392,0.0347642
363047699,363047473,0.00455289,-0.0120652,0.00478397
363068616,363068389,-0.0236752,-0.0259707,0.0162797
363086028,363085794,0.0475252,0.0158397,-0.0374007
363107101,363106876,0.0136865,-0.0470744,-0.0275351
363128210,363127983,0.00433422,-0.0199352,-0.0420546
363149320,363149089,0.088644,-0.0734076,-0.0210719
363166699,363166471,-0.0218872,0.0242443,2.30304e-05
363187803,363187577,0.00918045,-0.0786649,0.00533335
363208945,363208712,0.0171791,0.0307223,-0.0117819
363226295,363226066,-0.00968815,0.00177734,0.00319109
363247396,363247172,0.0251094,0.0694166,0.00496484
363268536,363268301,-0.0484306,0.0258616,-0.012865
363289677,363289448,-0.0615905,0.0466811,0.0193774
363307138,363306902,-0.035404,0.0331457,0.0159483
363328116,363327876,-0.0260798,0.0561157,-0.00435704
363347969,363347739,-0.021249,0.00297233,0.0165325
363366587,363366360,-0.00840091,0.0194117,-0.0113753
363386454,363386227,-0.00279604,-0.0710121,-0.0090243
363407560,363407333,0.0788238,0.00670221,0.00160077
363426184,363425956,0.00976625,-0.0572448,-0.0187088
363446068,363445844,0.00967663,-0.0134805,-0.0330275
363467156,363466928,0.00942352,0.00968182,-0.0135095
363488263,363488034,0.00888547,0.0255896,-0.037492
363505644,363505416,-0.0849936,0.096858,0.0648641
363526753,363526522,-0.106255,0.105862,0.0422335
363547976,363547744,-0.0766841,0.0547866,0.0880042
363569056,363568832,-0.0906018,0.0368321,0.0539427
363586533,363586304,-0.0766973,0.0271859,0.0546494
363607459,363607225,0.0212319,-0.0214548,0.061909
363628563,363628333,0.00321489,0.0178311,0.0662853
363645950,363645718,0.000247819,-0.0505259,0.0173343
363667056,363666822,0.00248105,0.0250995,0.00970485
363688152,363687925,-0.0589103,0.0341338,-0.0111165
363705543,363705315,0.0211054,-0.0155659,-0.0180272
363726649,363726417,0.0203646,0.0670368,0.0236146
363747744,363747519,0.0128967,0.000193852,0.00352813
363768850,363768626,-0.0121645,0.0100911,0.00178093
363786246,363786011,-0.119598,-0.00635663,0.0424161
363807362,363807136,0.0764806,-0.0393676,0.038233
363828501,363828278,-0.0297725,-0.00377142,0.0309654
363848459,363848235,-0.0700675,0.0360669,0.0487138
363866939,363866708,-0.101223,-0.0109407,0.0552092
363888043,363887815,-0.101323,0.00440536,0.0402808
363909163,363908921,-0.117009,-0.0199704,0.0593222
363926532,363926303,-0.121848,0.0151868,0.0616346
363947641,363947409,-0.119642,0.0399968,0.0482455
363967504,363967275,-0.0659667,0.00794067,0.0196781
363988611,363988381,-0.0557011,0.0104632,-0.0124158
364007239,364007004,0.00248879,0.0497129,-0.0218421
364027095,364026869,-0.118327,0.103657,0.0107287
364048215,364047981,-0.088625,0.0876501,0.00613409
364065591,364065358,0.00709479,-0.0175876,-0.0823156
364086697,364086473,0.0737035,0.0793532,-0.0750662
364107908,364107677,0.0496583,0.111268,-0.081439
364125368,364125142,-0.0505775,0.101191,-0.0406183
364146328,364146103,0.020786,0.0828465,-0.0378509
364167397,364167167,-0.0503896,0.0418807,-0.0311063
364188504,364188274,-0.0579969,0.0419506,-0.0124422
364205879,364205653,-0.0305614,-0.00191171,-0.00327167
364226990,364226760,-0.0346114,-0.0156583,-0.00654536
364248136,364247909,-0.0221755,-0.010725,-0.0100739
364269200,364268972,0.00567375,0.0328519,-0.0266112
364286598,364286359,0.0209827,0.0423921,0.0308189
364307696,364307462,0.0875447,0.0309744,0.0389489
364328803,364328575,0.0704682,-0.0228771,0.0329841
364346207,364345972,0.10614,-0.0240586,0.00310834
364367411,364367178,0.00876536,-0.0182629,0.0156485
364388540,364388316,0.00478893,-0.0613531,0.0264057
364405774,364405545,0.0277926,-0.129859,0.00564738
364426875,364426650,-0.0263464,-0.128288,0.0431179
364448034,364447804,0.0547627,-0.163223,0.0683632
364469088,364468863,-0.0172615,-0.180785,0.0340049
364486520,364486295,0.0688404,-0.206488,0.0477595
364507575,364507351,0.038301,-0.259423,0.0356619
364528687,364528458,0.0880261,-0.215039,0.0317619
364546078,364545840,0.118316,-0.22268,-0.0107453
364567175,364566947,0.0392426,-0.181027,-0.0109441
364587036,364586811,0.0674596,-0.176075,-0.0285323
364608165,364607938,0.0648053,-0.107567,-0.0740345
364625596,364625368,0.0593216,-0.080959,-0.0324894
364646736,364646511,-0.0837449,-0.0693002,-0.0142473
364667775,364667548,-0.182314,-0.0890578,-0.0153868
364690097,364689863,-0.0537567,-0.133142,-0.00981992
364706237,364706007,-0.0214984,-0.037584,-0.0535636
364727335,364727107,-0.00794732,0.0381189,-0.0400942
364748447,364748214,0.111477,0.128782,-0.0426337
364765821,364765595,0.147276,0.0506049,-0.075116
364786927,364786701,0.214069,0.142794,-0.0439315
364809281,364809051,0.10612,0.0448685,-0.0229591
364829147,364828916,0.0113943,-0.0692938,0.0217542
364846525,364846296,-0.0299119,-0.0513628,0.0116593
364867631,364867403,-0.0277679,-0.136277,-0.00168874
364888738,364888511,-0.0529948,-0.261056,0.0224574
364906183,364905956,0.0360974,-0.207709,0.016691
364927386,364927156,0.0309409,-0.209164,-0.00510326
364948337,364948105,0.11782,-0.115515,0.000754169
364969437,364969211,0.191852,-0.093283,0.000567285
364986821,364986592,0.261102,0.00858852,-0.00203038
365007942,365007702,0.122341,0.0734956,-0.00855871
365029030,365028805,0.06071,0.0225745,0.0242263
365046425,365046188,0.0722732,0.0346284,0.048587
365067522,365067294,-0.0635852,-0.0186498,0.0413888
365088635,365088400,-0.0631597,0.00108978,0.0382687
365106013,365105782,-0.0620228,0.000512854,0.0575436
365127122,365126888,-0.0472243,-0.0523967,0.0629246
365146979,365146753,0.0300136,-0.0563582,0.063632
365165638,365165399,0.0425294,0.00307884,0.0523827
365185579,365185350,0.131955,0.0507733,0.0428824
365206578,365206347,0.0981944,0.0321563,0.0419101
365227681,365227454,-0.102264,0.00429321,0.0506527
365248787,365248560,-0.18498,0.0173456,0.0452826
365266172,365265942,-0.218303,0.0845533,0.0364426
365287275,365287049,-0.089035,0.106437,0.0444149
365308439,365308210,-0.101071,0.176977,0.0371153
365325763,365325537,-0.0440703,0.179899,0.0472427
365346868,365346643,-0.104319,0.149936,0.0493815
365367975,365367749,-0.134008,0.115808,0.0710639
365389092,365388856,-0.143513,0.0508941,0.0640973
365406464,365406238,-0.12053,0.0225506,0.0482846
365427573,365427346,-0.129643,0.0338608,0.0494226
365450022,365449790,-0.0838087,0.0569932,0.0578793
365466231,365465997,0.000812436,0.0400585,0.0296921
365487163,365486939,0.0418447,0.0174025,0.0221558
365508293,365508065,0.0298153,0.00784731,0.0276069
365529393,365529154,0.00354015,0.0694326,0.0158915
365546764,365546534,-0.00025035,0.11804,0.0437865
365567874,365567641,0.0261461,0.0969069,0.0327748
365588977,365588748,0.0862928,0.130823,0.00914824
365606353,365606129,0.0656245,0.21419,0.0281773
365628723,365628479,0.150657,0.201153,0.0228124
365648580,365648355,0.0799999,0.173141,0.015548
365669675,365669448,0.0694344,0.0821305,0.0158638
365687062,365686831,-0.0536971,0.0333643,0.0324114
365706963,365706733,-0.0134285,-0.0254452,0.015662
365728234,365727991,-0.00291328,-0.0239176,0.0153262
365747906,365747669,-0.0275492,0.018797,0.00580049
365766520,365766292,0.0329803,-0.0437765,-0.0241051
365787632,365787399,0.0288698,0.0013981,-0.0317171
365808732,365808503,-0.00318554,0.0226239,-0.0275165
365827361,365827128,0.000187736,0.0417593,-0.040046
365847227,365846991,0.00501607,0.0806463,-0.0410648
365868323,365868097,-0.0324086,0.0453341,-0.0454308
365885735,365885497,-0.0476338,0.0305122,-0.00455101
365906816,365906586,-0.0454303,0.00182271,-0.0175902
365927927,365927693,-0.0233525,-0.0373893,-0.0305004
365945307,365945074,-0.00139798,-0.00657659,0.0130885
365966416,365966181,0.110734,-0.0281561,8.01483e-05
365987600,365987374,0.210494,-0.0531489,-0.0145533
366006322,366006091,0.266099,-0.0307448,-0.00936138
366026007,366025775,0.292476,-0.0544832,-0.00875255
366047106,366046881,0.278532,-0.063654,-0.0106286
366068214,366067987,0.200045,-0.0178978,-0.01016
366089323,366089094,0.119577,-0.0091737,-0.00214794
366106708,366106479,0.0390309,-0.00569831,-0.0144427
366127816,366127582,0.0140511,0.0216637,-0.0226579
366148927,366148691,0.0437588,0.011734,-0.0292778
366166306,366166077,0.0901174,-0.0220101,-0.0276489
366187402,366187177,0.167802,-0.0585557,-0.0307404
366208511,366208283,0.193902,-0.0677246,-0.0401978
366229623,366229390,0.221387,-0.0817037,-0.0375842
366247064,366246841,0.19196,-0.0661139,-0.00144929
366266997,366266770,0.207948,-0.0400831,-0.01197
366287979,366287746,0.223303,-0.0194115,-0.0239065
366306614,366306368,0.287115,-0.0165482,-0.0596933
366326459,366326232,0.292785,0.0514338,-0.0485579
366347570,366347340,0.243561,0.056073,-0.0422982
366366189,366365961,0.109892,0.0958457,-0.00433325
366386055,366385826,0.0783864,0.0285187,-0.0517971
366407161,366406932,0.147385,0.021055,-0.0528848
366428265,366428039,0.123321,0.023995,-0.0644988
366445650,366445422,0.0951578,0.00192948,-0.010455
366466755,366466527,0.107433,-0.0214002,-0.0360318
366487866,366487633,0.111463,-0.0646522,-0.0508061
366509021,366508795,0.132474,-0.093716,-0.0735978
366526492,366526265,0.0507324,-0.0415973,-0.0146042
366547651,366547425,0.0416176,-0.0678857,-0.0305294
366568564,366568336,0.0500899,-0.0457577,-0.0462588
366585956,366585722,0.031701,0.0283253,-0.0323395
366607055,366606824,-0.012694,0.0201015,-0.021986
366628206,366627977,-0.0194592,0.0233552,-0.0318995
366645544,366645312,-0.00368155,0.0353141,-0.0473267
366666645,366666417,-0.063641,0.0594118,-0.0200336
366687751,366687527,-0.0897506,0.0607576,-0.0227628
366705140,366704908,-0.0435786,0.0477345,-0.0579849
366726252,366726015,-0.0549253,0.0586435,-0.0305041
366747350,366747120,-0.073866,0.0788951,-0.00991089
366768450,366768225,-0.043661,0.0374107,-0.0178992
366789634,366789396,-0.0194493,-0.019769,-0.0347538
366807078,366806852,-0.00863819,-0.0569763,-0.0121021
366828043,366827820,-0.060931,-0.0822071,0.00785335
366849161,366848926,-0.104101,-0.089706,0.0276165
366866577,366866353,-0.140696,-0.101741,-0.00218384
366887647,366887414,-0.176136,-0.103744,-0.017157
366907508,366907282,-0.182238,-0.0999507,-0.0352682
366926145,366925906,-0.162164,-0.0769661,-0.021733
366946005,366945776,-0.172387,-0.0281447,0.0145126
366967100,366966874,-0.133701,0.000539921,0.0111752
366988237,366988004,-0.0939924,0.0377015,0.0121892
367005589,367005362,-0.156973,0.0519134,0.0123155
367026694,367026469,-0.161601,0.0414279,0.00892646
367047816,367047587,-0.168721,0.019218,0.00434561
367069025,367068797,-0.197392,0.0156684,0.0104152
367086482,367086257,-0.12761,-0.0384051,-0.0307342
367107400,367107170,-0.113265,-0.0470853,-0.0353805
367128519,367128280,-0.160909,-0.0266547,-0.0347691
367145893,367145663,-0.178143,-0.0376967,0.0182734
367166996,367166765,-0.244518,-0.0318042,0.0141661
367188107,367187872,-0.321015,-0.0685464,0.0188935
367209210,367208977,-0.290827,-0.070788,0.0207287
367226634,367226405,-0.244376,-0.119744,-0.0161729
367247694,367247467,-0.167761,-0.140455,-0.0311767
367268800,367268572,-0.0229762,-0.117249,-0.0318238
367286187,367285956,0.0292945,-0.0907282,-0.00120703
367307295,367307062,0.0703787,-0.0308689,-0.000169952
367328517,367328290,0.0377535,0.0349052,0.00358034
367345935,367345696,-0.0124642,0.093442,-0.0220281
367366886,367366657,-0.0288665,0.123855,-0.023006
367387988,367387762,-0.097014,0.153141,-0.0222278
367406644,367406409,-0.128448,0.131859,-0.0304139
367426482,367426250,-0.154683,0.175431,0.0231597
367447584,367447357,-0.15684,0.151016,0.0255319
367467455,367467222,-0.0602107,0.104738,-0.0087684
367488552,367488328,-0.00487682,0.0681584,-0.0208281
367507185,367506953,0.0686205,0.0205595,-0.0424877
367527048,367526816,0.0173282,0.0088143,0.0250992
367548153,367547923,-0.0367527,-0.0367707,0.0219785
367565537,367565304,0.0376411,-0.191093,-0.0555406
367586655,367586430,0.0619823,-0.230899,-0.0366479
367607918,367607689,0.0420615,-0.232435,-0.0079823
367628853,367628624,0.0152569,-0.218831,0.00668288
367646237,367646005,0.000921674,-0.198799,-0.0359273
367667346,367667114,0.045573,-0.178432,-0.05905
367688523,367688293,0.0799387,-0.149133,-0.0587682
367705826,367705601,-0.0146066,-0.0826797,0.0139394
367726935,367726707,-0.0212803,-0.121518,-0.0100338
367748049,367747813,-0.00864242,-0.157786,-0.0307741
367769150,367768920,0.0193606,-0.228644,-0.0560685
367786526,367786302,0.0299337,-0.247733,0.0125389
367808880,367808651,0.0291562,-0.260988,0.00918645
367828748,367828516,0.00057996,-0.341684,-0.0108014
367846189,367845962,0.0572231,-0.450943,-0.0646308
367867311,367867079,0.0403076,-0.459174,-0.0395849
367888517,367888287,0.0440834,-0.455033,-0.040586
367909445,367909216,0.0168689,-0.380866,-0.0300899
367926831,367926600,-0.0654897,-0.266137,-0.0161599
367947940,367947707,-0.0493979,-0.185336,-0.0103888
367969035,367968810,-0.0505075,-0.100683,-0.013783
367986426,367986197,-0.0742238,-0.104063,-0.0534381
368007529,368007299,-0.0282021,-0.0359493,-0.0503047
368028682,368028453,-0.00438978,0.0236584,-0.0433851
368047267,368047032,0.0168716,0.00871078,-0.0547405
368067139,368066897,0.0283455,0.0735234,-0.0581906
368087002,368086765,-0.0150608,0.0890917,-0.0516338
368105619,368105383,-0.0126666,0.0447673,-0.0560623
368125597,368125368,-0.0536853,0.047388,-0.0399581
368146710,368146476,-0.0589444,0.0475614,-0.0313223
368167684,368167459,-0.0211633,0.071087,-0.0171747
368188790,368188566,0.0222501,0.0904325,-0.0147129
368206201,368205970,0.0182477,0.0753859,-0.0107465
368227278,368227054,0.0418385,0.0660273,0.00366571
368248394,368248161,0.0612476,0.038734,-0.00508931
368265774,368265542,-0.0039709,0.020935,-0.0156858
368286877,368286649,-0.0422487,0.0348599,0.00642798
368307990,368307758,-0.0593994,0.0351213,-0.000638496
368329092,368328862,-0.0334863,0.074387,-0.00753119
368346473,368346244,-0.0211031,0.121669,-0.00525615
368367578,368367350,0.0136862,0.133954,-0.0133429
368388782,368388553,0.0228317,0.14481,-0.0201213
368406142,368405917,0.0577178,0.124618,-0.0213334
368427345,368427114,0.0286631,0.0476876,-0.0209657
368448308,368448064,0.022906,-0.000334911,-0.0175722
368469393,368469161,0.034057,-0.0652804,-0.0144667
368486764,368486540,0.0317941,-0.0659343,-0.0362104
368507876,368507646,0.00127083,-0.0622281,-0.0291504
368528992,368528753,-0.00467696,-0.052259,-0.017444
368546358,368546134,0.0109547,-0.0204242,-0.0313365
368567470,368567242,0.00796645,0.0216395,-0.0205136
368588623,368588389,0.00916222,0.0336419,-0.0166389
368605955,368605729,-0.00676315,0.0570695,-0.00695281
368627063,368626835,-0.00060867,0.0403426,-0.00102139
368648181,368647949,-0.0211487,0.0481715,-0.000506098
368668132,368667900,-0.043867,0.0603233,0.00600627
368685536,368685310,-0.0650249,0.0423481,0.0293668
368706525,368706295,-0.0703097,0.0533558,0.0313061
368727630,368727401,-0.0474189,0.0461215,0.0106236
368748736,368748508,-0.0199159,0.0582216,-0.00258784
368766119,368765890,-0.00228466,0.108785,0.015582
368787232,368786997,0.00166708,0.152428,0.0011797
368808349,368808120,0.00723197,0.235903,-0.00655335
368825727,368825484,-0.0245899,0.28994,0.0071646
368846822,368846593,-0.0334955,0.313419,0.00364262
368867922,368867697,-0.0342005,0.338077,0.00497309
368889032,368888804,-0.017305,0.298417,-0.00335585
368906424,368906185,-0.022336,0.261864,0.0202422
368927585,368927359,-0.00424914,0.260148,0.0111986
368948709,368948486,0.0463338,0.189254,0.00906526
368966218,368965981,0.0234449,0.234414,0.0181817
368987112,368986886,0.0356654,0.222706,0.0229991
369005749,369005511,-0.0112436,0.211968,0.0324831
369029331,369029100,0.0701394,0.173185,0.0186148
369046708,369046481,0.0433508,0.150852,0.0524205
369067816,369067590,0.0958137,0.118667,0.0537227
369088935,369088697,0.0873827,0.0818515,0.0575885
369106309,369106077,0.0105375,0.0808025,0.0775648
369127413,369127182,-0.00772104,0.0779503,0.082339
369148521,369148289,-0.0176288,0.0554254,0.0753207
369169629,369169396,-0.00679109,0.0656833,0.0700537
369187004,369186779,-0.0420225,0.0988907,0.0475015
369208175,369207930,-0.00204964,0.0841607,0.0489985
369228113,369227884,0.00559594,0.0857368,0.0305357
369246604,369246372,0.0242118,0.0561524,0.00796726
369266468,369266238,0.0190374,0.00494401,0.0218882
369287575,369287343,-0.00867571,0.00589682,0.0220871
369308680,369308450,-0.0303575,0.0116667,0.0213252
369326056,369325832,-0.0919187,0.0172624,0.052326
369347171,369346939,-0.10044,-0.00147017,0.0520132
369368292,369368064,-0.103122,-0.0314497,0.0338688
369385653,369385426,-0.0589683,-0.0308791,0.0218622
369406762,369406533,-0.0421982,-0.0323299,0.0145087
369427870,369427641,-0.0103836,-0.0351609,0.0207694
369448975,369448746,0.0703595,0.00630435,0.0238761
369466354,369466125,0.0819725,-0.00518639,-0.00180457
369487558,369487332,0.060853,-0.041889,0.00891532
369508571,369508343,0.00524006,-0.0416033,0.0180368
369525954,369525722,-0.0435732,-0.0868032,0.029298
369547059,369546830,-0.0493379,-0.117153,0.00209095
369568160,369567935,-0.0628145,-0.0942593,-0.021654
369585551,369585317,-0.0736494,-0.0429225,0.0247687
369606657,369606424,-0.0799663,-0.0363551,0.0261156
369627757,369627531,-0.0718903,-0.0152257,0.0287541
369648862,369648636,-0.0672849,0.0184748,0.0228087
369666256,369666021,0.00650979,0.0260188,-0.0188216
369687352,369687125,0.0483275,0.0507272,-0.0128691
369708509,369708285,-0.0223572,0.0577611,-0.0127611
369729567,369729337,-0.00552888,0.0429299,-0.0137712
369747111,369746877,-0.0119478,0.0240565,0.0099867
369767010,369766786,-0.0150168,-0.0122178,0.000940458
369790410,369790178,0.0370939,-0.0624272,-0.0111323
369806546,369806320,0.00137664,-0.0560058,0.0366669
369827658,369827419,0.0181254,0.00427408,0.0447448
369847510,369847285,-0.0235488,0.00814242,0.0397346
369866147,369865913,-0.0433702,0.0356081,0.0313805
369886001,369885775,-0.00947096,0.0777164,0.0309704
369907107,369906880,0.045197,0.126028,0.0368358
369929464,369929230,0.140809,0.139616,0.061725
369945597,369945369,0.190647,0.0687422,0.0427227
369966709,369966485,0.228116,0.0545668,0.0597407
369987814,369987582,0.214874,0.0514375,0.067448
370008952,370008716,0.278568,-0.0113987,0.0815164
370026394,370026163,0.322227,-0.0238169,0.0967746
370047416,370047180,0.453523,-0.0149879,0.0938203
370068517,370068285,0.622699,-0.0258411,0.0814196
370085894,370085667,0.667356,-0.0492708,0.0576437
370108250,370108016,0.629627,-0.0264063,0.085275
370128121,370127891,0.664071,0.00526136,0.0739211
370149214,370148984,0.658295,-0.00160227,0.0827862
370166598,370166365,0.62271,0.00708062,0.0877872
370187749,370187522,0.506554,0.0095045,0.0882786
370208807,370208580,0.317588,-0.00832043,0.0928692
370226196,370225961,0.160809,-0.0215942,0.0881795
370247307,370247069,-0.0547836,-0.0118426,0.0890151
370268438,370268213,-0.215634,0.0173267,0.0939889
370285842,370285611,-0.277416,0.0472744,0.0810971
370307050,370306819,-0.284343,0.0654038,0.0630776
370327995,370327768,-0.229061,0.0524597,0.0619042
370345398,370345170,-0.188009,0.0781059,0.0678141
370366491,370366257,-0.170434,0.0486954,0.063928
370387588,370387363,-0.213018,0.0366085,0.065601
370406262,370406032,-0.218434,-0.0293857,0.056104
370426103,370425855,-0.265373,-0.0321031,0.0244874
370447187,370446957,-0.310656,-0.0382109,0.0253672
370467060,370466830,-0.291812,-0.08761,0.0127228
370488155,370487929,-0.351846,-0.0307791,0.014398
370505546,370505316,-0.450192,0.0186641,0.0545468
370526651,370526418,-0.432307,0.0229343,0.0573881
370547766,370547543,-0.417986,0.0376552,0.0608906
370569029,370568800,-0.359038,0.0668731,0.0449142
370586241,370586014,-0.291157,0.0477449,-0.0073724
370607346,370607118,-0.202167,0.0808003,0.00113421
370628455,370628225,-0.153326,0.0486589,0.0183063
370645839,370645607,-0.162198,0.000375956,0.0157033
370666947,370666714,-0.12273,-0.00997145,0.0262125
370688052,370687821,-0.131844,-0.0242603,0.0201761
370709208,370708973,-0.112715,-0.0429677,0.00310698
370726531,370726307,-0.0617682,-0.0758826,0.00973772
370747643,370747416,-0.0415871,-0.0199007,0.0403054
370768747,370768521,-0.0443544,0.0103334,0.0433558
370786137,370785908,-0.0035166,-0.026831,-0.0152487
370807256,370807027,0.0503601,-0.00295101,0.00144677
370828417,370828187,0.0673264,-0.0365029,0.0111308
370849626,370849395,0.0293891,-0.0118685,0.0159284
370868082,370867846,0.0831396,-0.0219967,-0.0142603
370887949,370887715,0.0379379,-0.0238791,-0.00280501
370909046,370908818,-0.0264074,0.00357781,0.0180834
370926469,370926241,-0.0454947,-0.000835577,-0.00238859
370947535,370947306,-0.0507941,0.0150361,-0.0261148
370968644,370968411,-0.107472,0.0437026,0.00394164
370986038,370985793,-0.019196,0.0457859,-0.0188395
371007143,371006901,-0.0283349,0.0408286,-0.0569478
371027000,371026767,0.0149415,0.0335424,-0.0289906
371046863,371046631,-0.0333204,0.058909,0.00400471
371065490,371065257,0.023916,-0.0155879,-0.0540176
371086684,371086456,0.055709,-0.0376587,-0.0526271
371107812,371107585,0.0525535,0.00459396,-0.0287978
371128794,371128572,-0.0231277,0.00298968,-0.0190161
371146213,371145980,0.0383668,-0.0333325,-0.0753345
371167289,371167060,0.0541437,-0.0437251,-0.0873605
371188390,371188167,-0.0190392,-0.00115857,-0.108486
371205780,371205549,-0.149286,-0.0124574,-0.0968664
371226885,371226657,-0.119352,-0.0113642,-0.0931276
371247997,371247765,-0.0746388,0.0386912,-0.120865
371269104,371268868,0.0220976,0.0580982,-0.135331
371286499,371286272,0.0466389,0.0597572,-0.233015
371307582,371307356,0.0511682,0.025707,-0.351933
371328692,371328463,0.0764147,-0.00606308,-0.498869
371346074,371345844,-0.0187511,-0.0247487,-0.537078
371367249,371367026,-0.0036848,-0.0524093,-0.678037
371388460,371388231,0.00275644,-0.0420798,-0.82762
371409390,371409164,-0.0687434,-0.00731878,-0.957299
371426776,371426546,-0.0194859,-0.0408337,-1.14619
371447896,371447652,-0.0603392,-0.0488505,-1.2094
371468990,371468762,-0.0250951,0.0089895,-1.3074
371486366,371486140,-0.0305226,0.136603,-1.28226
371507475,371507247,0.0758894,0.139359,-1.22942
371528580,371528353,0.0829111,0.108163,-1.10257
371549693,371549461,0.101379,0.0683081,-0.91262
371567070,371566842,0.217977,0.0612832,-0.820404
371588182,371587948,0.2183,0.0485989,-0.732918
371608041,371607815,0.176302,-0.0252615,-0.646653
371625452,371625222,0.0791327,-0.0355415,-0.533073
371646653,371646424,-0.0306304,-0.0811233,-0.501956
371667632,371667408,-0.0890701,-0.151989,-0.469413
371688742,371688516,-0.127155,-0.171116,-0.450764
371706131,371705896,-0.14885,-0.172044,-0.398947
371727240,371727004,-0.135166,-0.151281,-0.380246
371748338,371748114,-0.093352,-0.12422,-0.356741
371765731,371765491,-0.0411735,-0.0760415,-0.335622
371786829,371786598,0.0321793,-0.0064353,-0.319196
371807939,371807706,0.0383903,0.0229817,-0.305024
371825317,371825086,0.0297572,-0.0454358,-0.256
371846432,371846200,0.0435127,0.00112473,-0.237441
371867530,371867299,-0.0447263,0.0337268,-0.203028
371888634,371888409,-0.0621282,-0.0186891,-0.186272
371906157,371905927,-0.042529,-0.0429093,-0.194059
371927298,371927071,-0.109161,-0.034083,-0.152328
371948259,371948031,-0.104422,-0.0201607,-0.128192
371969335,371969106,-0.159346,0.035687,-0.110907
371986753,371986527,-0.0590298,-0.0457618,-0.168183
372007869,372007646,-0.0952419,-0.0107608,-0.142138
372028933,372028701,-0.0777447,-0.00731887,-0.109536
372046309,372046083,-0.0451749,-0.0210132,-0.0626746
372067418,372067189,0.0204985,-0.0198412,-0.0535364
372088549,372088321,0.049764,-0.0350118,-0.0530424
372109637,372109403,0.0752329,-0.014989,-0.0440701
372127010,372126784,0.0506184,-0.0148002,-0.0246081
372148135,372147891,0.0699213,-0.0283347,0.0170352
372168034,372167805,0.0563682,-0.0352385,0.0520072
372185486,372185261,0.0452159,0.000571891,0.0956163
372207720,372207485,0.0468633,-0.00139907,0.150327
372227599,372227369,0.00744576,-0.00556014,0.229544
372248698,372248465,-0.0457096,0.0052206,0.303895
372266076,372265850,0.0561006,-0.00122422,0.304311
372287172,372286945,0.00167104,0.0246694,0.367116
372308279,372308052,0.0315476,0.0175894,0.427807
372325669,372325440,0.0291351,0.00521618,0.395284
372346774,372346540,-0.0195421,0.0104337,0.372052
372367870,372367646,-0.057444,0.0168111,0.295721
372388978,372388754,-0.0469887,-0.00628416,0.248645
372406366,372406134,-0.0621496,-0.013359,0.20414
372427479,372427252,-0.0373886,-0.0123684,0.190734
372448725,372448500,-0.00263019,-0.0112123,0.16926
372466151,372465920,-0.024934,-0.00517543,0.19402
372487069,372486836,-0.0305756,-0.0151559,0.203933
372508179,372507949,-0.0506184,0.0210533,0.210496
372525554,372525324,-0.0513077,-0.031486,0.129344
372546663,372546432,-0.0303482,-0.044251,0.120686
372567762,372567537,-0.0778527,-0.0469221,0.117704
372585148,372584918,-0.00555043,-0.050199,0.154987
372606259,372606026,-0.00942965,-0.0244198,0.150671
372627358,372627132,-0.0132333,-0.0248652,0.135241
372648464,372648238,-0.0178705,-0.028615,0.165094
372669572,372669344,0.0140534,-0.0181055,0.249508
372686966,372686741,0.0208632,-0.0326824,0.320502
372708152,372707916,0.0174452,0.00840196,0.455605
372728100,372727873,0.0839851,-0.0139839,0.538525
372746550,372746321,0.159538,0.0166723,0.621503
372767655,372767427,0.0982336,0.0376034,0.710375
372787520,372787293,0.112996,0.0448291,0.787098
372806154,372805916,0.108572,0.0616609,0.800416
372826009,372825781,0.0286818,0.0862583,0.823713
372847116,372846887,0.0148445,0.0202873,0.723923
372868231,372867994,-0.0280656,-0.0177169,0.60019
372885601,372885375,-0.112482,-0.0165097,0.496569
372906709,372906482,-0.0854547,-0.0145882,0.419509
372927821,372927588,-0.0412101,-0.0264249,0.350393
372945200,372944970,0.031238,-0.0255398,0.324319
372966362,372966139,0.0827662,-0.00341181,0.302326
372987519,372987290,0.111351,-0.00137385,0.271195
373008526,373008296,0.137375,-0.0292949,0.236008
373025898,373025672,0.0735904,-0.0206708,0.259997
373047009,373046778,0.0295514,-0.00696851,0.244749
373068123,373067894,-0.0108935,0.0070879,0.217731
373089223,373088991,0.0408651,0.0127464,0.188163
373106603,373106373,-0.0255,0.0122836,0.180462
373127721,373127480,-0.0289751,0.0521528,0.186371
373148844,373148620,-0.0426142,0.046409,0.152354
373166205,373165967,0.0073574,0.0453974,0.113511
373187310,373187078,-0.00451483,0.0861765,0.137847
373208426,373208181,-0.00471274,0.0306242,0.118399
373225816,373225585,0.0722444,0.0147622,0.0879661
373247010,373246783,0.0492005,0.0435585,0.125685
373268155,373267929,0.0754761,0.0169524,0.118199
373289113,373288882,0.181817,0.0256346,0.0660053
373306493,373306265,0.187948,0.00914829,0.0834253
373327607,373327370,0.115555,-0.0105655,0.0687601
373347461,373347235,0.0814433,-0.0616619,0.0104602
373368565,373368341,0.0300659,-0.0821367,0.00673306
373387200,373386964,-0.15764,0.000855636,0.0728816
373407058,373406830,-0.256513,0.0204767,0.0492798
373428195,373427962,-0.134365,0.0233576,0.00754831
373445548,373445318,-0.0437073,0.0396595,0.0246939
373466652,373466425,-0.00705682,0.0595531,0.0300376
373487753,373487531,0.0701774,0.0190048,0.0193418
373505233,373504989,0.120989,-0.0537237,-0.029108
373526349,373526125,0.18326,-0.119754,-0.023805
373547405,373547180,0.244844,-0.143881,-0.0182713
373568461,373568233,0.196401,-0.161772,-0.0223115
373585841,373585614,0.259327,-0.204981,-0.0520666
373606954,373606729,0.258474,-0.206428,-0.0641107
373628060,373627827,0.256251,-0.228553,-0.0616301
373649163,373648934,0.278899,-0.225811,-0.0519439
373666542,373666315,0.243472,-0.199383,-0.0267465
373687651,373687422,0.283279,-0.204944,-0.040224
373708761,373708530,0.273452,-0.163095,-0.0448824
373726138,373725911,0.24805,-0.146227,-0.0652541
373747252,373747018,0.19319,-0.115262,-0.0579512
373768357,373768124,0.111112,-0.0468553,-0.0451586
373789540,373789312,0.104397,-0.0465348,-0.0449788
373808272,373808036,0.0839077,0.0175605,-0.0408129
373827958,373827718,0.0836255,0.00706252,-0.0516826
373849049,373848824,0.0547561,-0.00449223,-0.0482288
373866436,373866206,0.0313133,-0.0467357,-0.06971
373887539,373887312,-0.0376748,-0.0750205,-0.0633144
373908657,373908420,-0.118343,-0.0736044,-0.0627267
373926030,373925801,-0.216342,-0.0323383,-0.0239715
