timestamp,x,y,z,r,flaps,aux1,aux2,aux3,aux4,aux5,aux6,mode_switch,return_switch,rattitude_switch,posctl_switch,loiter_switch,acro_switch,offboard_switch,kill_switch,arm_switch,transition_switch,gear_switch,mode_slot,data_source,stab_switch,man_switch
116048323,0.0,-0.00244499,0.0327273,0.997512,0.0,0.0,0.0,0.0,0.0,0.0,0.0,0,0,0,0,0,0,0,0,0,0,0,4,1,0,0
116071861,0.0,-0.00244499,0.0327273,0.997512,0.0,0.0,0.0,0.0,0.0,0.0,0.0,0,0,0,0,0,0,0,0,0,0,0,4,1,0,0
116254318,0.0,-0.00488998,0.0315152,0.997512,0.0,0.0,0.0,0.0,0.0,0.0,0.0,0,0,0,0,0,0,0,0,0,0,0,4,1,0,0
116444342,0.0,-0.00488998,0.0315152,0.0472637,0.0,0.0,0.0,0.0,0.0,0.0,0.0,0,0,0,0,0,0,0,0,0,0,0,4,1,0,0
116644549,0.0,-0.00733496,0.0327273,0.0,0.0,0.0,0.0,0.0,0.0,0.0,0.0,0,0,0,0,0,0,0,0,0,0,0,4,1,0,0
116858419,0.0,-0.00488998,0.0315152,0.0,0.0,0.0,0.0,0.0,0.0,0.0,0.0,0,0,0,0,0,0,0,0,0,0,0,4,1,0,0
117048539,0.0,-0.00488998,0.0327273,0.0,0.0,0.0,0.0,0.0,0.0,0.0,0.0,0,0,0,0,0,0,0,0,0,0,0,4,1,0,0
117248299,0.0,-0.00488998,0.0327273,0.0,0.0,0.0,0.0,0.0,0.0,0.0,0.0,0,0,0,0,0,0,0,0,0,0,0,4,1,0,0
117442872,0.0,-0.00488998,0.0315152,0.0,0.0,0.0,0.0,0.0,0.0,0.0,0.0,0,0,0,0,0,0,0,0,0,0,0,4,1,0,0
117655434,0.0,-0.00488998,0.0315152,0.0,0.0,0.0,0.0,0.0,0.0,0.0,0.0,0,0,0,0,0,0,0,0,0,0,0,4,1,0,0
117845526,0.0,-0.00488998,0.0315152,0.0,0.0,0.0,0.0,0.0,0.0,0.0,0.0,0,0,0,0,0,0,0,0,0,0,0,4,1,0,0
118053342,0.0,-0.00488998,0.0509091,0.0,0.0,0.0,0.0,0.0,0.0,0.0,0.0,0,0,0,0,0,0,0,0,0,0,0,4,1,0,0
118255726,0.0,-0.00488998,0.0509091,0.0,0.0,0.0,0.0,0.0,0.0,0.0,0.0,0,0,0,0,0,0,0,0,0,0,0,4,1,0,0
118443739,0.0,-0.00488998,0.0787879,0.0,0.0,0.0,0.0,0.0,0.0,0.0,0.0,0,0,0,0,0,0,0,0,0,0,0,4,1,0,0
118636088,0.0,-0.00488998,0.104242,0.0,0.0,0.0,0.0,0.0,0.0,0.0,0.0,0,0,0,0,0,0,0,0,0,0,0,4,1,0,0
118844031,0.0,-0.00488998,0.139394,0.0,0.0,0.0,0.0,0.0,0.0,0.0,0.0,0,0,0,0,0,0,0,0,0,0,0,4,1,0,0
119056426,0.0,-0.00488998,0.153939,0.0,0.0,0.0,0.0,0.0,0.0,0.0,0.0,0,0,0,0,0,0,0,0,0,0,0,4,1,0,0
119239783,0.0,-0.00488998,0.189091,0.0,0.0,0.0,0.0,0.0,0.0,0.0,0.0,0,0,0,0,0,0,0,0,0,0,0,4,1,0,0
119446708,0.0,-0.00488998,0.190303,0.0,0.0,0.0,0.0,0.0,0.0,0.0,0.0,0,0,0,0,0,0,0,0,0,0,0,4,1,0,0
119644700,0.0,-0.00488998,0.212121,0.0,0.0,0.0,0.0,0.0,0.0,0.0,0.0,0,0,0,0,0,0,0,0,0,0,0,4,1,0,0
119837027,0.0,-0.0146699,0.212121,0.0,0.0,0.0,0.0,0.0,0.0,0.0,0.0,0,0,0,0,0,0,0,0,0,0,0,4,1,0,0
120050405,0.0,-0.00488998,0.206061,0.0,0.0,0.0,0.0,0.0,0.0,0.0,0.0,0,0,0,0,0,0,0,0,0,0,0,4,1,0,0
120237207,0.0,-0.00244499,0.203636,0.0,0.0,0.0,0.0,0.0,0.0,0.0,0.0,0,0,0,0,0,0,0,0,0,0,0,4,1,0,0
120447396,0.0,-0.00488998,0.210909,0.0,0.0,0.0,0.0,0.0,0.0,0.0,0.0,0,0,0,0,0,0,0,0,0,0,0,4,1,0,0
120657584,0.0,-0.00488998,0.22303,0.0,0.0,0.0,0.0,0.0,0.0,0.0,0.0,0,0,0,0,0,0,0,0,0,0,0,4,1,0,0
120847734,0.0,-0.00244499,0.22303,0.0,0.0,0.0,0.0,0.0,0.0,0.0,0.0,0,0,0,0,0,0,0,0,0,0,0,4,1,0,0
121047958,0.0,-0.00488998,0.246061,0.0,0.0,0.0,0.0,0.0,0.0,0.0,0.0,0,0,0,0,0,0,0,0,0,0,0,4,1,0,0
121257942,0.0,-0.00244499,0.246061,0.0,0.0,0.0,0.0,0.0,0.0,0.0,0.0,0,0,0,0,0,0,0,0,0,0,0,4,1,0,0
121446037,0.0,-0.00244499,0.244848,0.0,0.0,0.0,0.0,0.0,0.0,0.0,0.0,0,0,0,0,0,0,0,0,0,0,0,4,1,0,0
121641967,0.0,-0.00488998,0.25697,0.0,0.0,0.0,0.0,0.0,0.0,0.0,0.0,0,0,0,0,0,0,0,0,0,0,0,4,1,0,0
121842096,0.0,-0.00488998,0.288485,0.0,0.0,0.0,0.0,0.0,0.0,0.0,0.0,0,0,0,0,0,0,0,0,0,0,0,4,1,0,0
122036433,0.0,-0.00488998,0.298182,0.0,0.0,0.0,0.0,0.0,0.0,0.0,0.0,0,0,0,0,0,0,0,0,0,0,0,4,1,0,0
122256470,0.0,-0.00488998,0.30303,0.0,0.0,0.0,0.0,0.0,0.0,0.0,0.0,0,0,0,0,0,0,0,0,0,0,0,4,1,0,0
122448881,0.0,-0.00488998,0.307879,0.0,0.0,0.0,0.0,0.0,0.0,0.0,0.0,0,0,0,0,0,0,0,0,0,0,0,4,1,0,0
122656802,0.0,-0.00488998,0.323636,0.0,0.0,0.0,0.0,0.0,0.0,0.0,0.0,0,0,0,0,0,0,0,0,0,0,0,4,1,0,0
122846923,0.0,-0.00488998,0.329697,0.0,0.0,0.0,0.0,0.0,0.0,0.0,0.0,0,0,0,0,0,0,0,0,0,0,0,4,1,0,0
123039303,0.0,-0.00488998,0.33697,0.0,0.0,0.0,0.0,0.0,0.0,0.0,0.0,0,0,0,0,0,0,0,0,0,0,0,4,1,0,0
123233116,0.0,-0.00488998,0.338182,0.0,0.0,0.0,0.0,0.0,0.0,0.0,0.0,0,0,0,0,0,0,0,0,0,0,0,4,1,0,0
123443283,0.0,-0.00488998,0.344242,0.0,0.0,0.0,0.0,0.0,0.0,0.0,0.0,0,0,0,0,0,0,0,0,0,0,0,4,1,0,0
123653157,0.0,-0.00488998,0.344242,0.0,0.0,0.0,0.0,0.0,0.0,0.0,0.0,0,0,0,0,0,0,0,0,0,0,0,4,1,0,0
123839883,0.0,-0.00488998,0.338182,0.0,0.0,0.0,0.0,0.0,0.0,0.0,0.0,0,0,0,0,0,0,0,0,0,0,0,4,1,0,0
124053389,0.0,-0.00488998,0.33697,0.0,0.0,0.0,0.0,0.0,0.0,0.0,0.0,0,0,0,0,0,0,0,0,0,0,0,4,1,0,0
124240193,0.0,-0.00488998,0.33697,0.0,0.0,0.0,0.0,0.0,0.0,0.0,0.0,0,0,0,0,0,0,0,0,0,0,0,4,1,0,0
124440344,0.0,-0.00488998,0.338182,0.0,0.0,0.0,0.0,0.0,0.0,0.0,0.0,0,0,0,0,0,0,0,0,0,0,0,4,1,0,0
124634169,0.0,-0.00488998,0.358788,0.0,0.0,0.0,0.0,0.0,0.0,0.0,0.0,0,0,0,0,0,0,0,0,0,0,0,4,1,0,0
124840639,0.0,-0.00488998,0.363636,0.0,0.0,0.0,0.0,0.0,0.0,0.0,0.0,0,0,0,0,0,0,0,0,0,0,0,4,1,0,0
125054497,0.0,-0.00488998,0.363636,0.0,0.0,0.0,0.0,0.0,0.0,0.0,0.0,0,0,0,0,0,0,0,0,0,0,0,4,1,0,0
125254821,0.0,-0.00488998,0.364848,0.0,0.0,0.0,0.0,0.0,0.0,0.0,0.0,0,0,0,0,0,0,0,0,0,0,0,4,1,0,0
125454447,0.0,-0.00488998,0.36,0.0,0.0,0.0,0.0,0.0,0.0,0.0,0.0,0,0,0,0,0,0,0,0,0,0,0,4,1,0,0
125649056,0.0,-0.00244499,0.366061,0.0,0.0,0.0,0.0,0.0,0.0,0.0,0.0,0,0,0,0,0,0,0,0,0,0,0,4,1,0,0
125841392,0.0,-0.00244499,0.386667,0.0,0.0,0.0,0.0,0.0,0.0,0.0,0.0,0,0,0,0,0,0,0,0,0,0,0,4,1,0,0
126035263,0.0,-0.00244499,0.385455,0.0,0.0,0.0,0.0,0.0,0.0,0.0,0.0,0,0,0,0,0,0,0,0,0,0,0,4,1,0,0
126255449,0.121588,-0.0440098,0.381818,0.0,0.0,0.0,0.0,0.0,0.0,0.0,0.0,0,0,0,0,0,0,0,0,0,0,0,4,1,0,0
126445543,0.131514,-0.0880196,0.381818,0.0,0.0,0.0,0.0,0.0,0.0,0.0,0.0,0,0,0,0,0,0,0,0,0,0,0,4,1,0,0
126641989,0.126551,-0.105134,0.381818,0.0,0.0,0.0,0.0,0.0,0.0,0.0,0.0,0,0,0,0,0,0,0,0,0,0,0,4,1,0,0
126855499,0.0942928,-0.114914,0.380606,0.0,0.0,0.0,0.0,0.0,0.0,0.0,0.0,0,0,0,0,0,0,0,0,0,0,0,4,1,0,0
127050076,0.0942928,-0.136919,0.379394,0.0,0.0,0.0,0.0,0.0,0.0,0.0,0.0,0,0,0,0,0,0,0,0,0,0,0,4,1,0,0
127240293,0.00248139,-0.117359,0.380606,0.0,0.0,0.0,0.0,0.0,0.0,0.0,0.0,0,0,0,0,0,0,0,0,0,0,0,4,1,0,0
127452609,0.0,-0.00488998,0.402424,-0.00729927,0.0,0.0,0.0,0.0,0.0,0.0,0.0,0,0,0,0,0,0,0,0,0,0,0,4,1,0,0
127650716,0.0,-0.00488998,0.410909,-0.00486618,0.0,0.0,0.0,0.0,0.0,0.0,0.0,0,0,0,0,0,0,0,0,0,0,0,4,1,0,0
127848741,0.0,0.0,0.42303,-0.0145985,0.0,0.0,0.0,0.0,0.0,0.0,0.0,0,0,0,0,0,0,0,0,0,0,0,4,1,0,0
128043033,0.0,-0.00488998,0.419394,-0.00243309,0.0,0.0,0.0,0.0,0.0,0.0,0.0,0,0,0,0,0,0,0,0,0,0,0,4,1,0,0
128253206,0.0,-0.00488998,0.42303,-0.00243309,0.0,0.0,0.0,0.0,0.0,0.0,0.0,0,0,0,0,0,0,0,0,0,0,0,4,1,0,0
128443347,0.0,-0.00488998,0.424242,0.0,0.0,0.0,0.0,0.0,0.0,0.0,0.0,0,0,0,0,0,0,0,0,0,0,0,4,1,0,0
128651292,0.0,-0.00488998,0.425455,-0.00973236,0.0,0.0,0.0,0.0,0.0,0.0,0.0,0,0,0,0,0,0,0,0,0,0,0,4,1,0,0
128841490,0.0,-0.00488998,0.432727,-0.0145985,0.0,0.0,0.0,0.0,0.0,0.0,0.0,0,0,0,0,0,0,0,0,0,0,0,4,1,0,0
129053809,0.0,-0.00488998,0.435152,0.0,0.0,0.0,0.0,0.0,0.0,0.0,0.0,0,0,0,0,0,0,0,0,0,0,0,4,1,0,0
129241723,0.0,-0.0366748,0.427879,0.0,0.0,0.0,0.0,0.0,0.0,0.0,0.0,0,0,0,0,0,0,0,0,0,0,0,4,1,0,0
129447447,0.0719603,-0.222494,0.429091,0.0,0.0,0.0,0.0,0.0,0.0,0.0,0.0,0,0,0,0,0,0,0,0,0,0,0,4,1,0,0
129637935,0.0967742,-0.239609,0.429091,0.0,0.0,0.0,0.0,0.0,0.0,0.0,0.0,0,0,0,0,0,0,0,0,0,0,0,4,1,0,0
129838133,0.121588,-0.242054,0.429091,0.0,0.0,0.0,0.0,0.0,0.0,0.0,0.0,0,0,0,0,0,0,0,0,0,0,0,4,1,0,0
130054623,0.121588,-0.234719,0.429091,0.0,0.0,0.0,0.0,0.0,0.0,0.0,0.0,0,0,0,0,0,0,0,0,0,0,0,4,1,0,0
130252486,0.116625,-0.207824,0.42303,0.0,0.0,0.0,0.0,0.0,0.0,0.0,0.0,0,0,0,0,0,0,0,0,0,0,0,4,1,0,0
130442736,0.0868486,-0.215159,0.433939,0.0,0.0,0.0,0.0,0.0,0.0,0.0,0.0,0,0,0,0,0,0,0,0,0,0,0,4,1,0,0
130638722,0.0868486,-0.215159,0.433939,0.0,0.0,0.0,0.0,0.0,0.0,0.0,0.0,0,0,0,0,0,0,0,0,0,0,0,4,1,0,0
130835214,0.0595534,-0.215159,0.435152,0.0,0.0,0.0,0.0,0.0,0.0,0.0,0.0,0,0,0,0,0,0,0,0,0,0,0,4,1,0,0
131045351,0.0173697,-0.198044,0.438788,0.0,0.0,0.0,0.0,0.0,0.0,0.0,0.0,0,0,0,0,0,0,0,0,0,0,0,4,1,0,0
131239147,0.0,0.0,0.442424,0.0,0.0,0.0,0.0,0.0,0.0,0.0,0.0,0,0,0,0,0,0,0,0,0,0,0,4,1,0,0
131455680,0.138958,0.0,0.448485,0.0,0.0,0.0,0.0,0.0,0.0,0.0,0.0,0,0,0,0,0,0,0,0,0,0,0,4,1,0,0
131643532,0.233251,0.0,0.448485,0.0,0.0,0.0,0.0,0.0,0.0,0.0,0.0,0,0,0,0,0,0,0,0,0,0,0,4,1,0,0
131849739,0.238213,0.0,0.447273,0.0,0.0,0.0,0.0,0.0,0.0,0.0,0.0,0,0,0,0,0,0,0,0,0,0,0,4,1,0,0
132056141,0.0,-0.00488998,0.447273,0.0,0.0,0.0,0.0,0.0,0.0,0.0,0.0,0,0,0,0,0,0,0,0,0,0,0,4,1,0,0
132244124,0.0,0.08,0.447273,0.0,0.0,0.0,0.0,0.0,0.0,0.0,0.0,0,0,0,0,0,0,0,0,0,0,0,4,1,0,0
132446361,0.0521092,0.215,0.446061,0.0,0.0,0.0,0.0,0.0,0.0,0.0,0.0,0,0,0,0,0,0,0,0,0,0,0,4,1,0,0
132650262,0.0,0.1975,0.446061,0.0,0.0,0.0,0.0,0.0,0.0,0.0,0.0,0,0,0,0,0,0,0,0,0,0,0,4,1,0,0
132850378,0.0,0.1125,0.447273,0.0,0.0,0.0,0.0,0.0,0.0,0.0,0.0,0,0,0,0,0,0,0,0,0,0,0,4,1,0,0
133040555,0.0,-0.00244499,0.446061,0.0,0.0,0.0,0.0,0.0,0.0,0.0,0.0,0,0,0,0,0,0,0,0,0,0,0,4,1,0,0
133246974,0.0421836,0.22,0.446061,0.0,0.0,0.0,0.0,0.0,0.0,0.0,0.0,0,0,0,0,0,0,0,0,0,0,0,4,1,0,0
133457134,0.00992556,0.2375,0.447273,0.0,0.0,0.0,0.0,0.0,0.0,0.0,0.0,0,0,0,0,0,0,0,0,0,0,0,4,1,0,0
133647332,0.0,-0.00244499,0.447273,0.0,0.0,0.0,0.0,0.0,0.0,0.0,0.0,0,0,0,0,0,0,0,0,0,0,0,4,1,0,0
133857418,0.0967742,0.0,0.447273,0.0,0.0,0.0,0.0,0.0,0.0,0.0,0.0,0,0,0,0,0,0,0,0,0,0,0,4,1,0,0
134045351,0.290323,-0.00488998,0.449697,0.0,0.0,0.0,0.0,0.0,0.0,0.0,0.0,0,0,0,0,0,0,0,0,0,0,0,4,1,0,0
134235675,0.188586,-0.0268949,0.446061,0.0,0.0,0.0,0.0,0.0,0.0,0.0,0.0,0,0,0,0,0,0,0,0,0,0,0,4,1,0,0
134451247,0.0,-0.00244499,0.444848,0.0,0.0,0.0,0.0,0.0,0.0,0.0,0.0,0,0,0,0,0,0,0,0,0,0,0,4,1,0,0
134648095,0.0,-0.00244499,0.446061,0.0,0.0,0.0,0.0,0.0,0.0,0.0,0.0,0,0,0,0,0,0,0,0,0,0,0,4,1,0,0
134848186,0.0,-0.00244499,0.471515,0.0,0.0,0.0,0.0,0.0,0.0,0.0,0.0,0,0,0,0,0,0,0,0,0,0,0,4,1,0,0
135058401,0.0,-0.0831296,0.466667,0.0,0.0,0.0,0.0,0.0,0.0,0.0,0.0,0,0,0,0,0,0,0,0,0,0,0,4,1,0,0
135252219,0.0,-0.244499,0.467879,0.0,0.0,0.0,0.0,0.0,0.0,0.0,0.0,0,0,0,0,0,0,0,0,0,0,0,4,1,0,0
135446416,-0.0872818,-0.315403,0.466667,0.0,0.0,0.0,0.0,0.0,0.0,0.0,0.0,0,0,0,0,0,0,0,0,0,0,0,4,1,0,0
135636660,0.0,-0.205379,0.466667,0.0,0.0,0.0,0.0,0.0,0.0,0.0,0.0,0,0,0,0,0,0,0,0,0,0,0,4,1,0,0
135848930,0.0,-0.149144,0.467879,0.0,0.0,0.0,0.0,0.0,0.0,0.0,0.0,0,0,0,0,0,0,0,0,0,0,0,4,1,0,0
136042448,0.0,-0.110024,0.467879,0.0,0.0,0.0,0.0,0.0,0.0,0.0,0.0,0,0,0,0,0,0,0,0,0,0,0,4,1,0,0
136249232,0.0,-0.00488998,0.471515,0.0,0.0,0.0,0.0,0.0,0.0,0.0,0.0,0,0,0,0,0,0,0,0,0,0,0,4,1,0,0
136437459,0.230769,-0.0709046,0.467879,0.0,0.0,0.0,0.0,0.0,0.0,0.0,0.0,0,0,0,0,0,0,0,0,0,0,0,4,1,0,0
136649633,0.25062,-0.0122249,0.467879,0.0,0.0,0.0,0.0,0.0,0.0,0.0,0.0,0,0,0,0,0,0,0,0,0,0,0,4,1,0,0
136839710,0.193548,-0.00977995,0.467879,0.0,0.0,0.0,0.0,0.0,0.0,0.0,0.0,0,0,0,0,0,0,0,0,0,0,0,4,1,0,0
137053555,0.0,-0.00488998,0.461818,0.0,0.0,0.0,0.0,0.0,0.0,0.0,0.0,0,0,0,0,0,0,0,0,0,0,0,4,1,0,0
137247764,0.0,-0.00244499,0.460606,0.0,0.0,0.0,0.0,0.0,0.0,0.0,0.0,0,0,0,0,0,0,0,0,0,0,0,4,1,0,0
137447915,0.0,-0.00733496,0.471515,0.0,0.0,0.0,0.0,0.0,0.0,0.0,0.0,0,0,0,0,0,0,0,0,0,0,0,4,1,0,0
137638143,0.0967742,-0.0733496,0.465455,0.0,0.0,0.0,0.0,0.0,0.0,0.0,0.0,0,0,0,0,0,0,0,0,0,0,0,4,1,0,0
137858284,0.0967742,-0.105134,0.466667,0.0,0.0,0.0,0.0,0.0,0.0,0.0,0.0,0,0,0,0,0,0,0,0,0,0,0,4,1,0,0
138044293,0.0521092,-0.114914,0.466667,0.0,0.0,0.0,0.0,0.0,0.0,0.0,0.0,0,0,0,0,0,0,0,0,0,0,0,4,1,0,0
138244097,0.0,-0.00488998,0.459394,0.0,0.0,0.0,0.0,0.0,0.0,0.0,0.0,0,0,0,0,0,0,0,0,0,0,0,4,1,0,0
138454684,0.0620347,-0.00977995,0.469091,0.0,0.0,0.0,0.0,0.0,0.0,0.0,0.0,0,0,0,0,0,0,0,0,0,0,0,4,1,0,0
138644902,0.158809,-0.0122249,0.467879,0.0,0.0,0.0,0.0,0.0,0.0,0.0,0.0,0,0,0,0,0,0,0,0,0,0,0,4,1,0,0
138839209,0.129032,-0.0146699,0.466667,0.0,0.0,0.0,0.0,0.0,0.0,0.0,0.0,0,0,0,0,0,0,0,0,0,0,0,4,1,0,0
139051372,0.0,-0.00244499,0.461818,0.0,0.0,0.0,0.0,0.0,0.0,0.0,0.0,0,0,0,0,0,0,0,0,0,0,0,4,1,0,0
139251514,0.0,-0.00244499,0.461818,0.0,0.0,0.0,0.0,0.0,0.0,0.0,0.0,0,0,0,0,0,0,0,0,0,0,0,4,1,0,0
139439459,0.0,-0.00244499,0.467879,0.0,0.0,0.0,0.0,0.0,0.0,0.0,0.0,0,0,0,0,0,0,0,0,0,0,0,4,1,0,0
139649590,0.101737,-0.134474,0.465455,0.0,0.0,0.0,0.0,0.0,0.0,0.0,0.0,0,0,0,0,0,0,0,0,0,0,0,4,1,0,0
139851950,0.057072,-0.107579,0.466667,0.0,0.0,0.0,0.0,0.0,0.0,0.0,0.0,0,0,0,0,0,0,0,0,0,0,0,4,1,0,0
140042128,0.0,-0.00488998,0.460606,0.0,0.0,0.0,0.0,0.0,0.0,0.0,0.0,0,0,0,0,0,0,0,0,0,0,0,4,1,0,0
140235930,0.0,-0.00488998,0.460606,0.0,0.0,0.0,0.0,0.0,0.0,0.0,0.0,0,0,0,0,0,0,0,0,0,0,0,4,1,0,0
140450186,0.0,-0.00488998,0.459394,0.0,0.0,0.0,0.0,0.0,0.0,0.0,0.0,0,0,0,0,0,0,0,0,0,0,0,4,1,0,0
140656366,0.0967742,0.0,0.46303,0.0,0.0,0.0,0.0,0.0,0.0,0.0,0.0,0,0,0,0,0,0,0,0,0,0,0,4,1,0,0
140852722,0.0992556,-0.00244499,0.460606,0.0,0.0,0.0,0.0,0.0,0.0,0.0,0.0,0,0,0,0,0,0,0,0,0,0,0,4,1,0,0
141046093,0.218362,-0.0391198,0.465455,0.0,0.0,0.0,0.0,0.0,0.0,0.0,0.0,0,0,0,0,0,0,0,0,0,0,0,4,1,0,0
141253024,0.0,-0.00488998,0.460606,0.0,0.0,0.0,0.0,0.0,0.0,0.0,0.0,0,0,0,0,0,0,0,0,0,0,0,4,1,0,0
141437063,0.0,0.0,0.460606,0.0,0.0,0.0,0.0,0.0,0.0,0.0,0.0,0,0,0,0,0,0,0,0,0,0,0,4,1,0,0
141653353,0.0521092,-0.00733496,0.469091,0.0,0.0,0.0,0.0,0.0,0.0,0.0,0.0,0,0,0,0,0,0,0,0,0,0,0,4,1,0,0
141851399,0.0992556,-0.0146699,0.465455,0.0,0.0,0.0,0.0,0.0,0.0,0.0,0.0,0,0,0,0,0,0,0,0,0,0,0,4,1,0,0
142041390,0.0769231,-0.0831296,0.465455,0.0,0.0,0.0,0.0,0.0,0.0,0.0,0.0,0,0,0,0,0,0,0,0,0,0,0,4,1,0,0
142257105,0.0,-0.00488998,0.461818,0.0,0.0,0.0,0.0,0.0,0.0,0.0,0.0,0,0,0,0,0,0,0,0,0,0,0,4,1,0,0
142451812,0.0,-0.00244499,0.461818,0.0,0.0,0.0,0.0,0.0,0.0,0.0,0.0,0,0,0,0,0,0,0,0,0,0,0,4,1,0,0
142647934,0.0,-0.00244499,0.461818,0.0,0.0,0.0,0.0,0.0,0.0,0.0,0.0,0,0,0,0,0,0,0,0,0,0,0,4,1,0,0
142844296,0.158809,0.0,0.461818,0.0,0.0,0.0,0.0,0.0,0.0,0.0,0.0,0,0,0,0,0,0,0,0,0,0,0,4,1,0,0
143044519,0.126551,-0.0391198,0.466667,0.0,0.0,0.0,0.0,0.0,0.0,0.0,0.0,0,0,0,0,0,0,0,0,0,0,0,4,1,0,0
143252436,0.0248139,-0.0464548,0.466667,0.0,0.0,0.0,0.0,0.0,0.0,0.0,0.0,0,0,0,0,0,0,0,0,0,0,0,4,1,0,0
143444725,0.0,-0.00244499,0.460606,0.0,0.0,0.0,0.0,0.0,0.0,0.0,0.0,0,0,0,0,0,0,0,0,0,0,0,4,1,0,0
143654870,0.0,-0.183374,0.465455,0.0,0.0,0.0,0.0,0.0,0.0,0.0,0.0,0,0,0,0,0,0,0,0,0,0,0,4,1,0,0
143854999,0.0,-0.144254,0.466667,0.0,0.0,0.0,0.0,0.0,0.0,0.0,0.0,0,0,0,0,0,0,0,0,0,0,0,4,1,0,0
144042914,0.0,-0.00244499,0.461818,0.0,0.0,0.0,0.0,0.0,0.0,0.0,0.0,0,0,0,0,0,0,0,0,0,0,0,4,1,0,0
144255351,0.0,-0.00244499,0.460606,0.0,0.0,0.0,0.0,0.0,0.0,0.0,0.0,0,0,0,0,0,0,0,0,0,0,0,4,1,0,0
144459330,0.17866,0.0,0.465455,0.0,0.0,0.0,0.0,0.0,0.0,0.0,0.0,0,0,0,0,0,0,0,0,0,0,0,4,1,0,0
144655736,0.0,-0.00244499,0.460606,0.0,0.0,0.0,0.0,0.0,0.0,0.0,0.0,0,0,0,0,0,0,0,0,0,0,0,4,1,0,0
144843535,0.0,-0.00244499,0.460606,0.0,0.0,0.0,0.0,0.0,0.0,0.0,0.0,0,0,0,0,0,0,0,0,0,0,0,4,1,0,0
145036022,0.0,-0.00244499,0.460606,0.0,0.0,0.0,0.0,0.0,0.0,0.0,0.0,0,0,0,0,0,0,0,0,0,0,0,4,1,0,0
145249782,0.129032,0.0,0.46303,0.0,0.0,0.0,0.0,0.0,0.0,0.0,0.0,0,0,0,0,0,0,0,0,0,0,0,4,1,0,0
145439565,0.0,0.0,0.46303,0.0,0.0,0.0,0.0,0.0,0.0,0.0,0.0,0,0,0,0,0,0,0,0,0,0,0,4,1,0,0
145649688,0.0,-0.00488998,0.460606,0.0,0.0,0.0,0.0,0.0,0.0,0.0,0.0,0,0,0,0,0,0,0,0,0,0,0,4,1,0,0
145844337,0.0,0.0,0.46303,0.0,0.0,0.0,0.0,0.0,0.0,0.0,0.0,0,0,0,0,0,0,0,0,0,0,0,4,1,0,0
146056658,0.0,-0.163814,0.465455,0.0,0.0,0.0,0.0,0.0,0.0,0.0,0.0,0,0,0,0,0,0,0,0,0,0,0,4,1,0,0
146250634,0.0,-0.00244499,0.459394,0.0,0.0,0.0,0.0,0.0,0.0,0.0,0.0,0,0,0,0,0,0,0,0,0,0,0,4,1,0,0
146444757,0.0,-0.00244499,0.459394,0.0,0.0,0.0,0.0,0.0,0.0,0.0,0.0,0,0,0,0,0,0,0,0,0,0,0,4,1,0,0
146637083,0.0,-0.00244499,0.459394,0.0,0.0,0.0,0.0,0.0,0.0,0.0,0.0,0,0,0,0,0,0,0,0,0,0,0,4,1,0,0
146855257,0.0,-0.00244499,0.459394,0.0,0.0,0.0,0.0,0.0,0.0,0.0,0.0,0,0,0,0,0,0,0,0,0,0,0,4,1,0,0
147047429,0.233251,-0.0562347,0.466667,0.0,0.0,0.0,0.0,0.0,0.0,0.0,0.0,0,0,0,0,0,0,0,0,0,0,0,4,1,0,0
147257590,0.0,-0.00488998,0.460606,0.0,0.0,0.0,0.0,0.0,0.0,0.0,0.0,0,0,0,0,0,0,0,0,0,0,0,4,1,0,0
147455595,0.0,-0.00488998,0.460606,0.0,0.0,0.0,0.0,0.0,0.0,0.0,0.0,0,0,0,0,0,0,0,0,0,0,0,4,1,0,0
147647928,0.0,-0.00488998,0.460606,0.0,0.0,0.0,0.0,0.0,0.0,0.0,0.0,0,0,0,0,0,0,0,0,0,0,0,4,1,0,0
147855981,0.0,-0.00488998,0.460606,0.0,0.0,0.0,0.0,0.0,0.0,0.0,0.0,0,0,0,0,0,0,0,0,0,0,0,4,1,0,0
148038327,0.0,-0.00488998,0.460606,0.0,0.0,0.0,0.0,0.0,0.0,0.0,0.0,0,0,0,0,0,0,0,0,0,0,0,4,1,0,0
148252151,0.0,-0.00488998,0.460606,0.0,0.0,0.0,0.0,0.0,0.0,0.0,0.0,0,0,0,0,0,0,0,0,0,0,0,4,1,0,0
148451846,0.0,-0.210269,0.466667,0.0,0.0,0.0,0.0,0.0,0.0,0.0,0.0,0,0,0,0,0,0,0,0,0,0,0,4,1,0,0
148646504,0.0,-0.202934,0.467879,0.0,0.0,0.0,0.0,0.0,0.0,0.0,0.0,0,0,0,0,0,0,0,0,0,0,0,4,1,0,0
148838845,0.0,-0.00488998,0.460606,-0.00486618,0.0,0.0,0.0,0.0,0.0,0.0,0.0,0,0,0,0,0,0,0,0,0,0,0,4,1,0,0
149052616,0.0,-0.00488998,0.460606,0.0,0.0,0.0,0.0,0.0,0.0,0.0,0.0,0,0,0,0,0,0,0,0,0,0,0,4,1,0,0
149246847,0.0,-0.00488998,0.460606,0.0,0.0,0.0,0.0,0.0,0.0,0.0,0.0,0,0,0,0,0,0,0,0,0,0,0,4,1,0,0
149439200,0.0,-0.00488998,0.461818,0.0,0.0,0.0,0.0,0.0,0.0,0.0,0.0,0,0,0,0,0,0,0,0,0,0,0,4,1,0,0
149653342,0.0,-0.00488998,0.460606,0.0,0.0,0.0,0.0,0.0,0.0,0.0,0.0,0,0,0,0,0,0,0,0,0,0,0,4,1,0,0
149839580,0.0942928,-0.110024,0.465455,0.0,0.0,0.0,0.0,0.0,0.0,0.0,0.0,0,0,0,0,0,0,0,0,0,0,0,4,1,0,0
150053387,0.0669975,-0.127139,0.467879,0.0,0.0,0.0,0.0,0.0,0.0,0.0,0.0,0,0,0,0,0,0,0,0,0,0,0,4,1,0,0
150253202,0.129032,-0.156479,0.467879,0.0,0.0,0.0,0.0,0.0,0.0,0.0,0.0,0,0,0,0,0,0,0,0,0,0,0,4,1,0,0
150443328,0.131514,-0.136919,0.465455,0.0,0.0,0.0,0.0,0.0,0.0,0.0,0.0,0,0,0,0,0,0,0,0,0,0,0,4,1,0,0
150653870,0.156328,-0.0709046,0.465455,0.0,0.0,0.0,0.0,0.0,0.0,0.0,0.0,0,0,0,0,0,0,0,0,0,0,0,4,1,0,0
150853540,0.191067,-0.00488998,0.460606,0.0,0.0,0.0,0.0,0.0,0.0,0.0,0.0,0,0,0,0,0,0,0,0,0,0,0,4,1,0,0
151040419,0.0,-0.00244499,0.461818,0.0,0.0,0.0,0.0,0.0,0.0,0.0,0.0,0,0,0,0,0,0,0,0,0,0,0,4,1,0,0
151244338,0.0,0.0,0.46303,0.0,0.0,0.0,0.0,0.0,0.0,0.0,0.0,0,0,0,0,0,0,0,0,0,0,0,4,1,0,0
151454442,0.258065,0.0425,0.466667,0.0,0.0,0.0,0.0,0.0,0.0,0.0,0.0,0,0,0,0,0,0,0,0,0,0,0,4,1,0,0
151644762,0.25062,0.0075,0.465455,0.0,0.0,0.0,0.0,0.0,0.0,0.0,0.0,0,0,0,0,0,0,0,0,0,0,0,4,1,0,0
151838887,0.0,-0.00244499,0.460606,0.0,0.0,0.0,0.0,0.0,0.0,0.0,0.0,0,0,0,0,0,0,0,0,0,0,0,4,1,0,0
152039133,0.0,-0.00244499,0.461818,0.0,0.0,0.0,0.0,0.0,0.0,0.0,0.0,0,0,0,0,0,0,0,0,0,0,0,4,1,0,0
152255041,0.0,0.0425,0.466667,0.0,0.0,0.0,0.0,0.0,0.0,0.0,0.0,0,0,0,0,0,0,0,0,0,0,0,4,1,0,0
152441481,0.044665,0.08,0.466667,0.0,0.0,0.0,0.0,0.0,0.0,0.0,0.0,0,0,0,0,0,0,0,0,0,0,0,4,1,0,0
152645337,0.0,-0.00244499,0.461818,0.0,0.0,0.0,0.0,0.0,0.0,0.0,0.0,0,0,0,0,0,0,0,0,0,0,0,4,1,0,0
152855680,0.0,-0.00244499,0.461818,0.0,0.0,0.0,0.0,0.0,0.0,0.0,0.0,0,0,0,0,0,0,0,0,0,0,0,4,1,0,0
153049840,0.0,0.0,0.460606,0.0,0.0,0.0,0.0,0.0,0.0,0.0,0.0,0,0,0,0,0,0,0,0,0,0,0,4,1,0,0
153247593,0.00744417,0.0,0.461818,0.0,0.0,0.0,0.0,0.0,0.0,0.0,0.0,0,0,0,0,0,0,0,0,0,0,0,4,1,0,0
153455962,0.0868486,0.0,0.459394,0.0,0.0,0.0,0.0,0.0,0.0,0.0,0.0,0,0,0,0,0,0,0,0,0,0,0,4,1,0,0
153646087,0.131514,-0.00244499,0.461818,0.0,0.0,0.0,0.0,0.0,0.0,0.0,0.0,0,0,0,0,0,0,0,0,0,0,0,4,1,0,0
153856257,0.0,-0.00733496,0.460606,0.0,0.0,0.0,0.0,0.0,0.0,0.0,0.0,0,0,0,0,0,0,0,0,0,0,0,4,1,0,0
154042704,0.0,-0.0880196,0.470303,0.0,0.0,0.0,0.0,0.0,0.0,0.0,0.0,0,0,0,0,0,0,0,0,0,0,0,4,1,0,0
154236535,0.0,-0.202934,0.466667,0.0,0.0,0.0,0.0,0.0,0.0,0.0,0.0,0,0,0,0,0,0,0,0,0,0,0,4,1,0,0
154456350,0.0,0.0,0.469091,0.0,0.0,0.0,0.0,0.0,0.0,0.0,0.0,0,0,0,0,0,0,0,0,0,0,0,4,1,0,0
154643155,0.0,-0.00244499,0.461818,0.0,0.0,0.0,0.0,0.0,0.0,0.0,0.0,0,0,0,0,0,0,0,0,0,0,0,4,1,0,0
154843330,0.0,-0.00244499,0.460606,0.0,0.0,0.0,0.0,0.0,0.0,0.0,0.0,0,0,0,0,0,0,0,0,0,0,0,4,1,0,0
155043537,0.0,-0.00244499,0.460606,0.0,0.0,0.0,0.0,0.0,0.0,0.0,0.0,0,0,0,0,0,0,0,0,0,0,0,4,1,0,0
155233700,0.0,-0.00244499,0.461818,0.0,0.0,0.0,0.0,0.0,0.0,0.0,0.0,0,0,0,0,0,0,0,0,0,0,0,4,1,0,0
155443856,0.0148883,-0.00733496,0.469091,0.0,0.0,0.0,0.0,0.0,0.0,0.0,0.0,0,0,0,0,0,0,0,0,0,0,0,4,1,0,0
155641694,0.0148883,-0.00977995,0.467879,0.0,0.0,0.0,0.0,0.0,0.0,0.0,0.0,0,0,0,0,0,0,0,0,0,0,0,4,1,0,0
155851969,0.0818859,-0.0660147,0.467879,0.0,0.0,0.0,0.0,0.0,0.0,0.0,0.0,0,0,0,0,0,0,0,0,0,0,0,4,1,0,0
156044222,0.0545906,-0.0635697,0.467879,0.0,0.0,0.0,0.0,0.0,0.0,0.0,0.0,0,0,0,0,0,0,0,0,0,0,0,4,1,0,0
156248211,0.0,-0.00244499,0.471515,0.0,0.0,0.0,0.0,0.0,0.0,0.0,0.0,0,0,0,0,0,0,0,0,0,0,0,4,1,0,0
156444531,0.0,-0.00488998,0.460606,0.0,0.0,0.0,0.0,0.0,0.0,0.0,0.0,0,0,0,0,0,0,0,0,0,0,0,4,1,0,0
156634754,0.0,-0.0635697,0.471515,0.0,0.0,0.0,0.0,0.0,0.0,0.0,0.0,0,0,0,0,0,0,0,0,0,0,0,4,1,0,0
156852619,0.0,-0.185819,0.470303,0.0,0.0,0.0,0.0,0.0,0.0,0.0,0.0,0,0,0,0,0,0,0,0,0,0,0,4,1,0,0
157042779,0.0,-0.117359,0.466667,0.0,0.0,0.0,0.0,0.0,0.0,0.0,0.0,0,0,0,0,0,0,0,0,0,0,0,4,1,0,0
157255120,0.0,-0.0929095,0.466667,0.0,0.0,0.0,0.0,0.0,0.0,0.0,0.0,0,0,0,0,0,0,0,0,0,0,0,4,1,0,0
157448959,0.0,-0.00733496,0.470303,0.0,0.0,0.0,0.0,0.0,0.0,0.0,0.0,0,0,0,0,0,0,0,0,0,0,0,4,1,0,0
157635426,0.349876,0.0,0.461818,0.0,0.0,0.0,0.0,0.0,0.0,0.0,0.0,0,0,0,0,0,0,0,0,0,0,0,4,1,0,0
157845577,0.198511,0.0,0.461818,0.0,0.0,0.0,0.0,0.0,0.0,0.0,0.0,0,0,0,0,0,0,0,0,0,0,0,4,1,0,0
158049542,0.0,-0.00244499,0.470303,0.0,0.0,0.0,0.0,0.0,0.0,0.0,0.0,0,0,0,0,0,0,0,0,0,0,0,4,1,0,0
158243635,0.0,-0.00244499,0.460606,0.0,0.0,0.0,0.0,0.0,0.0,0.0,0.0,0,0,0,0,0,0,0,0,0,0,0,4,1,0,0
158443896,0.0,-0.124694,0.467879,0.0,0.0,0.0,0.0,0.0,0.0,0.0,0.0,0,0,0,0,0,0,0,0,0,0,0,4,1,0,0
158656169,0.0,-0.161369,0.467879,0.0,0.0,0.0,0.0,0.0,0.0,0.0,0.0,0,0,0,0,0,0,0,0,0,0,0,4,1,0,0
158846329,0.0,-0.0391198,0.467879,0.0,0.0,0.0,0.0,0.0,0.0,0.0,0.0,0,0,0,0,0,0,0,0,0,0,0,4,1,0,0
159036619,0.0,-0.00488998,0.471515,0.0,0.0,0.0,0.0,0.0,0.0,0.0,0.0,0,0,0,0,0,0,0,0,0,0,0,4,1,0,0
159246635,0.0,-0.00488998,0.460606,0.0,0.0,0.0,0.0,0.0,0.0,0.0,0.0,0,0,0,0,0,0,0,0,0,0,0,4,1,0,0
159446816,0.0,-0.00488998,0.460606,0.0,0.0,0.0,0.0,0.0,0.0,0.0,0.0,0,0,0,0,0,0,0,0,0,0,0,4,1,0,0
159637010,0.0,-0.00244499,0.472727,-0.0389294,0.0,0.0,0.0,0.0,0.0,0.0,0.0,0,0,0,0,0,0,0,0,0,0,0,4,1,0,0
159847078,0.0,-0.00244499,0.436364,-0.0486618,0.0,0.0,0.0,0.0,0.0,0.0,0.0,0,0,0,0,0,0,0,0,0,0,0,4,1,0,0
160047223,0.0,-0.251834,0.438788,-0.0778589,0.0,0.0,0.0,0.0,0.0,0.0,0.0,0,0,0,0,0,0,0,0,0,0,0,4,1,0,0
160250711,0.0,-0.366748,0.469091,-0.20438,0.0,0.0,0.0,0.0,0.0,0.0,0.0,0,0,0,0,0,0,0,0,0,0,0,4,1,0,0
160437551,0.0,-0.369193,0.467879,-0.175182,0.0,0.0,0.0,0.0,0.0,0.0,0.0,0,0,0,0,0,0,0,0,0,0,0,4,1,0,0
160647797,0.0,-0.354523,0.467879,-0.182482,0.0,0.0,0.0,0.0,0.0,0.0,0.0,0,0,0,0,0,0,0,0,0,0,0,4,1,0,0
160848154,0.0,-0.149144,0.441212,-0.158151,0.0,0.0,0.0,0.0,0.0,0.0,0.0,0,0,0,0,0,0,0,0,0,0,0,4,1,0,0
161038058,0.0,-0.124694,0.44,-0.182482,0.0,0.0,0.0,0.0,0.0,0.0,0.0,0,0,0,0,0,0,0,0,0,0,0,4,1,0,0
161251871,0.0,-0.0122249,0.437576,-0.0583942,0.0,0.0,0.0,0.0,0.0,0.0,0.0,0,0,0,0,0,0,0,0,0,0,0,4,1,0,0
161442085,0.0,-0.00244499,0.443636,0.0,0.0,0.0,0.0,0.0,0.0,0.0,0.0,0,0,0,0,0,0,0,0,0,0,0,4,1,0,0
161648437,0.0,-0.0831296,0.443636,0.0,0.0,0.0,0.0,0.0,0.0,0.0,0.0,0,0,0,0,0,0,0,0,0,0,0,4,1,0,0
161838710,0.0,-0.283619,0.442424,0.0,0.0,0.0,0.0,0.0,0.0,0.0,0.0,0,0,0,0,0,0,0,0,0,0,0,4,1,0,0
162052154,-0.0897756,-0.454768,0.442424,0.0,0.0,0.0,0.0,0.0,0.0,0.0,0.0,0,0,0,0,0,0,0,0,0,0,0,4,1,0,0
162239001,0.0,-0.100244,0.441212,0.0,0.0,0.0,0.0,0.0,0.0,0.0,0.0,0,0,0,0,0,0,0,0,0,0,0,4,1,0,0
162449364,0.0,-0.00488998,0.438788,-0.00486618,0.0,0.0,0.0,0.0,0.0,0.0,0.0,0,0,0,0,0,0,0,0,0,0,0,4,1,0,0
162653029,0.0,0.0,0.438788,0.0,0.0,0.0,0.0,0.0,0.0,0.0,0.0,0,0,0,0,0,0,0,0,0,0,0,4,1,0,0
162847137,0.0,0.125,0.438788,0.0,0.0,0.0,0.0,0.0,0.0,0.0,0.0,0,0,0,0,0,0,0,0,0,0,0,4,1,0,0
163049528,0.0,0.1625,0.44,0.0,0.0,0.0,0.0,0.0,0.0,0.0,0.0,0,0,0,0,0,0,0,0,0,0,0,4,1,0,0
163247427,0.0,0.1925,0.44,0.0,0.0,0.0,0.0,0.0,0.0,0.0,0.0,0,0,0,0,0,0,0,0,0,0,0,4,1,0,0
163439812,0.0,0.1775,0.438788,0.0,0.0,0.0,0.0,0.0,0.0,0.0,0.0,0,0,0,0,0,0,0,0,0,0,0,4,1,0,0
163650058,0.0,0.1725,0.438788,0.0,0.0,0.0,0.0,0.0,0.0,0.0,0.0,0,0,0,0,0,0,0,0,0,0,0,4,1,0,0
163843930,0.0,0.1675,0.437576,0.0,0.0,0.0,0.0,0.0,0.0,0.0,0.0,0,0,0,0,0,0,0,0,0,0,0,4,1,0,0
164040278,0.0,-0.00488998,0.44,0.0,0.0,0.0,0.0,0.0,0.0,0.0,0.0,0,0,0,0,0,0,0,0,0,0,0,4,1,0,0
164240431,0.0,0.0,0.437576,-0.0900243,0.0,0.0,0.0,0.0,0.0,0.0,0.0,0,0,0,0,0,0,0,0,0,0,0,4,1,0,0
164450585,0.0,0.0,0.441212,-0.114355,0.0,0.0,0.0,0.0,0.0,0.0,0.0,0,0,0,0,0,0,0,0,0,0,0,4,1,0,0
164648472,0.0,-0.00244499,0.437576,-0.138686,0.0,0.0,0.0,0.0,0.0,0.0,0.0,0,0,0,0,0,0,0,0,0,0,0,4,1,0,0
164834619,0.0,-0.00488998,0.437576,-0.184915,0.0,0.0,0.0,0.0,0.0,0.0,0.0,0,0,0,0,0,0,0,0,0,0,0,4,1,0,0
165051025,0.0,-0.00244499,0.437576,-0.223844,0.0,0.0,0.0,0.0,0.0,0.0,0.0,0,0,0,0,0,0,0,0,0,0,0,4,1,0,0
165251143,0.0,-0.00244499,0.44,-0.223844,0.0,0.0,0.0,0.0,0.0,0.0,0.0,0,0,0,0,0,0,0,0,0,0,0,4,1,0,0
165449143,0.0,-0.00244499,0.438788,-0.214112,0.0,0.0,0.0,0.0,0.0,0.0,0.0,0,0,0,0,0,0,0,0,0,0,0,4,1,0,0
165651530,0.0,-0.00244499,0.438788,-0.226277,0.0,0.0,0.0,0.0,0.0,0.0,0.0,0,0,0,0,0,0,0,0,0,0,0,4,1,0,0
165849394,0.0,-0.00244499,0.441212,-0.209246,0.0,0.0,0.0,0.0,0.0,0.0,0.0,0,0,0,0,0,0,0,0,0,0,0,4,1,0,0
166051782,0.0,-0.00244499,0.44,-0.211679,0.0,0.0,0.0,0.0,0.0,0.0,0.0,0,0,0,0,0,0,0,0,0,0,0,4,1,0,0
166235769,0.0,-0.00244499,0.441212,-0.221411,0.0,0.0,0.0,0.0,0.0,0.0,0.0,0,0,0,0,0,0,0,0,0,0,0,4,1,0,0
166452049,0.0,-0.00488998,0.44,-0.206813,0.0,0.0,0.0,0.0,0.0,0.0,0.0,0,0,0,0,0,0,0,0,0,0,0,4,1,0,0
166652201,0.0,-0.00244499,0.44,-0.218978,0.0,0.0,0.0,0.0,0.0,0.0,0.0,0,0,0,0,0,0,0,0,0,0,0,4,1,0,0
166850142,0.265509,-0.188264,0.438788,-0.136253,0.0,0.0,0.0,0.0,0.0,0.0,0.0,0,0,0,0,0,0,0,0,0,0,0,4,1,0,0
167040303,0.205955,-0.234719,0.438788,-0.080292,0.0,0.0,0.0,0.0,0.0,0.0,0.0,0,0,0,0,0,0,0,0,0,0,0,4,1,0,0
167252743,0.0,-0.00244499,0.442424,0.0,0.0,0.0,0.0,0.0,0.0,0.0,0.0,0,0,0,0,0,0,0,0,0,0,0,4,1,0,0
167456168,0.0,-0.00244499,0.442424,0.0,0.0,0.0,0.0,0.0,0.0,0.0,0.0,0,0,0,0,0,0,0,0,0,0,0,4,1,0,0
167656692,0.0,-0.00244499,0.441212,0.0,0.0,0.0,0.0,0.0,0.0,0.0,0.0,0,0,0,0,0,0,0,0,0,0,0,4,1,0,0
167850896,0.0,-0.00488998,0.44,0.0,0.0,0.0,0.0,0.0,0.0,0.0,0.0,0,0,0,0,0,0,0,0,0,0,0,4,1,0,0
168046960,0.305211,0.1875,0.441212,0.0,0.0,0.0,0.0,0.0,0.0,0.0,0.0,0,0,0,0,0,0,0,0,0,0,0,4,1,0,0
168237326,0.235732,0.1575,0.441212,0.0,0.0,0.0,0.0,0.0,0.0,0.0,0.0,0,0,0,0,0,0,0,0,0,0,0,4,1,0,0
168453685,0.0,-0.00244499,0.441212,0.0,0.0,0.0,0.0,0.0,0.0,0.0,0.0,0,0,0,0,0,0,0,0,0,0,0,4,1,0,0
168643834,0.0744417,0.365,0.44,0.0,0.0,0.0,0.0,0.0,0.0,0.0,0.0,0,0,0,0,0,0,0,0,0,0,0,4,1,0,0
168853879,0.0,-0.00244499,0.44,0.0,0.0,0.0,0.0,0.0,0.0,0.0,0.0,0,0,0,0,0,0,0,0,0,0,0,4,1,0,0
169044070,0.0,-0.00244499,0.44,0.0,0.0,0.0,0.0,0.0,0.0,0.0,0.0,0,0,0,0,0,0,0,0,0,0,0,4,1,0,0
169234271,0.00248139,-0.00244499,0.44,0.0,0.0,0.0,0.0,0.0,0.0,0.0,0.0,0,0,0,0,0,0,0,0,0,0,0,4,1,0,0
169444345,0.208437,0.0825,0.441212,0.0,0.0,0.0,0.0,0.0,0.0,0.0,0.0,0,0,0,0,0,0,0,0,0,0,0,4,1,0,0
169654485,0.121588,0.1275,0.441212,0.0,0.0,0.0,0.0,0.0,0.0,0.0,0.0,0,0,0,0,0,0,0,0,0,0,0,4,1,0,0
169854642,0.0,-0.00244499,0.441212,0.0,0.0,0.0,0.0,0.0,0.0,0.0,0.0,0,0,0,0,0,0,0,0,0,0,0,4,1,0,0
170042596,0.0,0.0425,0.441212,0.0,0.0,0.0,0.0,0.0,0.0,0.0,0.0,0,0,0,0,0,0,0,0,0,0,0,4,1,0,0
170254940,0.0,0.3275,0.44,0.0,0.0,0.0,0.0,0.0,0.0,0.0,0.0,0,0,0,0,0,0,0,0,0,0,0,4,1,0,0
170448963,0.0,0.33,0.44,0.0,0.0,0.0,0.0,0.0,0.0,0.0,0.0,0,0,0,0,0,0,0,0,0,0,0,4,1,0,0
170635333,0.0,-0.00488998,0.44,0.0,0.0,0.0,0.0,0.0,0.0,0.0,0.0,0,0,0,0,0,0,0,0,0,0,0,4,1,0,0
170835426,0.0,0.0,0.44,0.0,0.0,0.0,0.0,0.0,0.0,0.0,0.0,0,0,0,0,0,0,0,0,0,0,0,4,1,0,0
171053322,0.0322581,0.0725,0.44,0.0,0.0,0.0,0.0,0.0,0.0,0.0,0.0,0,0,0,0,0,0,0,0,0,0,0,4,1,0,0
171239421,0.0,0.0,0.441212,0.0,0.0,0.0,0.0,0.0,0.0,0.0,0.0,0,0,0,0,0,0,0,0,0,0,0,4,1,0,0
171453636,0.0769231,0.0,0.44,0.0,0.0,0.0,0.0,0.0,0.0,0.0,0.0,0,0,0,0,0,0,0,0,0,0,0,4,1,0,0
171646072,0.238213,0.1525,0.441212,0.0,0.0,0.0,0.0,0.0,0.0,0.0,0.0,0,0,0,0,0,0,0,0,0,0,0,4,1,0,0
171843925,0.0,-0.00244499,0.441212,0.0,0.0,0.0,0.0,0.0,0.0,0.0,0.0,0,0,0,0,0,0,0,0,0,0,0,4,1,0,0
172056354,0.0,0.0,0.44,0.0,0.0,0.0,0.0,0.0,0.0,0.0,0.0,0,0,0,0,0,0,0,0,0,0,0,4,1,0,0
172236530,0.0,0.1075,0.44,0.0,0.0,0.0,0.0,0.0,0.0,0.0,0.0,0,0,0,0,0,0,0,0,0,0,0,4,1,0,0
172454451,0.0,0.3425,0.44,0.0,0.0,0.0,0.0,0.0,0.0,0.0,0.0,0,0,0,0,0,0,0,0,0,0,0,4,1,0,0
172646792,0.0,0.3375,0.441212,0.0,0.0,0.0,0.0,0.0,0.0,0.0,0.0,0,0,0,0,0,0,0,0,0,0,0,4,1,0,0
172857042,0.0,0.315,0.44,0.0,0.0,0.0,0.0,0.0,0.0,0.0,0.0,0,0,0,0,0,0,0,0,0,0,0,4,1,0,0
173047112,0.0,-0.00244499,0.44,0.0,0.0,0.0,0.0,0.0,0.0,0.0,0.0,0,0,0,0,0,0,0,0,0,0,0,4,1,0,0
173241029,0.129032,0.0,0.44,0.0,0.0,0.0,0.0,0.0,0.0,0.0,0.0,0,0,0,0,0,0,0,0,0,0,0,4,1,0,0
173455133,0.0,-0.00244499,0.438788,0.0,0.0,0.0,0.0,0.0,0.0,0.0,0.0,0,0,0,0,0,0,0,0,0,0,0,4,1,0,0
173637540,0.0,0.0,0.473939,0.0,0.0,0.0,0.0,0.0,0.0,0.0,0.0,0,0,0,0,0,0,0,0,0,0,0,4,1,0,0
173855456,0.0,-0.00488998,0.470303,0.0,0.0,0.0,0.0,0.0,0.0,0.0,0.0,0,0,0,0,0,0,0,0,0,0,0,4,1,0,0
174047922,0.0,0.0,0.475152,0.0,0.0,0.0,0.0,0.0,0.0,0.0,0.0,0,0,0,0,0,0,0,0,0,0,0,4,1,0,0
174258055,0.0,0.0,0.473939,0.0,0.0,0.0,0.0,0.0,0.0,0.0,0.0,0,0,0,0,0,0,0,0,0,0,0,4,1,0,0
174445930,0.0,-0.00244499,0.472727,0.0,0.0,0.0,0.0,0.0,0.0,0.0,0.0,0,0,0,0,0,0,0,0,0,0,0,4,1,0,0
174646068,0.0,-0.00244499,0.461818,0.0,0.0,0.0,0.0,0.0,0.0,0.0,0.0,0,0,0,0,0,0,0,0,0,0,0,4,1,0,0
174838512,0.0,0.0,0.473939,0.0,0.0,0.0,0.0,0.0,0.0,0.0,0.0,0,0,0,0,0,0,0,0,0,0,0,4,1,0,0
175038672,0.00496278,0.115,0.475152,0.0,0.0,0.0,0.0,0.0,0.0,0.0,0.0,0,0,0,0,0,0,0,0,0,0,0,4,1,0,0
175248991,0.116625,0.6025,0.472727,0.0,0.0,0.0,0.0,0.0,0.0,0.0,0.0,0,0,0,0,0,0,0,0,0,0,0,4,1,0,0
175446720,0.0,-0.119804,0.472727,0.0,0.0,0.0,0.0,0.0,0.0,0.0,0.0,0,0,0,0,0,0,0,0,0,0,0,4,1,0,0
175656904,0.0,-0.00244499,0.472727,0.0,0.0,0.0,0.0,0.0,0.0,0.0,0.0,0,0,0,0,0,0,0,0,0,0,0,4,1,0,0
175849200,0.129032,-0.0440098,0.473939,0.0,0.0,0.0,0.0,0.0,0.0,0.0,0.0,0,0,0,0,0,0,0,0,0,0,0,4,1,0,0
176039368,0.08933,-0.0488998,0.473939,0.0,0.0,0.0,0.0,0.0,0.0,0.0,0.0,0,0,0,0,0,0,0,0,0,0,0,4,1,0,0
176249612,0.0,0.0,0.472727,0.0,0.0,0.0,0.0,0.0,0.0,0.0,0.0,0,0,0,0,0,0,0,0,0,0,0,4,1,0,0
176439658,0.0,0.0,0.472727,0.0,0.0,0.0,0.0,0.0,0.0,0.0,0.0,0,0,0,0,0,0,0,0,0,0,0,4,1,0,0
176638476,0.0,0.0,0.473939,0.106965,0.0,0.0,0.0,0.0,0.0,0.0,0.0,0,0,0,0,0,0,0,0,0,0,0,4,1,0,0
176849962,0.0,-0.0195599,0.477576,0.0646766,0.0,0.0,0.0,0.0,0.0,0.0,0.0,0,0,0,0,0,0,0,0,0,0,0,4,1,0,0
177040096,0.0,-0.00488998,0.481212,0.079602,0.0,0.0,0.0,0.0,0.0,0.0,0.0,0,0,0,0,0,0,0,0,0,0,0,4,1,0,0
177238096,0.0,-0.00488998,0.481212,0.154229,0.0,0.0,0.0,0.0,0.0,0.0,0.0,0,0,0,0,0,0,0,0,0,0,0,4,1,0,0
177444235,0.0,-0.00488998,0.481212,0.146766,0.0,0.0,0.0,0.0,0.0,0.0,0.0,0,0,0,0,0,0,0,0,0,0,0,4,1,0,0
177646009,0.0,-0.00488998,0.481212,0.146766,0.0,0.0,0.0,0.0,0.0,0.0,0.0,0,0,0,0,0,0,0,0,0,0,0,4,1,0,0
177838455,0.0,-0.00977995,0.481212,0.139303,0.0,0.0,0.0,0.0,0.0,0.0,0.0,0,0,0,0,0,0,0,0,0,0,0,4,1,0,0
178051001,0.0,-0.0122249,0.48,0.114428,0.0,0.0,0.0,0.0,0.0,0.0,0.0,0,0,0,0,0,0,0,0,0,0,0,4,1,0,0
178241044,0.0918114,0.0425,0.478788,0.0,0.0,0.0,0.0,0.0,0.0,0.0,0.0,0,0,0,0,0,0,0,0,0,0,0,4,1,0,0
178438986,0.181141,0.1525,0.477576,0.0,0.0,0.0,0.0,0.0,0.0,0.0,0.0,0,0,0,0,0,0,0,0,0,0,0,4,1,0,0
178631427,0.0,-0.0146699,0.477576,0.0,0.0,0.0,0.0,0.0,0.0,0.0,0.0,0,0,0,0,0,0,0,0,0,0,0,4,1,0,0
178841435,0.156328,0.0,0.478788,0.0,0.0,0.0,0.0,0.0,0.0,0.0,0.0,0,0,0,0,0,0,0,0,0,0,0,4,1,0,0
179051712,0.173697,0.0,0.477576,0.0,0.0,0.0,0.0,0.0,0.0,0.0,0.0,0,0,0,0,0,0,0,0,0,0,0,4,1,0,0
179251838,0.131514,-0.00733496,0.469091,0.0,0.0,0.0,0.0,0.0,0.0,0.0,0.0,0,0,0,0,0,0,0,0,0,0,0,4,1,0,0
179441883,0.121588,0.0,0.476364,0.0,0.0,0.0,0.0,0.0,0.0,0.0,0.0,0,0,0,0,0,0,0,0,0,0,0,4,1,0,0
179649845,0.0322581,-0.0146699,0.476364,0.0,0.0,0.0,0.0,0.0,0.0,0.0,0.0,0,0,0,0,0,0,0,0,0,0,0,4,1,0,0
179836009,0.0,-0.0146699,0.476364,0.0,0.0,0.0,0.0,0.0,0.0,0.0,0.0,0,0,0,0,0,0,0,0,0,0,0,4,1,0,0
180056100,0.228288,0.1125,0.476364,0.0,0.0,0.0,0.0,0.0,0.0,0.0,0.0,0,0,0,0,0,0,0,0,0,0,0,4,1,0,0
180252602,0.275434,0.14,0.476364,0.0,0.0,0.0,0.0,0.0,0.0,0.0,0.0,0,0,0,0,0,0,0,0,0,0,0,4,1,0,0
180450435,0.0,-0.0146699,0.477576,0.0,0.0,0.0,0.0,0.0,0.0,0.0,0.0,0,0,0,0,0,0,0,0,0,0,0,4,1,0,0
180640576,0.0,-0.0171149,0.477576,0.0,0.0,0.0,0.0,0.0,0.0,0.0,0.0,0,0,0,0,0,0,0,0,0,0,0,4,1,0,0
180853032,0.0,-0.0171149,0.477576,0.0,0.0,0.0,0.0,0.0,0.0,0.0,0.0,0,0,0,0,0,0,0,0,0,0,0,4,1,0,0
181043190,0.0,0.0,0.475152,0.154229,0.0,0.0,0.0,0.0,0.0,0.0,0.0,0,0,0,0,0,0,0,0,0,0,0,4,1,0,0
181253303,0.0,-0.00733496,0.481212,0.243781,0.0,0.0,0.0,0.0,0.0,0.0,0.0,0,0,0,0,0,0,0,0,0,0,0,4,1,0,0
181447355,0.0,-0.00733496,0.481212,0.261194,0.0,0.0,0.0,0.0,0.0,0.0,0.0,0,0,0,0,0,0,0,0,0,0,0,4,1,0,0
181641362,0.0,-0.00244499,0.483636,0.268657,0.0,0.0,0.0,0.0,0.0,0.0,0.0,0,0,0,0,0,0,0,0,0,0,0,4,1,0,0
181851498,0.0,-0.00488998,0.482424,0.243781,0.0,0.0,0.0,0.0,0.0,0.0,0.0,0,0,0,0,0,0,0,0,0,0,0,4,1,0,0
182037700,0.0,-0.00733496,0.481212,0.261194,0.0,0.0,0.0,0.0,0.0,0.0,0.0,0,0,0,0,0,0,0,0,0,0,0,4,1,0,0
182251817,0.057072,0.3375,0.481212,0.0,0.0,0.0,0.0,0.0,0.0,0.0,0.0,0,0,0,0,0,0,0,0,0,0,0,4,1,0,0
182441947,0.0719603,0.3975,0.48,0.0,0.0,0.0,0.0,0.0,0.0,0.0,0.0,0,0,0,0,0,0,0,0,0,0,0,4,1,0,0
182644351,0.0,-0.00977995,0.48,0.0,0.0,0.0,0.0,0.0,0.0,0.0,0.0,0,0,0,0,0,0,0,0,0,0,0,4,1,0,0
182844523,0.0,0.0,0.48,0.0,0.0,0.0,0.0,0.0,0.0,0.0,0.0,0,0,0,0,0,0,0,0,0,0,0,4,1,0,0
183042415,0.0148883,0.0125,0.478788,0.0,0.0,0.0,0.0,0.0,0.0,0.0,0.0,0,0,0,0,0,0,0,0,0,0,0,4,1,0,0
183254861,0.0744417,0.08,0.478788,0.0,0.0,0.0,0.0,0.0,0.0,0.0,0.0,0,0,0,0,0,0,0,0,0,0,0,4,1,0,0
183454973,0.0,-0.00977995,0.48,0.0,0.0,0.0,0.0,0.0,0.0,0.0,0.0,0,0,0,0,0,0,0,0,0,0,0,4,1,0,0
183655113,0.0,-0.0146699,0.478788,0.0,0.0,0.0,0.0,0.0,0.0,0.0,0.0,0,0,0,0,0,0,0,0,0,0,0,4,1,0,0
183845250,0.0,-0.0122249,0.48,0.0,0.0,0.0,0.0,0.0,0.0,0.0,0.0,0,0,0,0,0,0,0,0,0,0,0,4,1,0,0
184045413,0.0645161,0.035,0.478788,0.0,0.0,0.0,0.0,0.0,0.0,0.0,0.0,0,0,0,0,0,0,0,0,0,0,0,4,1,0,0
184243312,0.0,-0.0146699,0.478788,0.0,0.0,0.0,0.0,0.0,0.0,0.0,0.0,0,0,0,0,0,0,0,0,0,0,0,4,1,0,0
184445797,0.0,-0.0122249,0.478788,0.0,0.0,0.0,0.0,0.0,0.0,0.0,0.0,0,0,0,0,0,0,0,0,0,0,0,4,1,0,0
184653735,0.0,-0.00733496,0.482424,0.0,0.0,0.0,0.0,0.0,0.0,0.0,0.0,0,0,0,0,0,0,0,0,0,0,0,4,1,0,0
184849733,0.0,-0.0122249,0.478788,0.151741,0.0,0.0,0.0,0.0,0.0,0.0,0.0,0,0,0,0,0,0,0,0,0,0,0,4,1,0,0
185046206,0.0,-0.00488998,0.483636,0.149254,0.0,0.0,0.0,0.0,0.0,0.0,0.0,0,0,0,0,0,0,0,0,0,0,0,4,1,0,0
185244065,0.0,-0.00977995,0.483636,0.251244,0.0,0.0,0.0,0.0,0.0,0.0,0.0,0,0,0,0,0,0,0,0,0,0,0,4,1,0,0
185446547,0.0,-0.00244499,0.486061,0.116915,0.0,0.0,0.0,0.0,0.0,0.0,0.0,0,0,0,0,0,0,0,0,0,0,0,4,1,0,0
185656712,0.0,-0.00244499,0.483636,0.0,0.0,0.0,0.0,0.0,0.0,0.0,0.0,0,0,0,0,0,0,0,0,0,0,0,4,1,0,0
185856785,0.119107,0.0,0.478788,0.0,0.0,0.0,0.0,0.0,0.0,0.0,0.0,0,0,0,0,0,0,0,0,0,0,0,4,1,0,0
186054704,0.0,-0.00488998,0.48,0.0,0.0,0.0,0.0,0.0,0.0,0.0,0.0,0,0,0,0,0,0,0,0,0,0,0,4,1,0,0
186247046,0.0,-0.00733496,0.482424,0.0,0.0,0.0,0.0,0.0,0.0,0.0,0.0,0,0,0,0,0,0,0,0,0,0,0,4,1,0,0
186447353,0.0818859,0.0825,0.481212,0.0,0.0,0.0,0.0,0.0,0.0,0.0,0.0,0,0,0,0,0,0,0,0,0,0,0,4,1,0,0
186657388,0.0,-0.00488998,0.482424,0.0,0.0,0.0,0.0,0.0,0.0,0.0,0.0,0,0,0,0,0,0,0,0,0,0,0,4,1,0,0
186847515,0.0,-0.00488998,0.481212,0.0,0.0,0.0,0.0,0.0,0.0,0.0,0.0,0,0,0,0,0,0,0,0,0,0,0,4,1,0,0
187045430,0.126551,0.03,0.482424,0.0,0.0,0.0,0.0,0.0,0.0,0.0,0.0,0,0,0,0,0,0,0,0,0,0,0,4,1,0,0
187237913,0.0,-0.00733496,0.482424,0.0,0.0,0.0,0.0,0.0,0.0,0.0,0.0,0,0,0,0,0,0,0,0,0,0,0,4,1,0,0
187448067,0.0,-0.00733496,0.482424,0.0,0.0,0.0,0.0,0.0,0.0,0.0,0.0,0,0,0,0,0,0,0,0,0,0,0,4,1,0,0
187648210,0.0,-0.00733496,0.481212,0.0,0.0,0.0,0.0,0.0,0.0,0.0,0.0,0,0,0,0,0,0,0,0,0,0,0,4,1,0,0
187838262,0.0,-0.00733496,0.481212,0.0,0.0,0.0,0.0,0.0,0.0,0.0,0.0,0,0,0,0,0,0,0,0,0,0,0,4,1,0,0
188058438,0.0,-0.00733496,0.481212,0.0,0.0,0.0,0.0,0.0,0.0,0.0,0.0,0,0,0,0,0,0,0,0,0,0,0,4,1,0,0
188248846,0.0,-0.00733496,0.482424,0.0,0.0,0.0,0.0,0.0,0.0,0.0,0.0,0,0,0,0,0,0,0,0,0,0,0,4,1,0,0
188449059,0.0,-0.00977995,0.482424,0.0,0.0,0.0,0.0,0.0,0.0,0.0,0.0,0,0,0,0,0,0,0,0,0,0,0,4,1,0,0
188656649,0.0,-0.00733496,0.482424,0.0,0.0,0.0,0.0,0.0,0.0,0.0,0.0,0,0,0,0,0,0,0,0,0,0,0,4,1,0,0
188846898,0.0595534,0.1225,0.481212,0.0,0.0,0.0,0.0,0.0,0.0,0.0,0.0,0,0,0,0,0,0,0,0,0,0,0,4,1,0,0
189052907,0.0,-0.00733496,0.481212,0.0,0.0,0.0,0.0,0.0,0.0,0.0,0.0,0,0,0,0,0,0,0,0,0,0,0,4,1,0,0
189247206,0.0,-0.00977995,0.481212,0.0,0.0,0.0,0.0,0.0,0.0,0.0,0.0,0,0,0,0,0,0,0,0,0,0,0,4,1,0,0
189437333,0.0,-0.0122249,0.481212,0.0,0.0,0.0,0.0,0.0,0.0,0.0,0.0,0,0,0,0,0,0,0,0,0,0,0,4,1,0,0
189649639,0.0,-0.312958,0.481212,0.0,0.0,0.0,0.0,0.0,0.0,0.0,0.0,0,0,0,0,0,0,0,0,0,0,0,4,1,0,0
189839774,0.0,-0.256724,0.481212,0.0,0.0,0.0,0.0,0.0,0.0,0.0,0.0,0,0,0,0,0,0,0,0,0,0,0,4,1,0,0
190049936,0.0,-0.00977995,0.481212,0.0,0.0,0.0,0.0,0.0,0.0,0.0,0.0,0,0,0,0,0,0,0,0,0,0,0,4,1,0,0
190247909,0.0,-0.00977995,0.481212,0.0,0.0,0.0,0.0,0.0,0.0,0.0,0.0,0,0,0,0,0,0,0,0,0,0,0,4,1,0,0
190454082,0.0,-0.0171149,0.477576,0.0,0.0,0.0,0.0,0.0,0.0,0.0,0.0,0,0,0,0,0,0,0,0,0,0,0,4,1,0,0
190648157,0.0,-0.00733496,0.48,-0.00243309,0.0,0.0,0.0,0.0,0.0,0.0,0.0,0,0,0,0,0,0,0,0,0,0,0,4,1,0,0
190854309,0.0,-0.00733496,0.481212,-0.0973236,0.0,0.0,0.0,0.0,0.0,0.0,0.0,0,0,0,0,0,0,0,0,0,0,0,4,1,0,0
191048464,0.0,-0.00977995,0.481212,-0.19708,0.0,0.0,0.0,0.0,0.0,0.0,0.0,0,0,0,0,0,0,0,0,0,0,0,4,1,0,0
191250843,0.0,-0.00733496,0.481212,-0.257908,0.0,0.0,0.0,0.0,0.0,0.0,0.0,0,0,0,0,0,0,0,0,0,0,0,4,1,0,0
191441096,0.0,-0.00977995,0.481212,-0.29927,0.0,0.0,0.0,0.0,0.0,0.0,0.0,0,0,0,0,0,0,0,0,0,0,0,4,1,0,0
191654981,0.0,-0.105134,0.481212,-0.282238,0.0,0.0,0.0,0.0,0.0,0.0,0.0,0,0,0,0,0,0,0,0,0,0,0,4,1,0,0
191831280,0.0,-0.227384,0.481212,-0.255474,0.0,0.0,0.0,0.0,0.0,0.0,0.0,0,0,0,0,0,0,0,0,0,0,0,4,1,0,0
192045160,0.0,-0.288509,0.481212,-0.22871,0.0,0.0,0.0,0.0,0.0,0.0,0.0,0,0,0,0,0,0,0,0,0,0,0,4,1,0,0
192251631,0.0,-0.00733496,0.482424,-0.206813,0.0,0.0,0.0,0.0,0.0,0.0,0.0,0,0,0,0,0,0,0,0,0,0,0,4,1,0,0
192441755,0.0,-0.0122249,0.48,-0.211679,0.0,0.0,0.0,0.0,0.0,0.0,0.0,0,0,0,0,0,0,0,0,0,0,0,4,1,0,0
192655705,0.0223325,-0.180929,0.484848,-0.177616,0.0,0.0,0.0,0.0,0.0,0.0,0.0,0,0,0,0,0,0,0,0,0,0,0,4,1,0,0
192842062,0.0669975,-0.119804,0.481212,-0.170316,0.0,0.0,0.0,0.0,0.0,0.0,0.0,0,0,0,0,0,0,0,0,0,0,0,4,1,0,0
193052316,0.0,-0.00733496,0.481212,-0.20438,0.0,0.0,0.0,0.0,0.0,0.0,0.0,0,0,0,0,0,0,0,0,0,0,0,4,1,0,0
193246053,0.0,-0.158924,0.48,-0.182482,0.0,0.0,0.0,0.0,0.0,0.0,0.0,0,0,0,0,0,0,0,0,0,0,0,4,1,0,0
193452628,0.0,-0.127139,0.48,-0.192214,0.0,0.0,0.0,0.0,0.0,0.0,0.0,0,0,0,0,0,0,0,0,0,0,0,4,1,0,0
193652674,0.0,-0.00733496,0.481212,-0.184915,0.0,0.0,0.0,0.0,0.0,0.0,0.0,0,0,0,0,0,0,0,0,0,0,0,4,1,0,0
193842820,0.0,-0.0366748,0.481212,-0.104623,0.0,0.0,0.0,0.0,0.0,0.0,0.0,0,0,0,0,0,0,0,0,0,0,0,4,1,0,0
194040869,0.0,-0.259169,0.478788,-0.13382,0.0,0.0,0.0,0.0,0.0,0.0,0.0,0,0,0,0,0,0,0,0,0,0,0,4,1,0,0
194256852,0.0,-0.0122249,0.478788,-0.128954,0.0,0.0,0.0,0.0,0.0,0.0,0.0,0,0,0,0,0,0,0,0,0,0,0,4,1,0,0
194451046,0.08933,-0.259169,0.478788,-0.10219,0.0,0.0,0.0,0.0,0.0,0.0,0.0,0,0,0,0,0,0,0,0,0,0,0,4,1,0,0
194641186,0.0,-0.00977995,0.481212,-0.160584,0.0,0.0,0.0,0.0,0.0,0.0,0.0,0,0,0,0,0,0,0,0,0,0,0,4,1,0,0
194853621,0.0,-0.00977995,0.481212,-0.194647,0.0,0.0,0.0,0.0,0.0,0.0,0.0,0,0,0,0,0,0,0,0,0,0,0,4,1,0,0
195051519,0.0,-0.00733496,0.481212,-0.0973236,0.0,0.0,0.0,0.0,0.0,0.0,0.0,0,0,0,0,0,0,0,0,0,0,0,4,1,0,0
195247563,0.0,0.0,0.484848,0.0,0.0,0.0,0.0,0.0,0.0,0.0,0.0,0,0,0,0,0,0,0,0,0,0,0,4,1,0,0
195441793,0.176179,0.075,0.484848,0.0,0.0,0.0,0.0,0.0,0.0,0.0,0.0,0,0,0,0,0,0,0,0,0,0,0,4,1,0,0
195651956,0.245658,0.0,0.478788,0.0,0.0,0.0,0.0,0.0,0.0,0.0,0.0,0,0,0,0,0,0,0,0,0,0,0,4,1,0,0
195844345,0.0,-0.00244499,0.483636,0.0,0.0,0.0,0.0,0.0,0.0,0.0,0.0,0,0,0,0,0,0,0,0,0,0,0,4,1,0,0
196054657,0.0843672,0.0125,0.483636,0.0,0.0,0.0,0.0,0.0,0.0,0.0,0.0,0,0,0,0,0,0,0,0,0,0,0,4,1,0,0
196252418,0.0,-0.00488998,0.484848,0.0,0.0,0.0,0.0,0.0,0.0,0.0,0.0,0,0,0,0,0,0,0,0,0,0,0,4,1,0,0
196442552,0.0,-0.00488998,0.484848,0.0,0.0,0.0,0.0,0.0,0.0,0.0,0.0,0,0,0,0,0,0,0,0,0,0,0,4,1,0,0
196654947,0.0,-0.00488998,0.483636,0.0,0.0,0.0,0.0,0.0,0.0,0.0,0.0,0,0,0,0,0,0,0,0,0,0,0,4,1,0,0
196845089,0.0,0.1075,0.484848,0.0,0.0,0.0,0.0,0.0,0.0,0.0,0.0,0,0,0,0,0,0,0,0,0,0,0,4,1,0,0
197043007,0.0,0.2625,0.484848,0.0,0.0,0.0,0.0,0.0,0.0,0.0,0.0,0,0,0,0,0,0,0,0,0,0,0,4,1,0,0
197253167,0.0,-0.0146699,0.483636,0.0,0.0,0.0,0.0,0.0,0.0,0.0,0.0,0,0,0,0,0,0,0,0,0,0,0,4,1,0,0
197445578,0.0,-0.00733496,0.483636,0.0,0.0,0.0,0.0,0.0,0.0,0.0,0.0,0,0,0,0,0,0,0,0,0,0,0,4,1,0,0
197639493,0.0,-0.00244499,0.484848,0.0,0.0,0.0,0.0,0.0,0.0,0.0,0.0,0,0,0,0,0,0,0,0,0,0,0,4,1,0,0
197853625,0.0,-0.0146699,0.481212,0.0,0.0,0.0,0.0,0.0,0.0,0.0,0.0,0,0,0,0,0,0,0,0,0,0,0,4,1,0,0
198036146,0.0,-0.00977995,0.482424,-0.0729927,0.0,0.0,0.0,0.0,0.0,0.0,0.0,0,0,0,0,0,0,0,0,0,0,0,4,1,0,0
198256143,0.0,-0.00733496,0.482424,-0.20438,0.0,0.0,0.0,0.0,0.0,0.0,0.0,0,0,0,0,0,0,0,0,0,0,0,4,1,0,0
198446295,0.0,-0.00244499,0.449697,-0.265207,0.0,0.0,0.0,0.0,0.0,0.0,0.0,0,0,0,0,0,0,0,0,0,0,0,4,1,0,0
198644245,0.0,-0.00244499,0.460606,-0.231144,0.0,0.0,0.0,0.0,0.0,0.0,0.0,0,0,0,0,0,0,0,0,0,0,0,4,1,0,0
198836599,0.0,-0.00244499,0.461818,0.0,0.0,0.0,0.0,0.0,0.0,0.0,0.0,0,0,0,0,0,0,0,0,0,0,0,4,1,0,0
199056769,0.0942928,0.1475,0.464242,0.0,0.0,0.0,0.0,0.0,0.0,0.0,0.0,0,0,0,0,0,0,0,0,0,0,0,4,1,0,0
199246906,0.0992556,0.0825,0.464242,0.0,0.0,0.0,0.0,0.0,0.0,0.0,0.0,0,0,0,0,0,0,0,0,0,0,0,4,1,0,0
199440744,0.0,-0.00244499,0.461818,0.0,0.0,0.0,0.0,0.0,0.0,0.0,0.0,0,0,0,0,0,0,0,0,0,0,0,4,1,0,0
199654998,0.0,-0.00244499,0.460606,0.0,0.0,0.0,0.0,0.0,0.0,0.0,0.0,0,0,0,0,0,0,0,0,0,0,0,4,1,0,0
199837477,0.0,-0.00244499,0.461818,0.0,0.0,0.0,0.0,0.0,0.0,0.0,0.0,0,0,0,0,0,0,0,0,0,0,0,4,1,0,0
200055302,0.0,-0.00244499,0.461818,0.0,0.0,0.0,0.0,0.0,0.0,0.0,0.0,0,0,0,0,0,0,0,0,0,0,0,4,1,0,0
200251366,0.0,-0.00244499,0.461818,0.0,0.0,0.0,0.0,0.0,0.0,0.0,0.0,0,0,0,0,0,0,0,0,0,0,0,4,1,0,0
200455685,0.0,-0.00244499,0.460606,0.0,0.0,0.0,0.0,0.0,0.0,0.0,0.0,0,0,0,0,0,0,0,0,0,0,0,4,1,0,0
200645741,0.0,-0.00244499,0.461818,0.0,0.0,0.0,0.0,0.0,0.0,0.0,0.0,0,0,0,0,0,0,0,0,0,0,0,4,1,0,0
200858151,0.0,-0.00244499,0.460606,0.0,0.0,0.0,0.0,0.0,0.0,0.0,0.0,0,0,0,0,0,0,0,0,0,0,0,4,1,0,0
201051976,0.0,0.0,0.465455,0.0,0.0,0.0,0.0,0.0,0.0,0.0,0.0,0,0,0,0,0,0,0,0,0,0,0,4,1,0,0
201242230,0.0,0.0,0.464242,0.0,0.0,0.0,0.0,0.0,0.0,0.0,0.0,0,0,0,0,0,0,0,0,0,0,0,4,1,0,0
201452452,0.0,-0.00488998,0.461818,0.0,0.0,0.0,0.0,0.0,0.0,0.0,0.0,0,0,0,0,0,0,0,0,0,0,0,4,1,0,0
201648816,0.0,0.1175,0.467879,0.0,0.0,0.0,0.0,0.0,0.0,0.0,0.0,0,0,0,0,0,0,0,0,0,0,0,4,1,0,0
201846651,0.0,0.1775,0.465455,0.0,0.0,0.0,0.0,0.0,0.0,0.0,0.0,0,0,0,0,0,0,0,0,0,0,0,4,1,0,0
202042721,0.0,0.2525,0.464242,0.0,0.0,0.0,0.0,0.0,0.0,0.0,0.0,0,0,0,0,0,0,0,0,0,0,0,4,1,0,0
202256977,0.0,0.0725,0.465455,0.0,0.0,0.0,0.0,0.0,0.0,0.0,0.0,0,0,0,0,0,0,0,0,0,0,0,4,1,0,0
202447107,0.0,-0.00488998,0.461818,0.0,0.0,0.0,0.0,0.0,0.0,0.0,0.0,0,0,0,0,0,0,0,0,0,0,0,4,1,0,0
202639487,0.0,0.0,0.461818,0.0,0.0,0.0,0.0,0.0,0.0,0.0,0.0,0,0,0,0,0,0,0,0,0,0,0,4,1,0,0
202839665,-0.209476,-0.00488998,0.459394,0.0,0.0,0.0,0.0,0.0,0.0,0.0,0.0,0,0,0,0,0,0,0,0,0,0,0,4,1,0,0
203049820,0.0,-0.00244499,0.461818,0.0,0.0,0.0,0.0,0.0,0.0,0.0,0.0,0,0,0,0,0,0,0,0,0,0,0,4,1,0,0
203239937,0.0,-0.00244499,0.461818,0.0,0.0,0.0,0.0,0.0,0.0,0.0,0.0,0,0,0,0,0,0,0,0,0,0,0,4,1,0,0
203447908,0.0,-0.00244499,0.461818,0.0,0.0,0.0,0.0,0.0,0.0,0.0,0.0,0,0,0,0,0,0,0,0,0,0,0,4,1,0,0
203658090,0.0595534,0.0,0.461818,0.0,0.0,0.0,0.0,0.0,0.0,0.0,0.0,0,0,0,0,0,0,0,0,0,0,0,4,1,0,0
203848173,0.104218,0.08,0.461818,0.0,0.0,0.0,0.0,0.0,0.0,0.0,0.0,0,0,0,0,0,0,0,0,0,0,0,4,1,0,0
204049330,0.0694789,0.1175,0.461818,0.0,0.0,0.0,0.0,0.0,0.0,0.0,0.0,0,0,0,0,0,0,0,0,0,0,0,4,1,0,0
204240752,0.0,-0.00244499,0.459394,0.0,0.0,0.0,0.0,0.0,0.0,0.0,0.0,0,0,0,0,0,0,0,0,0,0,0,4,1,0,0
204448732,0.0,-0.00244499,0.460606,0.0,0.0,0.0,0.0,0.0,0.0,0.0,0.0,0,0,0,0,0,0,0,0,0,0,0,4,1,0,0
204641009,0.0,-0.00244499,0.460606,0.0,0.0,0.0,0.0,0.0,0.0,0.0,0.0,0,0,0,0,0,0,0,0,0,0,0,4,1,0,0
204855069,0.0,-0.00244499,0.461818,0.0,0.0,0.0,0.0,0.0,0.0,0.0,0.0,0,0,0,0,0,0,0,0,0,0,0,4,1,0,0
205045034,0.0,0.0,0.46303,0.0,0.0,0.0,0.0,0.0,0.0,0.0,0.0,0,0,0,0,0,0,0,0,0,0,0,4,1,0,0
205239228,0.0,0.0,0.460606,0.0,0.0,0.0,0.0,0.0,0.0,0.0,0.0,0,0,0,0,0,0,0,0,0,0,0,4,1,0,0
205451636,0.0,0.0,0.461818,0.0,0.0,0.0,0.0,0.0,0.0,0.0,0.0,0,0,0,0,0,0,0,0,0,0,0,4,1,0,0
205641761,0.0,-0.00244499,0.460606,0.0,0.0,0.0,0.0,0.0,0.0,0.0,0.0,0,0,0,0,0,0,0,0,0,0,0,4,1,0,0
205849693,0.0,-0.00488998,0.461818,0.0,0.0,0.0,0.0,0.0,0.0,0.0,0.0,0,0,0,0,0,0,0,0,0,0,0,4,1,0,0
206042171,0.0,-0.00244499,0.460606,0.0,0.0,0.0,0.0,0.0,0.0,0.0,0.0,0,0,0,0,0,0,0,0,0,0,0,4,1,0,0
206240094,0.0,0.0,0.46303,0.0,0.0,0.0,0.0,0.0,0.0,0.0,0.0,0,0,0,0,0,0,0,0,0,0,0,4,1,0,0
206442374,-0.032419,0.3825,0.461818,0.0,0.0,0.0,0.0,0.0,0.0,0.0,0.0,0,0,0,0,0,0,0,0,0,0,0,4,1,0,0
206650303,0.0,0.3275,0.461818,0.0,0.0,0.0,0.0,0.0,0.0,0.0,0.0,0,0,0,0,0,0,0,0,0,0,0,4,1,0,0
206840439,0.0,0.0,0.465455,0.0,0.0,0.0,0.0,0.0,0.0,0.0,0.0,0,0,0,0,0,0,0,0,0,0,0,4,1,0,0
207036568,0.0,-0.00488998,0.459394,0.0,0.0,0.0,0.0,0.0,0.0,0.0,0.0,0,0,0,0,0,0,0,0,0,0,0,4,1,0,0
207242999,0.0,-0.00488998,0.459394,0.0,0.0,0.0,0.0,0.0,0.0,0.0,0.0,0,0,0,0,0,0,0,0,0,0,0,4,1,0,0
207451013,0.0,-0.00244499,0.460606,0.0,0.0,0.0,0.0,0.0,0.0,0.0,0.0,0,0,0,0,0,0,0,0,0,0,0,4,1,0,0
207643305,0.0,-0.00244499,0.461818,0.0,0.0,0.0,0.0,0.0,0.0,0.0,0.0,0,0,0,0,0,0,0,0,0,0,0,4,1,0,0
207837338,0.0,0.0,0.461818,0.0,0.0,0.0,0.0,0.0,0.0,0.0,0.0,0,0,0,0,0,0,0,0,0,0,0,4,1,0,0
208043584,0.0,-0.0195599,0.473939,0.0,0.0,0.0,0.0,0.0,0.0,0.0,0.0,0,0,0,0,0,0,0,0,0,0,0,4,1,0,0
208241507,0.0,0.0,0.472727,0.0,0.0,0.0,0.0,0.0,0.0,0.0,0.0,0,0,0,0,0,0,0,0,0,0,0,4,1,0,0
208437683,0.0,0.0,0.472727,0.0,0.0,0.0,0.0,0.0,0.0,0.0,0.0,0,0,0,0,0,0,0,0,0,0,0,4,1,0,0
208647766,0.0,0.0,0.472727,0.0,0.0,0.0,0.0,0.0,0.0,0.0,0.0,0,0,0,0,0,0,0,0,0,0,0,4,1,0,0
208847536,0.0,-0.00244499,0.472727,0.0,0.0,0.0,0.0,0.0,0.0,0.0,0.0,0,0,0,0,0,0,0,0,0,0,0,4,1,0,0
209044537,0.0,0.24,0.472727,0.0,0.0,0.0,0.0,0.0,0.0,0.0,0.0,0,0,0,0,0,0,0,0,0,0,0,4,1,0,0
209257921,-0.032419,0.335,0.472727,0.0,0.0,0.0,0.0,0.0,0.0,0.0,0.0,0,0,0,0,0,0,0,0,0,0,0,4,1,0,0
209444657,0.0,0.305,0.473939,0.0,0.0,0.0,0.0,0.0,0.0,0.0,0.0,0,0,0,0,0,0,0,0,0,0,0,4,1,0,0
209654844,0.0,0.0,0.472727,0.0,0.0,0.0,0.0,0.0,0.0,0.0,0.0,0,0,0,0,0,0,0,0,0,0,0,4,1,0,0
209848640,0.0,0.0,0.472727,0.0,0.0,0.0,0.0,0.0,0.0,0.0,0.0,0,0,0,0,0,0,0,0,0,0,0,4,1,0,0
210038441,0.0,0.0,0.473939,0.0,0.0,0.0,0.0,0.0,0.0,0.0,0.0,0,0,0,0,0,0,0,0,0,0,0,4,1,0,0
210253085,0.0,0.0,0.472727,0.0,0.0,0.0,0.0,0.0,0.0,0.0,0.0,0,0,0,0,0,0,0,0,0,0,0,4,1,0,0
210443188,0.0,0.0,0.472727,0.0,0.0,0.0,0.0,0.0,0.0,0.0,0.0,0,0,0,0,0,0,0,0,0,0,0,4,1,0,0
210653343,0.0868486,0.0,0.473939,0.0,0.0,0.0,0.0,0.0,0.0,0.0,0.0,0,0,0,0,0,0,0,0,0,0,0,4,1,0,0
210845732,0.0545906,0.0,0.472727,0.0,0.0,0.0,0.0,0.0,0.0,0.0,0.0,0,0,0,0,0,0,0,0,0,0,0,4,1,0,0
211039820,0.0,-0.00244499,0.472727,0.0,0.0,0.0,0.0,0.0,0.0,0.0,0.0,0,0,0,0,0,0,0,0,0,0,0,4,1,0,0
211236047,0.0,0.0,0.472727,0.0,0.0,0.0,0.0,0.0,0.0,0.0,0.0,0,0,0,0,0,0,0,0,0,0,0,4,1,0,0
211456217,0.0,0.0,0.472727,0.0,0.0,0.0,0.0,0.0,0.0,0.0,0.0,0,0,0,0,0,0,0,0,0,0,0,4,1,0,0
211646444,0.0,0.0,0.472727,0.0,0.0,0.0,0.0,0.0,0.0,0.0,0.0,0,0,0,0,0,0,0,0,0,0,0,4,1,0,0
211844292,0.0,0.0,0.472727,0.0,0.0,0.0,0.0,0.0,0.0,0.0,0.0,0,0,0,0,0,0,0,0,0,0,0,4,1,0,0
212056654,0.0,0.225,0.472727,0.0,0.0,0.0,0.0,0.0,0.0,0.0,0.0,0,0,0,0,0,0,0,0,0,0,0,4,1,0,0
212246908,0.0,0.0,0.472727,0.0,0.0,0.0,0.0,0.0,0.0,0.0,0.0,0,0,0,0,0,0,0,0,0,0,0,4,1,0,0
212444697,0.0,-0.00244499,0.472727,0.0,0.0,0.0,0.0,0.0,0.0,0.0,0.0,0,0,0,0,0,0,0,0,0,0,0,4,1,0,0
212637167,0.0,0.0,0.472727,0.0,0.0,0.0,0.0,0.0,0.0,0.0,0.0,0,0,0,0,0,0,0,0,0,0,0,4,1,0,0
212837219,0.0,0.0,0.472727,0.0,0.0,0.0,0.0,0.0,0.0,0.0,0.0,0,0,0,0,0,0,0,0,0,0,0,4,1,0,0
213047378,0.0,0.1225,0.472727,0.0,0.0,0.0,0.0,0.0,0.0,0.0,0.0,0,0,0,0,0,0,0,0,0,0,0,4,1,0,0
213247555,0.0,0.29,0.472727,0.0,0.0,0.0,0.0,0.0,0.0,0.0,0.0,0,0,0,0,0,0,0,0,0,0,0,4,1,0,0
213437680,0.0,0.0,0.477576,0.0,0.0,0.0,0.0,0.0,0.0,0.0,0.0,0,0,0,0,0,0,0,0,0,0,0,4,1,0,0
213638026,0.0,0.0,0.472727,0.0,0.0,0.0,0.0,0.0,0.0,0.0,0.0,0,0,0,0,0,0,0,0,0,0,0,4,1,0,0
213848073,0.0,-0.00244499,0.472727,0.0,0.0,0.0,0.0,0.0,0.0,0.0,0.0,0,0,0,0,0,0,0,0,0,0,0,4,1,0,0
214038257,0.0,0.0,0.472727,0.0,0.0,0.0,0.0,0.0,0.0,0.0,0.0,0,0,0,0,0,0,0,0,0,0,0,4,1,0,0
214252140,0.0,0.0,0.472727,0.0,0.0,0.0,0.0,0.0,0.0,0.0,0.0,0,0,0,0,0,0,0,0,0,0,0,4,1,0,0
214448461,0.0,0.0,0.472727,0.0,0.0,0.0,0.0,0.0,0.0,0.0,0.0,0,0,0,0,0,0,0,0,0,0,0,4,1,0,0
214648728,0.0,-0.00244499,0.472727,0.0,0.0,0.0,0.0,0.0,0.0,0.0,0.0,0,0,0,0,0,0,0,0,0,0,0,4,1,0,0
214856629,0.0,0.0,0.472727,0.0,0.0,0.0,0.0,0.0,0.0,0.0,0.0,0,0,0,0,0,0,0,0,0,0,0,4,1,0,0
215056745,0.0,0.0,0.472727,0.0,0.0,0.0,0.0,0.0,0.0,0.0,0.0,0,0,0,0,0,0,0,0,0,0,0,4,1,0,0
215247408,0.0,0.0,0.472727,0.0,0.0,0.0,0.0,0.0,0.0,0.0,0.0,0,0,0,0,0,0,0,0,0,0,0,4,1,0,0
215449230,0.0,-0.00244499,0.472727,0.0,0.0,0.0,0.0,0.0,0.0,0.0,0.0,0,0,0,0,0,0,0,0,0,0,0,4,1,0,0
215643183,0.0,0.0,0.472727,0.0,0.0,0.0,0.0,0.0,0.0,0.0,0.0,0,0,0,0,0,0,0,0,0,0,0,4,1,0,0
215847382,0.0,0.075,0.472727,0.0,0.0,0.0,0.0,0.0,0.0,0.0,0.0,0,0,0,0,0,0,0,0,0,0,0,4,1,0,0
216049671,0.0,0.2925,0.472727,0.0,0.0,0.0,0.0,0.0,0.0,0.0,0.0,0,0,0,0,0,0,0,0,0,0,0,4,1,0,0
216233501,0.0,0.29,0.472727,0.0,0.0,0.0,0.0,0.0,0.0,0.0,0.0,0,0,0,0,0,0,0,0,0,0,0,4,1,0,0
216439956,0.0,0.0,0.472727,0.0,0.0,0.0,0.0,0.0,0.0,0.0,0.0,0,0,0,0,0,0,0,0,0,0,0,4,1,0,0
216650125,0.0,0.0,0.472727,0.0,0.0,0.0,0.0,0.0,0.0,0.0,0.0,0,0,0,0,0,0,0,0,0,0,0,4,1,0,0
216840399,0.0,0.0,0.472727,0.0,0.0,0.0,0.0,0.0,0.0,0.0,0.0,0,0,0,0,0,0,0,0,0,0,0,4,1,0,0
217050444,0.0,-0.0831296,0.472727,0.0,0.0,0.0,0.0,0.0,0.0,0.0,0.0,0,0,0,0,0,0,0,0,0,0,0,4,1,0,0
217248390,0.0,0.0,0.472727,0.0,0.0,0.0,0.0,0.0,0.0,0.0,0.0,0,0,0,0,0,0,0,0,0,0,0,4,1,0,0
217448512,0.0,0.0,0.472727,0.0,0.0,0.0,0.0,0.0,0.0,0.0,0.0,0,0,0,0,0,0,0,0,0,0,0,4,1,0,0
217640879,0.0,0.0,0.472727,0.0,0.0,0.0,0.0,0.0,0.0,0.0,0.0,0,0,0,0,0,0,0,0,0,0,0,4,1,0,0
217854926,0.0,-0.0122249,0.478788,-0.148418,0.0,0.0,0.0,0.0,0.0,0.0,0.0,0,0,0,0,0,0,0,0,0,0,0,4,1,0,0
218044881,0.0,-0.00977995,0.481212,-0.211679,0.0,0.0,0.0,0.0,0.0,0.0,0.0,0,0,0,0,0,0,0,0,0,0,0,4,1,0,0
218251364,0.0,-0.0146699,0.477576,-0.182482,0.0,0.0,0.0,0.0,0.0,0.0,0.0,0,0,0,0,0,0,0,0,0,0,0,4,1,0,0
218455196,0.0,-0.00733496,0.477576,-0.279805,0.0,0.0,0.0,0.0,0.0,0.0,0.0,0,0,0,0,0,0,0,0,0,0,0,4,1,0,0
218649421,0.0,-0.00977995,0.48,-0.36983,0.0,0.0,0.0,0.0,0.0,0.0,0.0,0,0,0,0,0,0,0,0,0,0,0,4,1,0,0
218849573,0.0,-0.0146699,0.476364,-0.442822,0.0,0.0,0.0,0.0,0.0,0.0,0.0,0,0,0,0,0,0,0,0,0,0,0,4,1,0,0
219045782,0.0,-0.00244499,0.461818,-0.472019,0.0,0.0,0.0,0.0,0.0,0.0,0.0,0,0,0,0,0,0,0,0,0,0,0,4,1,0,0
219252101,0.0,-0.00244499,0.471515,-0.46472,0.0,0.0,0.0,0.0,0.0,0.0,0.0,0,0,0,0,0,0,0,0,0,0,0,4,1,0,0
219442250,0.0,-0.00244499,0.461818,-0.481752,0.0,0.0,0.0,0.0,0.0,0.0,0.0,0,0,0,0,0,0,0,0,0,0,0,4,1,0,0
219652407,0.0,-0.00244499,0.471515,-0.49635,0.0,0.0,0.0,0.0,0.0,0.0,0.0,0,0,0,0,0,0,0,0,0,0,0,4,1,0,0
219852602,0.0,-0.0195599,0.46303,-0.469586,0.0,0.0,0.0,0.0,0.0,0.0,0.0,0,0,0,0,0,0,0,0,0,0,0,4,1,0,0
220056483,0.0,-0.00488998,0.471515,-0.454988,0.0,0.0,0.0,0.0,0.0,0.0,0.0,0,0,0,0,0,0,0,0,0,0,0,4,1,0,0
220242869,0.0,-0.00733496,0.471515,-0.394161,0.0,0.0,0.0,0.0,0.0,0.0,0.0,0,0,0,0,0,0,0,0,0,0,0,4,1,0,0
220436738,0.0,-0.332518,0.454545,0.0,0.0,0.0,0.0,0.0,0.0,0.0,0.0,0,0,0,0,0,0,0,0,0,0,0,4,1,0,0
220650958,0.0,-0.227384,0.454545,0.0,0.0,0.0,0.0,0.0,0.0,0.0,0.0,0,0,0,0,0,0,0,0,0,0,0,4,1,0,0
220841098,0.0,-0.00244499,0.461818,0.0,0.0,0.0,0.0,0.0,0.0,0.0,0.0,0,0,0,0,0,0,0,0,0,0,0,4,1,0,0
221053601,0.0,-0.100244,0.454545,0.0,0.0,0.0,0.0,0.0,0.0,0.0,0.0,0,0,0,0,0,0,0,0,0,0,0,4,1,0,0
221251440,0.121588,-0.124694,0.461818,0.0,0.0,0.0,0.0,0.0,0.0,0.0,0.0,0,0,0,0,0,0,0,0,0,0,0,4,1,0,0
221453801,0.126551,-0.107579,0.461818,0.0,0.0,0.0,0.0,0.0,0.0,0.0,0.0,0,0,0,0,0,0,0,0,0,0,0,4,1,0,0
221643921,0.129032,-0.100244,0.460606,0.0,0.0,0.0,0.0,0.0,0.0,0.0,0.0,0,0,0,0,0,0,0,0,0,0,0,4,1,0,0
221857517,0.129032,-0.0977995,0.461818,0.0,0.0,0.0,0.0,0.0,0.0,0.0,0.0,0,0,0,0,0,0,0,0,0,0,0,4,1,0,0
222052017,0.0,-0.0488998,0.461818,0.0,0.0,0.0,0.0,0.0,0.0,0.0,0.0,0,0,0,0,0,0,0,0,0,0,0,4,1,0,0
222254442,0.0,-0.00488998,0.460606,0.0,0.0,0.0,0.0,0.0,0.0,0.0,0.0,0,0,0,0,0,0,0,0,0,0,0,4,1,0,0
222444619,0.0,-0.00244499,0.460606,0.0,0.0,0.0,0.0,0.0,0.0,0.0,0.0,0,0,0,0,0,0,0,0,0,0,0,4,1,0,0
222644707,0.0,-0.0171149,0.453333,0.0,0.0,0.0,0.0,0.0,0.0,0.0,0.0,0,0,0,0,0,0,0,0,0,0,0,4,1,0,0
222854864,0.0669975,-0.00244499,0.461818,0.0,0.0,0.0,0.0,0.0,0.0,0.0,0.0,0,0,0,0,0,0,0,0,0,0,0,4,1,0,0
223058775,0.0,-0.00244499,0.461818,0.0,0.0,0.0,0.0,0.0,0.0,0.0,0.0,0,0,0,0,0,0,0,0,0,0,0,4,1,0,0
223248861,0.0769231,0.0,0.461818,0.0,0.0,0.0,0.0,0.0,0.0,0.0,0.0,0,0,0,0,0,0,0,0,0,0,0,4,1,0,0
223445347,0.0942928,-0.00488998,0.460606,0.0,0.0,0.0,0.0,0.0,0.0,0.0,0.0,0,0,0,0,0,0,0,0,0,0,0,4,1,0,0
223655573,0.0,-0.00244499,0.459394,0.0,0.0,0.0,0.0,0.0,0.0,0.0,0.0,0,0,0,0,0,0,0,0,0,0,0,4,1,0,0
223839437,0.0,-0.00244499,0.461818,0.0,0.0,0.0,0.0,0.0,0.0,0.0,0.0,0,0,0,0,0,0,0,0,0,0,0,4,1,0,0
224039466,0.0,-0.00244499,0.461818,0.0,0.0,0.0,0.0,0.0,0.0,0.0,0.0,0,0,0,0,0,0,0,0,0,0,0,4,1,0,0
224253938,0.0,-0.00244499,0.461818,0.0,0.0,0.0,0.0,0.0,0.0,0.0,0.0,0,0,0,0,0,0,0,0,0,0,0,4,1,0,0
224453865,0.0,-0.0366748,0.454545,0.0,0.0,0.0,0.0,0.0,0.0,0.0,0.0,0,0,0,0,0,0,0,0,0,0,0,4,1,0,0
224654025,0.0,-0.0684597,0.454545,0.0,0.0,0.0,0.0,0.0,0.0,0.0,0.0,0,0,0,0,0,0,0,0,0,0,0,4,1,0,0
224844223,0.0,-0.0391198,0.454545,0.0,0.0,0.0,0.0,0.0,0.0,0.0,0.0,0,0,0,0,0,0,0,0,0,0,0,4,1,0,0
225056656,0.0,-0.00488998,0.460606,0.0,0.0,0.0,0.0,0.0,0.0,0.0,0.0,0,0,0,0,0,0,0,0,0,0,0,4,1,0,0
225246702,0.0,-0.00488998,0.461818,0.0,0.0,0.0,0.0,0.0,0.0,0.0,0.0,0,0,0,0,0,0,0,0,0,0,0,4,1,0,0
225446865,0.0,0.0,0.460606,0.0,0.0,0.0,0.0,0.0,0.0,0.0,0.0,0,0,0,0,0,0,0,0,0,0,0,4,1,0,0
225657055,0.0,0.0,0.455758,0.0,0.0,0.0,0.0,0.0,0.0,0.0,0.0,0,0,0,0,0,0,0,0,0,0,0,4,1,0,0
225850876,0.240695,0.3675,0.460606,0.0,0.0,0.0,0.0,0.0,0.0,0.0,0.0,0,0,0,0,0,0,0,0,0,0,0,4,1,0,0
226047345,0.126551,0.4275,0.460606,0.0,0.0,0.0,0.0,0.0,0.0,0.0,0.0,0,0,0,0,0,0,0,0,0,0,0,4,1,0,0
226241156,0.0,-0.00733496,0.455758,0.0,0.0,0.0,0.0,0.0,0.0,0.0,0.0,0,0,0,0,0,0,0,0,0,0,0,4,1,0,0
226455386,0.0,-0.00488998,0.460606,0.0,0.0,0.0,0.0,0.0,0.0,0.0,0.0,0,0,0,0,0,0,0,0,0,0,0,4,1,0,0
226647881,0.0,-0.00244499,0.460606,0.0,0.0,0.0,0.0,0.0,0.0,0.0,0.0,0,0,0,0,0,0,0,0,0,0,0,4,1,0,0
226845803,0.0,0.0,0.460606,0.0,0.0,0.0,0.0,0.0,0.0,0.0,0.0,0,0,0,0,0,0,0,0,0,0,0,4,1,0,0
227041750,0.0,-0.00488998,0.460606,0.0,0.0,0.0,0.0,0.0,0.0,0.0,0.0,0,0,0,0,0,0,0,0,0,0,0,4,1,0,0
227258220,0.0,0.08,0.455758,0.0,0.0,0.0,0.0,0.0,0.0,0.0,0.0,0,0,0,0,0,0,0,0,0,0,0,4,1,0,0
227452063,0.0,-0.00244499,0.46303,0.0,0.0,0.0,0.0,0.0,0.0,0.0,0.0,0,0,0,0,0,0,0,0,0,0,0,4,1,0,0
227656329,0.0,0.0,0.461818,0.0,0.0,0.0,0.0,0.0,0.0,0.0,0.0,0,0,0,0,0,0,0,0,0,0,0,4,1,0,0
227838761,0.0,0.14,0.454545,0.0,0.0,0.0,0.0,0.0,0.0,0.0,0.0,0,0,0,0,0,0,0,0,0,0,0,4,1,0,0
228056742,0.0,0.0,0.454545,0.0,0.0,0.0,0.0,0.0,0.0,0.0,0.0,0,0,0,0,0,0,0,0,0,0,0,4,1,0,0
228242259,0.0,-0.00488998,0.461818,0.0,0.0,0.0,0.0,0.0,0.0,0.0,0.0,0,0,0,0,0,0,0,0,0,0,0,4,1,0,0
228457192,0.0,-0.00488998,0.461818,0.0920398,0.0,0.0,0.0,0.0,0.0,0.0,0.0,0,0,0,0,0,0,0,0,0,0,0,4,1,0,0
228639293,0.0,-0.00488998,0.460606,0.106965,0.0,0.0,0.0,0.0,0.0,0.0,0.0,0,0,0,0,0,0,0,0,0,0,0,4,1,0,0
228839464,0.0,-0.00488998,0.460606,0.186567,0.0,0.0,0.0,0.0,0.0,0.0,0.0,0,0,0,0,0,0,0,0,0,0,0,4,1,0,0
229042942,0.0,-0.00488998,0.470303,0.169154,0.0,0.0,0.0,0.0,0.0,0.0,0.0,0,0,0,0,0,0,0,0,0,0,0,4,1,0,0
229247521,0.0,0.28,0.466667,0.131841,0.0,0.0,0.0,0.0,0.0,0.0,0.0,0,0,0,0,0,0,0,0,0,0,0,4,1,0,0
229443617,-0.00997506,0.335,0.470303,0.119403,0.0,0.0,0.0,0.0,0.0,0.0,0.0,0,0,0,0,0,0,0,0,0,0,0,4,1,0,0
229637918,-0.00249377,0.3525,0.472727,0.0995025,0.0,0.0,0.0,0.0,0.0,0.0,0.0,0,0,0,0,0,0,0,0,0,0,0,4,1,0,0
229843921,0.0,0.3525,0.472727,0.0945274,0.0,0.0,0.0,0.0,0.0,0.0,0.0,0,0,0,0,0,0,0,0,0,0,0,4,1,0,0
230054055,0.0,0.2525,0.473939,0.0746269,0.0,0.0,0.0,0.0,0.0,0.0,0.0,0,0,0,0,0,0,0,0,0,0,0,4,1,0,0
230240576,0.0,0.0,0.472727,0.0,0.0,0.0,0.0,0.0,0.0,0.0,0.0,0,0,0,0,0,0,0,0,0,0,0,4,1,0,0
230440666,0.0,0.0,0.472727,0.0,0.0,0.0,0.0,0.0,0.0,0.0,0.0,0,0,0,0,0,0,0,0,0,0,0,4,1,0,0
230638577,0.0,0.0,0.473939,0.0,0.0,0.0,0.0,0.0,0.0,0.0,0.0,0,0,0,0,0,0,0,0,0,0,0,4,1,0,0
230854386,0.0,0.0,0.471515,0.0,0.0,0.0,0.0,0.0,0.0,0.0,0.0,0,0,0,0,0,0,0,0,0,0,0,4,1,0,0
231048952,0.0198511,0.1225,0.471515,0.0,0.0,0.0,0.0,0.0,0.0,0.0,0.0,0,0,0,0,0,0,0,0,0,0,0,4,1,0,0
231249090,0.0,-0.00244499,0.472727,0.0,0.0,0.0,0.0,0.0,0.0,0.0,0.0,0,0,0,0,0,0,0,0,0,0,0,4,1,0,0
231455129,0.0,-0.00244499,0.52,0.0,0.0,0.0,0.0,0.0,0.0,0.0,0.0,0,0,0,0,0,0,0,0,0,0,0,4,1,0,0
231641596,0.0,-0.00244499,0.517576,0.0,0.0,0.0,0.0,0.0,0.0,0.0,0.0,0,0,0,0,0,0,0,0,0,0,0,4,1,0,0
231855469,-0.00249377,0.155,0.518788,0.0,0.0,0.0,0.0,0.0,0.0,0.0,0.0,0,0,0,0,0,0,0,0,0,0,0,4,1,0,0
232045586,-0.137157,0.185,0.518788,0.0,0.0,0.0,0.0,0.0,0.0,0.0,0.0,0,0,0,0,0,0,0,0,0,0,0,4,1,0,0
232235727,0.0,-0.00488998,0.517576,0.0,0.0,0.0,0.0,0.0,0.0,0.0,0.0,0,0,0,0,0,0,0,0,0,0,0,4,1,0,0
232449976,0.0,-0.00488998,0.517576,0.0,0.0,0.0,0.0,0.0,0.0,0.0,0.0,0,0,0,0,0,0,0,0,0,0,0,4,1,0,0
232640122,-0.0374065,-0.107579,0.52,0.0,0.0,0.0,0.0,0.0,0.0,0.0,0.0,0,0,0,0,0,0,0,0,0,0,0,4,1,0,0
232842534,0.0,-0.00488998,0.517576,0.0,0.0,0.0,0.0,0.0,0.0,0.0,0.0,0,0,0,0,0,0,0,0,0,0,0,4,1,0,0
233040433,0.0,0.0,0.529697,0.0,0.0,0.0,0.0,0.0,0.0,0.0,0.0,0,0,0,0,0,0,0,0,0,0,0,4,1,0,0
233242815,0.0,-0.00244499,0.489697,0.0,0.0,0.0,0.0,0.0,0.0,0.0,0.0,0,0,0,0,0,0,0,0,0,0,0,4,1,0,0
233440737,0.0,-0.00488998,0.492121,0.0,0.0,0.0,0.0,0.0,0.0,0.0,0.0,0,0,0,0,0,0,0,0,0,0,0,4,1,0,0
233650921,0.0,-0.00244499,0.493333,0.0,0.0,0.0,0.0,0.0,0.0,0.0,0.0,0,0,0,0,0,0,0,0,0,0,0,4,1,0,0
233843315,0.0,0.0,0.492121,0.0,0.0,0.0,0.0,0.0,0.0,0.0,0.0,0,0,0,0,0,0,0,0,0,0,0,4,1,0,0
234041240,0.0,0.08,0.490909,0.0,0.0,0.0,0.0,0.0,0.0,0.0,0.0,0,0,0,0,0,0,0,0,0,0,0,4,1,0,0
234243584,0.0,0.175,0.492121,0.0,0.0,0.0,0.0,0.0,0.0,0.0,0.0,0,0,0,0,0,0,0,0,0,0,0,4,1,0,0
234441503,0.0,-0.00488998,0.492121,0.0,0.0,0.0,0.0,0.0,0.0,0.0,0.0,0,0,0,0,0,0,0,0,0,0,0,4,1,0,0
234653900,0.0,-0.0733496,0.490909,0.0,0.0,0.0,0.0,0.0,0.0,0.0,0.0,0,0,0,0,0,0,0,0,0,0,0,4,1,0,0
234844077,0.0,-0.180929,0.490909,0.0323383,0.0,0.0,0.0,0.0,0.0,0.0,0.0,0,0,0,0,0,0,0,0,0,0,0,4,1,0,0
235037984,0.0,-0.127139,0.510303,0.0,0.0,0.0,0.0,0.0,0.0,0.0,0.0,0,0,0,0,0,0,0,0,0,0,0,4,1,0,0
235252125,0.0,-0.0855746,0.523636,0.0,0.0,0.0,0.0,0.0,0.0,0.0,0.0,0,0,0,0,0,0,0,0,0,0,0,4,1,0,0
235438224,0.0,-0.00244499,0.517576,0.0,0.0,0.0,0.0,0.0,0.0,0.0,0.0,0,0,0,0,0,0,0,0,0,0,0,4,1,0,0
235644662,0.0,0.0825,0.526061,0.0,0.0,0.0,0.0,0.0,0.0,0.0,0.0,0,0,0,0,0,0,0,0,0,0,0,4,1,0,0
235842581,-0.032419,0.2275,0.517576,0.0,0.0,0.0,0.0,0.0,0.0,0.0,0.0,0,0,0,0,0,0,0,0,0,0,0,4,1,0,0
236038781,-0.0623441,0.075,0.52,0.0,0.0,0.0,0.0,0.0,0.0,0.0,0.0,0,0,0,0,0,0,0,0,0,0,0,4,1,0,0
236245406,0.0,-0.00488998,0.518788,0.0,0.0,0.0,0.0,0.0,0.0,0.0,0.0,0,0,0,0,0,0,0,0,0,0,0,4,1,0,0
236443043,0.0,-0.0366748,0.517576,0.0,0.0,0.0,0.0,0.0,0.0,0.0,0.0,0,0,0,0,0,0,0,0,0,0,0,4,1,0,0
236655464,0.0,-0.00244499,0.524848,0.0721393,0.0,0.0,0.0,0.0,0.0,0.0,0.0,0,0,0,0,0,0,0,0,0,0,0,4,1,0,0
236845654,0.0,-0.00244499,0.524848,0.0970149,0.0,0.0,0.0,0.0,0.0,0.0,0.0,0,0,0,0,0,0,0,0,0,0,0,4,1,0,0
237043518,0.0,-0.00244499,0.524848,0.271144,0.0,0.0,0.0,0.0,0.0,0.0,0.0,0,0,0,0,0,0,0,0,0,0,0,4,1,0,0
237243726,0.0,-0.00244499,0.526061,0.415423,0.0,0.0,0.0,0.0,0.0,0.0,0.0,0,0,0,0,0,0,0,0,0,0,0,4,1,0,0
237456091,0.0,-0.00244499,0.526061,0.542289,0.0,0.0,0.0,0.0,0.0,0.0,0.0,0,0,0,0,0,0,0,0,0,0,0,4,1,0,0
237650453,0.0,-0.00488998,0.526061,0.557214,0.0,0.0,0.0,0.0,0.0,0.0,0.0,0,0,0,0,0,0,0,0,0,0,0,4,1,0,0
237846364,0.0,-0.00244499,0.526061,0.559702,0.0,0.0,0.0,0.0,0.0,0.0,0.0,0,0,0,0,0,0,0,0,0,0,0,4,1,0,0
