timestamp,timestamp_sample,device_id,x,y,z,temperature,error_count,is_external
116054339,116053457,73225,0.350934,0.0553034,0.443606,27.25,0,1
116062210,116061342,73225,0.346089,0.0529368,0.437311,27.25,0,1
117057708,117056337,73225,0.354567,0.108552,0.424722,27.25,0,1
118052942,118052074,73225,0.349722,0.0517534,0.441088,27.25,0,1
119056208,119055334,73225,0.355778,-0.033445,0.434794,27.25,0,1
120052005,120051065,73225,0.364257,-0.0038622,0.442347,27.5,0,1
121055216,121054336,73225,0.361834,-0.0038622,0.434794,27.0,0,1
122058932,122058063,73225,0.360623,-0.00504551,0.43857,27.5,0,1
123054196,123053331,73225,0.358201,-0.000312264,0.441088,27.5,0,1
124057420,124056550,73225,0.352145,-0.0121454,0.439829,27.25,0,1
125053203,125052333,73225,0.348511,-0.00859544,0.448642,27.25,0,1
126056069,126055199,73225,0.35699,-0.00149557,0.441088,27.25,0,1
127051833,127050968,73225,0.381213,-0.0464614,0.424722,27.25,0,1
128055076,128054206,73225,0.354567,-0.00267889,0.441088,27.25,0,1
129050322,129049452,73225,0.354567,-0.000312264,0.443606,27.25,0,1
130054094,130053219,73225,0.387269,-0.0559279,0.412132,27.25,0,1
131057336,131056460,73225,0.363045,-0.0594778,0.423463,27.25,0,1
132053081,132052214,73225,0.395748,-0.000312264,0.409614,27.25,0,1
133056355,133055486,73225,0.349722,0.0115209,0.442347,27.5,0,1
134052165,134050794,73225,0.403015,0.000871049,0.404579,27.5,0,1
135055355,135054488,73225,0.352145,-0.00267889,0.442347,27.25,0,1
136058604,136057738,73225,0.348511,-0.0381782,0.449901,27.25,0,1
137053900,137053035,73225,0.375157,0.00678761,0.425981,27.25,0,1
138057199,138056332,73225,0.360623,-0.0251618,0.432276,27.25,0,1
139052947,139052062,73225,0.370313,0.00797092,0.434794,27.25,0,1
140056206,140055337,73225,0.360623,-0.00622882,0.434794,27.25,0,1
141051525,141050527,73225,0.380002,0.0056043,0.424722,27.5,0,1
142055221,142054334,73225,0.382425,-0.00741213,0.423463,27.25,0,1
143050588,143049718,73225,0.405437,0.0138875,0.408355,27.25,0,1
144054201,144053336,73225,0.3473,-0.0287117,0.447383,27.25,0,1
145057412,145056546,73225,0.350934,0.0174374,0.442347,27.75,0,1
146053387,146051997,73225,0.3473,-0.0133287,0.452419,27.5,0,1
147056052,147055027,73225,0.393325,0.00797092,0.425981,27.5,0,1
148051086,148050218,73225,0.353356,0.00797092,0.459973,27.5,0,1
149054548,149053683,73225,0.346089,0.00205436,0.446124,27.25,0,1
150057853,150056989,73225,0.380002,-0.0204286,0.423463,27.5,0,1
151053345,151052465,73225,0.389692,0.00205436,0.420945,27.5,0,1
152056459,152055552,73225,0.353356,0.00915423,0.442347,27.25,0,1
153051831,153050966,73225,0.350934,0.00915423,0.449901,27.5,0,1
154055469,154054571,73225,0.354567,-0.00859544,0.43857,27.5,0,1
155050830,155049959,73225,0.348511,0.00678761,0.446124,27.5,0,1
156054508,156053643,73225,0.381213,-0.0121454,0.425981,27.5,0,1
157057335,157056464,73225,0.340033,-0.0393615,0.447383,27.25,0,1
158053231,158051861,73225,0.36789,0.00205436,0.442347,27.25,0,1
159056376,159055494,73225,0.354567,0.0115209,0.441088,27.5,0,1
160051792,160050878,73225,0.348511,0.0103375,0.45116,27.5,0,1
161055365,161054490,73225,0.312175,0.100269,0.458714,27.5,0,1
162050754,162049884,73225,0.294007,0.105002,0.470044,27.5,0,1
163054049,163053177,73225,0.302486,0.233983,0.423463,27.5,0,1
164057303,164056419,73225,0.302486,0.212684,0.43857,27.5,0,1
165052517,165051651,73225,0.233448,0.271849,0.432276,27.5,0,1
166056293,166055425,73225,0.0251222,0.348765,0.422204,27.5,0,1
167051529,167050662,73225,-0.0923636,0.252916,0.465008,27.5,0,1
168055293,168054424,73225,-0.108109,0.326282,0.42724,27.5,0,1
169050240,169049362,73225,-0.152923,0.329832,0.413391,27.5,0,1
170053770,170052395,73225,-0.137178,0.328648,0.41465,27.5,0,1
171057094,171056225,73225,-0.165035,0.333382,0.398284,27.5,0,1
172052455,172051412,73225,-0.150501,0.319182,0.422204,27.5,0,1
173055772,173054902,73225,-0.132333,0.374797,0.371846,27.5,0,1
174059013,174058143,73225,-0.152923,0.323915,0.405838,27.75,0,1
175054790,175053917,73225,-0.156557,0.323915,0.404579,27.25,0,1
176049981,176049105,73225,-0.110532,0.325098,0.422204,27.5,0,1
177053226,177052347,73225,-0.126277,0.326282,0.425981,27.5,0,1
178056476,178055612,73225,0.0190662,0.358231,0.413391,27.5,0,1
179051929,179051048,73225,0.0820483,0.358231,0.400802,27.5,0,1
180055595,180054720,73225,0.0323894,0.355865,0.415909,27.25,0,1
181058738,181057874,73225,0.0336006,0.354681,0.417168,27.5,0,1
182054718,182053341,73225,0.241926,0.282499,0.429758,27.5,0,1
183049937,183049072,73225,0.272206,0.244633,0.423463,27.5,0,1
184052773,184051900,73225,0.264939,0.267116,0.42724,27.25,0,1
185056505,185055630,73225,0.283107,0.2328,0.428499,27.5,0,1
186051851,186050972,73225,0.36789,0.141685,0.428499,27.5,0,1
187055559,187054695,73225,0.33761,0.161801,0.425981,27.5,0,1
188058692,188057786,73225,0.324287,0.154702,0.437311,27.25,0,1
189054080,189053216,73225,0.349722,0.168901,0.417168,27.25,0,1
190057765,190056887,73225,0.331554,0.110919,0.443606,27.5,0,1
191052709,191051836,73225,0.319442,0.174818,0.425981,27.5,0,1
192056333,192055468,73225,0.125651,0.256466,0.470044,27.5,0,1
193051724,193050857,73225,-0.0608726,0.327465,0.422204,27.5,0,1
194055492,194054118,73225,-0.217117,0.2328,0.437311,27.5,0,1
195050749,195049876,73225,-0.306745,0.193751,0.418427,27.75,0,1
196054006,196053136,73225,-0.307956,0.193751,0.413391,27.75,0,1
197057642,197056753,73225,-0.31159,0.235167,0.386953,27.5,0,1
198053030,198052151,73225,-0.314012,0.185468,0.417168,27.5,0,1
199056679,199055801,73225,-0.364882,0.0458369,0.419686,27.75,0,1
200052027,200051160,73225,-0.375783,0.0458369,0.420945,27.5,0,1
201055338,201054453,73225,-0.373361,0.0588533,0.423463,27.5,0,1
202058934,202058065,73225,-0.369727,0.100269,0.410873,27.25,0,1
203054317,203053446,73225,-0.402429,0.0493868,0.391989,27.25,0,1
204050163,204049294,73225,-0.351559,0.0813362,0.431017,27.25,0,1
205053346,205052478,73225,-0.370938,0.0635866,0.415909,27.25,0,1
206057088,206055718,73225,-0.378206,0.0612199,0.419686,27.75,0,1
207052356,207051485,73225,-0.374572,0.0635866,0.422204,27.5,0,1
208055127,208054261,73225,-0.374572,0.0600366,0.41465,27.5,0,1
209050982,209050118,73225,-0.364882,0.0553034,0.418427,27.5,0,1
210054156,210053283,73225,-0.368516,0.0529368,0.420945,27.5,0,1
211057910,211057025,73225,-0.369727,0.0612199,0.423463,27.5,0,1
212053221,212052348,73225,-0.373361,0.0872528,0.408355,27.5,0,1
213056100,213055219,73225,-0.369727,0.0505701,0.420945,27.5,0,1
214051862,214050994,73225,-0.375783,0.0541201,0.412132,27.5,0,1
215055082,215054057,73225,-0.378206,0.0564867,0.41465,27.5,0,1
216058752,216057885,73225,-0.378206,0.122752,0.394507,27.5,0,1
217054121,217053249,73225,-0.378206,0.0292705,0.410873,27.5,0,1
218057875,218056334,73225,-0.38305,0.0363704,0.408355,27.5,0,1
219053198,219052332,73225,-0.284944,-0.229875,0.431017,27.5,0,1
220056444,220055560,73225,0.193478,-0.27839,0.432276,27.5,0,1
221051728,221050863,73225,0.278262,-0.210942,0.431017,27.5,0,1
222054880,222054016,73225,0.279473,-0.253541,0.420945,27.5,0,1
223058713,223057838,73225,0.247982,-0.239341,0.433535,27.5,0,1
224053946,224053078,73225,0.24556,-0.226325,0.442347,27.5,0,1
225056929,225056061,73225,0.243137,-0.239341,0.436052,27.5,0,1
226052606,226051741,73225,0.310964,-0.129293,0.449901,27.5,0,1
227055909,227055022,73225,0.257672,-0.227508,0.444865,27.5,0,1
228051721,228050848,73225,0.241926,-0.192009,0.461232,27.5,0,1
229054908,229054043,73225,0.161987,-0.287857,0.43857,27.5,0,1
230058747,230057359,73225,0.0469237,-0.218042,0.497741,27.5,0,1
231053919,231053011,73225,0.0529797,-0.323356,0.446124,27.5,0,1
232057169,232056285,73225,0.0275446,-0.276024,0.478857,27.5,0,1
233052964,233052099,73225,0.0517685,-0.32454,0.443606,27.75,0,1
234056220,234055335,73225,0.0457125,-0.325723,0.446124,27.5,0,1
235052095,235050721,73225,0.0505573,-0.365956,0.422204,27.5,0,1
236055299,236054417,73225,0.0287558,-0.271291,0.477598,27.5,0,1
237058511,237057633,73225,0.0069543,-0.331639,0.443606,27.75,0,1
238054306,238053439,73225,-0.361249,-0.111544,0.419686,27.5,0,1
239057548,239056641,73225,-0.373361,-0.067761,0.415909,27.5,0,1
240053431,240052566,73225,-0.361249,-0.0985271,0.429758,27.75,0,1
241056242,241055362,73225,-0.363671,-0.0973438,0.424722,27.75,0,1
242051601,242050732,73225,-0.366094,-0.0878773,0.429758,27.25,0,1
243055292,243054405,73225,-0.376994,-0.0807774,0.41465,27.5,0,1
244058151,244057284,73225,-0.361249,-0.0973438,0.42724,27.5,0,1
245053918,245053048,73225,-0.37215,-0.0878773,0.417168,28.0,0,1
246057199,246056332,73225,-0.363671,-0.0807774,0.431017,27.5,0,1
247052956,247051588,73225,-0.351559,-0.0772275,0.436052,27.25,0,1
248055798,248054926,73225,-0.366094,-0.0878773,0.420945,27.5,0,1
249051133,249050107,73225,-0.36246,-0.0902439,0.423463,27.5,0,1
250054826,250053954,73225,-0.370938,-0.0878773,0.418427,27.5,0,1
251058027,251057158,73225,-0.360038,-0.104444,0.42724,27.25,0,1
252053837,252052966,73225,-0.367305,-0.102077,0.419686,27.75,0,1
253057201,253056331,73225,-0.349137,-0.167159,0.417168,27.25,0,1
254052499,254051466,73225,-0.345503,-0.115093,0.433535,27.5,0,1
