timestamp,ref_timestamp,ref_lat,ref_lon,x,y,z,delta_xy[0],delta_xy[1],delta_z,vx,vy,vz,z_deriv,delta_vxy[0],delta_vxy[1],delta_vz,ax,ay,az,heading,delta_heading,ref_alt,dist_bottom,eph,epv,evh,evv,vxy_max,vz_max,hagl_min,hagl_max,xy_valid,z_valid,v_xy_valid,v_z_valid,xy_reset_counter,z_reset_counter,vxy_reset_counter,vz_reset_counter,heading_reset_counter,xy_global,z_global,dist_bottom_valid
116054285,65222418,34.0348619,108.756711,0.852512,2.04162,-0.975012,-0.0511265,-0.0257923,0.0,-0.101872,0.0217366,0.000581395,0.0359497,-0.0714168,-0.0348164,0.0633587,-7.55343,7.61881,-6.80176,-0.0575075,0.00101705,427.744,0.1,0.328475,0.392456,0.14364,0.106085,inf,inf,inf,inf,1,1,1,1,2,0,2,1,3,1,1,1
116064287,65222418,34.0348619,108.756711,0.851355,2.04212,-0.974705,-0.0511265,-0.0257923,0.0,-0.0264103,0.0519406,0.0117557,0.0469609,-0.0714168,-0.0348164,0.0633587,11.4268,-0.553724,2.00928,-0.0552153,0.00101705,427.744,0.1,0.329364,0.393133,0.144159,0.106286,inf,inf,inf,inf,1,1,1,1,2,0,2,1,3,1,1,1
116154356,65222418,34.0348619,108.756711,0.840279,2.04413,-0.971422,-0.0511265,-0.0257923,0.0,0.00281022,0.0190676,0.0158119,0.0481772,-0.0714168,-0.0348164,0.0633587,11.1747,-4.62024,4.60043,-0.0554389,0.00101705,427.744,0.1,0.31973,0.389915,0.139391,0.104606,inf,inf,inf,inf,1,1,1,1,2,0,2,1,3,1,1,1
116254431,65222418,34.0348619,108.756711,0.829509,2.04588,-0.969939,-0.0511265,-0.0257923,0.0,-0.0560775,0.0185954,0.0263464,0.0537254,-0.0714168,-0.0348164,0.0633587,3.00117,0.92164,-5.26757,-0.05639,0.00101705,427.744,0.1,0.328328,0.391685,0.145689,0.106023,inf,inf,inf,inf,1,1,1,1,2,0,2,1,3,1,1,1
116354508,65222418,34.0348619,108.756711,0.814694,2.04851,-0.968965,-0.0511265,-0.0257923,0.0,-0.0672073,8.73058e-05,0.0478157,0.0703551,-0.0714168,-0.0348164,0.0633587,-5.42874,1.23401,7.05978,-0.0585998,0.00101705,427.744,0.1,0.319664,0.391597,0.14256,0.104823,inf,inf,inf,inf,1,1,1,1,2,0,2,1,3,1,1,1
116454579,65222418,34.0348619,108.756711,0.800208,2.05211,-0.968607,-0.0511265,-0.0257923,0.0,-0.070871,0.0170919,0.0485552,0.0668226,-0.0714168,-0.0348164,0.0633587,-4.51798,0.658866,9.85014,-0.0577426,0.00101705,427.744,0.1,0.328277,0.3934,0.149968,0.106249,inf,inf,inf,inf,1,1,1,1,2,0,2,1,3,1,1,1
116554652,65222418,34.0348619,108.756711,0.786111,2.05676,-0.970757,-0.0511265,-0.0257923,0.0,-0.0566739,0.045418,0.0596499,0.0714297,-0.0714168,-0.0348164,0.0633587,0.502636,-0.668624,8.47963,-0.0584062,0.00101705,427.744,0.1,0.319581,0.39085,0.147366,0.104801,inf,inf,inf,inf,1,1,1,1,2,0,2,1,3,1,1,1
116654726,65222418,34.0348619,108.756711,0.77371,2.0622,-0.974388,-0.0511265,-0.0257923,0.0,-0.0376994,0.0388505,0.00684395,0.0115599,-0.0714168,-0.0348164,0.0633587,3.67432,-2.2083,-10.1328,-0.0593225,0.00101705,427.744,0.1,0.328235,0.392653,0.155755,0.106243,inf,inf,inf,inf,1,1,1,1,2,0,2,1,3,1,1,1
116754804,65222418,34.0348619,108.756711,0.760076,2.06794,-0.979176,-0.0511265,-0.0257923,0.0,-0.0511669,0.0454463,-0.00246315,-0.00521481,-0.0714168,-0.0348164,0.0633587,-3.13596,1.75994,-0.64653,-0.0575972,0.00101705,427.744,0.103484,0.319492,0.390117,0.152762,0.104801,inf,inf,inf,inf,1,1,1,1,2,0,2,1,3,1,1,1
116854876,65222418,34.0348619,108.756711,0.747859,2.07358,-0.982418,-0.0511265,-0.0257923,0.0,-0.0619812,0.0579322,0.0593089,0.0512866,-0.0714168,-0.0348164,0.0633587,-0.0341306,0.340079,9.69684,-0.0595752,0.00101705,427.744,0.106725,0.328212,0.391902,0.161432,0.106257,inf,inf,inf,inf,1,1,1,1,2,0,2,1,3,1,1,1
116954950,65222418,34.0348619,108.756711,0.735976,2.08055,-0.988467,-0.0511265,-0.0257923,0.0,-0.0348915,0.0534673,0.037928,0.0223214,-0.0714168,-0.0348164,0.0633587,5.56247,-0.538395,-5.45909,-0.0634377,0.00101705,427.744,0.112774,0.319426,0.389381,0.157824,0.10482,inf,inf,inf,inf,1,1,1,1,2,0,2,1,3,1,1,1
117055025,65222418,34.0348619,108.756711,0.726468,2.08835,-0.996424,-0.0511265,-0.0257923,0.0,-0.0371071,0.0761057,-0.0203764,-0.0441541,-0.0714168,-0.0348164,0.0633587,-0.798208,2.285,-8.66618,-0.0676357,0.00101705,427.744,0.120732,0.328237,0.391165,0.167099,0.106309,inf,inf,inf,inf,1,1,1,1,2,0,2,1,3,1,1,1
117155103,65222418,34.0348619,108.756711,0.7153,2.0971,-1.00891,-0.0511265,-0.0257923,0.0,-0.0277273,0.0391124,0.0304157,-0.00439071,-0.0714168,-0.0348164,0.0633587,-2.68618,-2.38556,9.00871,-0.0714183,0.00101705,427.744,0.133213,0.319336,0.391085,0.162289,0.105158,inf,inf,inf,inf,1,1,1,1,2,0,2,1,3,1,1,1
117255178,65222418,34.0348619,108.756711,0.706131,2.10142,-1.01963,-0.0511265,-0.0257923,0.0,-0.0505343,0.0350891,0.0377281,-0.00476682,-0.0714168,-0.0348164,0.0633587,3.01447,-2.16339,1.31044,-0.0748598,0.00101705,427.744,0.143939,0.328252,0.392894,0.171368,0.1067,inf,inf,inf,inf,1,1,1,1,2,0,2,1,3,1,1,1
117355250,65222418,34.0348619,108.756711,0.691732,2.10745,-1.03099,-0.0511265,-0.0257923,0.0,-0.0470663,0.0209298,-0.0248468,-0.0734358,-0.0714168,-0.0348164,0.0633587,0.608819,4.08574,-9.06078,-0.0750635,0.00101705,427.744,0.155295,0.319223,0.390361,0.165889,0.105297,inf,inf,inf,inf,1,1,1,1,2,0,2,1,3,1,1,1
117455324,65222418,34.0348619,108.756711,0.678294,2.11247,-1.04437,-0.0511265,-0.0257923,0.0,-0.0351818,0.00942521,-0.0301187,-0.0846953,-0.0714168,-0.0348164,0.0633587,1.90831,-3.15297,-4.47258,-0.0761445,0.00101705,427.744,0.168679,0.328249,0.39216,0.174848,0.106895,inf,inf,inf,inf,1,1,1,1,2,0,2,1,3,1,1,1
117555398,65222418,34.0348619,108.756711,0.665794,2.11437,-1.05844,-0.0511265,-0.0257923,0.0,-0.0388909,0.0104953,-0.0481564,-0.108951,-0.0714168,-0.0348164,0.0633587,-2.92423,2.74126,-1.80556,-0.078295,0.00101705,427.744,0.182743,0.319115,0.389641,0.168269,0.105497,inf,inf,inf,inf,1,1,1,1,2,0,2,1,3,1,1,1
117655474,65222418,34.0348619,108.756711,0.654117,2.1143,-1.07045,-0.0511265,-0.0257923,0.0,-0.0446072,-0.0195637,0.00988607,-0.0540658,-0.0714168,-0.0348164,0.0633587,1.03568,-2.28243,6.51079,-0.0852033,0.00101705,427.744,0.194757,0.32825,0.391432,0.177022,0.107108,inf,inf,inf,inf,1,1,1,1,2,0,2,1,3,1,1,1
117755548,65222418,34.0348619,108.756711,0.640571,2.11351,-1.07923,-0.0511265,-0.0257923,0.0,-0.0489769,-0.00113054,-0.0059842,-0.0701707,-0.0714168,-0.0348164,0.0633587,-0.580977,5.40811,1.39227,-0.084607,0.00101705,427.744,0.203541,0.319015,0.388925,0.169837,0.105668,inf,inf,inf,inf,1,1,1,1,2,0,2,1,3,1,1,1
117855622,65222418,34.0348619,108.756711,0.628204,2.11251,-1.08725,-0.0511265,-0.0257923,0.0,-0.0338019,-0.00542138,0.0131507,-0.0502151,-0.0714168,-0.0348164,0.0633587,2.52391,-2.55221,-1.69508,-0.0850002,0.00101705,427.744,0.211556,0.328247,0.393175,0.178403,0.107514,inf,inf,inf,inf,1,1,1,1,2,0,2,1,3,1,1,1
117955697,65222418,34.0348619,108.756711,0.613823,2.11325,-1.09428,-0.0511265,-0.0257923,0.0,-0.0179519,0.0338552,-0.0626202,-0.123934,-0.0714168,-0.0348164,0.0633587,-0.698115,4.66233,-11.6331,-0.0863478,0.00101705,427.744,0.218588,0.318877,0.390641,0.17062,0.105985,inf,inf,inf,inf,1,1,1,1,2,0,2,1,3,1,1,1
118055772,65222418,34.0348619,108.756711,0.601037,2.11682,-1.10017,-0.0511265,-0.0257923,0.0,-0.0448615,0.0662574,-0.00467726,-0.0630825,-0.0714168,-0.0348164,0.0633587,-1.29114,1.5646,10.7353,-0.0862371,0.00101705,427.744,0.224474,0.328193,0.392462,0.1788,0.107493,inf,inf,inf,inf,1,1,1,1,2,0,2,1,3,1,1,1
118155855,65222418,34.0348619,108.756711,0.584414,2.11887,-1.10813,-0.0511265,-0.0257923,0.0,-0.0225799,0.0520521,-0.0337668,-0.0916833,-0.0714168,-0.0348164,0.0633587,0.82335,3.20535,-6.29319,-0.0852239,0.00101705,427.744,0.23244,0.318739,0.389922,0.170511,0.105888,inf,inf,inf,inf,1,1,1,1,2,0,2,1,3,1,1,1
118255921,65222418,34.0348619,108.756711,0.570821,2.11843,-1.11576,-0.0511265,-0.0257923,0.0,-0.0218171,0.0176692,-0.0536358,-0.110454,-0.0714168,-0.0348164,0.0633587,-2.52767,-0.104358,-5.5103,-0.0860022,0.00101705,427.744,0.240066,0.328124,0.39172,0.178596,0.107356,inf,inf,inf,inf,1,1,1,1,2,0,2,1,3,1,1,1
118345992,65222418,34.0348619,108.756711,0.555241,2.11732,-1.12245,-0.0511265,-0.0257923,0.0,-0.0289149,0.039048,-0.072557,-0.127554,-0.0714168,-0.0348164,0.0633587,-1.57321,6.0772,-7.53468,-0.0879507,0.00101705,427.744,0.246762,0.317663,0.390956,0.169271,0.105825,inf,inf,inf,inf,1,1,1,1,2,0,2,1,3,1,1,1
118456071,65222418,34.0348619,108.756711,0.539457,2.11704,-1.12818,-0.0511265,-0.0257923,0.0,-0.022258,0.0166173,-0.0259165,-0.0772786,-0.0714168,-0.0348164,0.0633587,-1.16871,-3.62599,3.54534,-0.089336,0.00101705,427.744,0.252483,0.327999,0.393446,0.177593,0.10751,inf,inf,inf,inf,1,1,1,1,2,0,2,1,3,1,1,1
118556145,65222418,34.0348619,108.756711,0.521747,2.11608,-1.1328,-0.0511265,-0.0257923,0.0,-0.0296299,-0.0152504,0.0319135,-0.0155175,-0.0714168,-0.0348164,0.0633587,1.65864,-6.65411,13.5141,-0.0900701,0.00101705,427.744,0.257112,0.318343,0.390883,0.168957,0.105909,inf,inf,inf,inf,1,1,1,1,2,0,2,1,3,1,1,1
118656222,65222418,34.0348619,108.756711,0.506769,2.11455,-1.13635,-0.0511265,-0.0257923,0.0,-0.0179284,0.0198568,-0.0521538,-0.0950216,-0.0714168,-0.0348164,0.0633587,-1.45259,4.92837,-4.26269,-0.0903579,0.00101705,427.744,0.260661,0.327816,0.392709,0.176221,0.107378,inf,inf,inf,inf,1,1,1,1,2,0,2,1,3,1,1,1
118756295,65222418,34.0348619,108.756711,0.489772,2.11327,-1.13901,-0.0511265,-0.0257923,0.0,-0.0283346,-0.0269868,-0.00821706,-0.0463743,-0.0714168,-0.0348164,0.0633587,-1.74,-0.220292,10.929,-0.0893258,0.00101705,427.744,0.263318,0.318018,0.390152,0.167454,0.105766,inf,inf,inf,inf,1,1,1,1,2,0,2,1,3,1,1,1
118846362,65222418,34.0348619,108.756711,0.475261,2.11002,-1.14029,-0.0511265,-0.0257923,0.0,-0.0228292,-0.0732018,-0.0217894,-0.0550851,-0.0714168,-0.0348164,0.0633587,-0.231378,-3.84796,-2.13825,-0.0865458,0.00101705,427.744,0.264597,0.326514,0.391282,0.173699,0.10701,inf,inf,inf,inf,1,1,1,1,2,0,2,1,3,1,1,1
118956444,65222418,34.0348619,108.756711,0.45414,2.10522,-1.14305,-0.0511265,-0.0257923,0.0,-0.00979144,-0.0566294,-0.00893655,-0.0393042,-0.0714168,-0.0348164,0.0633587,-0.570111,0.108349,-9.89403,-0.083227,0.00101705,427.744,0.267358,0.317754,0.389423,0.165895,0.105599,inf,inf,inf,inf,1,1,1,1,2,0,2,1,3,1,1,1
119046512,65222418,34.0348619,108.756711,0.439849,2.10366,-1.13963,-0.0511265,-0.0257923,0.0,0.0045953,-0.0134214,0.0509923,0.0230692,-0.0714168,-0.0348164,0.0633587,-0.327231,1.0782,-5.27258,-0.0768364,0.00101705,427.744,0.263935,0.32626,0.393017,0.171871,0.10707,inf,inf,inf,inf,1,1,1,1,2,0,2,1,3,1,1,1
119156594,65222418,34.0348619,108.756711,0.419205,2.10518,-1.13238,-0.0511265,-0.0257923,0.0,-0.0189848,0.0482973,0.0700617,0.043717,-0.0714168,-0.0348164,0.0633587,-2.74337,3.03657,7.5068,-0.0657295,0.00101705,427.744,0.25669,0.31747,0.391134,0.164095,0.105588,inf,inf,inf,inf,1,1,1,1,2,0,2,1,3,1,1,1
119256669,65222418,34.0348619,108.756711,0.40377,2.1121,-1.1231,-0.0511265,-0.0257923,0.0,-0.00430049,0.0958765,0.0763314,0.0521174,-0.0714168,-0.0348164,0.0633587,-2.59328,6.04303,-6.67597,-0.0449112,0.00101705,427.744,0.247407,0.32695,0.392963,0.170387,0.106908,inf,inf,inf,inf,1,1,1,1,2,0,2,1,3,1,1,1
119346736,65222418,34.0348619,108.756711,0.388705,2.11546,-1.12017,-0.0511265,-0.0257923,0.0,-0.000155326,0.0409545,0.0744379,0.0469729,-0.0714168,-0.0348164,0.0633587,1.60546,-3.03892,-4.28139,-0.0281091,0.00101705,427.744,0.244477,0.316297,0.38975,0.16151,0.105058,inf,inf,inf,inf,1,1,1,1,2,0,2,1,3,1,1,1
119456818,65222418,34.0348619,108.756711,0.373044,2.11417,-1.11993,-0.0511265,-0.0257923,0.0,0.0129705,0.0164593,0.0909734,0.0575212,-0.0714168,-0.0348164,0.0633587,-2.10862,5.18912,-9.62344,-0.0162152,0.00101705,427.744,0.244237,0.326668,0.392229,0.168313,0.106586,inf,inf,inf,inf,1,1,1,1,2,0,2,1,3,1,1,1
119546885,65222418,34.0348619,108.756711,0.361717,2.1163,-1.11367,-0.0511265,-0.0257923,0.0,0.0316932,0.0303524,0.135814,0.0974176,-0.0714168,-0.0348164,0.0633587,-5.15355,2.12366,-14.0384,-0.0113117,0.00101705,427.744,0.237976,0.315924,0.389023,0.159541,0.104797,inf,inf,inf,inf,1,1,1,1,2,0,2,1,3,1,1,1
119656968,65222418,34.0348619,108.756711,0.347292,2.11973,-1.10582,-0.0511265,-0.0257923,0.0,0.0066043,0.0146663,0.130612,0.0883452,-0.0714168,-0.0348164,0.0633587,-0.531442,-2.06855,0.534275,-0.0146905,0.00101705,427.744,0.23013,0.326261,0.391496,0.166027,0.106352,inf,inf,inf,inf,1,1,1,1,2,0,2,1,3,1,1,1
119747035,65222418,34.0348619,108.756711,0.327675,2.12511,-1.10558,-0.0511265,-0.0257923,0.0,-0.0116298,0.0829777,0.117452,0.067997,-0.0714168,-0.0348164,0.0633587,-0.00194759,5.40739,-4.46743,-0.0198539,0.00101705,427.744,0.229889,0.315687,0.390733,0.157661,0.104863,inf,inf,inf,inf,1,1,1,1,2,0,2,1,3,1,1,1
119857119,65222418,34.0348619,108.756711,0.303816,2.13325,-1.10664,-0.0511265,-0.0257923,0.0,-0.0249626,0.0799516,0.14414,0.0873768,-0.0714168,-0.0348164,0.0633587,-2.70655,2.30486,7.74055,-0.0278342,0.00101705,427.744,0.230952,0.325998,0.393238,0.163922,0.106425,inf,inf,inf,inf,1,1,1,1,2,0,2,1,3,1,1,1
119957192,65222418,34.0348619,108.756711,0.284028,2.13807,-1.10759,-0.0511265,-0.0257923,0.0,0.0130883,0.0317887,0.0835356,0.020472,-0.0714168,-0.0348164,0.0633587,0.262042,-4.48397,-9.97932,-0.0426791,0.00101705,427.744,0.2319,0.316365,0.390689,0.156352,0.104886,inf,inf,inf,inf,1,1,1,1,2,0,2,1,3,1,1,1
120047262,65222418,34.0348619,108.756711,0.270284,2.13924,-1.10283,-0.0511265,-0.0257923,0.0,0.0103994,0.00493416,0.15307,0.0894121,-0.0714168,-0.0348164,0.0633587,0.993704,-5.5744,-1.47966,-0.0572178,0.00101705,427.744,0.22714,0.324776,0.391831,0.161306,0.106087,inf,inf,inf,inf,1,1,1,1,2,0,2,1,3,1,1,1
120157343,65222418,34.0348619,108.756711,0.251488,2.14129,-1.09206,-0.0511265,-0.0257923,0.0,-0.0193104,0.0075566,0.154899,0.0924138,-0.0714168,-0.0348164,0.0633587,-2.15628,1.60656,-2.47962,-0.0674666,0.00101705,427.744,0.216372,0.316158,0.389974,0.154546,0.104774,inf,inf,inf,inf,1,1,1,1,2,0,2,1,3,1,1,1
120247411,65222418,34.0348619,108.756711,0.236115,2.14292,-1.07955,-0.0511265,-0.0257923,0.0,-0.018103,0.0109068,0.254682,0.194036,-0.0714168,-0.0348164,0.0633587,1.41215,-4.80181,9.90009,-0.0732999,0.00101705,427.744,0.20386,0.324537,0.391115,0.15934,0.10598,inf,inf,inf,inf,1,1,1,1,2,0,2,1,3,1,1,1
120357491,65222418,34.0348619,108.756711,0.221621,2.14808,-1.05535,-0.0511265,-0.0257923,0.0,0.0197225,0.0747539,0.312453,0.252981,-0.0714168,-0.0348164,0.0633587,0.304736,3.99211,4.53031,-0.0680007,0.00101705,427.744,0.17966,0.315946,0.38927,0.152709,0.104679,inf,inf,inf,inf,1,1,1,1,2,0,2,1,3,1,1,1
120447561,65222418,34.0348619,108.756711,0.213877,2.15343,-1.03636,-0.0511265,-0.0257923,0.0,0.0209521,0.0515748,0.307418,0.249212,-0.0714168,-0.0348164,0.0633587,4.61321,-4.88795,5.0394,-0.0635557,0.00101705,427.744,0.160667,0.324287,0.392852,0.157295,0.10615,inf,inf,inf,inf,1,1,1,1,2,0,2,1,3,1,1,1
120547637,65222418,34.0348619,108.756711,0.201577,2.15712,-1.01896,-0.0511265,-0.0257923,0.0,0.0220629,0.0495482,0.298759,0.236798,-0.0714168,-0.0348164,0.0633587,3.3931,-3.1996,1.56352,-0.0689847,0.00101705,427.744,0.143268,0.314812,0.390322,0.150407,0.104656,inf,inf,inf,inf,1,1,1,1,2,0,2,1,3,1,1,1
120647708,65222418,34.0348619,108.756711,0.189584,2.15736,-1.0011,-0.0511265,-0.0257923,0.0,-0.00575476,0.0501477,0.224679,0.160885,-0.0714168,-0.0348164,0.0633587,-1.48495,5.72104,2.00538,-0.071997,0.00101705,427.744,0.125409,0.324004,0.392136,0.15551,0.106063,inf,inf,inf,inf,1,1,1,1,2,0,2,1,3,1,1,1
120747790,65222418,34.0348619,108.756711,0.177121,2.15795,-0.989429,-0.0511265,-0.0257923,0.0,-0.0110657,0.037839,0.256997,0.189613,-0.0714168,-0.0348164,0.0633587,-2.58947,-0.811164,11.0011,-0.0696873,0.00101705,427.744,0.113736,0.314538,0.389619,0.148797,0.10458,inf,inf,inf,inf,1,1,1,1,2,0,2,1,3,1,1,1
120857866,65222418,34.0348619,108.756711,0.16445,2.16155,-0.978571,-0.0511265,-0.0257923,0.0,0.0121191,0.0640581,0.217758,0.147,-0.0714168,-0.0348164,0.0633587,-0.0416725,-0.50779,3.62112,-0.0678058,0.00101705,427.744,0.102879,0.324636,0.392098,0.154374,0.106182,inf,inf,inf,inf,1,1,1,1,2,0,2,1,3,1,1,1
120947933,65222418,34.0348619,108.756711,0.154711,2.16349,-0.967608,-0.0511265,-0.0257923,0.0,0.0281812,0.0481819,0.292178,0.218016,-0.0714168,-0.0348164,0.0633587,0.17802,1.34729,6.65556,-0.0652878,0.00101705,427.744,0.1,0.314257,0.388919,0.147338,0.10451,inf,inf,inf,inf,1,1,1,1,2,0,2,1,3,1,1,1
121048010,65222418,34.0348619,108.756711,0.146757,2.16141,-0.946562,-0.0511265,-0.0257923,0.0,0.0133114,0.0103865,0.311959,0.235646,-0.0714168,-0.0348164,0.0633587,-1.90798,7.95419,0.30631,-0.0640737,0.00101705,427.744,0.1,0.323363,0.390712,0.152235,0.105918,inf,inf,inf,inf,1,1,1,1,2,0,2,1,3,1,1,0
121148086,65222418,34.0348619,108.756711,0.134989,2.15955,-0.925776,-0.0511265,-0.0257923,0.0,-0.0223319,0.0136592,0.343304,0.263143,-0.0714168,-0.0348164,0.0633587,-3.44243,1.30459,7.8411,-0.0615528,0.00101705,427.744,0.1,0.313929,0.390641,0.145751,0.104706,inf,inf,inf,inf,1,1,1,1,2,0,2,1,3,1,1,0
121248158,65222418,34.0348619,108.756711,0.124,2.16162,-0.907592,-0.0511265,-0.0257923,0.0,0.0107334,0.0440911,0.307702,0.223519,-0.0714168,-0.0348164,0.0633587,0.503935,1.92605,2.70708,-0.0610616,0.00101705,427.744,0.1,0.32298,0.392466,0.150526,0.106123,inf,inf,inf,inf,1,1,1,1,2,0,2,1,3,1,1,0
121358243,65222418,34.0348619,108.756711,0.115847,2.16233,-0.890638,-0.0511265,-0.0257923,0.0,0.040499,0.0173347,0.269656,0.178599,-0.0714168,-0.0348164,0.0633587,1.67129,-2.3026,-12.6841,-0.0601841,0.00101705,427.744,0.1,0.314445,0.390613,0.144907,0.104843,inf,inf,inf,inf,1,1,1,1,2,0,2,1,3,1,1,0
121448308,65222418,34.0348619,108.756711,0.111464,2.1615,-0.874943,-0.0511265,-0.0257923,0.0,0.0208237,-0.00335263,0.31777,0.222521,-0.0714168,-0.0348164,0.0633587,-1.75975,-2.96382,-2.80031,-0.0638027,0.00101705,427.744,0.1,0.322574,0.391773,0.149129,0.10607,inf,inf,inf,inf,1,1,1,1,2,0,2,1,3,1,1,0
121548383,65222418,34.0348619,108.756711,0.102047,2.16116,-0.862167,-0.0511265,-0.0257923,0.0,0.00421814,-0.0303905,0.312387,0.208804,-0.0714168,-0.0348164,0.0633587,-0.602353,-4.15892,-2.00647,-0.0721663,0.00101705,427.744,0.1,0.313141,0.38927,0.143197,0.104595,inf,inf,inf,inf,1,1,1,1,2,0,2,1,3,1,1,0
121648458,65222418,34.0348619,108.756711,0.0921277,2.16037,-0.849129,-0.0511265,-0.0257923,0.0,0.00248856,0.00140368,0.306727,0.196719,-0.0714168,-0.0348164,0.0633587,-2.02515,3.73917,-3.90677,-0.078403,0.00101705,427.744,0.1,0.322093,0.391075,0.147857,0.105999,inf,inf,inf,inf,1,1,1,1,2,0,2,1,3,1,1,0
121748532,65222418,34.0348619,108.756711,0.0824597,2.16271,-0.84012,-0.0511265,-0.0257923,0.0,0.0128,0.0316769,0.322182,0.203451,-0.0714168,-0.0348164,0.0633587,-1.02191,-5.06883,4.93585,-0.0791607,0.00101705,427.744,0.1,0.312722,0.388584,0.142026,0.104525,inf,inf,inf,inf,1,1,1,1,2,0,2,1,3,1,1,0
121848607,65222418,34.0348619,108.756711,0.0758106,2.16559,-0.834566,-0.0511265,-0.0257923,0.0,0.0342892,0.0163821,0.273406,0.145229,-0.0714168,-0.0348164,0.0633587,0.86123,1.47369,-0.140329,-0.0770948,0.00101705,427.744,0.1,0.321626,0.390387,0.146588,0.10595,inf,inf,inf,inf,1,1,1,1,2,0,2,1,3,1,1,0
121948682,65222418,34.0348619,108.756711,0.0683102,2.16299,-0.829732,-0.0511265,-0.0257923,0.0,0.0145061,0.0146632,0.267022,0.130838,-0.0714168,-0.0348164,0.0633587,0.362476,3.58882,-3.18624,-0.0748548,0.00101705,427.744,0.1,0.312232,0.39032,0.141013,0.104745,inf,inf,inf,inf,1,1,1,1,2,0,2,1,3,1,1,0
122048757,65222418,34.0348619,108.756711,0.0614538,2.15945,-0.822058,-0.0511265,-0.0257923,0.0,0.0112343,0.0186885,0.240402,0.100386,-0.0714168,-0.0348164,0.0633587,-2.04863,4.1688,-2.16254,-0.071875,0.00101705,427.744,0.1,0.321089,0.392147,0.145528,0.106162,inf,inf,inf,inf,1,1,1,1,2,0,2,1,3,1,1,0
122148835,65222418,34.0348619,108.756711,0.0540111,2.15879,-0.815416,-0.0511265,-0.0257923,0.0,0.0117897,0.0243328,0.251468,0.108108,-0.0714168,-0.0348164,0.0633587,-0.223392,0.889977,1.15798,-0.0686909,0.00101705,427.744,0.1,0.311714,0.389642,0.140054,0.10469,inf,inf,inf,inf,1,1,1,1,2,0,2,1,3,1,1,0
122248907,65222418,34.0348619,108.756711,0.0472081,2.15846,-0.808278,-0.0511265,-0.0257923,0.0,0.00217087,-0.00226277,0.23959,0.095302,-0.0714168,-0.0348164,0.0633587,0.939854,-1.07316,0.794768,-0.0678543,0.00101705,427.744,0.1,0.320524,0.391458,0.144552,0.106113,inf,inf,inf,inf,1,1,1,1,2,0,2,1,3,1,1,0
122348982,65222418,34.0348619,108.756711,0.0402567,2.15703,-0.805425,-0.0511265,-0.0257923,0.0,0.0268307,-0.00597243,0.21851,0.0698313,-0.0714168,-0.0348164,0.0633587,0.659966,1.32167,-1.00776,-0.0677226,0.00101705,427.744,0.1,0.311163,0.388964,0.139194,0.104637,inf,inf,inf,inf,1,1,1,1,2,0,2,1,3,1,1,0
122449057,65222418,34.0348619,108.756711,0.0344708,2.1539,-0.804169,-0.0511265,-0.0257923,0.0,0.00533701,-0.00173337,0.224462,0.0720917,-0.0714168,-0.0348164,0.0633587,-1.02806,4.29046,5.37122,-0.0681849,0.00101705,427.744,0.1,0.319929,0.390771,0.143711,0.10605,inf,inf,inf,inf,1,1,1,1,2,0,2,1,3,1,1,0
122549132,65222418,34.0348619,108.756711,0.0264301,2.15156,-0.804027,-0.0511265,-0.0257923,0.0,0.0167391,-0.00474221,0.231004,0.0745831,-0.0714168,-0.0348164,0.0633587,0.446654,-1.67017,5.3242,-0.066393,0.00101705,427.744,0.1,0.310508,0.388282,0.138416,0.104564,inf,inf,inf,inf,1,1,1,1,2,0,2,1,3,1,1,0
122649221,65222418,34.0348619,108.756711,0.0184309,2.15099,-0.804616,-0.0511265,-0.0257923,0.0,0.0184171,0.0115273,0.2048,0.0445015,-0.0714168,-0.0348164,0.0633587,0.540062,-0.620544,-1.21193,-0.0674695,0.00101705,427.744,0.1,0.319223,0.392532,0.142867,0.106249,inf,inf,inf,inf,1,1,1,1,2,0,2,1,3,1,1,0
122749283,65222418,34.0348619,108.756711,0.0117806,2.14939,-0.808782,-0.0511265,-0.0257923,0.0,0.0237761,-0.0297245,0.202398,0.0361125,-0.0714168,-0.0348164,0.0633587,-1.8253,-2.74911,3.63897,-0.070236,0.00101705,427.744,0.1,0.309961,0.390023,0.137718,0.104776,inf,inf,inf,inf,1,1,1,1,2,0,2,1,3,1,1,0
122849357,65222418,34.0348619,108.756711,0.00579239,2.14608,-0.812192,-0.0511265,-0.0257923,0.0,0.0189038,-0.0269936,0.163299,-0.00634614,-0.0714168,-0.0348164,0.0633587,0.693926,0.671252,-5.81025,-0.074719,0.00101705,427.744,0.1,0.318635,0.391852,0.142208,0.106197,inf,inf,inf,inf,1,1,1,1,2,0,2,1,3,1,1,0
122949432,65222418,34.0348619,108.756711,-0.00256315,2.14554,-0.815213,-0.0511265,-0.0257923,0.0,0.0162083,-0.00392922,0.182763,0.0109798,-0.0714168,-0.0348164,0.0633587,0.3645,1.54597,4.20128,-0.0748297,0.00101705,427.744,0.1,0.309438,0.389354,0.137146,0.104713,inf,inf,inf,inf,1,1,1,1,2,0,2,1,3,1,1,0
123049507,65222418,34.0348619,108.756711,-0.00965096,2.14761,-0.817054,-0.0511265,-0.0257923,0.0,0.0300372,0.00842936,0.169332,-0.00292277,-0.0714168,-0.0348164,0.0633587,-1.03396,-0.747174,1.41167,-0.0725685,0.00101705,427.744,0.1,0.318077,0.391181,0.1416,0.106136,inf,inf,inf,inf,1,1,1,1,2,0,2,1,3,1,1,0
123149582,65222418,34.0348619,108.756711,-0.0164188,2.1483,-0.818785,-0.0511265,-0.0257923,0.0,0.0255254,-0.00522462,0.173987,0.0024294,-0.0714168,-0.0348164,0.0633587,0.798108,0.668206,2.95122,-0.0687991,0.00101705,427.744,0.1,0.308913,0.388694,0.136696,0.104667,inf,inf,inf,inf,1,1,1,1,2,0,2,1,3,1,1,0
123249657,65222418,34.0348619,108.756711,-0.0236807,2.14653,-0.819365,-0.0511265,-0.0257923,0.0,0.0213193,-0.038006,0.150573,-0.0182807,-0.0714168,-0.0348164,0.0633587,1.08095,-0.967506,-4.88527,-0.0670097,0.00101705,427.744,0.1,0.31752,0.390503,0.141079,0.106087,inf,inf,inf,inf,1,1,1,1,2,0,2,1,3,1,1,0
123349732,65222418,34.0348619,108.756711,-0.030492,2.14434,-0.816997,-0.0511265,-0.0257923,0.0,0.0138182,-0.0161421,0.154238,-0.00934997,-0.0714168,-0.0348164,0.0633587,-0.158883,2.23504,1.97875,-0.0671387,0.00101705,427.744,0.1,0.308286,0.390435,0.136132,0.104851,inf,inf,inf,inf,1,1,1,1,2,0,2,1,3,1,1,0
123449807,65222418,34.0348619,108.756711,-0.0365997,2.14504,-0.817105,-0.0511265,-0.0257923,0.0,0.0153108,-0.00408241,0.150978,-0.00950128,-0.0714168,-0.0348164,0.0633587,0.0835382,0.891945,3.76131,-0.0647911,0.00101705,427.744,0.1,0.316854,0.392275,0.140562,0.106274,inf,inf,inf,inf,1,1,1,1,2,0,2,1,3,1,1,0
123549885,65222418,34.0348619,108.756711,-0.0434741,2.14584,-0.821137,-0.0511265,-0.0257923,0.0,0.0283078,-0.0136198,0.124864,-0.0360794,-0.0714168,-0.0348164,0.0633587,0.853708,-1.5801,-5.12223,-0.0615905,0.00101705,427.744,0.1,0.307767,0.389764,0.135843,0.104797,inf,inf,inf,inf,1,1,1,1,2,0,2,1,3,1,1,0
123649958,65222418,34.0348619,108.756711,-0.0489346,2.14542,-0.825233,-0.0511265,-0.0257923,0.0,0.022784,-0.00101149,0.140325,-0.0199242,-0.0714168,-0.0348164,0.0633587,-1.03983,3.87448,8.18174,-0.0585236,0.00101705,427.744,0.1,0.316311,0.391593,0.140292,0.106229,inf,inf,inf,inf,1,1,1,1,2,0,2,1,3,1,1,0
123750033,65222418,34.0348619,108.756711,-0.0576309,2.14529,-0.83155,-0.0511265,-0.0257923,0.0,0.0157056,-0.0127068,0.117844,-0.0431669,-0.0714168,-0.0348164,0.0633587,0.0624561,-2.69476,-0.59107,-0.0543725,0.00101705,427.744,0.1,0.307247,0.389101,0.135581,0.10475,inf,inf,inf,inf,1,1,1,1,2,0,2,1,3,1,1,0
123850110,65222418,34.0348619,108.756711,-0.0663392,2.14505,-0.837418,-0.0511265,-0.0257923,0.0,0.015331,-0.00255762,0.0954257,-0.0647195,-0.0714168,-0.0348164,0.0633587,-1.08516,2.88615,1.56971,-0.0479069,0.00101705,427.744,0.104779,0.315769,0.390921,0.140033,0.106166,inf,inf,inf,inf,1,1,1,1,2,0,2,1,3,1,1,0
123950183,65222418,34.0348619,108.756711,-0.0748929,2.1445,-0.844629,-0.0511265,-0.0257923,0.0,0.0138772,-0.00488334,0.103727,-0.0564509,-0.0714168,-0.0348164,0.0633587,0.349035,-1.10424,2.30048,-0.0401262,0.00101705,427.744,0.11199,0.306754,0.388431,0.13534,0.104693,inf,inf,inf,inf,1,1,1,1,2,0,2,1,3,1,1,0
124050258,65222418,34.0348619,108.756711,-0.0831613,2.14342,-0.853184,-0.0511265,-0.0257923,0.0,0.0136391,-0.00917286,0.10521,-0.0552347,-0.0714168,-0.0348164,0.0633587,-0.279775,0.0968222,3.47572,-0.0351032,0.00101705,427.744,0.120545,0.315256,0.392697,0.139761,0.106375,inf,inf,inf,inf,1,1,1,1,2,0,2,1,3,1,1,0
124150333,65222418,34.0348619,108.756711,-0.0911748,2.14138,-0.860746,-0.0511265,-0.0257923,0.0,0.020913,-0.0148625,0.0922217,-0.0668892,-0.0714168,-0.0348164,0.0633587,-1.68697,-1.67727,5.12743,-0.0333642,0.00101705,427.744,0.128107,0.306286,0.390179,0.135256,0.104891,inf,inf,inf,inf,1,1,1,1,2,0,2,1,3,1,1,0
124250416,65222418,34.0348619,108.756711,-0.0984129,2.13897,-0.867717,-0.0511265,-0.0257923,0.0,0.0227521,-0.0121977,0.0631635,-0.0936282,-0.0714168,-0.0348164,0.0633587,0.472715,-0.350426,-1.86957,-0.0351783,0.00101705,427.744,0.135078,0.314773,0.392021,0.139681,0.106317,inf,inf,inf,inf,1,1,1,1,2,0,2,1,3,1,1,0
124350483,65222418,34.0348619,108.756711,-0.108671,2.13806,-0.873456,-0.0511265,-0.0257923,0.0,0.00453362,0.000779096,0.0590805,-0.0938587,-0.0714168,-0.0348164,0.0633587,0.496922,-0.418123,-0.70579,-0.0386989,0.00101705,427.744,0.140817,0.305839,0.389522,0.135095,0.104829,inf,inf,inf,inf,1,1,1,1,2,0,2,1,3,1,1,0
124450558,65222418,34.0348619,108.756711,-0.119338,2.1377,-0.877773,-0.0511265,-0.0257923,0.0,-0.000692651,0.0019608,0.0568487,-0.0903708,-0.0714168,-0.0348164,0.0633587,-0.378639,0.711985,1.77405,-0.047081,0.00101705,427.744,0.145134,0.314313,0.391353,0.139578,0.106249,inf,inf,inf,inf,1,1,1,1,2,0,2,1,3,1,1,0
124550633,65222418,34.0348619,108.756711,-0.131086,2.13595,-0.882277,-0.0511265,-0.0257923,0.0,-0.00231977,-0.0118324,0.0479296,-0.0929925,-0.0714168,-0.0348164,0.0633587,0.619274,-2.22744,0.625444,-0.0569093,0.00101705,427.744,0.149638,0.305416,0.388848,0.135011,0.104765,inf,inf,inf,inf,1,1,1,1,2,0,2,1,3,1,1,0
124650709,65222418,34.0348619,108.756711,-0.140948,2.13511,-0.8893,-0.0511265,-0.0257923,0.0,-0.0116536,0.00824536,0.0337244,-0.103954,-0.0714168,-0.0348164,0.0633587,-0.290486,-1.54138,-1.52155,-0.0630011,0.00101705,427.744,0.156662,0.313881,0.393117,0.13961,0.106446,inf,inf,inf,inf,1,1,1,1,2,0,2,1,3,1,1,0
124750784,65222418,34.0348619,108.756711,-0.153304,2.13429,-0.89433,-0.0511265,-0.0257923,0.0,-0.00927023,0.0130725,0.044387,-0.0881512,-0.0714168,-0.0348164,0.0633587,-0.0087357,-0.440532,0.64412,-0.0628378,0.00101705,427.744,0.161691,0.304986,0.390577,0.135027,0.104957,inf,inf,inf,inf,1,1,1,1,2,0,2,1,3,1,1,0
124850859,65222418,34.0348619,108.756711,-0.165454,2.13428,-0.897495,-0.0511265,-0.0257923,0.0,-0.0156016,0.0355123,0.0384856,-0.087323,-0.0714168,-0.0348164,0.0633587,-0.0470594,4.36315,2.23801,-0.0595958,0.00101705,427.744,0.164856,0.313445,0.392404,0.139556,0.106364,inf,inf,inf,inf,1,1,1,1,2,0,2,1,3,1,1,0
124950934,65222418,34.0348619,108.756711,-0.17952,2.13579,-0.897513,-0.0511265,-0.0257923,0.0,-0.0222254,0.0447362,0.0266391,-0.0897456,-0.0714168,-0.0348164,0.0633587,-0.53245,0.937152,-2.06513,-0.0555782,0.00101705,427.744,0.164874,0.304653,0.389884,0.135124,0.104886,inf,inf,inf,inf,1,1,1,1,2,0,2,1,3,1,1,0
125051014,65222418,34.0348619,108.756711,-0.191038,2.13725,-0.900569,-0.0511265,-0.0257923,0.0,-0.020404,0.0217937,0.00361272,-0.10649,-0.0714168,-0.0348164,0.0633587,0.311408,0.0402295,-4.62298,-0.0519476,0.00101705,427.744,0.16793,0.313114,0.39171,0.139669,0.106311,inf,inf,inf,inf,1,1,1,1,2,0,2,1,3,1,1,0
125151084,65222418,34.0348619,108.756711,-0.20217,2.13685,-0.903245,-0.0511265,-0.0257923,0.0,-0.0111704,0.00980077,0.01262,-0.0909725,-0.0714168,-0.0348164,0.0633587,-0.311287,-2.18891,0.720683,-0.0510812,0.00101705,427.744,0.170606,0.304235,0.389195,0.135077,0.104828,inf,inf,inf,inf,1,1,1,1,2,0,2,1,3,1,1,0
125251160,65222418,34.0348619,108.756711,-0.210033,2.13522,-0.905012,-0.0511265,-0.0257923,0.0,0.0167363,0.0271966,0.0154946,-0.0813218,-0.0714168,-0.0348164,0.0633587,-0.156803,2.57011,-0.678652,-0.0519587,0.00101705,427.744,0.172373,0.312694,0.391001,0.139628,0.106236,inf,inf,inf,inf,1,1,1,1,2,0,2,1,3,1,1,0
125351235,65222418,34.0348619,108.756711,-0.217987,2.13487,-0.904472,-0.0511265,-0.0257923,0.0,0.0189524,-0.00650268,0.00799919,-0.0804452,-0.0714168,-0.0348164,0.0633587,1.0567,-4.23013,-0.193213,-0.0526426,0.00101705,427.744,0.171833,0.303764,0.390923,0.135159,0.105007,inf,inf,inf,inf,1,1,1,1,2,0,2,1,3,1,1,0
125451318,65222418,34.0348619,108.756711,-0.225635,2.13507,-0.90432,-0.0511265,-0.0257923,0.0,0.0133384,0.0316461,0.0167613,-0.0640954,-0.0714168,-0.0348164,0.0633587,0.0797492,2.46203,6.2909,-0.0533155,0.00101705,427.744,0.171681,0.312218,0.392761,0.139612,0.106437,inf,inf,inf,inf,1,1,1,1,2,0,2,1,3,1,1,0
125551385,65222418,34.0348619,108.756711,-0.235016,2.13759,-0.903163,-0.0511265,-0.0257923,0.0,0.0117817,0.0396785,-0.00619873,-0.0792179,-0.0714168,-0.0348164,0.0633587,-0.360394,2.97156,-3.91935,-0.0567571,0.00101705,427.744,0.170524,0.303321,0.390231,0.135145,0.10494,inf,inf,inf,inf,1,1,1,1,2,0,2,1,3,1,1,0
125651473,65222418,34.0348619,108.756711,-0.244618,2.14107,-0.902237,-0.0511265,-0.0257923,0.0,-0.00461833,0.0258529,-3.86037e-05,-0.0662014,-0.0714168,-0.0348164,0.0633587,-0.0275215,-4.46543,-0.495429,-0.0567104,0.00101705,427.744,0.169598,0.311775,0.392059,0.139736,0.106356,inf,inf,inf,inf,1,1,1,1,2,0,2,1,3,1,1,0
125751536,65222418,34.0348619,108.756711,-0.255361,2.145,-0.901163,-0.0511265,-0.0257923,0.0,-0.00918169,0.053676,0.00739142,-0.0525341,-0.0714168,-0.0348164,0.0633587,0.18918,0.926988,3.23251,-0.0539492,0.00101705,427.744,0.168524,0.302905,0.389542,0.135109,0.104867,inf,inf,inf,inf,1,1,1,1,2,0,2,1,3,1,1,0
125851611,65222418,34.0348619,108.756711,-0.264609,2.1501,-0.903278,-0.0511265,-0.0257923,0.0,-0.0119863,0.0854341,-0.00599436,-0.0627919,-0.0714168,-0.0348164,0.0633587,-0.0553513,4.53889,-1.15506,-0.0528728,0.00101705,427.744,0.170639,0.31136,0.391359,0.139814,0.106286,inf,inf,inf,inf,1,1,1,1,2,0,2,1,3,1,1,0
125951686,65222418,34.0348619,108.756711,-0.275969,2.15836,-0.904026,-0.0511265,-0.0257923,0.0,-0.0150202,0.11427,0.0303528,-0.0232845,-0.0714168,-0.0348164,0.0633587,0.42093,0.190257,1.52008,-0.0528385,0.00101705,427.744,0.171387,0.302514,0.388854,0.135297,0.104795,inf,inf,inf,inf,1,1,1,1,2,0,2,1,3,1,1,0
126051761,65222418,34.0348619,108.756711,-0.286032,2.1696,-0.903341,-0.0511265,-0.0257923,0.0,-0.0057873,0.127707,-0.00308065,-0.052397,-0.0714168,-0.0348164,0.0633587,0.393726,-1.29207,3.1218,-0.0518822,0.00101705,427.744,0.170702,0.310973,0.390668,0.139716,0.106221,inf,inf,inf,inf,1,1,1,1,2,0,2,1,3,1,1,0
126151837,65222418,34.0348619,108.756711,-0.296499,2.18189,-0.903441,-0.0511265,-0.0257923,0.0,-0.00457806,0.156343,0.0138926,-0.0315301,-0.0714168,-0.0348164,0.0633587,-0.338767,3.97703,3.4236,-0.0505981,0.00101705,427.744,0.170802,0.302119,0.390592,0.135215,0.105017,inf,inf,inf,inf,1,1,1,1,2,0,2,1,3,1,1,0
126251915,65222418,34.0348619,108.756711,-0.304858,2.19598,-0.906346,-0.0511265,-0.0257923,0.0,0.0249753,0.165455,-0.000482222,-0.0458888,-0.0714168,-0.0348164,0.0633587,0.162293,2.11471,-0.73197,-0.0464622,0.00101705,427.744,0.173707,0.310581,0.392439,0.13994,0.106436,inf,inf,inf,inf,1,1,1,1,2,0,2,1,3,1,1,0
126351987,65222418,34.0348619,108.756711,-0.312147,2.21328,-0.907556,-0.0511265,-0.0257923,0.0,0.0562608,0.161981,-0.0124322,-0.0549879,-0.0714168,-0.0348164,0.0633587,1.42072,-0.537051,1.87406,-0.0410857,0.00101705,427.744,0.174917,0.301694,0.389918,0.135326,0.104945,inf,inf,inf,inf,1,1,1,1,2,0,2,1,3,1,1,0
126452062,65222418,34.0348619,108.756711,-0.316118,2.23036,-0.911504,-0.0511265,-0.0257923,0.0,0.0807098,0.15857,-0.00337122,-0.0440555,-0.0714168,-0.0348164,0.0633587,-0.489971,1.18857,4.96112,-0.0377432,0.00101705,427.744,0.178865,0.31016,0.391746,0.139897,0.106373,inf,inf,inf,inf,1,1,1,1,2,0,2,1,3,1,1,0
126552137,65222418,34.0348619,108.756711,-0.316375,2.24658,-0.914717,-0.0511265,-0.0257923,0.0,0.125728,0.141529,-0.0171609,-0.0559655,-0.0714168,-0.0348164,0.0633587,0.14418,1.79463,2.46861,-0.0391165,0.00101705,427.744,0.182078,0.301243,0.389236,0.135514,0.104883,inf,inf,inf,inf,1,1,1,1,2,0,2,1,3,1,1,0
126652215,65222418,34.0348619,108.756711,-0.311368,2.2606,-0.919888,-0.0511265,-0.0257923,0.0,0.16258,0.100488,-0.0346063,-0.0724623,-0.0714168,-0.0348164,0.0633587,1.07901,-2.07928,1.01957,-0.0418588,0.00101705,427.744,0.187249,0.309717,0.391062,0.140091,0.106293,inf,inf,inf,inf,1,1,1,1,2,0,2,1,3,1,1,0
126752288,65222418,34.0348619,108.756711,-0.305749,2.27041,-0.924767,-0.0511265,-0.0257923,0.0,0.194326,0.0831067,-0.0471714,-0.0832124,-0.0714168,-0.0348164,0.0633587,0.0838536,0.222447,-2.84611,-0.0429979,0.00101705,427.744,0.192129,0.300796,0.388563,0.13554,0.104814,inf,inf,inf,inf,1,1,1,1,2,0,2,1,3,1,1,0
126852366,65222418,34.0348619,108.756711,-0.29691,2.27827,-0.928896,-0.0511265,-0.0257923,0.0,0.218442,0.0633565,-0.0391978,-0.0727383,-0.0714168,-0.0348164,0.0633587,0.197729,-0.137868,1.50932,-0.043828,0.00101705,427.744,0.196257,0.309275,0.392829,0.140205,0.106488,inf,inf,inf,inf,1,1,1,1,2,0,2,1,3,1,1,0
126952442,65222418,34.0348619,108.756711,-0.287442,2.28543,-0.931793,-0.0511265,-0.0257923,0.0,0.227143,0.040631,-0.0525701,-0.0809416,-0.0714168,-0.0348164,0.0633587,0.130713,1.74076,1.35213,-0.0434187,0.00101705,427.744,0.199154,0.300327,0.390303,0.135566,0.104996,inf,inf,inf,inf,1,1,1,1,2,0,2,1,3,1,1,0
127052514,65222418,34.0348619,108.756711,-0.274791,2.2906,-0.93698,-0.0511265,-0.0257923,0.0,0.253913,0.011658,-0.0498496,-0.0756921,-0.0714168,-0.0348164,0.0633587,-0.734677,0.667298,3.16523,-0.0408943,0.00101705,427.744,0.204341,0.308812,0.392141,0.140315,0.106425,inf,inf,inf,inf,1,1,1,1,2,0,2,1,3,1,1,0
127152589,65222418,34.0348619,108.756711,-0.26268,2.2948,-0.942851,-0.0511265,-0.0257923,0.0,0.253142,-0.024083,-0.0743172,-0.0985645,-0.0714168,-0.0348164,0.0633587,1.40918,-1.45341,-3.9342,-0.0371084,0.00101705,427.744,0.210212,0.299865,0.389627,0.135705,0.104923,inf,inf,inf,inf,1,1,1,1,2,0,2,1,3,1,1,0
127252664,65222418,34.0348619,108.756711,-0.250322,2.29632,-0.950901,-0.0511265,-0.0257923,0.0,0.247909,-0.0463437,-0.0719126,-0.0961757,-0.0714168,-0.0348164,0.0633587,0.47618,2.09328,-1.05997,-0.0356778,0.00101705,427.744,0.218262,0.308357,0.391453,0.140353,0.106353,inf,inf,inf,inf,1,1,1,1,2,0,2,1,3,1,1,0
127352740,65222418,34.0348619,108.756711,-0.238144,2.29611,-0.959233,-0.0511265,-0.0257923,0.0,0.241202,-0.0582259,-0.0622911,-0.085509,-0.0714168,-0.0348164,0.0633587,-1.31848,-0.72083,3.41778,-0.0357103,0.00101705,427.744,0.226594,0.29949,0.388957,0.135852,0.104877,inf,inf,inf,inf,1,1,1,1,2,0,2,1,3,1,1,0
127452815,65222418,34.0348619,108.756711,-0.223384,2.29507,-0.966477,-0.0511265,-0.0257923,0.0,0.240955,-0.0463358,-0.0878848,-0.110078,-0.0714168,-0.0348164,0.0633587,0.296934,-0.179579,-7.14119,-0.0381794,0.00101705,427.744,0.233838,0.308,0.390774,0.140526,0.106305,inf,inf,inf,inf,1,1,1,1,2,0,2,1,3,1,1,0
127552890,65222418,34.0348619,108.756711,-0.210816,2.2964,-0.974211,-0.0511265,-0.0257923,0.0,0.222864,-0.017399,-0.0991761,-0.118645,-0.0714168,-0.0348164,0.0633587,-1.4716,1.19508,3.50988,-0.0416706,0.00101705,427.744,0.241572,0.299034,0.390701,0.135817,0.105079,inf,inf,inf,inf,1,1,1,1,2,0,2,1,3,1,1,0
127652966,65222418,34.0348619,108.756711,-0.198886,2.29921,-0.984245,-0.0511265,-0.0257923,0.0,0.219817,-0.00206652,-0.151161,-0.166361,-0.0714168,-0.0348164,0.0633587,0.845469,-2.24631,-0.569586,-0.0487593,0.00101705,427.744,0.251606,0.307551,0.392541,0.140468,0.10652,inf,inf,inf,inf,1,1,1,1,2,0,2,1,3,1,1,0
127753049,65222418,34.0348619,108.756711,-0.187685,2.30684,-0.994505,-0.0511265,-0.0257923,0.0,0.207566,0.0388486,-0.158713,-0.167385,-0.0714168,-0.0348164,0.0633587,0.430457,-0.0934886,2.4597,-0.0566669,0.00101705,427.744,0.261866,0.298582,0.389989,0.136035,0.105012,inf,inf,inf,inf,1,1,1,1,2,0,2,1,3,1,1,0
127853116,65222418,34.0348619,108.756711,-0.175949,2.31737,-1.00591,-0.0511265,-0.0257923,0.0,0.199693,0.0653443,-0.180104,-0.184044,-0.0714168,-0.0348164,0.0633587,0.241594,-1.13959,-2.64297,-0.0634671,0.00101705,427.744,0.273274,0.307115,0.391785,0.140876,0.106437,inf,inf,inf,inf,1,1,1,1,2,0,2,1,3,1,1,0
127953192,65222418,34.0348619,108.756711,-0.166545,2.3285,-1.01584,-0.0511265,-0.0257923,0.0,0.182864,0.0895704,-0.144212,-0.143145,-0.0714168,-0.0348164,0.0633587,-0.0626788,1.20614,-1.26546,-0.0695933,0.00101705,427.744,0.283198,0.298164,0.391684,0.136308,0.105219,inf,inf,inf,inf,1,1,1,1,2,0,2,1,3,1,1,0
128053275,65222418,34.0348619,108.756711,-0.15674,2.33989,-1.02395,-0.0511265,-0.0257923,0.0,0.173183,0.0916046,-0.120987,-0.117235,-0.0714168,-0.0348164,0.0633587,0.972834,-0.822943,-2.77394,-0.0752174,0.00101705,427.744,0.291316,0.306714,0.393513,0.140923,0.106645,inf,inf,inf,inf,1,1,1,1,2,0,2,1,3,1,1,0
128153343,65222418,34.0348619,108.756711,-0.147418,2.35166,-1.02622,-0.0511265,-0.0257923,0.0,0.154425,0.114509,-0.0855527,-0.0761368,-0.0714168,-0.0348164,0.0633587,0.174495,2.02955,-3.2678,-0.0786413,0.00101705,427.744,0.293583,0.297917,0.390941,0.136146,0.10514,inf,inf,inf,inf,1,1,1,1,2,0,2,1,3,1,1,0
128253422,65222418,34.0348619,108.756711,-0.138039,2.3654,-1.03031,-0.0511265,-0.0257923,0.0,0.130783,0.143183,-0.0795591,-0.0688296,-0.0714168,-0.0348164,0.0633587,-0.790441,2.92378,0.227157,-0.0805639,0.00101705,427.744,0.297673,0.306478,0.39276,0.140659,0.106557,inf,inf,inf,inf,1,1,1,1,2,0,2,1,3,1,1,0
128353493,65222418,34.0348619,108.756711,-0.131706,2.37882,-1.03495,-0.0511265,-0.0257923,0.0,0.115164,0.161832,-0.0982385,-0.0860545,-0.0714168,-0.0348164,0.0633587,-1.39292,1.97059,-2.82055,-0.0814041,0.00101705,427.744,0.302316,0.297812,0.390203,0.135949,0.105064,inf,inf,inf,inf,1,1,1,1,2,0,2,1,3,1,1,0
128453568,65222418,34.0348619,108.756711,-0.126666,2.39429,-1.0393,-0.0511265,-0.0257923,0.0,0.0885354,0.188888,-0.0754407,-0.0617522,-0.0714168,-0.0348164,0.0633587,-0.595024,-0.312598,3.30292,-0.0804674,0.00101705,427.744,0.306661,0.306388,0.392011,0.14064,0.106479,inf,inf,inf,inf,1,1,1,1,2,0,2,1,3,1,1,0
128553644,65222418,34.0348619,108.756711,-0.128037,2.41366,-1.03954,-0.0511265,-0.0257923,0.0,0.0595689,0.20842,-0.102533,-0.0822991,-0.0714168,-0.0348164,0.0633587,-0.522107,-4.13852,0.133577,-0.0791778,0.00101705,427.744,0.306901,0.297827,0.389469,0.136,0.104988,inf,inf,inf,inf,1,1,1,1,2,0,2,1,3,1,1,0
128653719,65222418,34.0348619,108.756711,-0.13138,2.43604,-1.04391,-0.0511265,-0.0257923,0.0,0.0203806,0.255828,-0.114439,-0.0911486,-0.0714168,-0.0348164,0.0633587,-0.477636,4.10497,-0.296643,-0.0766965,0.00101705,427.744,0.311275,0.306423,0.393744,0.140797,0.106683,inf,inf,inf,inf,1,1,1,1,2,0,2,1,3,1,1,0
128753794,65222418,34.0348619,108.756711,-0.136594,2.45945,-1.04641,-0.0511265,-0.0257923,0.0,0.0109249,0.267632,-0.116091,-0.0884393,-0.0714168,-0.0348164,0.0633587,-0.449708,0.0488228,-4.58497,-0.0740833,0.00101705,427.744,0.313773,0.297954,0.391177,0.136323,0.105194,inf,inf,inf,inf,1,1,1,1,2,0,2,1,3,1,1,0
128853870,65222418,34.0348619,108.756711,-0.141896,2.48462,-1.04839,-0.0511265,-0.0257923,0.0,-0.00834936,0.282054,-0.125601,-0.0932779,-0.0714168,-0.0348164,0.0633587,-0.454588,-0.755794,-6.68841,-0.0733434,0.00101705,427.744,0.315751,0.306577,0.392999,0.140956,0.106616,inf,inf,inf,inf,1,1,1,1,2,0,2,1,3,1,1,0
128953945,65222418,34.0348619,108.756711,-0.150646,2.51124,-1.04801,-0.0511265,-0.0257923,0.0,-0.0157211,0.306394,-0.143056,-0.103313,-0.0714168,-0.0348164,0.0633587,-0.605381,-2.0426,-8.76727,-0.0730359,0.00101705,427.744,0.315372,0.298207,0.390447,0.136318,0.105122,inf,inf,inf,inf,1,1,1,1,2,0,2,1,3,1,1,0
129054021,65222418,34.0348619,108.756711,-0.159337,2.54026,-1.05211,-0.0511265,-0.0257923,0.0,-0.0209168,0.321962,-0.142673,-0.0993093,-0.0714168,-0.0348164,0.0633587,0.215352,-1.11659,-2.97174,-0.0735832,0.00101705,427.744,0.319471,0.306853,0.392267,0.141021,0.106545,inf,inf,inf,inf,1,1,1,1,2,0,2,1,3,1,1,0
129154096,65222418,34.0348619,108.756711,-0.16807,2.56865,-1.05413,-0.0511265,-0.0257923,0.0,-0.0189538,0.333358,-0.147063,-0.0972553,-0.0714168,-0.0348164,0.0633587,0.209236,-1.88229,-3.50777,-0.0746563,0.00101705,427.744,0.321492,0.298515,0.389728,0.136516,0.105056,inf,inf,inf,inf,1,1,1,1,2,0,2,1,3,1,1,0
129254171,65222418,34.0348619,108.756711,-0.174711,2.59833,-1.05592,-0.0511265,-0.0257923,0.0,-0.0141496,0.346723,-0.136598,-0.0822614,-0.0714168,-0.0348164,0.0633587,0.77506,-1.88097,-1.4829,-0.0771649,0.00101705,427.744,0.323284,0.307186,0.391539,0.14124,0.106468,inf,inf,inf,inf,1,1,1,1,2,0,2,1,3,1,1,0
129354247,65222418,34.0348619,108.756711,-0.182523,2.62904,-1.05412,-0.0511265,-0.0257923,0.0,-0.0167438,0.337182,-0.13775,-0.075277,-0.0714168,-0.0348164,0.0633587,-0.604096,-2.56608,-2.32619,-0.0791946,0.00101705,427.744,0.321485,0.298848,0.391439,0.136567,0.10524,inf,inf,inf,inf,1,1,1,1,2,0,2,1,3,1,1,0
129454322,65222418,34.0348619,108.756711,-0.188708,2.65852,-1.05232,-0.0511265,-0.0257923,0.0,-0.000242707,0.304688,-0.115278,-0.0466749,-0.0714168,-0.0348164,0.0633587,-0.385794,-3.37681,-3.23601,-0.0821688,0.00101705,427.744,0.319685,0.307536,0.393257,0.14123,0.106658,inf,inf,inf,inf,1,1,1,1,2,0,2,1,3,1,1,0
129554398,65222418,34.0348619,108.756711,-0.195637,2.68285,-1.04608,-0.0511265,-0.0257923,0.0,0.0157829,0.25152,-0.103251,-0.0267684,-0.0714168,-0.0348164,0.0633587,-0.60615,-2.713,-4.21716,-0.085046,0.00101705,427.744,0.313441,0.299249,0.39069,0.13663,0.105143,inf,inf,inf,inf,1,1,1,1,2,0,2,1,3,1,1,0
129654476,65222418,34.0348619,108.756711,-0.200357,2.7021,-1.04175,-0.0511265,-0.0257923,0.0,0.0336649,0.196674,-0.0780386,0.0014115,-0.0714168,-0.0348164,0.0633587,0.796667,-0.14638,-1.89925,-0.0889866,0.00101705,427.744,0.309112,0.307953,0.392498,0.141104,0.10655,inf,inf,inf,inf,1,1,1,1,2,0,2,1,3,1,1,0
129754548,65222418,34.0348619,108.756711,-0.202902,2.71336,-1.0326,-0.0511265,-0.0257923,0.0,0.0743727,0.111902,-0.0342889,0.0493838,-0.0714168,-0.0348164,0.0633587,0.939804,-0.888808,-2.31201,-0.0908617,0.00101705,427.744,0.299958,0.299808,0.389954,0.136477,0.105067,inf,inf,inf,inf,1,1,1,1,2,0,2,1,3,1,1,0
129854624,65222418,34.0348619,108.756711,-0.19948,2.71717,-1.0241,-0.0511265,-0.0257923,0.0,0.11227,0.042903,0.00182764,0.0848994,-0.0714168,-0.0348164,0.0633587,0.799032,-0.027762,2.80193,-0.092504,0.00101705,427.744,0.291465,0.308529,0.391751,0.141048,0.106471,inf,inf,inf,inf,1,1,1,1,2,0,2,1,3,1,1,0
129954699,65222418,34.0348619,108.756711,-0.194392,2.71698,-1.01382,-0.0511265,-0.0257923,0.0,0.146731,-0.0513595,-0.00794277,0.0759541,-0.0714168,-0.0348164,0.0633587,0.613386,-2.85841,-1.98316,-0.0963415,0.00101705,427.744,0.281181,0.300362,0.391652,0.136304,0.105236,inf,inf,inf,inf,1,1,1,1,2,0,2,1,3,1,1,0
130054775,65222418,34.0348619,108.756711,-0.187455,2.71227,-1.01378,-0.0511265,-0.0257923,0.0,0.129074,-0.0756087,-0.165878,-0.0831033,-0.0714168,-0.0348164,0.0633587,-0.788062,0.357549,-0.662905,-0.0938068,0.00101705,427.744,0.281141,0.309087,0.393482,0.140908,0.106655,inf,inf,inf,inf,1,1,1,1,2,0,2,1,3,1,1,0
130154850,65222418,34.0348619,108.756711,-0.181421,2.70209,-1.01906,-0.0511265,-0.0257923,0.0,0.164827,-0.157899,-0.132763,-0.0498124,-0.0714168,-0.0348164,0.0633587,0.473556,-0.654999,0.666381,-0.089542,0.00101705,427.744,0.286419,0.300824,0.390912,0.136251,0.105147,inf,inf,inf,inf,1,1,1,1,2,0,2,1,3,1,1,0
130254926,65222418,34.0348619,108.756711,-0.170019,2.68355,-1.02234,-0.0511265,-0.0257923,0.0,0.199048,-0.233415,-0.109585,-0.0266157,-0.0714168,-0.0348164,0.0633587,1.02988,0.352731,-0.940934,-0.0849848,0.00101705,427.744,0.289699,0.309582,0.392731,0.141677,0.10657,inf,inf,inf,inf,1,1,1,1,2,0,2,1,3,1,1,0
130355001,65222418,34.0348619,108.756711,-0.153154,2.65914,-1.01559,-0.0511265,-0.0257923,0.0,0.244044,-0.300856,-0.0580326,0.030413,-0.0714168,-0.0348164,0.0633587,-0.681954,-0.300224,2.13758,-0.0827684,0.00101705,427.744,0.282955,0.301221,0.390175,0.136923,0.105071,inf,inf,inf,inf,1,1,1,1,2,0,2,1,3,1,1,0
130455077,65222418,34.0348619,108.756711,-0.130625,2.62808,-1.0061,-0.0511265,-0.0257923,0.0,0.269046,-0.375373,-0.0650711,0.0272637,-0.0714168,-0.0348164,0.0633587,-0.835783,1.51023,-6.31967,-0.0803629,0.00101705,427.744,0.273463,0.309982,0.391984,0.141354,0.106481,inf,inf,inf,inf,1,1,1,1,2,0,2,1,3,1,1,0
130555152,65222418,34.0348619,108.756711,-0.10481,2.59147,-0.993581,-0.0511265,-0.0257923,0.0,0.307978,-0.432627,-0.0569766,0.0416413,-0.0714168,-0.0348164,0.0633587,0.985922,1.15859,-1.14067,-0.0768342,0.00101705,427.744,0.260943,0.301576,0.389443,0.136525,0.104985,inf,inf,inf,inf,1,1,1,1,2,0,2,1,3,1,1,0
130655228,65222418,34.0348619,108.756711,-0.0755609,2.54915,-0.986927,-0.0511265,-0.0257923,0.0,0.318792,-0.474491,-0.109059,-0.00804666,-0.0714168,-0.0348164,0.0633587,0.14495,0.148711,-0.85537,-0.0740142,0.00101705,427.744,0.254288,0.310328,0.393717,0.141121,0.106674,inf,inf,inf,inf,1,1,1,1,2,0,2,1,3,1,1,0
130755303,65222418,34.0348619,108.756711,-0.0454442,2.50195,-0.982909,-0.0511265,-0.0257923,0.0,0.332148,-0.547271,-0.0899665,0.0129084,-0.0714168,-0.0348164,0.0633587,0.78638,-4.44578,-2.12461,-0.0727389,0.00101705,427.744,0.25027,0.301881,0.391151,0.13654,0.105178,inf,inf,inf,inf,1,1,1,1,2,0,2,1,3,1,1,0
130855384,65222418,34.0348619,108.756711,-0.0131316,2.44778,-0.978046,-0.0511265,-0.0257923,0.0,0.345575,-0.602292,-0.0339372,0.067791,-0.0714168,-0.0348164,0.0633587,1.04533,-0.49256,2.01007,-0.0714933,0.00101705,427.744,0.245407,0.310641,0.392981,0.141376,0.106605,inf,inf,inf,inf,1,1,1,1,2,0,2,1,3,1,1,0
130955454,65222418,34.0348619,108.756711,0.022617,2.38883,-0.972769,-0.0511265,-0.0257923,0.0,0.343343,-0.634526,-0.0790102,0.0219195,-0.0714168,-0.0348164,0.0633587,1.05543,1.50982,0.268817,-0.0712888,0.00101705,427.744,0.24013,0.302156,0.390437,0.136585,0.105115,inf,inf,inf,inf,1,1,1,1,2,0,2,1,3,1,1,0
131055529,65222418,34.0348619,108.756711,0.0593376,2.32513,-0.97484,-0.0511265,-0.0257923,0.0,0.347769,-0.688494,-0.107097,-0.0104251,-0.0714168,-0.0348164,0.0633587,-0.105068,-0.888724,-6.65438,-0.0707154,0.00101705,427.744,0.242201,0.310909,0.392258,0.14111,0.106533,inf,inf,inf,inf,1,1,1,1,2,0,2,1,3,1,1,0
131155605,65222418,34.0348619,108.756711,0.0953299,2.25686,-0.976919,-0.0511265,-0.0257923,0.0,0.337034,-0.744794,-0.086331,0.00632283,-0.0714168,-0.0348164,0.0633587,0.181283,-1.41372,-0.753966,-0.070084,0.00101705,427.744,0.244281,0.302372,0.389726,0.1367,0.105046,inf,inf,inf,inf,1,1,1,1,2,0,2,1,3,1,1,0
131255680,65222418,34.0348619,108.756711,0.130236,2.1823,-0.980406,-0.0511265,-0.0257923,0.0,0.327003,-0.793832,-0.0946955,-0.00743878,-0.0714168,-0.0348164,0.0633587,0.0160797,-2.54764,-4.82896,-0.0723153,0.00101705,427.744,0.247767,0.311132,0.391537,0.141314,0.106467,inf,inf,inf,inf,1,1,1,1,2,0,2,1,3,1,1,0
131355756,65222418,34.0348619,108.756711,0.166648,2.10601,-0.982125,-0.0511265,-0.0257923,0.0,0.321856,-0.791605,-0.0761726,0.00725468,-0.0714168,-0.0348164,0.0633587,0.159552,-1.8169,0.584404,-0.0730711,0.00101705,427.744,0.249486,0.302518,0.389018,0.136634,0.104978,inf,inf,inf,inf,1,1,1,1,2,0,2,1,3,1,1,0
131455832,65222418,34.0348619,108.756711,0.20188,2.02865,-0.986433,-0.0511265,-0.0257923,0.0,0.302417,-0.798635,-0.113519,-0.0346677,-0.0714168,-0.0348164,0.0633587,0.05488,0.331154,-0.29845,-0.0748485,0.00101705,427.744,0.253794,0.311271,0.393287,0.14117,0.106672,inf,inf,inf,inf,1,1,1,1,2,0,2,1,3,1,1,0
131555911,65222418,34.0348619,108.756711,0.238191,1.95041,-0.995547,-0.0511265,-0.0257923,0.0,0.337744,-0.761053,-0.126565,-0.0526085,-0.0714168,-0.0348164,0.0633587,0.242966,1.00636,5.15197,-0.0803291,0.00101705,427.744,0.262908,0.302641,0.390742,0.136467,0.10518,inf,inf,inf,inf,1,1,1,1,2,0,2,1,3,1,1,0
131645978,65222418,34.0348619,108.756711,0.274216,1.883,-1.00766,-0.0511265,-0.0257923,0.0,0.385667,-0.743088,-0.177506,-0.109106,-0.0714168,-0.0348164,0.0633587,1.13047,-2.13363,-1.74874,-0.0826134,0.00101705,427.744,0.275021,0.310492,0.391897,0.140741,0.106395,inf,inf,inf,inf,1,1,1,1,2,0,2,1,3,1,1,0
131756058,65222418,34.0348619,108.756711,0.324349,1.80105,-1.02321,-0.0511265,-0.0257923,0.0,0.480113,-0.729481,-0.209334,-0.144453,-0.0714168,-0.0348164,0.0633587,1.35487,-5.48025,-5.65281,-0.0817107,0.00101705,427.744,0.290571,0.30282,0.390043,0.136763,0.105113,inf,inf,inf,inf,1,1,1,1,2,0,2,1,3,1,1,0
131856134,65222418,34.0348619,108.756711,0.380725,1.72908,-1.04076,-0.0511265,-0.0257923,0.0,0.60565,-0.691737,-0.194322,-0.133931,-0.0714168,-0.0348164,0.0633587,2.22831,-0.134871,0.845959,-0.079873,0.00101705,427.744,0.308125,0.311582,0.391867,0.141426,0.106529,inf,inf,inf,inf,1,1,1,1,2,0,2,1,3,1,1,0
131956209,65222418,34.0348619,108.756711,0.44941,1.65855,-1.05624,-0.0511265,-0.0257923,0.0,0.715915,-0.680041,-0.199041,-0.141284,-0.0714168,-0.0348164,0.0633587,1.47152,-0.354862,-1.18512,-0.0795348,0.00101705,427.744,0.323603,0.302807,0.389339,0.136765,0.105028,inf,inf,inf,inf,1,1,1,1,2,0,2,1,3,1,1,0
132056296,65222418,34.0348619,108.756711,0.526456,1.59056,-1.07017,-0.0511265,-0.0257923,0.0,0.774476,-0.666038,-0.176462,-0.119865,-0.0714168,-0.0348164,0.0633587,1.3183,-2.15118,-0.932081,-0.0797227,0.00101705,427.744,0.337527,0.311564,0.391153,0.141348,0.106432,inf,inf,inf,inf,1,1,1,1,2,0,2,1,3,1,1,0
132146353,65222418,34.0348619,108.756711,0.597396,1.52994,-1.07969,-0.0511265,-0.0257923,0.0,0.809227,-0.632028,-0.143868,-0.0878141,-0.0714168,-0.0348164,0.0633587,0.300227,2.83556,0.079518,-0.0798524,0.00101705,427.744,0.34705,0.301898,0.390399,0.136112,0.105002,inf,inf,inf,inf,1,1,1,1,2,0,2,1,3,1,1,0
132256436,65222418,34.0348619,108.756711,0.686008,1.45986,-1.0901,-0.0511265,-0.0257923,0.0,0.814153,-0.580328,-0.0871648,-0.0348634,-0.0714168,-0.0348164,0.0633587,-0.60171,2.9405,4.53957,-0.0807069,0.00101705,427.744,0.35746,0.311486,0.39291,0.141107,0.106612,inf,inf,inf,inf,1,1,1,1,2,0,2,1,3,1,1,0
132346504,65222418,34.0348619,108.756711,0.750568,1.40656,-1.09769,-0.0511265,-0.0257923,0.0,0.782126,-0.531636,-0.0881687,-0.040062,-0.0714168,-0.0348164,0.0633587,-0.0346881,1.0483,-0.479059,-0.0824974,0.00101705,427.744,0.365053,0.301814,0.389704,0.135786,0.104917,inf,inf,inf,inf,1,1,1,1,2,0,2,1,3,1,1,0
132456587,65222418,34.0348619,108.756711,0.824583,1.35018,-1.10547,-0.0511265,-0.0257923,0.0,0.741782,-0.450223,-0.0705843,-0.0280933,-0.0714168,-0.0348164,0.0633587,-0.299988,1.22808,-2.31766,-0.085212,0.00101705,427.744,0.372827,0.311376,0.392203,0.140652,0.106527,inf,inf,inf,inf,1,1,1,1,2,0,2,1,3,1,1,0
132556662,65222418,34.0348619,108.756711,0.890872,1.30735,-1.11096,-0.0511265,-0.0257923,0.0,0.730043,-0.331481,-0.0448537,-0.00750485,-0.0714168,-0.0348164,0.0633587,-0.376139,2.09655,-1.96943,-0.0888698,0.00101705,427.744,0.378317,0.302469,0.389683,0.135846,0.105034,inf,inf,inf,inf,1,1,1,1,2,0,2,1,3,1,1,0
132656738,65222418,34.0348619,108.756711,0.956438,1.27763,-1.11854,-0.0511265,-0.0257923,0.0,0.694087,-0.210047,-0.0690924,-0.0381332,-0.0714168,-0.0348164,0.0633587,-0.468543,-0.322961,-3.77069,-0.0894912,0.00101705,427.744,0.385903,0.311166,0.391507,0.140344,0.106432,inf,inf,inf,inf,1,1,1,1,2,0,2,1,3,1,1,0
132756814,65222418,34.0348619,108.756711,1.02082,1.25838,-1.13077,-0.0511265,-0.0257923,0.0,0.688068,-0.082744,-0.0654672,-0.0432411,-0.0714168,-0.0348164,0.0633587,0.592466,2.29369,-1.59248,-0.0882699,0.00101705,427.744,0.398128,0.302216,0.388998,0.135692,0.104939,inf,inf,inf,inf,1,1,1,1,2,0,2,1,3,1,1,0
132846883,65222418,34.0348619,108.756711,1.07868,1.2523,-1.142,-0.0511265,-0.0257923,0.0,0.668334,0.0552567,-0.0738491,-0.0580525,-0.0714168,-0.0348164,0.0633587,-0.0197869,5.38793,3.18298,-0.0896653,0.00101705,427.744,0.409358,0.310008,0.392598,0.139909,0.106417,inf,inf,inf,inf,1,1,1,1,2,0,2,1,3,1,1,0
132956965,65222418,34.0348619,108.756711,1.14486,1.25773,-1.15707,-0.0511265,-0.0257923,0.0,0.649089,0.144429,-0.0844946,-0.0764933,-0.0714168,-0.0348164,0.0633587,-0.62987,2.25353,-0.842078,-0.091107,0.00101705,427.744,0.424434,0.301937,0.390735,0.135809,0.105101,inf,inf,inf,inf,1,1,1,1,2,0,2,1,3,1,1,0
133047033,65222418,34.0348619,108.756711,1.19678,1.26861,-1.16875,-0.0511265,-0.0257923,0.0,0.618559,0.215698,-0.0753337,-0.0726764,-0.0714168,-0.0348164,0.0633587,0.645552,5.51914,-1.11329,-0.0919828,0.00101705,427.744,0.436114,0.309723,0.391899,0.140024,0.106318,inf,inf,inf,inf,1,1,1,1,2,0,2,1,3,1,1,0
133157116,65222418,34.0348619,108.756711,1.25425,1.28658,-1.18296,-0.0511265,-0.0257923,0.0,0.590892,0.242533,-0.0561629,-0.0597862,-0.0714168,-0.0348164,0.0633587,-0.0693579,-3.06242,2.87647,-0.0916226,0.00101705,427.744,0.450321,0.301742,0.390053,0.135946,0.105021,inf,inf,inf,inf,1,1,1,1,2,0,2,1,3,1,1,0
133257191,65222418,34.0348619,108.756711,1.30534,1.30827,-1.19639,-0.0511265,-0.0257923,0.0,0.568419,0.317869,-0.0634669,-0.0728648,-0.0714168,-0.0348164,0.0633587,-0.560308,0.939435,3.28678,-0.0909326,0.00101705,427.744,0.463752,0.31042,0.391886,0.140465,0.106441,inf,inf,inf,inf,1,1,1,1,2,0,2,1,3,1,1,0
133347261,65222418,34.0348619,108.756711,1.34493,1.33306,-1.20849,-0.0511265,-0.0257923,0.0,0.568313,0.383438,-0.0553511,-0.0693845,-0.0714168,-0.0348164,0.0633587,-0.181996,-2.82246,0.285268,-0.0905162,0.00101705,427.744,0.475849,0.3007,0.38871,0.135406,0.104777,inf,inf,inf,inf,1,1,1,1,2,0,2,1,3,1,1,0
133457345,65222418,34.0348619,108.756711,1.39511,1.37512,-1.21844,-0.0511265,-0.0257923,0.0,0.560795,0.512988,-0.0413291,-0.0574017,-0.0714168,-0.0348164,0.0633587,-0.625083,1.21448,-1.14718,-0.0890285,0.00101705,427.744,0.485799,0.310216,0.391195,0.140543,0.106392,inf,inf,inf,inf,1,1,1,1,2,0,2,1,3,1,1,0
133547410,65222418,34.0348619,108.756711,1.43474,1.42199,-1.22509,-0.0511265,-0.0257923,0.0,0.565891,0.631403,-0.0437328,-0.0610167,-0.0714168,-0.0348164,0.0633587,-0.112413,-0.915244,-6.34035,-0.0873637,0.00101705,427.744,0.492456,0.300522,0.390455,0.135417,0.104977,inf,inf,inf,inf,1,1,1,1,2,0,2,1,3,1,1,0
133657493,65222418,34.0348619,108.756711,1.48589,1.49465,-1.23314,-0.0511265,-0.0257923,0.0,0.563389,0.749038,-0.0639599,-0.0815339,-0.0714168,-0.0348164,0.0633587,-0.0742417,1.55284,0.201908,-0.0844806,0.00101705,427.744,0.500506,0.310036,0.392967,0.140463,0.106575,inf,inf,inf,inf,1,1,1,1,2,0,2,1,3,1,1,0
133747562,65222418,34.0348619,108.756711,1.52426,1.5571,-1.24008,-0.0511265,-0.0257923,0.0,0.545527,0.821456,-0.0934174,-0.108896,-0.0714168,-0.0348164,0.0633587,0.311318,5.43074,-2.01168,-0.0839891,0.00101705,427.744,0.507442,0.300368,0.389773,0.135514,0.104899,inf,inf,inf,inf,1,1,1,1,2,0,2,1,3,1,1,0
133847637,65222418,34.0348619,108.756711,1.56714,1.63216,-1.25171,-0.0511265,-0.0257923,0.0,0.533285,0.823912,-0.083237,-0.0993436,-0.0714168,-0.0348164,0.0633587,-0.434544,-4.02947,-0.481881,-0.0815023,0.00101705,427.744,0.51907,0.308997,0.391602,0.140324,0.106301,inf,inf,inf,inf,1,1,1,1,2,0,2,1,3,1,1,0
133957720,65222418,34.0348619,108.756711,1.61044,1.71303,-1.26244,-0.0511265,-0.0257923,0.0,0.562066,0.835594,-0.0771186,-0.092954,-0.0714168,-0.0348164,0.0633587,2.37372,5.35037,-1.67585,-0.0838027,0.00101705,427.744,0.529803,0.301048,0.389763,0.136245,0.105022,inf,inf,inf,inf,1,1,1,1,2,0,2,1,3,1,1,0
134047788,65222418,34.0348619,108.756711,1.65064,1.77908,-1.26934,-0.0511265,-0.0257923,0.0,0.611228,0.801399,-0.0722751,-0.0869564,-0.0714168,-0.0348164,0.0633587,3.18819,-0.43233,-4.95031,-0.0870442,0.00101705,427.744,0.536696,0.308845,0.390918,0.140308,0.106242,inf,inf,inf,inf,1,1,1,1,2,0,2,1,3,1,1,0
134157871,65222418,34.0348619,108.756711,1.70279,1.8605,-1.27404,-0.0511265,-0.0257923,0.0,0.710737,0.784006,-0.0553823,-0.0663567,-0.0714168,-0.0348164,0.0633587,1.09108,0.922864,-1.06066,-0.0896386,0.00101705,427.744,0.541402,0.300883,0.391507,0.136086,0.105206,inf,inf,inf,inf,1,1,1,1,2,0,2,1,3,1,1,0
134247939,65222418,34.0348619,108.756711,1.75666,1.92778,-1.27876,-0.0511265,-0.0257923,0.0,0.815518,0.780914,-0.0677387,-0.0767146,-0.0714168,-0.0348164,0.0633587,1.31047,2.67605,-1.30075,-0.0903559,0.00101705,427.744,0.546116,0.30868,0.392666,0.140058,0.106416,inf,inf,inf,inf,1,1,1,1,2,0,2,1,3,1,1,0
134348018,65222418,34.0348619,108.756711,1.82565,1.99931,-1.28503,-0.0511265,-0.0257923,0.0,0.91582,0.757699,-0.0733227,-0.0805522,-0.0714168,-0.0348164,0.0633587,0.69698,-0.138161,0.401471,-0.0885051,0.00101705,427.744,0.552396,0.299899,0.390124,0.13546,0.104913,inf,inf,inf,inf,1,1,1,1,2,0,2,1,3,1,1,0
134448091,65222418,34.0348619,108.756711,1.90496,2.06947,-1.29181,-0.0511265,-0.0257923,0.0,0.978511,0.747584,-0.0988575,-0.103602,-0.0714168,-0.0348164,0.0633587,1.62287,1.86643,-2.83938,-0.0877261,0.00101705,427.744,0.559166,0.308538,0.391938,0.14007,0.10631,inf,inf,inf,inf,1,1,1,1,2,0,2,1,3,1,1,0
134548166,65222418,34.0348619,108.756711,1.98332,2.1429,-1.2956,-0.0511265,-0.0257923,0.0,1.00441,0.719349,-0.0935616,-0.0926596,-0.0714168,-0.0348164,0.0633587,-0.56568,-2.49265,-3.68561,-0.0855185,0.00101705,427.744,0.562962,0.299748,0.389418,0.135584,0.104822,inf,inf,inf,inf,1,1,1,1,2,0,2,1,3,1,1,0
134658249,65222418,34.0348619,108.756711,2.07326,2.22389,-1.30164,-0.0511265,-0.0257923,0.0,1.00708,0.727836,-0.0690455,-0.0647283,-0.0714168,-0.0348164,0.0633587,-0.469062,-0.00682555,3.94944,-0.0826524,0.00101705,427.744,0.569001,0.309288,0.391899,0.14053,0.106423,inf,inf,inf,inf,1,1,1,1,2,0,2,1,3,1,1,0
134748320,65222418,34.0348619,108.756711,2.14415,2.28785,-1.30439,-0.0511265,-0.0257923,0.0,0.993786,0.713332,-0.0935287,-0.0842637,-0.0714168,-0.0348164,0.0633587,-0.451909,-1.11011,2.39727,-0.080162,0.00101705,427.744,0.571751,0.299592,0.391142,0.135431,0.105011,inf,inf,inf,inf,1,1,1,1,2,0,2,1,3,1,1,0
134848404,65222418,34.0348619,108.756711,2.22511,2.35909,-1.31004,-0.0511265,-0.0257923,0.0,0.978394,0.731825,-0.112392,-0.098685,-0.0714168,-0.0348164,0.0633587,0.38195,3.1116,5.84513,-0.0797455,0.00101705,427.744,0.5774,0.308239,0.392978,0.139988,0.106426,inf,inf,inf,inf,1,1,1,1,2,0,2,1,3,1,1,0
134948469,65222418,34.0348619,108.756711,2.30344,2.43275,-1.31596,-0.0511265,-0.0257923,0.0,0.961752,0.726311,-0.150807,-0.131116,-0.0714168,-0.0348164,0.0633587,0.0535366,-1.82193,0.537213,-0.0797761,0.00101705,427.744,0.583323,0.299352,0.390429,0.13542,0.104921,inf,inf,inf,inf,1,1,1,1,2,0,2,1,3,1,1,0
135048544,65222418,34.0348619,108.756711,2.38119,2.50774,-1.32588,-0.0511265,-0.0257923,0.0,0.933392,0.73458,-0.185893,-0.160545,-0.0714168,-0.0348164,0.0633587,0.756376,1.13838,6.8068,-0.0800511,0.00101705,427.744,0.593242,0.307997,0.392253,0.140151,0.106329,inf,inf,inf,inf,1,1,1,1,2,0,2,1,3,1,1,0
135148620,65222418,34.0348619,108.756711,2.45899,2.58166,-1.33593,-0.0511265,-0.0257923,0.0,0.907747,0.733732,-0.1819,-0.14984,-0.0714168,-0.0348164,0.0633587,-0.715094,0.960986,3.75451,-0.0807687,0.00101705,427.744,0.60329,0.299139,0.389718,0.135592,0.104833,inf,inf,inf,inf,1,1,1,1,2,0,2,1,3,1,1,0
135248696,65222418,34.0348619,108.756711,2.5367,2.65258,-1.34553,-0.0511265,-0.0257923,0.0,0.875157,0.668959,-0.201314,-0.163213,-0.0714168,-0.0348164,0.0633587,-0.85549,-5.22681,-0.384387,-0.0806662,0.00101705,427.744,0.612887,0.307789,0.391531,0.140255,0.10624,inf,inf,inf,inf,1,1,1,1,2,0,2,1,3,1,1,0
