timestamp,roll,pitch,yaw,thrust_body[0],thrust_body[1],thrust_body[2]
116055421,-0.678658,-0.106782,0.000383657,0.0,0.0,-0.107491
116060410,-0.68964,-0.1197,-0.00342707,0.0,0.0,-0.107491
116075436,-0.713789,-0.0928922,0.00234992,0.0,0.0,-0.107491
116095491,-0.701011,-0.118555,-0.00510568,0.0,0.0,-0.107491
116115458,-0.695358,-0.110348,-0.00058317,0.0,0.0,-0.107491
116135507,-0.715032,-0.0885615,0.00374807,0.0,0.0,-0.107491
116155579,-0.711843,-0.116366,-0.00500587,0.0,0.0,-0.107491
116175568,-0.70906,-0.117999,-0.00310432,0.0,0.0,-0.107491
116195509,-0.703979,-0.0874554,0.00427445,0.0,0.0,-0.107491
116215561,-0.72149,-0.106255,-0.0017339,0.0,0.0,-0.107491
116235560,-0.720994,-0.109492,-0.0058749,0.0,0.0,-0.106473
116255568,-0.703231,-0.107739,-0.00254653,0.0,0.0,-0.107491
116275559,-0.716715,-0.0941486,-0.00112781,0.0,0.0,-0.106473
116295589,-0.699966,-0.0934841,0.000263977,0.0,0.0,-0.106473
116315585,-0.68415,-0.0924318,0.00217202,0.0,0.0,-0.107491
116335615,-0.669747,-0.0958843,0.00279007,0.0,0.0,-0.107491
116355623,-0.659892,-0.103364,0.00320965,0.0,0.0,-0.106473
116375648,-0.651045,-0.109352,0.00333078,0.0,0.0,-0.107491
116395697,-0.644947,-0.11515,0.00296063,0.0,0.0,-0.107491
116415677,-0.640928,-0.120242,0.00213218,0.0,0.0,-0.106473
116435684,-0.646873,-0.125112,0.00165738,0.0,0.0,-0.107491
116455706,-0.640786,-0.129454,0.00135423,0.0,0.0,-0.106473
116475711,-0.644911,-0.131335,0.00123517,0.0,0.0,-0.106473
116495732,-0.653784,-0.126412,0.00125661,0.0,0.0,-0.106473
116515793,-0.667723,-0.116705,0.00169208,0.0,0.0,-0.107491
116535756,-0.686505,-0.102801,0.00213117,0.0,0.0,-0.107491
116555815,-0.709691,-0.0888592,0.00248466,0.0,0.0,-0.107491
116575787,-0.735828,-0.0806612,0.00314988,0.0,0.0,-0.107491
116595801,-0.763701,-0.0791497,0.00379851,0.0,0.0,-0.106473
116615825,-0.79547,-0.0771312,0.00453077,0.0,0.0,-0.107491
116635889,-0.825352,-0.075765,0.00519806,0.0,0.0,-0.107491
116655896,-0.861175,-0.0750063,0.00507727,0.0,0.0,-0.107491
116675892,-0.886237,-0.0758584,0.00447644,0.0,0.0,-0.107491
116695889,-0.900201,-0.0813394,0.0032965,0.0,0.0,-0.106473
116715920,-0.920472,-0.0893185,0.00201817,0.0,0.0,-0.106473
116735977,-0.938739,-0.0976584,0.00159702,0.0,0.0,-0.106473
116755925,-0.956323,-0.102327,0.00156519,0.0,0.0,-0.106473
116775925,-0.973062,-0.104915,0.00190096,0.0,0.0,-0.107491
116795956,-0.990746,-0.105305,0.00235703,0.0,0.0,-0.107491
116815958,-1.00786,-0.100992,0.00337817,0.0,0.0,-0.106473
116835987,-1.03437,-0.0945875,0.00498257,0.0,0.0,-0.107491
116855996,-1.05673,-0.0866907,0.00681709,0.0,0.0,-0.107491
116876021,-1.07383,-0.0777836,0.00898862,0.0,0.0,-0.106473
116896013,-1.10243,-0.0690267,0.0111768,0.0,0.0,-0.106473
116916086,-1.14124,-0.0607531,0.013136,0.0,0.0,-0.107491
116936053,-1.16493,-0.0523364,0.0149759,0.0,0.0,-0.106473
116956072,-1.20382,-0.0459873,0.0162751,0.0,0.0,-0.107491
116976073,-1.22598,-0.042763,0.0177657,0.0,0.0,-0.106473
116996161,-1.25585,-0.0428895,0.019735,0.0,0.0,-0.107491
117016116,-1.28935,-0.0456903,0.0226587,0.0,0.0,-0.107491
117036131,-1.32475,-0.0517304,0.0257734,0.0,0.0,-0.107491
117061191,-1.35896,-0.0854403,0.0285247,0.0,0.0,-0.107491
117076165,-1.40331,-0.068184,0.0319016,0.0,0.0,-0.107491
117096163,-1.44778,-0.0748239,0.034889,0.0,0.0,-0.106473
117116192,-1.48942,-0.0734238,0.0376097,0.0,0.0,-0.106473
117136194,-1.51154,-0.0559235,0.0384458,0.0,0.0,-0.107491
117156249,-1.53196,-0.0248211,0.0379204,0.0,0.0,-0.107491
117176246,-1.56998,0.0108192,0.0359405,0.0,0.0,-0.107491
117196253,-1.52384,0.043688,0.0364446,0.0,0.0,-0.107491
117216308,-1.52197,0.0615563,0.0370667,0.0,0.0,-0.107491
117236305,-1.53277,0.0744752,0.0392341,0.0,0.0,-0.106473
117256388,-1.54648,0.075223,0.0416471,0.0,0.0,-0.107491
117276324,-1.5606,0.0650986,0.0442527,0.0,0.0,-0.106473
117296343,-1.56625,0.052838,0.0454292,0.0,0.0,-0.107491
117316359,-1.5569,0.0429498,0.0456521,0.0,0.0,-0.107491
117336371,-1.53821,0.0343588,0.0454457,0.0,0.0,-0.107491
117356397,-1.51332,0.0242099,0.045271,0.0,0.0,-0.106473
117376481,-1.49024,0.00988972,0.0454122,0.0,0.0,-0.107491
117396413,-1.47525,-0.00868368,0.0469588,0.0,0.0,-0.106473
117416479,-1.46469,-0.0356255,0.0490679,0.0,0.0,-0.107491
117436455,-1.45592,-0.0572173,0.0509514,0.0,0.0,-0.106473
117456453,-1.44082,-0.0626707,0.0531505,0.0,0.0,-0.106473
117476478,-1.42282,-0.0612592,0.0552897,0.0,0.0,-0.106473
117496527,-1.40246,-0.0598946,0.0568282,0.0,0.0,-0.106473
117516521,-1.36812,-0.0571524,0.0572698,0.0,0.0,-0.107491
117536527,-1.34062,-0.0582631,0.0578187,0.0,0.0,-0.107491
117556517,-1.29565,-0.0596154,0.058675,0.0,0.0,-0.106473
117576560,-1.25874,-0.0664949,0.0611305,0.0,0.0,-0.106473
117596564,-1.2203,-0.0755824,0.0645186,0.0,0.0,-0.107491
117616592,-1.1842,-0.0798252,0.0689215,0.0,0.0,-0.106473
117636594,-1.15238,-0.0818631,0.0744153,0.0,0.0,-0.106473
117656616,-1.12107,-0.0807305,0.0785079,0.0,0.0,-0.106473
117676608,-1.08394,-0.0748609,0.0800037,0.0,0.0,-0.106473
117696628,-1.04431,-0.0688665,0.0800221,0.0,0.0,-0.106473
117716636,-1.00228,-0.0645683,0.0787204,0.0,0.0,-0.106473
117736684,-0.954982,-0.062223,0.0766158,0.0,0.0,-0.106473
117756745,-0.906481,-0.0644111,0.0756355,0.0,0.0,-0.106473
117776746,-0.85394,-0.0690918,0.0747297,0.0,0.0,-0.107491
117796698,-0.799893,-0.0720079,0.073634,0.0,0.0,-0.107491
117816713,-0.762024,-0.0708039,0.0743919,0.0,0.0,-0.106473
117836715,-0.727813,-0.0633751,0.0745009,0.0,0.0,-0.106473
117856755,-0.692772,-0.0555641,0.0759922,0.0,0.0,-0.106473
117876761,-0.661066,-0.050271,0.0778974,0.0,0.0,-0.107491
117896785,-0.631363,-0.0522476,0.07908,0.0,0.0,-0.106473
117916823,-0.614584,-0.0581789,0.0805139,0.0,0.0,-0.107491
117936807,-0.587447,-0.0651896,0.0809023,0.0,0.0,-0.106473
117956854,-0.579846,-0.0710172,0.079811,0.0,0.0,-0.121745
117976843,-0.568556,-0.0772549,0.0788678,0.0,0.0,-0.122764
117996849,-0.5537,-0.0820566,0.078394,0.0,0.0,-0.122764
118016863,-0.553905,-0.0858631,0.0785819,0.0,0.0,-0.122764
118036894,-0.564579,-0.0871678,0.0789867,0.0,0.0,-0.122764
118056895,-0.577916,-0.0869628,0.0798828,0.0,0.0,-0.122764
118071903,-0.585887,-0.0964462,0.0803283,0.0,0.0,-0.122764
118096928,-0.621932,-0.0829777,0.0830976,0.0,0.0,-0.122764
118116942,-0.645418,-0.0851543,0.0836558,0.0,0.0,-0.122764
118136957,-0.658573,-0.0907658,0.0814578,0.0,0.0,-0.122764
118157049,-0.65891,-0.0963589,0.0775454,0.0,0.0,-0.122764
118176995,-0.66407,-0.0931049,0.0752322,0.0,0.0,-0.121745
118197085,-0.675408,-0.0822775,0.0749138,0.0,0.0,-0.122764
118212037,-0.668206,-0.0742429,0.076734,0.0,0.0,-0.122764
118237034,-0.680119,-0.0655238,0.077543,0.0,0.0,-0.122764
118257049,-0.668733,-0.0779866,0.0793034,0.0,0.0,-0.122764
118277066,-0.65213,-0.101825,0.0798167,0.0,0.0,-0.122764
118297098,-0.631989,-0.109292,0.0801396,0.0,0.0,-0.122764
118317115,-0.622996,-0.107623,0.0835102,0.0,0.0,-0.122764
118337094,-0.622589,-0.0961993,0.087615,0.0,0.0,-0.122764
118352109,-0.615087,-0.117589,0.0847397,0.0,0.0,-0.122764
118377119,-0.624948,-0.0835155,0.0923349,0.0,0.0,-0.122764
118397151,-0.606667,-0.0844372,0.0899303,0.0,0.0,-0.122764
118417149,-0.604222,-0.0854428,0.0883631,0.0,0.0,-0.134982
118437187,-0.619221,-0.0809617,0.0878075,0.0,0.0,-0.139055
118457179,-0.631214,-0.0699506,0.0883352,0.0,0.0,-0.146182
118477207,-0.635229,-0.0723414,0.0892385,0.0,0.0,-0.148218
118492223,-0.635733,-0.0562239,0.0885317,0.0,0.0,-0.152291
118517249,-0.596856,-0.113572,0.0871543,0.0,0.0,-0.151273
118537264,-0.585368,-0.109365,0.0880137,0.0,0.0,-0.157382
118557289,-0.578084,-0.0892744,0.0906606,0.0,0.0,-0.160436
118577288,-0.566319,-0.0761186,0.092807,0.0,0.0,-0.160436
118597317,-0.539479,-0.0827066,0.0912362,0.0,0.0,-0.159418
118617324,-0.523638,-0.0843155,0.0901263,0.0,0.0,-0.162473
118632345,-0.508856,-0.0813968,0.0906159,0.0,0.0,-0.163491
118657353,-0.50577,-0.0925538,0.0912806,0.0,0.0,-0.167564
118677386,-0.479471,-0.0946842,0.0899656,0.0,0.0,-0.167564
118697443,-0.462947,-0.0685427,0.0910957,0.0,0.0,-0.189964
118712387,-0.445854,-0.0679747,0.0878742,0.0,0.0,-0.192
118737457,-0.410063,-0.0784671,0.0902036,0.0,0.0,-0.192
118757437,-0.370949,-0.0713193,0.0876336,0.0,0.0,-0.194036
118772442,-0.340971,-0.0603819,0.0857316,0.0,0.0,-0.194036
118797491,-0.287464,-0.0267511,0.0824542,0.0,0.0,-0.193018
118817497,-0.235678,-0.0227184,0.080965,0.0,0.0,-0.193018
118837516,-0.182614,-0.0312861,0.0782996,0.0,0.0,-0.193018
118852500,-0.131404,-0.0385261,0.0774799,0.0,0.0,-0.197091
118877524,-0.0596938,-0.0193032,0.0756356,0.0,0.0,-0.197091
118897598,0.00346312,-0.0415291,0.0739159,0.0,0.0,-0.199127
118912568,0.0479535,-0.0246908,0.0718645,0.0,0.0,-0.2032
118937579,0.115025,-0.0216746,0.0697977,0.0,0.0,-0.207273
118957596,0.17671,-0.00734298,0.0695678,0.0,0.0,-0.213382
118977605,0.232271,-0.00397794,0.0686091,0.0,0.0,-0.207273
118992610,0.269609,-0.00365086,0.0674204,0.0,0.0,-0.207273
119017617,0.32028,0.0279582,0.0612153,0.0,0.0,-0.207273
119037638,0.370486,0.0299496,0.0575881,0.0,0.0,-0.207273
119052634,0.393549,0.0322356,0.0524938,0.0,0.0,-0.209309
119077674,0.436065,0.0396814,0.0436516,0.0,0.0,-0.209309
119097679,0.451111,0.0340305,0.0387103,0.0,0.0,-0.209309
119117681,0.4445,0.0326349,0.0342624,0.0,0.0,-0.210327
119132702,0.446597,0.02709,0.0296881,0.0,0.0,-0.213382
119157721,0.46932,-0.00359496,0.0205621,0.0,0.0,-0.215418
119177737,0.424759,0.013711,0.010375,0.0,0.0,-0.2144
119192766,0.409973,0.0178454,0.0032564,0.0,0.0,-0.2144
119217775,0.395443,0.0216365,-0.0138261,0.0,0.0,-0.2144
119237762,0.339317,0.0442639,-0.0256434,0.0,0.0,-0.216436
119257791,0.318986,0.0359243,-0.0371587,0.0,0.0,-0.238836
119272799,0.285542,0.034336,-0.046422,0.0,0.0,-0.238836
119297822,0.238599,0.055997,-0.0621926,0.0,0.0,-0.238836
119317864,0.227675,0.0536733,-0.0702694,0.0,0.0,-0.238836
119332827,0.211058,0.0513781,-0.0773507,0.0,0.0,-0.237818
119352860,0.201427,0.0318361,-0.0848467,0.0,0.0,-0.237818
119377943,0.192408,0.0403435,-0.0953331,0.0,0.0,-0.240873
119397881,0.19257,0.00308745,-0.10041,0.0,0.0,-0.239855
119412887,0.193195,-0.00140955,-0.104818,0.0,0.0,-0.239855
119437925,0.215242,0.016881,-0.112488,0.0,0.0,-0.240873
119457940,0.219282,0.00758235,-0.117927,0.0,0.0,-0.239855
119473000,0.23109,0.0142687,-0.121456,0.0,0.0,-0.239855
119492947,0.239667,0.0338437,-0.127022,0.0,0.0,-0.242909
119518059,0.262048,0.0694016,-0.129034,0.0,0.0,-0.243927
119538002,0.274533,0.0889768,-0.132951,0.0,0.0,-0.243927
119553061,0.286113,0.104876,-0.132051,0.0,0.0,-0.242909
119578044,0.309551,0.131137,-0.129005,0.0,0.0,-0.242909
119598144,0.334954,0.152899,-0.127773,0.0,0.0,-0.249018
119613050,0.348742,0.164742,-0.124965,0.0,0.0,-0.251055
119633062,0.346283,0.173506,-0.123686,0.0,0.0,-0.258182
119658089,0.363323,0.175109,-0.119528,0.0,0.0,-0.258182
119678107,0.362505,0.171558,-0.119782,0.0,0.0,-0.257164
119693160,0.355908,0.171826,-0.117697,0.0,0.0,-0.257164
119718144,0.32717,0.158783,-0.111507,0.0,0.0,-0.258182
119738161,0.304095,0.146137,-0.109865,0.0,0.0,-0.258182
119753167,0.277795,0.130502,-0.107584,0.0,0.0,-0.258182
119773210,0.236843,0.128882,-0.103412,0.0,0.0,-0.258182
119798215,0.193242,0.0839659,-0.0987381,0.0,0.0,-0.258182
119818204,0.15541,0.0985592,-0.0947442,0.0,0.0,-0.258182
119833223,0.0993884,0.0908275,-0.0919821,0.0,0.0,-0.258182
119858305,0.0496864,0.0292867,-0.085305,0.0,0.0,-0.258182
119878269,0.074026,0.0374642,-0.0801885,0.0,0.0,-0.257164
119893314,0.0444974,0.0389398,-0.074443,0.0,0.0,-0.258182
119913285,0.0159465,0.0342071,-0.0645644,0.0,0.0,-0.258182
119938313,-0.0178998,0.0422257,-0.0559246,0.0,0.0,-0.258182
119958335,-0.0281053,0.0569833,-0.0438941,0.0,0.0,-0.258182
119973336,-0.027604,0.0632669,-0.0348958,0.0,0.0,-0.256145
119993362,-0.0239278,0.0531488,-0.0256558,0.0,0.0,-0.256145
120018384,-0.0434791,0.0872695,-0.0133718,0.0,0.0,-0.251055
120033390,-0.0390812,0.091407,-0.00844306,0.0,0.0,-0.253091
120053393,-0.0109015,0.0951211,-0.000190534,0.0,0.0,-0.253091
120078429,0.00587527,0.118082,0.00941643,0.0,0.0,-0.252073
120098445,0.0249342,0.104097,0.0139747,0.0,0.0,-0.253091
120113435,0.0330888,0.111172,0.0168454,0.0,0.0,-0.253091
120133509,0.0537163,0.12175,0.0186564,0.0,0.0,-0.253091
120158479,0.0827944,0.101708,0.0258934,0.0,0.0,-0.252073
120173538,0.091087,0.0931829,0.0285808,0.0,0.0,-0.253091
120193485,0.128267,0.0935485,0.0314086,0.0,0.0,-0.253091
120218540,0.157746,0.0516361,0.0364336,0.0,0.0,-0.252073
120238544,0.193609,0.0444931,0.0422769,0.0,0.0,-0.251055
120253557,0.206529,0.0253917,0.0440293,0.0,0.0,-0.251055
120273544,0.207741,-0.0171033,0.0439005,0.0,0.0,-0.252073
120298590,0.212917,-0.0367336,0.0436733,0.0,0.0,-0.252073
120313574,0.208388,-0.0402376,0.040066,0.0,0.0,-0.253091
120333624,0.20039,-0.0220379,0.0334572,0.0,0.0,-0.254109
120358631,0.196501,-0.0191607,0.0268347,0.0,0.0,-0.257164
120378724,0.177428,0.01312,0.0231081,0.0,0.0,-0.257164
120393637,0.154355,0.0228777,0.0203191,0.0,0.0,-0.257164
120413685,0.131192,0.00498881,0.0174661,0.0,0.0,-0.258182
120438680,0.118719,0.016675,0.0169755,0.0,0.0,-0.257164
120453681,0.0925145,0.00972384,0.0179226,0.0,0.0,-0.257164
120473694,0.0828509,0.00900054,0.0172266,0.0,0.0,-0.258182
120498752,0.0620675,-0.0053945,0.0226591,0.0,0.0,-0.257164
120513723,0.054821,-0.00422118,0.0250124,0.0,0.0,-0.257164
120533766,0.0355033,0.0202898,0.0280181,0.0,0.0,-0.2592
120553809,0.036394,0.0182667,0.030747,0.0,0.0,-0.2592
120578781,0.0324317,0.0172004,0.0328034,0.0,0.0,-0.258182
120593853,0.0337763,0.0158725,0.0348891,0.0,0.0,-0.2592
120613798,0.03608,0.0126463,0.0384229,0.0,0.0,-0.264291
120638847,0.0524865,0.00319181,0.0389685,0.0,0.0,-0.266327
120653828,0.0590261,0.00744099,0.0390847,0.0,0.0,-0.266327
120673908,0.0648412,-0.0106033,0.0402415,0.0,0.0,-0.267345
120693859,0.0815177,-0.00803348,0.0367612,0.0,0.0,-0.266327
120718949,0.0880779,-0.0170454,0.0351312,0.0,0.0,-0.266327
120733875,0.0805328,-0.0145686,0.0332928,0.0,0.0,-0.267345
120753920,0.0840786,-0.00414519,0.0311908,0.0,0.0,-0.267345
120773918,0.0765283,-0.0329212,0.0326613,0.0,0.0,-0.266327
120798937,0.0766368,-0.0453153,0.0316813,0.0,0.0,-0.266327
120813934,0.0564684,-0.0564784,0.0302474,0.0,0.0,-0.267345
120833964,0.0273469,-0.0583773,0.0294126,0.0,0.0,-0.268364
120858998,0.0129786,-0.0557296,0.0263846,0.0,0.0,-0.267345
120874001,-0.0137978,-0.0460448,0.0243845,0.0,0.0,-0.267345
120894008,-0.0314175,-0.0365591,0.0218937,0.0,0.0,-0.266327
120914020,-0.0434998,-0.0172621,0.0214259,0.0,0.0,-0.2704
120939130,-0.0858942,0.0114266,0.0195439,0.0,0.0,-0.2704
120954053,-0.0903566,0.0284004,0.0204471,0.0,0.0,-0.2704
120974055,-0.0637277,0.0378441,0.0188697,0.0,0.0,-0.290764
120999104,-0.0607905,0.0820218,0.0170152,0.0,0.0,-0.289745
121014088,-0.0497704,0.0904868,0.0169561,0.0,0.0,-0.289745
121034123,-0.0200298,0.0946372,0.0173044,0.0,0.0,-0.288727
121054115,0.00436413,0.10441,0.0131933,0.0,0.0,-0.286691
121079221,0.0378679,0.0914937,0.0125227,0.0,0.0,-0.286691
121094144,0.0542475,0.0892755,0.011214,0.0,0.0,-0.286691
121114184,0.0724219,0.0875219,0.0100013,0.0,0.0,-0.286691
121139208,0.104663,0.0597026,0.00819569,0.0,0.0,-0.285673
121154203,0.110277,0.0407746,0.0076906,0.0,0.0,-0.286691
121174271,0.0922379,0.00111308,0.00889242,0.0,0.0,-0.287709
121194280,0.0893515,-0.0159331,0.00810272,0.0,0.0,-0.290764
121219282,0.058932,-0.0437372,0.00877091,0.0,0.0,-0.286691
121234279,0.0462101,-0.049747,0.00795347,0.0,0.0,-0.286691
121254287,0.0404123,-0.0468257,0.00451929,0.0,0.0,-0.285673
121279347,0.0154426,-0.0418187,0.00373535,0.0,0.0,-0.286691
121294332,-0.00474501,-0.0343068,0.00285777,0.0,0.0,-0.286691
121314340,-0.023194,-0.00744573,0.00305848,0.0,0.0,-0.286691
121334407,-0.0236232,-0.0158949,0.00385235,0.0,0.0,-0.285673
121359405,-0.0372358,0.025581,0.00508768,0.0,0.0,-0.286691
121374453,-0.0495989,0.034702,0.00592685,0.0,0.0,-0.286691
121394411,-0.0612775,0.0374897,0.0062439,0.0,0.0,-0.286691
121414439,-0.042949,0.0713994,0.00610639,0.0,0.0,-0.286691
121434429,-0.0385946,0.0843453,0.0112757,0.0,0.0,-0.285673
121454467,-0.0320701,0.0819159,0.0158182,0.0,0.0,-0.285673
121474454,-0.0276196,0.105488,0.0200929,0.0,0.0,-0.286691
121499525,-0.00250307,0.0827564,0.0272898,0.0,0.0,-0.287709
121514497,0.0115065,0.0852556,0.0312474,0.0,0.0,-0.287709
121534510,0.00933529,0.075782,0.0358194,0.0,0.0,-0.288727
121554504,0.049697,0.0652858,0.0396845,0.0,0.0,-0.289745
121574533,0.0773048,0.0633968,0.0434786,0.0,0.0,-0.289745
121594532,0.11248,0.0498173,0.0497703,0.0,0.0,-0.289745
121614571,0.136667,0.046375,0.0512358,0.0,0.0,-0.290764
121639604,0.155444,0.0303756,0.0538515,0.0,0.0,-0.291782
121654600,0.167682,0.0293322,0.0545827,0.0,0.0,-0.295855
121674612,0.178676,0.019224,0.0574317,0.0,0.0,-0.301964
121694624,0.167332,0.0104176,0.0565718,0.0,0.0,-0.310109
121714627,0.137391,0.0150465,0.0578012,0.0,0.0,-0.312145
121734668,0.0986521,-0.00328822,0.0577049,0.0,0.0,-0.312145
121754756,0.115907,0.0101701,0.0592478,0.0,0.0,-0.313164
121779690,0.0813746,0.0155753,0.0580756,0.0,0.0,-0.313164
121794682,0.0739445,0.0207546,0.0582771,0.0,0.0,-0.317236
121814718,0.0561993,0.0231485,0.0565973,0.0,0.0,-0.320291
121834713,0.0371515,0.0491107,0.0562168,0.0,0.0,-0.322327
121854738,0.0361542,0.0671074,0.0522946,0.0,0.0,-0.322327
121874794,0.0315032,0.0769005,0.0502547,0.0,0.0,-0.322327
121894775,0.0531504,0.0924575,0.0486003,0.0,0.0,-0.323345
121919784,0.0557798,0.102516,0.0491342,0.0,0.0,-0.322327
121934795,0.0602205,0.0978347,0.0481717,0.0,0.0,-0.322327
121954813,0.0599613,0.0909422,0.0471529,0.0,0.0,-0.322327
121974828,0.0659475,0.0979803,0.0450535,0.0,0.0,-0.325382
121994844,0.057451,0.0922461,0.0437574,0.0,0.0,-0.330473
122014857,0.0744853,0.100234,0.0403635,0.0,0.0,-0.329455
122034948,0.0795535,0.0895061,0.039815,0.0,0.0,-0.330473
122054888,0.0687586,0.0999534,0.0366335,0.0,0.0,-0.330473
122074985,0.0620601,0.0829959,0.0352674,0.0,0.0,-0.335564
122094921,0.0495458,0.0942284,0.0328177,0.0,0.0,-0.334545
122114940,0.0412916,0.0881464,0.0310467,0.0,0.0,-0.334545
122134938,0.0196189,0.0855036,0.0302801,0.0,0.0,-0.334545
122154992,0.00532591,0.0799036,0.0296066,0.0,0.0,-0.334545
122174976,-5.7696e-05,0.0712547,0.0288156,0.0,0.0,-0.334545
122195008,-0.0139191,0.0797052,0.0285304,0.0,0.0,-0.334545
122215001,-0.0208777,0.0599326,0.0280169,0.0,0.0,-0.334545
122235054,-0.0253502,0.0532406,0.0272776,0.0,0.0,-0.334545
122255034,-0.0244197,0.0431503,0.0276427,0.0,0.0,-0.334545
122275046,-0.0315256,0.0356623,0.0265881,0.0,0.0,-0.334545
122295047,-0.0269007,0.0399674,0.0272064,0.0,0.0,-0.334545
122315083,-0.0379711,0.0270592,0.0265774,0.0,0.0,-0.3376
122335074,-0.0321177,0.0426729,0.0267343,0.0,0.0,-0.3376
122355103,-0.0291496,0.0519581,0.027109,0.0,0.0,-0.3376
122375104,-0.0138732,0.0595942,0.0265184,0.0,0.0,-0.336582
122395128,0.00320563,0.0585025,0.0275216,0.0,0.0,-0.338618
122415147,0.0103147,0.0626715,0.0264028,0.0,0.0,-0.338618
122435172,0.0337844,0.0533388,0.0282796,0.0,0.0,-0.339636
122455177,0.0380204,0.0526796,0.028254,0.0,0.0,-0.338618
122475192,0.0344231,0.0402688,0.0275766,0.0,0.0,-0.339636
122495196,0.0482967,0.031943,0.0255447,0.0,0.0,-0.338618
122515226,0.0521097,0.0290632,0.025017,0.0,0.0,-0.342691
122535228,0.0394141,0.0155922,0.0237711,0.0,0.0,-0.350836
122555255,0.0386745,0.025779,0.0238265,0.0,0.0,-0.350836
122575257,0.0241287,0.0128959,0.0229462,0.0,0.0,-0.350836
122595297,0.0252679,0.00938249,0.0245301,0.0,0.0,-0.350836
122615309,-0.000294478,-0.00490046,0.0249919,0.0,0.0,-0.349818
122635333,-0.0249018,-0.00867199,0.0247848,0.0,0.0,-0.349818
122655387,-0.0382434,-0.00801287,0.0252061,0.0,0.0,-0.351855
122675363,-0.0491921,-9.2293e-05,0.025855,0.0,0.0,-0.351855
122695415,-0.054906,-0.00316037,0.0278447,0.0,0.0,-0.352873
122715386,-0.0543725,0.0275406,0.0295588,0.0,0.0,-0.351855
122735401,-0.0516615,0.0303788,0.0308044,0.0,0.0,-0.351855
122755422,-0.0283911,0.0455419,0.0342095,0.0,0.0,-0.351855
122775428,-0.00512053,0.0506626,0.0374355,0.0,0.0,-0.353891
122795445,-0.0104606,0.0583547,0.040722,0.0,0.0,-0.354909
122815523,0.0194767,0.0498345,0.0431024,0.0,0.0,-0.354909
122835485,0.0321201,0.0573298,0.0444167,0.0,0.0,-0.356945
122855544,0.0397053,0.0531393,0.0450545,0.0,0.0,-0.356945
122875503,0.0493173,0.0572394,0.046444,0.0,0.0,-0.356945
122895548,0.0561165,0.0562224,0.0482785,0.0,0.0,-0.356945
122915535,0.0550945,0.0502644,0.0476183,0.0,0.0,-0.358982
122935588,0.0569025,0.0531589,0.0463283,0.0,0.0,-0.358982
122955573,0.0572001,0.0514187,0.0471797,0.0,0.0,-0.361018
122975585,0.0417213,0.0498782,0.0454242,0.0,0.0,-0.361018
122995577,0.0356038,0.046696,0.0457534,0.0,0.0,-0.361018
123015630,0.0210135,0.0654189,0.0421887,0.0,0.0,-0.361018
123035620,0.010153,0.0672984,0.0412827,0.0,0.0,-0.361018
123055651,-0.0126706,0.0770485,0.0392161,0.0,0.0,-0.363055
123075646,-0.0226721,0.0879574,0.0375265,0.0,0.0,-0.362036
123095683,-0.0384555,0.112291,0.033232,0.0,0.0,-0.364073
123115678,-0.0382167,0.119409,0.0331075,0.0,0.0,-0.365091
123135703,-0.048249,0.125366,0.0298737,0.0,0.0,-0.364073
123155703,-0.0374451,0.12151,0.0287371,0.0,0.0,-0.365091
123175719,-0.0331828,0.105201,0.0270923,0.0,0.0,-0.364073
123195729,-0.0177095,0.103486,0.0253494,0.0,0.0,-0.364073
123215747,-0.0164304,0.0966417,0.0254056,0.0,0.0,-0.365091
123235755,-0.00117763,0.105879,0.0242065,0.0,0.0,-0.365091
123255777,0.0126291,0.0875708,0.0240088,0.0,0.0,-0.364073
123275817,0.0472146,0.0933943,0.0242032,0.0,0.0,-0.362036
123295830,0.0591002,0.0909622,0.0240059,0.0,0.0,-0.363055
123315931,0.0898968,0.0853671,0.0243862,0.0,0.0,-0.363055
123335888,0.0969841,0.0753179,0.0259608,0.0,0.0,-0.366109
123355936,0.101986,0.0778985,0.0259127,0.0,0.0,-0.367127
123375868,0.12509,0.0727193,0.0247541,0.0,0.0,-0.381382
123395869,0.111339,0.0593629,0.0237253,0.0,0.0,-0.370182
123415894,0.0999111,0.0553568,0.0213013,0.0,0.0,-0.369164
123435943,0.095956,0.0403777,0.0196433,0.0,0.0,-0.370182
123455938,0.0915074,0.0382435,0.0174506,0.0,0.0,-0.369164
123475973,0.0823531,0.0390161,0.0166815,0.0,0.0,-0.370182
123495954,0.0633072,0.0291587,0.0136246,0.0,0.0,-0.370182
123515979,0.0613117,0.0263383,0.0126143,0.0,0.0,-0.369164
123536001,0.0571269,0.0384057,0.00964841,0.0,0.0,-0.370182
123556002,0.0477906,0.0387279,0.0085048,0.0,0.0,-0.370182
123576040,0.0411015,0.0551183,0.00694526,0.0,0.0,-0.369164
123596109,0.0328672,0.0536487,0.00573794,0.0,0.0,-0.370182
123616088,0.0347932,0.0618672,0.00326851,0.0,0.0,-0.370182
123636120,0.0430054,0.0528087,0.00241584,0.0,0.0,-0.370182
123656083,0.0452914,0.0700458,0.000168404,0.0,0.0,-0.370182
123676100,0.0399878,0.0628347,-0.00251678,0.0,0.0,-0.369164
123696104,0.0337931,0.0674367,-0.0046662,0.0,0.0,-0.370182
123716159,0.0336073,0.0672621,-0.00688241,0.0,0.0,-0.370182
123736156,0.0166892,0.0639031,-0.00965307,0.0,0.0,-0.369164
123756159,0.0297376,0.05425,-0.0131409,0.0,0.0,-0.369164
123776155,0.0305514,0.0556793,-0.0161588,0.0,0.0,-0.367127
123796200,0.0299879,0.0463913,-0.0203059,0.0,0.0,-0.366109
123816184,0.0333625,0.0481451,-0.023924,0.0,0.0,-0.366109
123836227,0.0343438,0.0437761,-0.0259632,0.0,0.0,-0.367127
123856216,0.0280915,0.0439312,-0.0306594,0.0,0.0,-0.364073
123876299,0.04281,0.0370397,-0.0336619,0.0,0.0,-0.364073
123896254,0.0323459,0.0480716,-0.0385213,0.0,0.0,-0.365091
123916280,0.0276931,0.0458402,-0.0430127,0.0,0.0,-0.362036
123936295,0.0125827,0.0470818,-0.0469429,0.0,0.0,-0.363055
123956315,0.0121715,0.0416142,-0.0510457,0.0,0.0,-0.363055
123976323,0.006237,0.035793,-0.054391,0.0,0.0,-0.362036
123996347,0.00206401,0.0200852,-0.0566998,0.0,0.0,-0.363055
124016380,-0.00471782,0.0230782,-0.060335,0.0,0.0,-0.362036
124036395,-0.00256682,0.0127179,-0.0630749,0.0,0.0,-0.362036
124056398,-0.00631019,0.0131667,-0.0660685,0.0,0.0,-0.362036
124076407,-0.00876273,0.0169198,-0.067197,0.0,0.0,-0.363055
124096417,-0.0116028,0.0114404,-0.069849,0.0,0.0,-0.362036
124116440,-0.00603,0.0303389,-0.0702571,0.0,0.0,-0.363055
124136483,-0.0078293,0.0222358,-0.0705362,0.0,0.0,-0.365091
124156462,-0.0122961,0.0415603,-0.0702804,0.0,0.0,-0.364073
124176509,0.000644713,0.0430574,-0.0695932,0.0,0.0,-0.364073
124196500,-0.00548548,0.0472407,-0.0691658,0.0,0.0,-0.364073
124216522,0.00597381,0.04577,-0.0671592,0.0,0.0,-0.363055
124236549,-0.00122185,0.0500782,-0.0661281,0.0,0.0,-0.364073
124256583,-0.0097227,0.0548599,-0.0643607,0.0,0.0,-0.363055
124276560,-0.0175448,0.052551,-0.062772,0.0,0.0,-0.363055
124296570,-0.0356665,0.0503852,-0.0602892,0.0,0.0,-0.363055
124316591,-0.0462363,0.031269,-0.0590727,0.0,0.0,-0.364073
124336596,-0.0617817,0.0293039,-0.0560265,0.0,0.0,-0.364073
124356623,-0.0717225,0.0118885,-0.0538201,0.0,0.0,-0.364073
124376677,-0.0857955,0.00330674,-0.0503364,0.0,0.0,-0.363055
124396644,-0.0836697,-0.00980861,-0.0447249,0.0,0.0,-0.364073
124416706,-0.0784147,-0.0111075,-0.0416952,0.0,0.0,-0.364073
124436665,-0.0617375,-0.0255345,-0.0362757,0.0,0.0,-0.364073
124456681,-0.0460332,-0.0313987,-0.0302202,0.0,0.0,-0.364073
124476693,-0.0501918,-0.0494384,-0.0226317,0.0,0.0,-0.364073
124496755,-0.048052,-0.0634931,-0.0178699,0.0,0.0,-0.365091
124516742,-0.0429386,-0.0752959,-0.0112388,0.0,0.0,-0.366109
124536752,-0.0339024,-0.0766739,-0.00774756,0.0,0.0,-0.367127
124556739,-0.027941,-0.0844283,-0.00290903,0.0,0.0,-0.3712
124576785,-0.0412382,-0.0737168,0.002085,0.0,0.0,-0.380364
124596770,-0.0552113,-0.0753475,0.00485163,0.0,0.0,-0.381382
124616805,-0.0471848,-0.0760639,0.0068382,0.0,0.0,-0.381382
124636808,-0.0486144,-0.0860402,0.0113362,0.0,0.0,-0.381382
124656837,-0.054484,-0.103305,0.0160629,0.0,0.0,-0.381382
124676839,-0.0478318,-0.112834,0.0155125,0.0,0.0,-0.388509
124696859,-0.0501082,-0.119584,0.0176111,0.0,0.0,-0.387491
124716861,-0.0474387,-0.111417,0.0162375,0.0,0.0,-0.386473
124736899,-0.0412816,-0.093642,0.0138401,0.0,0.0,-0.387491
124756937,-0.0233797,-0.0792395,0.011942,0.0,0.0,-0.387491
124776919,0.00389494,-0.060081,0.0100851,0.0,0.0,-0.386473
124792003,0.0164761,-0.0535118,0.00819846,0.0,0.0,-0.385455
124816949,0.0343072,-0.0313503,0.00539283,0.0,0.0,-0.386473
124836960,0.0529447,-0.0203817,0.00572883,0.0,0.0,-0.385455
124856999,0.0624033,-0.00260064,0.00318592,0.0,0.0,-0.385455
124877005,0.0694545,-0.00681809,0.000442416,0.0,0.0,-0.386473
124897009,0.0689831,-0.00651134,-0.00131645,0.0,0.0,-0.385455
124917062,0.058004,-0.00377654,-0.0034135,0.0,0.0,-0.385455
124932026,0.0470793,-0.00578541,-0.00554158,0.0,0.0,-0.385455
124957164,0.0208007,-0.0091089,-0.00992029,0.0,0.0,-0.385455
124977069,0.00928084,-0.00833261,-0.0105362,0.0,0.0,-0.385455
124997091,0.00795272,-0.0014582,-0.0155529,0.0,0.0,-0.385455
125017154,0.0086344,-0.0121319,-0.0156049,0.0,0.0,-0.386473
125037124,0.0168413,-0.00135021,-0.0181325,0.0,0.0,-0.385455
125057140,0.0188744,-0.0120331,-0.0182006,0.0,0.0,-0.385455
125072163,0.0245875,-0.0130447,-0.0179864,0.0,0.0,-0.385455
125097168,0.0330858,-0.0137893,-0.0183525,0.0,0.0,-0.385455
125117240,0.0389694,-0.00434179,-0.0189093,0.0,0.0,-0.385455
125137189,0.0627395,-0.00807641,-0.0194582,0.0,0.0,-0.385455
125157214,0.0940581,-0.0018009,-0.0199275,0.0,0.0,-0.396655
125177223,0.0923576,0.00654036,-0.0202575,0.0,0.0,-0.385455
125197265,0.101618,0.0152407,-0.0200527,0.0,0.0,-0.386473
125212273,0.0890045,0.0240951,-0.0195142,0.0,0.0,-0.386473
125237316,0.0501015,0.0361497,-0.0182405,0.0,0.0,-0.385455
125257305,0.00812815,0.0458719,-0.0188391,0.0,0.0,-0.385455
125277327,-0.01615,0.0432334,-0.016902,0.0,0.0,-0.386473
125292379,-0.0344115,0.0520661,-0.0174947,0.0,0.0,-0.385455
125317358,-0.0700457,0.0648054,-0.0167612,0.0,0.0,-0.385455
125337363,-0.0878377,0.0727681,-0.0172691,0.0,0.0,-0.383418
125352371,-0.0838526,0.0761271,-0.0161592,0.0,0.0,-0.383418
125377401,-0.0726748,0.0748503,-0.0157086,0.0,0.0,-0.383418
125397414,-0.0383076,0.0707105,-0.0155333,0.0,0.0,-0.384436
125417416,-0.00800639,0.0688272,-0.015467,0.0,0.0,-0.384436
125432438,0.00367423,0.0723225,-0.0151678,0.0,0.0,-0.384436
125457441,0.00330445,0.0697963,-0.0130486,0.0,0.0,-0.384436
125477465,-0.0134924,0.0560485,-0.0115033,0.0,0.0,-0.3824
125492497,-0.018571,0.050892,-0.010315,0.0,0.0,-0.384436
125517514,-0.0362114,0.0317593,-0.00774707,0.0,0.0,-0.387491
125537539,-0.0397166,0.0289547,-0.00636833,0.0,0.0,-0.387491
125557524,-0.0582141,0.0253959,-0.00569555,0.0,0.0,-0.386473
125572588,-0.0497816,0.017932,-0.00475764,0.0,0.0,-0.387491
125597553,-0.0478347,0.00303284,-0.00322512,0.0,0.0,-0.387491
125617656,-0.0350306,-0.00990575,-0.00338695,0.0,0.0,-0.388509
125632578,-0.0146082,-0.0263492,-0.00370144,0.0,0.0,-0.389527
125657642,-0.00359939,-0.045606,-0.00448037,0.0,0.0,-0.387491
125677602,0.00434695,-0.0454167,-0.00687542,0.0,0.0,-0.390545
125697621,-0.00540065,-0.052434,-0.00798742,0.0,0.0,-0.398691
125712618,-0.00158962,-0.0446798,-0.00869092,0.0,0.0,-0.398691
125737650,-0.0145784,-0.0336683,-0.0164679,0.0,0.0,-0.405818
125757656,-0.020186,-0.0238565,-0.0184469,0.0,0.0,-0.405818
125772732,-0.019509,-0.0170613,-0.0190198,0.0,0.0,-0.405818
125797740,-0.0149176,0.00761203,-0.0207025,0.0,0.0,-0.405818
125817750,0.00129402,0.0465945,-0.0164738,0.0,0.0,-0.4048
125837731,0.0196698,0.0649118,-0.0162488,0.0,0.0,-0.4048
125852732,0.043651,0.0698677,-0.0163584,0.0,0.0,-0.4048
125877803,0.0548966,0.0739434,-0.0152324,0.0,0.0,-0.4048
125897771,0.0678428,0.0847575,-0.0168319,0.0,0.0,-0.4048
125912778,0.0667878,0.0802139,-0.0157465,0.0,0.0,-0.4048
125937800,0.0631762,0.0835113,-0.0166108,0.0,0.0,-0.403782
125957799,0.0476308,0.0780695,-0.0175433,0.0,0.0,-0.402764
125977820,0.0261129,0.0689372,-0.0159282,0.0,0.0,-0.402764
125992893,0.00477044,0.0568343,-0.0169339,0.0,0.0,-0.402764
126017848,-0.0228813,0.0454606,-0.01742,0.0,0.0,-0.402764
126037851,-0.0383522,0.0399139,-0.0188172,0.0,0.0,-0.402764
126052883,-0.0497149,0.0370439,-0.019345,0.0,0.0,-0.403782
126072902,-0.0447901,0.0301409,-0.0186522,0.0,0.0,-0.401745
126097919,-0.0467727,0.00443084,-0.0195645,0.0,0.0,-0.400727
126117914,-0.0415837,-0.309365,-0.0208264,0.0,0.0,-0.400727
126132932,-0.0245859,-0.311035,-0.0212271,0.0,0.0,-0.400727
126157966,0.00341003,-0.328864,-0.0242364,0.0,0.0,-0.400727
126177973,-0.00226153,-0.319331,-0.0267599,0.0,0.0,-0.400727
126193007,0.0251165,-0.298549,-0.0290236,0.0,0.0,-0.400727
126212998,0.0473107,-0.271609,-0.0313516,0.0,0.0,-0.400727
126238005,0.0283507,-0.325792,-0.0339968,0.0,0.0,-0.400727
126258033,0.0274867,-0.276003,-0.0369064,0.0,0.0,-0.400727
126273063,-0.041059,-0.23305,-0.038157,0.0,0.0,-0.400727
126298073,-0.13629,-0.155138,-0.0392881,0.0,0.0,-0.398691
126318066,-0.199281,-0.093951,-0.0412839,0.0,0.0,-0.401745
126333094,-0.248674,-0.0718336,-0.0426384,0.0,0.0,-0.400727
126353123,-0.268399,-0.0425197,-0.0437812,0.0,0.0,-0.400727
126378131,-0.238925,-0.00924804,-0.0470451,0.0,0.0,-0.400727
126398187,-0.20398,-0.0216943,-0.0492673,0.0,0.0,-0.400727
126413142,-0.184709,-0.0251407,-0.050537,0.0,0.0,-0.401745
126438211,-0.14795,-0.0587137,-0.0519,0.0,0.0,-0.400727
126458184,-0.108506,-0.0580065,-0.0540216,0.0,0.0,-0.400727
126473217,-0.0766429,-0.0774116,-0.0533377,0.0,0.0,-0.400727
126493219,-0.0283624,-0.0780113,-0.0550641,0.0,0.0,-0.400727
126518276,-0.0023489,-0.0914926,-0.0545478,0.0,0.0,-0.400727
126538308,0.00274479,-0.0973281,-0.0527189,0.0,0.0,-0.400727
126553263,0.00367827,-0.0853649,-0.0508323,0.0,0.0,-0.400727
126578340,-0.0267711,-0.0650212,-0.0469015,0.0,0.0,-0.400727
126598300,-0.0606086,-0.0413681,-0.0463415,0.0,0.0,-0.401745
126613370,-0.0854283,-0.0157722,-0.0433804,0.0,0.0,-0.400727
126633345,-0.100781,-0.0122126,-0.0417865,0.0,0.0,-0.400727
126658370,-0.129735,-0.000342521,-0.0385209,0.0,0.0,-0.400727
126678375,-0.139485,0.0364945,-0.0385749,0.0,0.0,-0.400727
126693445,-0.139821,0.0409937,-0.0359479,0.0,0.0,-0.400727
126713411,-0.112346,0.0406662,-0.0371953,0.0,0.0,-0.400727
126738432,-0.0922152,0.0178865,-0.0368966,0.0,0.0,-0.400727
126753422,-0.082278,-0.000812894,-0.0368664,0.0,0.0,-0.400727
126773470,-0.0718697,-0.0132922,-0.0376121,0.0,0.0,-0.400727
126798466,-0.0580615,-0.0329403,-0.0380004,0.0,0.0,-0.398691
126818465,-0.0687786,-0.0469114,-0.0378837,0.0,0.0,-0.398691
126833496,-0.0672826,-0.0365393,-0.0372756,0.0,0.0,-0.398691
126853504,-0.0815118,0.0751321,-0.0341432,0.0,0.0,-0.399709
126878507,-0.0862044,0.0934985,-0.032667,0.0,0.0,-0.399709
126893541,-0.0848324,0.0811324,-0.0314176,0.0,0.0,-0.398691
126913535,-0.0842187,0.0906248,-0.0328317,0.0,0.0,-0.399709
126938555,-0.0678503,0.0697877,-0.0336506,0.0,0.0,-0.399709
126958568,-0.00350843,-0.0542244,-0.0385533,0.0,0.0,-0.399709
126973605,-0.038187,0.0281665,-0.0363939,0.0,0.0,-0.398691
126993590,-0.0270155,0.0157541,-0.0404057,0.0,0.0,-0.399709
127018598,-0.0159385,0.000803271,-0.0422403,0.0,0.0,-0.398691
127033624,-0.0560717,-0.00535254,-0.0426195,0.0,0.0,-0.399709
127053638,-0.0513597,0.00181299,-0.0434435,0.0,0.0,-0.399709
127078671,-0.0586143,0.0504569,-0.0445698,0.0,0.0,-0.399709
127098696,-0.0512857,0.0899381,-0.0473142,0.0,0.0,-0.399709
127113695,-0.044467,0.0978662,-0.0474725,0.0,0.0,-0.399709
127133711,-0.0538267,0.120152,-0.0491783,0.0,0.0,-0.399709
127158713,-0.0603116,0.140666,-0.0510135,0.0,0.0,-0.399709
127173730,-0.0541614,0.157951,-0.0509571,0.0,0.0,-0.399709
127193730,-0.0586517,0.2152,-0.0516815,0.0,0.0,-0.398691
127218797,-0.0620721,0.339197,-0.0509463,0.0,0.0,-0.399709
127238770,-0.00891243,0.386382,-0.0507497,0.0,0.0,-0.398691
127253791,0.0233733,0.404001,-0.0517523,0.0,0.0,-0.399709
127273838,0.121187,0.391211,-0.0547811,0.0,0.0,-0.402764
127298877,0.364557,0.339051,-0.0582153,0.0,0.0,-0.405818
127313831,0.388744,0.301879,-0.066038,0.0,0.0,-0.406836
127333846,0.387746,0.252972,-0.0671439,0.0,0.0,-0.406836
127353977,0.364627,0.195529,-0.075391,0.0,0.0,-0.405818
127378903,0.331251,0.142003,-0.0830312,0.0,0.0,-0.406836
127393968,0.308395,0.115703,-0.0838217,0.0,0.0,-0.406836
127413910,0.268003,0.0806018,-0.0771601,0.0,0.0,-0.405818
127438952,0.20017,0.0536954,-0.0768157,0.0,0.0,-0.410909
127453942,0.162232,0.037791,-0.075912,0.0,0.0,-0.410909
127474062,0.111109,0.0365631,-0.0847552,0.0,0.0,-0.418036
127493971,0.0626443,0.0341742,-0.103814,0.0,0.0,-0.424145
127519017,0.0137359,0.0496175,-0.103752,0.0,0.0,-0.4272
127533999,0.00186252,0.0567911,-0.102399,0.0,0.0,-0.4272
127554012,-0.00620024,0.0633528,-0.0749293,0.0,0.0,-0.425164
127579054,-0.00777343,0.0668284,-0.0635931,0.0,0.0,-0.425164
127594045,-0.0035372,0.0614308,-0.0617048,0.0,0.0,-0.425164
127614067,0.0150675,0.0510261,-0.0637775,0.0,0.0,-0.425164
127634082,0.0428827,0.0410006,-0.068158,0.0,0.0,-0.425164
127659082,0.0582618,0.0309319,-0.0570705,0.0,0.0,-0.425164
127674111,0.0648677,0.0335228,-0.0551303,0.0,0.0,-0.425164
127694128,0.0817832,0.0200542,-0.0494937,0.0,0.0,-0.425164
127719138,0.0871508,0.0135297,-0.0457496,0.0,0.0,-0.426182
127734143,0.0803472,0.013428,-0.0426942,0.0,0.0,-0.426182
127754193,0.0692856,0.00142105,-0.0398737,0.0,0.0,-0.428218
127774165,0.0514677,-0.0141664,-0.0501095,0.0,0.0,-0.431273
127799178,0.0548209,-0.0200594,-0.0407609,0.0,0.0,-0.431273
127814194,0.0591715,-0.0207409,-0.0591015,0.0,0.0,-0.431273
127834292,0.0449576,-0.0353369,-0.0561624,0.0,0.0,-0.435345
127859259,0.0526219,-0.042622,-0.0535705,0.0,0.0,-0.435345
127874254,0.0412288,-0.0454227,-0.0406931,0.0,0.0,-0.434327
127894271,0.0179232,-0.045124,-0.0372859,0.0,0.0,-0.432291
127914301,-0.00284034,-0.0472189,-0.0235578,0.0,0.0,-0.432291
127939305,-0.0123275,-0.0473345,-0.0266831,0.0,0.0,-0.431273
127954326,-0.0215261,-0.0435601,-0.0181623,0.0,0.0,-0.434327
127974329,-0.0223728,-0.0328398,-0.00870573,0.0,0.0,-0.432291
127994353,-0.0293403,-0.0293728,-0.0120479,0.0,0.0,-0.433309
128014362,-0.0290369,-0.0160305,-0.00396036,0.0,0.0,-0.432291
128034399,-0.0132004,-0.018651,-0.000379798,0.0,0.0,-0.432291
128054439,0.00902203,-0.00938521,0.00163786,0.0,0.0,-0.432291
128079428,0.0398731,0.00642828,0.00317937,0.0,0.0,-0.432291
128094424,0.059599,0.0147845,0.00524991,0.0,0.0,-0.432291
128114453,0.073026,0.0207406,0.00590103,0.0,0.0,-0.432291
128134458,0.0797716,0.00894753,0.00722691,0.0,0.0,-0.432291
128154474,0.0853693,-0.000491194,-0.00399857,0.0,0.0,-0.432291
128174566,0.0830985,-0.00689386,-0.00551629,0.0,0.0,-0.432291
128194505,0.0649441,-0.0219814,-0.00532951,0.0,0.0,-0.432291
128219527,0.0229606,-0.0442287,-0.00422692,0.0,0.0,-0.434327
128234572,0.000130033,-0.0560052,-0.00443269,0.0,0.0,-0.434327
128254598,-0.0154922,-0.0782892,-0.00402099,0.0,0.0,-0.435345
128274576,-0.0369358,-0.087533,0.00904887,0.0,0.0,-0.435345
128294634,-0.0506535,-0.0832567,0.00919933,0.0,0.0,-0.436364
128314604,-0.0465542,-0.0781619,0.00990645,0.0,0.0,-0.434327
128334637,-0.0470255,-0.0697692,0.0166217,0.0,0.0,-0.434327
128359629,-0.0208321,-0.0600852,0.0150947,0.0,0.0,-0.434327
128374669,-0.00334488,-0.0476025,0.0150172,0.0,0.0,-0.436364
128394665,-8.22379e-05,-0.0459626,0.0136106,0.0,0.0,-0.435345
128414677,0.01394,-0.0506882,0.0153732,0.0,0.0,-0.436364
128434694,0.0306196,-0.0389025,0.00794913,0.0,0.0,-0.436364
128454700,0.029451,-0.0335294,0.01336,0.0,0.0,-0.436364
128474704,0.0189131,-0.046795,0.0135702,0.0,0.0,-0.435345
128494742,0.0149864,-0.0628051,0.0122159,0.0,0.0,-0.435345
128514735,0.013778,-0.0806362,0.0124951,0.0,0.0,-0.436364
128534774,0.022631,-0.0973057,0.00553286,0.0,0.0,-0.436364
128554764,0.0207088,-0.0962225,0.00927174,0.0,0.0,-0.435345
128574790,0.0211836,-0.0955996,0.00199305,0.0,0.0,-0.436364
128594795,0.0260626,-0.0963047,0.00130777,0.0,0.0,-0.436364
128614821,0.031581,-0.0935014,-0.00917128,0.0,0.0,-0.435345
128634827,0.0346502,-0.0910448,-0.0110765,0.0,0.0,-0.435345
128654850,0.0347351,-0.0977463,-0.0128791,0.0,0.0,-0.435345
128674869,0.0338676,-0.0872335,-0.0286887,0.0,0.0,-0.437382
128694905,0.0249142,-0.0660856,-0.0391926,0.0,0.0,-0.437382
128714896,0.016496,-0.0451308,-0.0427112,0.0,0.0,-0.437382
128734912,0.00543271,-0.0286199,-0.0451843,0.0,0.0,-0.445527
128754927,-0.00166861,-0.00584799,-0.0940868,0.0,0.0,-0.447564
128774935,-0.000669315,0.0267134,-0.101232,0.0,0.0,-0.447564
128794983,0.00134748,0.0346828,-0.105526,0.0,0.0,-0.447564
128814962,0.00265811,0.0355678,-0.0844284,0.0,0.0,-0.445527
128835011,0.00928087,0.0252738,-0.0737525,0.0,0.0,-0.443491
128854998,0.0170547,0.0339392,-0.074643,0.0,0.0,-0.443491
128875056,0.0182537,0.0432674,-0.0462968,0.0,0.0,-0.442473
128895032,0.0136011,0.036265,-0.0460285,0.0,0.0,-0.442473
128915050,0.00321656,0.0364941,-0.0460825,0.0,0.0,-0.442473
128935053,9.63795e-05,0.0398233,-0.0466078,0.0,0.0,-0.442473
128955244,-0.00876785,0.0562183,-0.0400298,0.0,0.0,-0.443491
128975134,-0.0146061,0.0658799,-0.0418487,0.0,0.0,-0.443491
128995221,-0.0290438,0.0510921,-0.0395378,0.0,0.0,-0.443491
129015119,-0.0330557,0.0436557,-0.0392886,0.0,0.0,-0.442473
129035147,-0.0194424,0.0413757,-0.0389135,0.0,0.0,-0.442473
129055148,-0.00475757,0.0456145,-0.0385363,0.0,0.0,-0.444509
129075200,0.00240267,0.0442056,-0.0392985,0.0,0.0,-0.445527
129095178,0.0156238,0.0314841,-0.0379869,0.0,0.0,-0.443491
129115227,0.0309874,0.0370526,-0.0375459,0.0,0.0,-0.443491
129135189,0.0405546,0.0425223,-0.0360915,0.0,0.0,-0.440436
129155219,0.0502949,0.0528313,-0.0354101,0.0,0.0,-0.4384
129175245,0.0450069,0.0611082,-0.0349336,0.0,0.0,-0.4384
129195249,0.0384028,0.0667252,-0.0324795,0.0,0.0,-0.439418
129215251,0.0342761,0.0800735,-0.0314103,0.0,0.0,-0.439418
129235285,0.00364627,0.0828097,-0.0292615,0.0,0.0,-0.439418
129255291,-0.0710495,0.0877207,-0.0279599,0.0,0.0,-0.439418
129275322,-0.109736,0.0834998,-0.0267804,0.0,0.0,-0.439418
129295346,-0.149733,0.0732009,-0.0243493,0.0,0.0,-0.4384
129315359,-0.244316,0.0656226,-0.0238673,0.0,0.0,-0.440436
129335360,-0.321872,0.0218829,-0.0215069,0.0,0.0,-0.440436
129355391,-0.298321,-0.0317198,-0.0223112,0.0,0.0,-0.440436
129375395,-0.343091,-0.135983,-0.0206682,0.0,0.0,-0.440436
129395423,-0.419445,-0.188735,-0.0205754,0.0,0.0,-0.440436
129415413,-0.475988,-0.242325,-0.0194904,0.0,0.0,-0.440436
129435439,-0.47528,-0.230131,-0.015653,0.0,0.0,-0.440436
129455450,-0.460615,-0.188396,-0.0139119,0.0,0.0,-0.440436
129475470,-0.390508,-0.15743,-0.0105598,0.0,0.0,-0.440436
129495472,-0.330069,-0.119174,-0.00762441,0.0,0.0,-0.440436
129515509,-0.273084,-0.0894513,-0.00528182,0.0,0.0,-0.440436
129535513,-0.217755,-0.0589493,-0.001661,0.0,0.0,-0.440436
129555543,-0.181247,-0.0204179,0.00119679,0.0,0.0,-0.440436
129575579,-0.164961,-0.0154335,0.00240161,0.0,0.0,-0.440436
129595564,-0.143596,-0.0196583,0.00546067,0.0,0.0,-0.440436
129615609,-0.162095,-0.042619,0.00722835,0.0,0.0,-0.440436
129635589,-0.164756,-0.0720793,0.0109457,0.0,0.0,-0.440436
129655610,-0.160169,-0.0717225,0.0126922,0.0,0.0,-0.440436
129675628,-0.179493,-0.0663569,0.0148007,0.0,0.0,-0.440436
129695627,-0.180298,-0.066195,0.0164504,0.0,0.0,-0.440436
129715640,-0.181881,-0.16752,0.013962,0.0,0.0,-0.440436
129735714,-0.158299,-0.169419,0.0154092,0.0,0.0,-0.440436
129755682,-0.133033,-0.150588,0.0165156,0.0,0.0,-0.440436
129775766,-0.0945111,-0.122537,0.0178457,0.0,0.0,-0.440436
129795713,-0.0740865,-0.0964666,0.0213628,0.0,0.0,-0.440436
129815742,-0.0559086,-0.0578885,0.0239375,0.0,0.0,-0.440436
129835740,-0.0434872,-0.0217645,0.0269221,0.0,0.0,-0.440436
129855772,-0.0471823,-0.0153528,0.0290567,0.0,0.0,-0.440436
129875762,-0.0592364,-0.0123614,0.0300468,0.0,0.0,-0.440436
129895801,-0.0730366,-0.0193021,0.0340904,0.0,0.0,-0.440436
129915779,-0.0519323,-0.0196974,0.0347295,0.0,0.0,-0.441455
129935807,-0.0433286,-0.0473218,0.0358201,0.0,0.0,-0.440436
129955815,-0.0391293,-0.0623746,0.0370798,0.0,0.0,-0.440436
129975854,-0.0214848,-0.0536577,0.0361443,0.0,0.0,-0.440436
129995841,-0.00719393,-0.0662454,0.0361539,0.0,0.0,-0.440436
130015868,0.00507599,-0.0629382,0.0351697,0.0,0.0,-0.440436
130035881,0.0237082,-0.033674,0.0338436,0.0,0.0,-0.440436
130055902,0.0404615,-0.00483088,0.0326003,0.0,0.0,-0.440436
130075924,0.0223963,-0.0181965,0.0292356,0.0,0.0,-0.440436
130095935,0.0202724,-0.0213596,0.0275545,0.0,0.0,-0.440436
130115930,0.0185106,-0.0270174,0.0255066,0.0,0.0,-0.440436
130135957,0.0411145,-0.0222878,0.0211573,0.0,0.0,-0.440436
130155976,0.0292227,-0.0184723,0.0188246,0.0,0.0,-0.439418
130175999,0.0342603,0.00488299,0.0165897,0.0,0.0,-0.436364
130195990,0.0189459,0.0217937,0.013022,0.0,0.0,-0.436364
130216018,0.00252228,-0.0032567,0.0112561,0.0,0.0,-0.436364
130236020,0.0116394,-0.0109392,0.00837522,0.0,0.0,-0.434327
130256050,0.0246182,-0.0204077,0.00503855,0.0,0.0,-0.434327
130276100,0.0376606,-0.0376831,0.0033862,0.0,0.0,-0.435345
130296092,0.014712,-0.0531723,0.000777622,0.0,0.0,-0.435345
130316145,-0.00705381,0.0196749,0.00305946,0.0,0.0,-0.437382
130336122,-0.0183217,0.00865569,0.000420101,0.0,0.0,-0.437382
130356158,-0.0371525,0.0299961,-0.000480471,0.0,0.0,-0.439418
130376145,-0.0507835,0.0637683,-0.000972861,0.0,0.0,-0.441455
130396189,-0.0605492,0.0756157,-0.00360891,0.0,0.0,-0.444509
130416196,-0.0745945,0.065499,-0.00453434,0.0,0.0,-0.444509
130436183,-0.0637408,0.0597194,-0.00654031,0.0,0.0,-0.444509
130456211,-0.0465073,0.0585334,-0.00668042,0.0,0.0,-0.444509
130476217,-0.0278383,0.0543622,-0.0112229,0.0,0.0,-0.444509
130496235,-0.0182119,0.0417908,-0.0134415,0.0,0.0,-0.444509
130516310,-0.0238947,0.0180274,-0.0143638,0.0,0.0,-0.444509
130536269,-0.0229329,0.0121962,-0.0178098,0.0,0.0,-0.444509
130556412,-0.0209203,-0.0341551,-0.0210378,0.0,0.0,-0.444509
130576378,-0.0218507,-0.00646912,-0.0236459,0.0,0.0,-0.444509
130596387,-0.0275526,-0.0146291,-0.0248069,0.0,0.0,-0.446545
130616349,-0.0263588,-0.00201471,-0.0251216,0.0,0.0,-0.446545
130636380,-0.0119753,0.0109517,-0.0267833,0.0,0.0,-0.442473
130656358,-0.00732156,0.00400476,-0.0275955,0.0,0.0,-0.444509
130676400,-0.015627,0.00551038,-0.0303552,0.0,0.0,-0.444509
130696385,-0.0158815,0.00717368,-0.0303964,0.0,0.0,-0.445527
130716420,-0.00547051,-0.0154654,-0.0321528,0.0,0.0,-0.444509
130736409,-0.000575541,-0.0141042,-0.0319283,0.0,0.0,-0.445527
130756452,-0.00363247,-0.0227351,-0.0335708,0.0,0.0,-0.444509
130776439,-0.0268814,0.0118547,-0.0347434,0.0,0.0,-0.444509
130796465,-0.0290317,-0.00475727,-0.03549,0.0,0.0,-0.444509
130816485,-0.0172945,-0.00491064,-0.0370669,0.0,0.0,-0.445527
130836499,-0.0239673,-0.0121356,-0.038156,0.0,0.0,-0.445527
130856515,-0.0237314,-0.00918314,-0.0385687,0.0,0.0,-0.445527
130876525,-0.0264697,-0.0330162,-0.0401011,0.0,0.0,-0.448582
130896529,-0.0479198,0.000426659,-0.037888,0.0,0.0,-0.448582
130916555,-0.0542931,0.0250065,-0.0394197,0.0,0.0,-0.448582
130936585,-0.0514716,0.0221131,-0.0412382,0.0,0.0,-0.448582
130956594,-0.0467549,0.00752928,-0.0397436,0.0,0.0,-0.448582
130976588,-0.0164345,0.0200802,-0.0405523,0.0,0.0,-0.447564
130996612,-0.0115716,0.0138697,-0.0410506,0.0,0.0,-0.446545
131016616,0.0108846,0.0376166,-0.0420775,0.0,0.0,-0.446545
131036637,0.0390267,0.0761286,-0.0409959,0.0,0.0,-0.447564
131056687,0.0547247,0.131335,-0.0379863,0.0,0.0,-0.448582
131076667,0.076844,0.164296,-0.040032,0.0,0.0,-0.448582
131096729,0.055092,0.163555,-0.0398277,0.0,0.0,-0.448582
131116710,0.0347556,0.17092,-0.0413091,0.0,0.0,-0.448582
131136711,0.0760243,0.175731,-0.0400714,0.0,0.0,-0.448582
131156733,0.122716,0.151412,-0.0417286,0.0,0.0,-0.448582
131176747,0.157255,0.127545,-0.0420737,0.0,0.0,-0.448582
131196763,0.183468,0.104376,-0.0421758,0.0,0.0,-0.448582
131216830,0.296883,0.0778583,-0.0427503,0.0,0.0,-0.448582
131236790,0.419832,0.0381846,-0.0421178,0.0,0.0,-0.448582
131256854,0.630374,0.0081795,-0.0419211,0.0,0.0,-0.451636
131276817,0.590819,-0.00951059,-0.041816,0.0,0.0,-0.451636
131296850,0.548208,-0.0298334,-0.0418734,0.0,0.0,-0.455709
131316847,0.494573,-0.0303577,-0.0414339,0.0,0.0,-0.455709
131336894,0.425562,-0.0212247,-0.0409971,0.0,0.0,-0.455709
131356877,0.347373,-0.0147286,-0.0402274,0.0,0.0,-0.455709
131371959,0.293784,-0.0130778,-0.0392364,0.0,0.0,-0.455709
131396907,0.207446,-0.0130175,-0.0386596,0.0,0.0,-0.455709
131416933,0.164432,-0.00936436,-0.0372644,0.0,0.0,-0.455709
131436940,0.145157,-0.1382,-0.0378784,0.0,0.0,-0.457745
131456995,0.129,-0.468044,-0.0374617,0.0,0.0,-0.456727
131476957,0.123929,-0.532392,-0.0354475,0.0,0.0,-0.456727
131496993,0.116453,-0.668819,-0.0313677,0.0,0.0,-0.456727
131512080,0.120337,-0.674554,-0.0296863,0.0,0.0,-0.456727
131537011,0.120689,-0.673645,-0.0259624,0.0,0.0,-0.456727
131557025,0.106818,-0.647122,-0.0224533,0.0,0.0,-0.456727
131577049,0.0934977,-0.586743,-0.0188291,0.0,0.0,-0.456727
131597058,0.0822075,-0.499717,-0.01714,0.0,0.0,-0.456727
131617084,0.0655785,-0.429078,-0.0166647,0.0,0.0,-0.456727
131637088,0.0470312,-0.337653,-0.0152888,0.0,0.0,-0.456727
131652080,0.0345892,-0.283952,-0.0144254,0.0,0.0,-0.456727
131677118,0.0106152,-0.191896,-0.0140254,0.0,0.0,-0.456727
131697132,0.0097803,-0.162291,-0.01323,0.0,0.0,-0.456727
131717157,0.0207596,-0.168269,-0.0143804,0.0,0.0,-0.456727
131737173,0.032776,-0.171641,-0.0144174,0.0,0.0,-0.456727
131757166,0.0416621,-0.174791,-0.0159736,0.0,0.0,-0.456727
131777193,0.0401113,-0.153327,-0.0180084,0.0,0.0,-0.454691
131792197,0.0432945,-0.145903,-0.0175057,0.0,0.0,-0.454691
131817236,0.0403159,-0.0677816,-0.0188076,0.0,0.0,-0.455709
131837290,0.0400865,-0.016228,-0.0197163,0.0,0.0,-0.455709
131857276,0.0422588,0.0445126,-0.020659,0.0,0.0,-0.455709
131877327,0.0460951,0.0761093,-0.0221419,0.0,0.0,-0.455709
131897314,0.054645,0.127539,-0.0207738,0.0,0.0,-0.455709
131917320,0.0651711,0.276299,-0.0199138,0.0,0.0,-0.454691
131932307,0.0665338,0.38336,-0.0210437,0.0,0.0,-0.454691
131957351,0.0634467,0.648833,-0.0195565,0.0,0.0,-0.455709
131977372,0.0571615,0.676173,-0.0207051,0.0,0.0,-0.455709
131997445,0.0322515,0.897132,-0.018922,0.0,0.0,-0.455709
132012425,0.0197368,0.833728,-0.0198387,0.0,0.0,-0.455709
132037478,-0.00226878,0.682276,-0.0196022,0.0,0.0,-0.455709
132057443,-0.0139073,0.562501,-0.0209429,0.0,0.0,-0.455709
132072420,-0.023432,0.458909,-0.0207979,0.0,0.0,-0.455709
132097471,-0.0284468,0.312331,-0.021418,0.0,0.0,-0.455709
132117480,-0.0347269,0.201096,-0.0217416,0.0,0.0,-0.455709
132137516,-0.0273236,0.110609,-0.0213125,0.0,0.0,-0.454691
132152481,-0.0280015,0.0599453,-0.0219964,0.0,0.0,-0.454691
132177561,-0.0251709,0.00578559,-0.0218035,0.0,0.0,-0.454691
132197580,-0.0199825,-0.0217499,-0.0214247,0.0,0.0,-0.454691
132212596,-0.0240991,-0.0268443,-0.0210833,0.0,0.0,-0.454691
132237632,0.125583,-0.0266187,-0.0193698,0.0,0.0,-0.454691
132257565,0.232044,-0.0213177,-0.0183992,0.0,0.0,-0.455709
132277588,0.347957,-0.0236092,-0.0169562,0.0,0.0,-0.455709
132292596,0.355121,-0.0227334,-0.0166292,0.0,0.0,-0.454691
132317610,0.312652,-0.0295664,-0.0139643,0.0,0.0,-0.455709
132337615,0.268704,-0.0398621,-0.013294,0.0,0.0,-0.455709
132352618,0.262146,-0.0462368,-0.012156,0.0,0.0,-0.454691
132377655,0.248875,-0.121037,-0.00926593,0.0,0.0,-0.454691
132397681,0.24302,-0.168863,-0.00660709,0.0,0.0,-0.454691
132417714,0.238377,-0.162979,-0.00623573,0.0,0.0,-0.454691
132432672,0.278641,-0.219866,-0.00116271,0.0,0.0,-0.455709
132457699,0.339959,-0.316099,0.00179414,0.0,0.0,-0.454691
132477724,0.353281,-0.295511,0.00201452,0.0,0.0,-0.455709
132492735,0.342629,-0.287225,0.00244895,0.0,0.0,-0.455709
132517774,0.284249,-0.198935,0.00307653,0.0,0.0,-0.454691
132537757,0.235112,-0.107376,0.0033862,0.0,0.0,-0.454691
132557784,0.18495,0.0235306,0.00314052,0.0,0.0,-0.455709
132572790,0.172487,0.0464591,0.00345473,0.0,0.0,-0.454691
132597814,0.175533,0.0780207,0.00309601,0.0,0.0,-0.456727
132617863,0.13666,0.0854571,0.00312231,0.0,0.0,-0.455709
132632846,0.10768,0.0820331,0.00280483,0.0,0.0,-0.454691
132657897,-0.00932908,0.0551475,0.00309892,0.0,0.0,-0.454691
132677923,-0.0030561,0.0377548,0.0020261,0.0,0.0,-0.454691
132697891,-0.0779213,0.0258851,0.00260867,0.0,0.0,-0.455709
132712928,-0.1168,0.0108071,0.00170093,0.0,0.0,-0.455709
132737977,-0.099663,0.00257426,0.00200581,0.0,0.0,-0.454691
132757992,-0.0537601,0.00740598,0.00220205,0.0,0.0,-0.454691
132772951,-0.0190843,0.00835334,0.00273402,0.0,0.0,-0.455709
132793002,0.0248687,0.0201098,0.00331681,0.0,0.0,-0.454691
132817982,0.0250744,0.0217577,0.00460773,0.0,0.0,-0.454691
132838005,-0.0960233,0.0195575,0.00464276,0.0,0.0,-0.455709
132853006,-0.092315,0.00899672,0.00616754,0.0,0.0,-0.455709
132878035,-0.446024,-0.00814632,0.00863096,0.0,0.0,-0.455709
132898041,-0.444313,-0.00778897,0.00838165,0.0,0.0,-0.455709
132913095,-0.574963,-0.0245537,0.0093212,0.0,0.0,-0.455709
132933064,-0.534439,-0.0272992,0.00933897,0.0,0.0,-0.455709
132958082,-0.461174,-0.0317266,0.0110302,0.0,0.0,-0.455709
132978108,-0.373143,-0.0315713,0.0124834,0.0,0.0,-0.455709
132993177,-0.315271,-0.0259736,0.0125356,0.0,0.0,-0.455709
133018203,-0.205325,-0.0252792,0.01212,0.0,0.0,-0.454691
133038133,-0.137653,-0.0402427,0.0128247,0.0,0.0,-0.454691
133053174,-0.0933462,-0.0437775,0.0118797,0.0,0.0,-0.454691
133073189,-0.0523402,-0.0560579,0.0122239,0.0,0.0,-0.454691
133098191,-0.0151291,-0.0611462,0.0113458,0.0,0.0,-0.454691
133118194,-0.00865958,-0.0731175,0.0127173,0.0,0.0,-0.455709
133133194,0.000892177,-0.0731784,0.0123047,0.0,0.0,-0.455709
133158246,0.163572,-0.0655629,0.0123252,0.0,0.0,-0.454691
133178254,0.225817,-0.0532516,0.0118088,0.0,0.0,-0.454691
133193288,0.404726,-0.0324201,0.0117861,0.0,0.0,-0.454691
133213295,0.504793,-0.0618249,0.0111934,0.0,0.0,-0.455709
133238298,0.519115,-0.128507,0.00969619,0.0,0.0,-0.455709
133258346,0.573891,-0.138391,0.0101063,0.0,0.0,-0.454691
133273340,0.557225,-0.0930421,0.00955777,0.0,0.0,-0.455709
133293347,0.466286,-0.0928323,0.00926392,0.0,0.0,-0.455709
133318416,0.421289,-0.0329518,0.00796469,0.0,0.0,-0.455709
133333368,0.347276,0.0294285,0.00583654,0.0,0.0,-0.454691
133353405,0.251472,0.0192382,0.0068421,0.0,0.0,-0.454691
133378431,0.16026,0.0143268,0.00503628,0.0,0.0,-0.454691
133398470,0.112484,0.0268035,0.00322132,0.0,0.0,-0.454691
133413449,0.0874341,0.0355769,0.00171081,0.0,0.0,-0.454691
133433450,0.0649829,0.0878751,-0.000589641,0.0,0.0,-0.454691
133458505,0.0473424,0.10662,-0.00242464,0.0,0.0,-0.454691
133473487,0.0372008,0.0846934,-0.00236836,0.0,0.0,-0.455709
133493528,0.0708718,0.0572114,-0.00109583,0.0,0.0,-0.454691
133518589,0.0610726,0.0686676,-0.00225736,0.0,0.0,-0.454691
133538584,-0.0343858,0.0963944,-0.00399955,0.0,0.0,-0.455709
133553549,-0.240827,0.0982825,-0.00500769,0.0,0.0,-0.455709
133573585,-0.544914,0.0910109,-0.00600639,0.0,0.0,-0.455709
133598600,-0.697161,0.0785593,-0.00821656,0.0,0.0,-0.454691
133613583,-0.714428,0.0662119,-0.00721727,0.0,0.0,-0.455709
133633596,-0.641435,0.0569064,-0.00893178,0.0,0.0,-0.454691
133658632,-0.543576,0.0520398,-0.00914608,0.0,0.0,-0.455709
133678638,-0.444423,0.0415033,-0.00721711,0.0,0.0,-0.454691
133693736,-0.372536,0.0398279,-0.00873046,0.0,0.0,-0.455709
133713652,-0.288044,0.0276778,-0.00748789,0.0,0.0,-0.454691
133738760,-0.174629,0.0149798,-0.00931817,0.0,0.0,-0.455709
133753714,-0.12624,0.0114907,-0.0114863,0.0,0.0,-0.455709
133773720,-0.069069,-0.00688396,-0.0126088,0.0,0.0,-0.455709
133798775,-0.0196228,-0.200433,-0.0139806,0.0,0.0,-0.455709
133813753,0.00588837,-0.205608,-0.0146879,0.0,0.0,-0.455709
133833757,0.0281544,-0.268934,-0.0168252,0.0,0.0,-0.454691
133853753,0.0367423,-0.323318,-0.0162451,0.0,0.0,-0.454691
133878783,0.0329359,-0.350837,-0.0163562,0.0,0.0,-0.455709
133893827,0.0321901,-0.85884,-0.0170942,0.0,0.0,-0.454691
133913789,0.035252,-0.881512,-0.0154366,0.0,0.0,-0.454691
133938840,0.0296329,-0.755558,-0.0135904,0.0,0.0,-0.455709
133958843,0.0245575,-0.730061,-0.0108344,0.0,0.0,-0.455709
133973861,0.0163414,-0.651453,-0.0103638,0.0,0.0,-0.455709
133993880,-0.000207315,-0.839131,-0.00709887,0.0,0.0,-0.455709
134018899,-0.011181,-0.695576,-0.00392484,0.0,0.0,-0.454691
134033881,0.00415597,-0.484559,-0.00292952,0.0,0.0,-0.457745
134053931,0.0151367,-0.396802,-0.00147147,0.0,0.0,-0.457745
134073917,0.0201442,-0.277715,0.00157917,0.0,0.0,-0.454691
134098985,0.0456815,-0.169735,0.0042883,0.0,0.0,-0.454691
134113950,0.0602546,-0.0820275,0.0049153,0.0,0.0,-0.454691
134133965,0.104607,0.0762442,0.00565071,0.0,0.0,-0.454691
134159005,0.0939009,0.131872,0.00796275,0.0,0.0,-0.454691
134174010,0.086596,0.141952,0.00824976,0.0,0.0,-0.454691
134194041,0.034892,0.132249,0.0107952,0.0,0.0,-0.454691
134214047,0.0055222,0.120248,0.0114298,0.0,0.0,-0.454691
134239071,-0.00219595,0.222206,0.0123298,0.0,0.0,-0.454691
134254061,-0.0297047,0.272039,0.0128722,0.0,0.0,-0.454691
134274139,-0.0978563,0.472277,0.0149785,0.0,0.0,-0.456727
134299118,-0.128079,0.457989,0.0141951,0.0,0.0,-0.456727
134314108,-0.133229,0.51693,0.0138348,0.0,0.0,-0.456727
134334132,-0.112628,0.615747,0.011142,0.0,0.0,-0.456727
134354135,-0.120722,0.594156,0.010999,0.0,0.0,-0.454691
134379168,-0.097242,0.484525,0.00989579,0.0,0.0,-0.454691
134394228,-0.022186,0.490337,0.00608892,0.0,0.0,-0.453673
134414172,0.113972,0.559134,0.00443271,0.0,0.0,-0.453673
134439217,0.0969274,0.456061,0.00321841,0.0,0.0,-0.453673
134454241,0.104071,0.411771,0.00173721,0.0,0.0,-0.453673
134474299,0.124865,0.346555,0.00177371,0.0,0.0,-0.453673
134494253,0.130464,0.30859,0.00132822,0.0,0.0,-0.453673
134519253,0.126852,0.265403,-0.000574973,0.0,0.0,-0.453673
134534367,0.129017,0.252121,-0.00244003,0.0,0.0,-0.453673
134554414,0.127815,0.229381,-0.0046494,0.0,0.0,-0.453673
134579388,0.122191,0.208322,-0.00748556,0.0,0.0,-0.453673
134594357,0.11452,0.191951,-0.00759381,0.0,0.0,-0.454691
134614350,0.0955131,0.175788,-0.00968209,0.0,0.0,-0.455709
134634354,0.0710021,0.155886,-0.0112364,0.0,0.0,-0.455709
134659403,0.0449303,0.148183,-0.0128356,0.0,0.0,-0.454691
134674391,0.0328526,0.134337,-0.012623,0.0,0.0,-0.456727
134694406,0.0188865,0.121932,-0.0145554,0.0,0.0,-0.466909
134714442,0.0131829,0.103536,-0.0162289,0.0,0.0,-0.476073
134734427,0.00282936,0.0896864,-0.0186856,0.0,0.0,-0.476073
134754453,-0.00232731,0.0733723,-0.0196285,0.0,0.0,-0.476073
134774452,-0.0037217,0.0608214,-0.0210843,0.0,0.0,-0.467927
134799495,-0.00879392,0.0334845,-0.0206859,0.0,0.0,-0.467927
134814492,-0.0159097,0.0275005,-0.0217788,0.0,0.0,-0.476073
134834522,-0.0216334,0.020538,-0.020531,0.0,0.0,-0.476073
134854529,-0.0229596,0.0275298,-0.0213474,0.0,0.0,-0.476073
134874539,-0.0207135,0.0347574,-0.0213804,0.0,0.0,-0.476073
134894539,-0.00464283,0.0477785,-0.0210619,0.0,0.0,-0.466909
134914577,0.0050196,0.067545,-0.0208066,0.0,0.0,-0.475055
134939601,0.0113936,0.0821178,-0.0208506,0.0,0.0,-0.476073
134954607,0.0173823,0.088056,-0.0208379,0.0,0.0,-0.476073
134974627,0.0153499,0.0915333,-0.0210113,0.0,0.0,-0.475055
134994634,0.000976796,0.0846067,-0.0209081,0.0,0.0,-0.475055
135014680,0.00461934,0.0710093,-0.0196437,0.0,0.0,-0.473018
135034666,-0.143271,0.0577384,-0.0192351,0.0,0.0,-0.473018
135054724,-0.156701,0.0377515,-0.0197362,0.0,0.0,-0.472
135079705,-0.228289,0.00547796,-0.0198712,0.0,0.0,-0.472
135094703,-0.253794,-0.00474629,-0.0201613,0.0,0.0,-0.472
135114732,-0.268751,-0.018728,-0.0197094,0.0,0.0,-0.472
135134788,-0.363686,-0.0272908,-0.0179545,0.0,0.0,-0.472
135154751,-0.417364,-0.0261897,-0.0182296,0.0,0.0,-0.472
135174823,-0.491219,-0.0292037,-0.0192484,0.0,0.0,-0.472
135194791,-0.525698,-0.0359932,-0.0197011,0.0,0.0,-0.472
135219785,-0.547647,-0.028458,-0.0193504,0.0,0.0,-0.473018
135234815,-0.505554,-0.0182803,-0.0193922,0.0,0.0,-0.473018
135254840,-0.46076,-0.015012,-0.0180333,0.0,0.0,-0.473018
135274846,-0.410541,-0.00149362,-0.0178281,0.0,0.0,-0.473018
135294900,-0.362563,0.00462524,-0.018567,0.0,0.0,-0.472
135314887,-0.460806,0.110545,-0.0161218,0.0,0.0,-0.472
135334902,-0.433627,0.171583,-0.0140631,0.0,0.0,-0.472
135354892,-0.410642,0.269324,-0.0110982,0.0,0.0,-0.472
135374928,-0.358455,0.250443,-0.0115448,0.0,0.0,-0.473018
135394969,-0.306945,0.316316,-0.00852168,0.0,0.0,-0.473018
135414940,-0.280132,0.283842,-0.00954892,0.0,0.0,-0.473018
135434946,-0.238217,0.231559,-0.00987169,0.0,0.0,-0.472
135454967,-0.175395,0.17875,-0.00963156,0.0,0.0,-0.472
135474993,-0.104551,0.110408,-0.0106545,0.0,0.0,-0.472
135495006,0.00419478,-0.0198312,-0.0120198,0.0,0.0,-0.473018
135515001,0.0328229,-0.128022,-0.0129678,0.0,0.0,-0.473018
135535030,0.0784201,-0.275474,-0.0152732,0.0,0.0,-0.472
135555044,0.0876624,-0.288632,-0.0146314,0.0,0.0,-0.472
135575069,0.096129,-0.27709,-0.010699,0.0,0.0,-0.473018
135595074,0.129395,-0.333565,-0.00940532,0.0,0.0,-0.472
135615099,0.199355,-0.311701,-0.00627433,0.0,0.0,-0.473018
135635089,0.183212,-0.27082,-0.00489227,0.0,0.0,-0.473018
135655178,0.166358,-0.228036,-0.0022398,0.0,0.0,-0.472
135675119,0.146097,-0.179024,0.000680715,0.0,0.0,-0.472
135695193,0.158529,-0.134459,0.00199403,0.0,0.0,-0.473018
135715151,0.143457,-0.0964934,0.00324902,0.0,0.0,-0.472
135735191,0.139822,-0.0725676,0.00505013,0.0,0.0,-0.472
135755194,0.12668,-0.0554193,0.00731292,0.0,0.0,-0.472
135775209,0.152759,-0.053133,0.00831004,0.0,0.0,-0.472
135795299,0.170452,-0.0596329,0.00924781,0.0,0.0,-0.472
135815241,0.195206,-0.0606826,0.00945835,0.0,0.0,-0.473018
135835315,0.170823,-0.0666704,0.0104204,0.0,0.0,-0.472
135855277,0.14028,-0.0736536,0.0133114,0.0,0.0,-0.473018
135875308,0.08352,-0.0751434,0.0150374,0.0,0.0,-0.472
135895353,0.0566764,-0.0717189,0.0146921,0.0,0.0,-0.472
135915366,0.0363826,-0.0774621,0.0150018,0.0,0.0,-0.473018
135935341,0.0181401,-0.0839867,0.0161469,0.0,0.0,-0.473018
135955412,-0.00665472,-0.0822486,0.0169095,0.0,0.0,-0.472
135975376,-0.0184133,-0.0740295,0.0165106,0.0,0.0,-0.473018
135995486,-0.00655114,-0.0681295,0.0175031,0.0,0.0,-0.473018
136015416,0.0237248,-0.0586559,0.0195296,0.0,0.0,-0.472
136035454,0.0422996,-0.0470187,0.0196777,0.0,0.0,-0.473018
136055433,0.185419,-0.0425436,0.0187217,0.0,0.0,-0.473018
