timestamp,timestamp_sample,xyz[0],xyz[1],xyz[2]
116055132,116054285,-0.388483,-0.0661196,-0.0979959
116060119,116059283,-0.145773,0.305782,0.0889888
116077636,116076796,0.244533,-0.353919,-0.181167
116095163,116094326,0.0898001,0.329605,0.182555
116115162,116114325,-0.33955,-0.0541216,-0.0595976
116135211,116134374,0.263631,-0.295485,-0.156334
116157692,116156855,0.186725,0.137051,0.111328
116175218,116174379,-0.220977,0.13671,0.0537437
116195224,116194386,0.012277,-0.361525,-0.2319
116217738,116216905,0.200816,-0.0565263,-0.0513058
116235271,116234413,0.116938,0.159005,0.202104
116255279,116254431,-0.0839327,-0.142464,-0.00482513
116275287,116274443,-0.129865,-0.118793,-0.0618257
116297801,116296961,-0.216655,-0.152233,-0.0302838
116315315,116314473,-0.408132,0.00349563,-0.149219
116335330,116334488,-0.417779,0.135644,-0.112757
116357838,116357004,-0.439909,0.123176,-0.133004
116375354,116374517,-0.300035,0.321964,-0.0654801
116395380,116394532,-0.23218,0.354392,-0.040922
116415394,116414547,-0.176562,0.366343,-0.0137237
116437899,116437066,-0.36689,0.305064,-0.0946213
116455419,116454579,-0.107826,0.421276,-0.0158148
116475432,116474594,-0.10035,0.447875,-0.0294026
116497970,116497111,-0.217067,0.208145,-0.0654657
116515484,116514622,-0.0925786,0.412403,-0.0348884
116535473,116534637,-0.0856463,0.362236,-0.0294543
116555497,116554652,-0.0828965,0.288555,-0.023993
116578010,116577171,0.0483763,-0.185865,-0.0358211
116595520,116594682,0.00745451,0.101465,-0.0361802
116615536,116614697,0.0882468,-0.079531,-0.0397018
116635547,116634711,0.156083,-0.242605,-0.0396905
116655566,116654726,0.239753,-0.346209,-0.029299
116675591,116674743,0.291995,-0.397077,-0.0170152
116695605,116694756,0.338674,-0.366035,-0.00617971
116718112,116717275,0.362282,0.0072523,0.0301493
116735629,116734786,0.36192,-0.169788,-0.00194759
116755641,116754804,0.337979,-0.0474791,-0.00819519
116775652,116774816,0.300454,0.101602,-0.0218749
116798170,116797338,0.117971,0.380217,0.000598945
116815682,116814846,0.20699,0.304599,-0.0141947
116835698,116834862,0.121691,0.332158,-0.00446188
116858228,116857378,0.0189631,0.120032,0.00588773
116875727,116874891,0.0318788,0.254576,0.00352648
116895742,116894905,0.0222251,0.155214,-0.00814072
116915757,116914920,0.0390869,0.0206696,-0.0223708
116938282,116937439,0.297336,-0.392255,-0.0424614
116955787,116954950,0.197941,-0.273555,-0.0481181
116975801,116974965,0.281769,-0.36157,-0.0406881
116998323,116997482,0.437421,-0.364454,-0.0117379
117015831,117014995,0.418157,-0.43608,-0.033838
117035846,117035010,0.502088,-0.397579,-0.0465412
117060911,117060071,0.383968,0.327768,-0.0430625
117078374,117077542,0.488396,0.195345,-0.0324682
117098396,117097562,0.465665,0.299159,-0.00995896
117115906,117115070,0.497587,0.0677533,0.00608725
117138429,117137587,0.00713757,0.172813,0.0928537
117155950,117155103,-0.0883934,0.0182791,0.13322
117175954,117175115,-0.242031,0.0113025,0.162538
117195966,117195129,-0.238751,0.0346413,0.0679154
117218478,117217646,0.000742589,-0.117218,-0.0606475
117235999,117235163,-0.0256247,0.104467,-0.0332015
117256025,117255178,0.0902101,0.0559197,-0.0933276
117276028,117275189,0.223454,-0.0205348,-0.152062
117298540,117297708,0.193621,-0.186831,-0.119888
117316060,117315224,0.0877339,-0.202717,-0.102431
117336079,117335234,-0.0637653,-0.233806,-0.0842653
117358593,117357761,-0.218294,-0.131716,0.0219091
117376111,117375265,-0.214578,-0.0599111,-0.0433614
117396120,117395284,-0.236222,0.031243,-0.014351
117416131,117415294,-0.23864,0.137836,0.000531347
117438643,117437811,-0.0752641,0.150138,0.00542491
117456161,117455324,-0.138894,-0.0650122,0.0401087
117476175,117475339,-0.137153,-0.186831,0.0676331
117498692,117497857,-0.0865822,0.0560678,-0.0178914
117516208,117515368,-0.0549633,-0.176146,0.0283558
117536233,117535391,-0.158912,-0.101473,0.0226873
117556237,117555398,-0.226799,-0.0152317,0.0182399
117578747,117577915,-0.420478,0.436341,0.0186652
117596274,117595428,-0.365677,0.344613,0.0508749
117616303,117615455,-0.442701,0.34588,0.0695028
117638792,117637960,-0.343432,0.225872,-0.0572332
117656317,117655474,-0.351559,0.192227,-0.0181464
117676333,117675488,-0.280834,0.107423,-0.025079
117696343,117695503,-0.257548,0.0518858,-0.0375318
117718852,117718020,-0.279962,-0.0558138,-0.047275
117736374,117735533,-0.270527,0.061614,-0.0707729
117756388,117755548,-0.372593,0.119048,-0.0941468
117778907,117778064,-0.65042,-0.0168063,-0.0219221
117796424,117795577,-0.70666,0.239806,-0.080645
117816429,117815592,-0.738463,0.108572,-0.0661697
117836444,117835608,-0.611126,-0.0757615,-0.0304179
117858961,117858124,-0.191581,-0.543873,-0.0389799
117876474,117875637,-0.311951,-0.432853,-0.0626543
117896492,117895656,-0.197985,-0.487055,-0.095878
117919005,117918169,0.0296408,-0.436846,-0.0603824
117934020,117933180,-0.0985492,-0.305615,-0.147836
117956542,117955697,0.106357,-0.264999,-0.103553
117976548,117975712,0.106702,-0.0872533,-0.0510489
117999061,117998229,-0.106696,0.294656,0.0926128
118016578,118015742,-0.0375043,0.180325,0.0506487
118036598,118035757,-0.0529834,0.261392,0.0732055
118056608,118055772,-0.0691662,0.311211,0.064664
118074131,118073300,-0.0374856,0.327896,0.0404036
118096638,118095802,0.0899126,0.172703,0.0107853
118116658,118115820,0.222874,0.00411304,-0.0514934
118139201,118138363,0.257282,-0.182785,-0.0131751
118156703,118155855,0.170225,-0.111964,-0.0102466
118176698,118175862,-0.0455009,-0.123258,0.0655368
118196742,118195891,-0.0550067,-0.198394,0.0977655
118214222,118213390,-0.127657,-0.256233,0.061447
118236745,118235906,0.0637421,-0.364292,0.0687044
118256760,118255921,0.0908623,-0.201889,0.0284406
118279278,118278438,-0.101533,0.525232,-0.0185722
118296792,118295951,-0.0637791,0.436481,0.0413911
118316818,118315978,-0.185394,0.515374,0.0467815
118336822,118335986,-0.111487,0.330082,0.027921
118354338,118353494,-0.0779764,0.290924,0.0505712
118376847,118376011,0.207418,-0.18821,-0.10124
118396866,118396030,0.0986837,-0.259149,-0.0594141
118419399,118418545,-0.135016,-0.0784402,0.0483806
118436902,118436056,-0.0521349,-0.044863,0.057611
118456907,118456071,0.0327587,-0.0948794,0.0752859
118476922,118476085,0.113395,-0.0922545,0.0258652
118494433,118493599,0.151182,-0.143061,0.0160232
118516952,118516115,-0.162998,0.481264,0.0133713
118536970,118536130,-0.28035,0.513515,0.0292106
118559485,118558647,-0.113504,-0.0337663,-0.0530311
118576999,118576160,-0.0598189,-0.0960308,-0.0560122
118597011,118596175,-0.130467,-0.206063,-0.0432686
118617029,118616190,-0.262259,-0.161866,0.0404293
118634537,118633703,-0.287953,-0.175349,0.0405344
118657059,118656222,-0.0152155,-0.120218,-0.0178764
118677082,118676239,-0.196715,0.188904,0.0294534
118697105,118696250,-0.300691,0.133048,0.0464424
118714606,118713764,-0.268508,-0.0719339,0.068238
118737126,118736282,-0.234683,-0.096178,-0.053796
118757131,118756295,-0.376727,0.154905,-0.015353
118774640,118773808,-0.417739,0.0565154,0.0184562
118797174,118796338,-0.376178,-0.1435,0.0392478
118817184,118816340,-0.47266,-0.0894148,0.0377706
118837199,118836355,-0.486294,0.0223347,0.0166466
118854703,118853868,-0.653868,0.157699,0.0248159
118877223,118876385,-0.598015,-0.136732,0.0459443
118899747,118898912,-0.514418,0.0676042,0.0136198
118914746,118913915,-0.478187,-0.197611,0.0283025
118937278,118936429,-0.424516,0.0410227,0.0218018
118957303,118956444,-0.482205,-0.180817,-0.014064
118977321,118976462,-0.671594,-0.0677291,0.0233368
118994803,118993972,-0.605655,0.0634889,0.0196567
119017333,119016489,-0.305948,-0.192993,0.0990773
119037361,119036504,-0.460454,-0.0808023,0.13016
119054851,119054017,-0.33562,0.0272086,0.105353
119077376,119076534,-0.267558,-0.00150507,0.11014
119097390,119096553,-0.301252,0.0682657,0.125653
119117403,119116566,0.0697529,0.02927,0.104895
119134908,119134077,0.187654,-0.0344758,0.101623
119157434,119156594,-0.184897,0.205666,0.135273
119177448,119176609,0.166979,0.0346537,0.157033
119194953,119194122,0.37822,-0.129517,0.147489
119217486,119216642,0.080055,-0.0621588,0.246804
119237491,119236654,0.354188,-0.144305,0.227472
119257506,119256669,0.371257,-0.0726454,0.149992
119275013,119274182,0.350795,0.0993987,0.163267
119297537,119296700,0.318093,-0.118302,0.243264
119317588,119316752,0.25488,-0.117425,0.193866
119335066,119334227,0.160418,-0.00892882,0.154954
119355082,119354244,0.0933516,0.189475,0.110572
119377594,119376758,-0.00272946,-0.0164887,0.160523
119397610,119396773,0.0724429,-0.00538008,0.102989
119415120,119414287,0.0431079,0.150818,0.0920675
119437640,119436803,-0.237736,-0.0353464,0.122545
119457655,119456818,-0.0212731,-0.209785,0.0908085
119475166,119474335,-0.0492752,-0.0380463,0.0704943
119495180,119494346,-0.115916,-0.0592469,0.0856537
119517699,119516863,-0.129579,-0.341461,0.00510905
119537714,119536878,-0.0125598,0.0735892,0.0311874
119555224,119554391,-0.114185,-0.0496108,-0.000360904
119577744,119576908,-0.157451,-0.223089,-0.0456112
119597759,119596923,-0.266868,0.0460967,-0.0328444
119615275,119614436,-0.234279,-0.0497866,-0.059303
119635291,119634451,0.0460044,-0.0673435,-0.0164485
119657804,119656968,-0.163397,0.0140535,-0.0420546
119677822,119676986,0.187212,0.0868862,-0.0481999
119695333,119694496,0.135448,0.00912942,-0.0237397
119717849,119717013,0.212236,0.0718514,-0.0721132
119737876,119737028,0.297795,0.152203,-0.0718721
119755402,119754541,0.291455,0.192016,-0.017357
119775400,119774566,0.355922,-0.00313083,-0.0448378
119797917,119797073,0.315928,0.343067,-0.0731253
119817925,119817089,0.262512,0.0833473,-0.0492067
119835434,119834602,0.240095,-0.197408,-0.0584126
119857966,119857119,0.437158,0.273924,-0.107736
119877976,119877140,0.296726,0.0936531,-0.111681
119895476,119894646,0.124932,-0.0878097,-0.102074
119915501,119914662,0.162711,-0.0357839,-0.161696
119938028,119937189,0.251251,0.000752226,-0.12044
119958041,119957192,0.124353,-0.249507,-0.166347
119975536,119974705,0.058263,-0.138676,-0.225577
119995551,119994720,-0.10401,0.0859454,-0.185305
120018093,120017257,0.0761066,-0.113272,-0.178682
120035588,120034750,0.0185746,-0.0585857,-0.13964
120055596,120054765,-0.232607,0.00805804,-0.144473
120078126,120077284,-0.0321882,-0.195295,-0.128384
120098145,120097309,-0.174197,0.0422985,-0.121305
120115644,120114810,-0.173691,0.0473858,-0.0590899
120135656,120134825,-0.240711,-0.051731,-0.0236627
120158179,120157343,-0.162542,0.0785674,-0.10582
120175687,120174855,-0.125158,0.185097,-0.0850502
120195706,120194870,-0.305094,-0.00598507,-0.0481186
120218238,120217400,-0.0987857,0.248566,-0.0400958
120238249,120237409,-0.188782,0.0602187,-0.0617728
120255746,120254915,-0.280923,0.0700694,-0.049526
120275777,120274930,-0.161874,0.293876,0.00902806
120300784,120299950,-0.141779,0.202455,0.0244531
120315794,120314960,0.000362595,0.0711156,0.0719618
120335809,120334975,0.0583749,-0.152262,0.147005
120358336,120357491,0.12598,-0.0284295,0.0791399
120378360,120377510,-0.0260741,-0.301343,0.12609
120395855,120395023,0.183733,-0.237438,0.0628452
120415866,120415034,0.229489,0.122938,0.0386829
120438391,120437551,0.0742714,-0.119557,-0.00576782
120455896,120455064,0.313517,0.136407,-0.071566
120475914,120475079,0.127352,0.102248,-0.0046095
120498450,120497596,0.198639,0.0603608,-0.0757549
120515976,120515124,0.13251,0.163463,-0.072642
120535959,120535124,0.100006,-0.0753002,-0.0695296
120555976,120555139,0.0820134,0.000344246,-0.0549589
120578493,120577656,0.0289359,0.04257,-0.0184836
120596000,120595169,0.0432193,0.0144925,-0.0202459
120616020,120615184,-0.0657528,0.0267784,-0.0396985
120636031,120635199,-0.223654,0.12992,-0.00584467
120656051,120655216,0.0244739,-0.090508,0.0050507
120676060,120675229,-0.0789536,0.070524,-0.00627233
120696092,120695244,-0.0990859,0.0167531,0.0521403
120718604,120717761,0.0119231,0.168135,0.0131335
120736116,120735282,-0.106857,0.0994295,0.0428915
120756120,120755289,-0.117134,-0.00383023,0.0519311
120776155,120775321,0.134319,0.202207,-0.0410914
120798663,120797821,-0.00312165,0.0878414,-0.00485058
120816177,120815334,0.0483892,0.131965,0.0437037
120836180,120835349,0.263713,0.0195617,0.0266968
120858703,120857866,0.129442,-0.0197328,0.0432734
120876215,120875379,0.224943,-0.0939869,0.0458671
120896236,120895394,0.287673,-0.103949,0.0426917
120916241,120915409,-0.00701815,-0.127488,-0.0115126
120938762,120937926,0.338224,-0.209744,0.0325226
120956287,120955439,0.232219,-0.276217,-0.0160637
120976294,120975457,-0.134051,-0.0846674,0.0239492
120998810,120997971,-0.0265234,-0.249608,0.0485867
121016320,121015484,-0.178281,-0.113067,-0.00212402
121036348,121035514,-0.310067,0.0360864,-0.0390849
121056351,121055520,-0.263425,0.0210354,0.0706849
121078870,121078031,-0.261189,0.171902,-0.0162019
121096388,121095551,-0.246243,0.116667,0.0180342
121116396,121115559,-0.0729855,0.0222641,0.0443935
121138922,121138075,-0.214299,0.121718,0.0213025
121156430,121155589,-0.153609,0.113426,0.0285074
121176439,121175604,0.176031,0.268307,-0.00640017
121196453,121195619,0.0831311,0.162032,0.0151766
121218977,121218135,0.109098,0.151406,-0.00784143
121236479,121235648,0.221108,0.0551211,-0.0112909
121256494,121255663,0.137891,-0.0607032,0.0596057
121276509,121275678,0.2198,-0.0472396,-0.0101691
121294036,121293195,0.159867,-0.0188229,-0.0172375
121316539,121315708,0.128799,-0.21491,0.00547173
121336558,121335727,0.101988,0.0595963,-0.0160772
121359089,121358243,0.0549909,-0.313588,-0.00390695
121376584,121375753,0.0807091,-0.224064,-0.044299
121396605,121395768,0.138294,-0.0321851,-0.0397267
121416614,121415783,-0.0745646,-0.203885,0.00280135
121434134,121433297,-0.140996,-0.23774,-0.0484518
121456644,121455813,-0.0809203,-0.00669524,-0.0903556
121476662,121475828,-0.0913785,-0.170758,-0.0813677
121499194,121498348,-0.1876,0.218174,-0.0779174
121516692,121515858,-0.227781,0.0452048,-0.0612031
121536710,121535873,-0.0301888,0.0905239,-0.0788718
121556722,121555888,-0.361727,0.135449,-0.0830608
121574247,121573406,-0.367098,0.0746407,-0.0652675
121596752,121595918,-0.24206,0.106207,-0.0907884
121616764,121615933,-0.197005,0.0228832,-0.0405131
121639309,121638450,-0.15638,0.151635,-0.0308887
121656794,121655963,-0.198766,0.0245211,0.011714
121676816,121675978,-0.0136547,0.0496899,-0.0324882
121696827,121695993,0.0486581,0.104721,0.00142001
121714347,121713506,0.00855358,-0.0557,-0.0209078
121736863,121736026,0.361221,0.128981,0.00116331
121756886,121756042,0.0953619,-0.0722778,-0.0224522
121779404,121778555,0.283466,-0.0767362,0.0271647
121796910,121796068,0.0572243,-0.107951,-0.00616463
121816918,121816087,0.118545,-0.0245422,0.00346595
121836936,121836098,0.146803,-0.162967,0.00985902
121854447,121853611,0.0239501,-0.13577,0.0706813
121876960,121876128,0.00985956,-0.06647,0.0412256
121896974,121896143,-0.185757,-0.0756461,0.030479
121919499,121918660,0.0169781,-0.107606,-0.00385149
121937009,121936173,-0.120563,-0.0211259,0.00934996
121957025,121956188,-0.0492173,-0.00506045,0.0135467
121977037,121976203,-0.0576768,-0.0801633,0.0560055
121994565,121993716,0.00520328,-0.0115811,0.0271247
122017070,122016233,-0.0165006,-0.0880168,0.0560924
122037099,122036248,-0.0743985,0.0812024,0.0192226
122057101,122056269,0.0598394,-0.0812343,0.052032
122074642,122073776,0.0261866,-0.00687121,0.0333026
122097125,122096293,0.123521,-0.0572653,0.0141713
122117151,122116316,0.056032,-0.0129451,0.0132933
122134659,122133821,0.0928422,0.0130253,0.00250808
122157169,122156338,0.145611,0.0169399,-0.0121639
122177193,122176353,0.066266,0.0242674,0.0226808
122197199,122196368,0.0929279,-0.0482039,0.0139733
122214717,122213881,-0.0124469,0.11982,0.0174876
122237246,122236402,0.0492698,0.0660799,0.00664486
122257265,122256419,-0.0324616,0.0524677,-0.0210028
122274766,122273926,0.011852,0.0887247,-0.00809143
122297297,122296443,-0.0182463,0.0318052,-0.0142983
122317315,122316458,-0.0330136,0.0696536,0.0114141
122337319,122336473,-0.0513762,-0.157058,0.0103694
122354823,122353986,-0.00114721,-0.0866639,-0.0172137
122377345,122376503,-0.0581289,-0.0788454,0.00255733
122397357,122396518,-0.178465,0.0240585,-0.00114106
122414870,122414031,-0.0561395,0.0449589,0.0203028
122437380,122436548,-0.187529,0.0505233,-0.0326948
122457395,122456563,-0.067668,0.00816617,-0.0147189
122477409,122476578,0.025344,0.0983169,0.00083622
122494930,122494094,-0.0237037,0.0943301,0.0171548
122517447,122516608,-0.0508277,0.0352834,0.0128632
122537461,122536630,0.0130062,0.0917531,0.0237691
122554972,122554136,-0.0148389,-0.114616,0.00419762
122577498,122576658,0.218127,0.0745786,0.015188
122597512,122596668,0.0244863,0.058064,-0.0275535
122617529,122616692,0.156681,0.0781817,-0.0221612
122635033,122634196,0.159528,-0.0440271,0.0109159
122657567,122656716,0.161303,0.0198779,0.00439733
122677568,122676728,0.0617886,-0.0480605,-0.0222753
122695095,122694244,-0.0148859,0.0300035,-0.046939
122715096,122714256,-0.065879,-0.225265,-0.0167991
122737604,122736773,-0.0383238,-0.0913703,-0.0239347
122757619,122756788,-0.157339,-0.101876,-0.074371
122775140,122774301,-0.177151,-0.0318633,-0.0577432
122797649,122796818,-0.0624244,-0.0290362,-0.0640774
122817664,122816833,-0.148941,0.0673868,-0.0310858
122835189,122834346,-0.1299,-0.0426367,0.0033936
122855197,122854361,-0.0531611,0.0515129,-0.0295478
122877713,122876878,-0.0591007,0.041609,-0.0123319
122897723,122896893,-0.0726451,0.0238517,-0.0315526
122915249,122914406,-0.067576,0.0251946,0.0214814
122937753,122936923,0.0504916,-0.0311953,0.0327761
122957788,122956938,-0.00852435,0.0164448,-0.00480172
122975305,122974454,0.0879973,0.0670471,0.0164934
122995311,122994466,0.0604881,-0.0516164,0.00373752
123017821,123016983,0.122127,-0.149127,0.0584617
123037837,123037001,0.0767704,-0.0880595,0.0267701
123055371,123054521,0.125501,-0.0816255,0.0196954
123077859,123077028,0.0705781,-0.066498,0.0107602
123097874,123097043,0.161884,-0.193899,0.067717
123115409,123114566,0.00679315,-0.125771,0.0160904
123135423,123134579,0.0740258,-0.0328577,0.0550688
123157932,123157091,-0.130542,0.0409824,0.0460207
123177934,123177103,-0.0529032,0.0933855,0.0286216
123195455,123194616,-0.115215,0.048253,0.0421155
123217979,123217133,-0.0417708,0.0837366,-0.00154433
123237985,123237148,-0.182523,-0.067729,0.0159231
123255498,123254661,-0.246554,0.0980303,-0.00233974
123275517,123274678,-0.224807,0.00726391,-0.000418864
123298050,123297193,-0.173652,0.0368904,0.0181619
123318063,123317208,-0.218614,0.0132205,-0.0106307
123335557,123334721,-0.149147,0.0490053,-0.0195594
123355578,123354736,0.0538745,-0.0134193,0.0045266
123378086,123377254,-0.0172194,0.044575,0.0185962
123395603,123394766,0.0172082,0.0636619,0.0440746
123415617,123414781,0.0170378,0.031768,0.0403643
123438137,123437306,0.0813592,0.09361,0.0339727
123455648,123454811,0.0659299,0.0204355,0.0215492
123475671,123474826,0.121498,0.0295216,0.0226012
123495677,123494841,0.0520218,0.06679,0.0488781
123518193,123517358,0.0581849,0.0414916,0.0184814
123535710,123534871,0.044351,-0.0744891,0.0579704
123555725,123554886,0.0456591,-0.0769195,0.0131372
123578240,123577403,0.0594103,-0.103146,0.0265367
123595756,123594916,0.0822383,-0.0108468,0.0246813
123615771,123614932,-0.0867144,-0.0277887,0.023043
123635782,123634946,-0.00798019,0.0104548,0.00998223
123658310,123657469,-0.0262365,-0.0706922,0.0426656
123675813,123674977,0.0468416,0.0572913,0.0402994
123695828,123694992,0.0603843,-0.00842926,0.0519481
123718348,123717517,-0.00271896,-0.00206351,0.0387856
123735858,123735021,0.0790799,0.00446315,0.0497198
123755879,123755036,-0.0317646,0.0484676,0.0449346
123775889,123775051,-0.0153671,0.000130886,0.0666728
123798399,123797568,0.0338214,0.0597329,0.0649677
123815918,123815081,-0.0222445,-0.00301257,0.0839289
123835944,123835107,-0.0204445,0.00660788,0.0355586
123858455,123857613,0.0591369,0.0128286,0.077042
123875981,123875126,-0.0104406,-0.00046128,0.0411053
123895978,123895141,0.068633,-0.0498659,0.115178
123915993,123915156,0.0382622,0.033057,0.0712772
123938508,123937674,0.109643,0.0346695,0.0752653
123956027,123955187,0.0944817,0.0471748,0.0659814
123976045,123975202,0.0348541,0.110623,0.045664
123996057,123995221,0.0100204,0.0178847,0.0618599
124018567,124017737,0.0664726,0.00472506,0.0533742
124036093,124035249,0.00657209,0.0184798,0.0495844
124056109,124055270,0.0156894,-0.0163774,0.0428148
124078615,124077779,0.0344698,-0.0543755,0.0236101
124096130,124095294,0.0130312,0.0432266,0.0190729
124116149,124115309,-0.0254673,-0.105861,0.0274176
124136163,124135324,-0.0201198,0.0429615,-0.00968816
124158676,124157839,0.0568196,-0.0827328,-0.0129624
124176191,124175354,-0.0435388,-0.0342673,-0.00946929
124196205,124195369,-0.0597521,-0.0372397,-0.00811142
124218718,124217884,-0.0766582,-0.0288795,-0.0389019
124236237,124235397,0.0315113,0.0269586,-0.0214386
124256271,124255414,0.0923657,-0.0661504,-0.0214897
124276271,124275427,0.0693546,0.0202214,-0.0406362
124298774,124297944,0.161324,0.012844,-0.048917
124316302,124315457,0.0940561,0.137667,-0.0448524
124336319,124335472,0.165595,0.0893773,-0.0430726
124358824,124357989,0.0526685,0.127662,-0.0522718
124376349,124375502,0.0445205,0.0670802,-0.0681568
124396357,124395521,-0.00136149,0.0406666,-0.100574
124416374,124415532,-0.0294104,0.0713959,-0.0784249
124438880,124438049,-0.103556,0.100103,-0.0777527
124456398,124455562,-0.174542,0.0798507,-0.0955144
124476413,124475577,-0.0436581,0.144885,-0.118712
124498935,124498094,0.0295208,0.0588865,-0.0938379
124516458,124515607,0.0398312,0.0423554,-0.106982
124536466,124535625,-0.0792972,0.0967633,-0.0678471
124556474,124555637,-0.161804,-0.00954409,-0.0741708
124578989,124578154,0.172742,-0.135884,-0.107421
124596504,124595667,0.236006,-0.0287087,-0.0801841
124616525,124615689,0.00599601,0.0516848,-0.0280902
124636534,124635698,-0.125989,0.0983124,-0.0715952
124656558,124655712,-0.00989882,0.165623,-0.0626421
124676568,124675727,0.0116798,0.0846081,-0.013938
124696579,124695742,-0.0609286,-0.00367467,-0.0263168
124719101,124718262,0.0124085,-0.0332954,0.0101014
124736609,124735772,-0.0372858,-0.157803,0.0301631
124756625,124755788,-0.117472,-0.173568,0.0660658
124776639,124775803,-0.287116,-0.139654,0.032799
124794148,124793316,-0.209855,-0.110946,0.0434871
124816669,124815833,-0.0988378,-0.136355,0.0425382
124836687,124835848,-0.145444,-0.0962425,0.0106296
124859199,124858365,-0.119083,-0.110905,0.0240009
124876718,124875878,-0.0789319,0.0297454,0.0496399
124896730,124895893,0.0490511,-0.0318282,0.0298465
124916758,124915913,0.117282,-0.0198869,0.0342778
124934274,124933431,0.101175,-0.0100976,0.0532065
124956783,124955938,0.167256,0.056274,0.0627493
124976789,124975953,0.112879,-0.0339745,0.0240857
124999309,124998470,-0.00594801,-0.0905044,0.0680281
125016819,125015983,-0.0552423,0.0141804,0.0128598
125036837,125035998,-0.0599924,-0.0254097,0.0385456
125056853,125056013,-0.0198243,0.0751697,-0.00149584
125074374,125073539,-0.0562467,0.0128582,-0.0183151
125096882,125096043,-0.0451941,-0.0242926,-0.00675695
125116894,125116058,-0.127751,-0.075414,0.0325826
125139416,125138575,-0.207534,0.0163171,0.0111331
125156938,125156088,-0.0577159,-0.0418604,0.0174298
125176939,125176103,-0.131881,-0.0531307,0.0018181
125196966,125196118,-0.0485897,-0.0958701,0.0108474
125214467,125213632,0.146283,-0.069192,-0.0109879
125236991,125236148,0.369423,-0.0793318,-0.0202085
125257000,125256163,0.263048,-0.0550701,0.0120903
125279521,125278680,0.224628,0.0213916,-0.0160901
125294524,125293691,0.248703,-0.0398768,-0.00526166
125317052,125316210,0.227419,-0.0842312,-0.00708679
125337062,125336225,0.129458,-0.0706448,0.0101281
125354579,125353737,-0.0380981,-0.0409438,-0.0173929
125377096,125376254,-0.0438377,-0.0125156,0.0066928
125397115,125396279,-0.25697,0.0511974,0.00437981
125417124,125416284,-0.2711,0.0862204,-0.00546015
125434647,125433804,-0.140175,-0.0228157,0.00824339
125457150,125456314,0.01225,-0.0246327,-0.00949269
125477165,125476329,0.118988,0.119471,-0.0417323
125494677,125493842,0.0914123,0.041307,-0.0215577
125517198,125516359,0.161318,0.088139,-0.0428631
125537210,125536374,0.0891872,0.0111344,-0.0206182
125557238,125556389,0.0623099,0.0597469,-0.0317672
125574741,125573902,0.0175647,0.1117,-0.00204499
125597267,125596419,-0.0160974,0.0707684,-0.00670872
125617297,125616434,-0.157877,0.0882072,0.0252707
125634789,125633957,-0.123214,0.141723,0.00743675
125657321,125656464,-0.0992214,0.07869,-0.00318121
125677323,125676479,-0.0566121,-0.00671148,0.0530893
125697344,125696497,0.00162752,0.0164825,0.0214623
125714848,125714014,-0.00133208,-0.0764697,0.0105939
125737365,125736524,0.0502039,-0.0713416,-0.0125039
125757377,125756539,0.0667614,-0.085646,0.03975
125774889,125774053,0.0163536,-0.0647901,0.0034894
125797427,125796569,-0.0736721,-0.170931,0.015356
125817423,125816584,-0.140994,-0.283294,0.0310776
125837440,125836600,-0.0869382,-0.163809,-0.00178435
125854955,125854115,-0.275269,-0.0416105,-0.00265875
125877468,125876630,-0.177364,-0.0278174,-0.0508192
125897491,125896655,-0.0816898,-0.0624949,0.0445656
125914990,125914158,-0.00445287,-0.00978528,-0.0218488
125937521,125936675,0.0605901,-0.0204545,0.00596029
125957533,125956690,0.128803,0.0464158,0.00149441
125977541,125976705,0.226073,0.0469633,-0.0141339
125995053,125994220,0.230076,0.120695,0.0101201
126017571,126016735,0.172123,0.06791,-0.00210769
126037586,126036750,0.136168,0.0438276,0.00402579
126055103,126054269,0.262954,0.0261628,0.0152152
126075114,126074281,0.0693282,0.0364726,0.00248733
126097631,126096795,-0.0684348,-0.059374,0.0153932
126117646,126116810,-0.152021,-0.00828888,0.0110219
126135164,126134330,-0.124726,0.0163285,0.013813
126157677,126156840,-0.33204,-0.0381574,0.0408657
126177692,126176855,-0.303381,-0.109454,0.0487979
126195216,126194369,-0.262521,-0.212673,0.041058
126215227,126214384,-0.170023,-0.231275,0.036595
126237737,126236900,-0.115426,-0.337508,0.0282489
126257752,126256915,-0.0255983,-0.366636,0.0274868
126275281,126274432,0.181593,-0.4225,0.0539997
126297782,126296946,0.0636606,-0.52182,0.0638223
126317798,126316961,0.00535928,-0.396065,0.0422285
126335329,126334476,0.104344,-0.336458,0.0662081
126355330,126354489,0.129034,-0.193022,0.0144678
126377846,126377006,0.00262439,-0.194809,0.0344646
126397869,126397021,-0.196082,-0.0533946,0.0259612
126415386,126414541,-0.255567,-0.0103753,0.0534874
126437898,126437051,-0.317368,0.125284,0.0146399
126457903,126457066,-0.357469,0.0169977,0.0434155
126475415,126474581,-0.395866,0.153706,-0.00137991
126495430,126494596,-0.47738,0.0282023,-0.0107021
126517948,126517111,-0.246752,0.0801225,-0.0254786
126537968,126537132,0.0244265,0.0194512,-0.0318121
126555479,126554640,0.0193617,-0.110235,-0.0406902
126577996,126577156,0.165947,-0.187722,-0.0655377
126598007,126597171,0.306333,-0.0603613,-0.0179823
126615517,126614685,0.184395,-0.150995,-0.0470219
126635538,126634700,0.113471,-0.0411037,-0.0270634
126658072,126657218,0.0224665,-0.057518,-0.0268135
126678086,126677249,-0.0683627,-0.10711,-0.0124038
126695578,126694745,-0.147251,-0.0564622,-0.0374587
126715614,126714770,-0.207935,-0.0365281,0.0229598
126738121,126737278,-0.168213,0.114287,0.0150613
126755622,126754790,-0.0907013,0.167943,-0.0153031
126775637,126774805,-0.0737991,0.143218,0.00243343
126798163,126797323,-0.125732,0.0641615,0.0149919
126818174,126817338,0.0458284,0.128035,-0.011056
126835726,126834860,0.0252582,-0.0949988,-0.0143459
126855704,126854865,0.132959,-0.0621886,-0.0257944
126878220,126877382,0.0616587,-0.0994874,-0.00522438
126895734,126894895,-0.00675159,0.0140372,-0.0489086
126915743,126914910,-0.0400766,0.0564981,0.0124006
126938274,126937427,-0.14569,0.150634,0.00580144
126958287,126957442,-0.0732766,0.103503,0.0617864
126975797,126974962,-0.212985,0.231524,0.0115562
126995810,126994971,-0.162672,0.0801103,0.0485418
127018330,127017487,-0.136377,0.0866268,0.0299338
127035833,127035001,-0.127715,0.0231844,0.0353494
127055848,127055016,-0.073175,-0.0559113,0.0075403
127078372,127077533,-0.099372,-0.0986062,0.0269254
127098392,127097548,-0.119119,-0.0486803,0.0558882
127115914,127115078,-0.130418,-0.133082,0.0280674
127135908,127135076,0.00942251,-0.0700674,0.0372736
127158429,127157593,0.0746154,-0.0799833,0.0332955
127175938,127175106,-0.100813,-0.0701035,0.0119771
127195959,127195121,0.058244,-0.042614,0.0119156
127218478,127217638,0.119941,0.0941864,0.0181752
127236002,127235154,0.101886,0.0751595,0.00403001
127255999,127255166,-0.0767855,0.14621,0.0189583
127276024,127275182,-0.0370521,0.155426,0.0438346
127298534,127297698,0.0621407,0.292118,0.0112738
127316052,127315214,0.0996656,0.398929,0.04095
127336059,127335227,0.00693731,0.394865,0.0243754
127356085,127355242,0.159135,0.402069,0.0309907
127378608,127377761,0.359591,0.359491,0.00298605
127396112,127395280,0.301586,0.285979,0.0149766
127416120,127415287,0.337817,0.260747,-0.00645087
127438644,127437804,0.542087,0.147259,-0.00676095
127456157,127455317,0.495013,0.106013,-0.0348387
127476171,127475332,0.461054,-0.0208963,0.00588578
127496185,127495347,0.419083,-0.0242366,-0.0468209
127518708,127517864,0.384623,-0.0719986,-0.0455592
127536216,127535379,0.210401,-0.0785967,-0.0767001
127556231,127555393,0.032327,-0.0429457,-0.0532406
127578754,127577918,-0.0395692,0.00534677,-0.0980117
127596262,127595423,-0.0607226,0.0718008,-0.0718483
127616289,127615438,-0.14838,0.0966068,-0.0662943
127636309,127635453,-0.297076,0.100042,-0.0817249
127658805,127657969,-0.142119,0.0627094,-0.100186
127676327,127675483,-0.0478006,0.0167925,-0.0689184
127696342,127695498,-0.117236,0.0924827,-0.102646
127718854,127718015,-0.0683426,0.0634407,-0.0743844
127736375,127735529,0.0543138,0.0405764,-0.0846612
127756388,127755543,0.116313,0.0821708,-0.0679571
127776393,127775558,0.126972,0.113178,-0.0555943
127798912,127798075,0.00713927,0.123614,-0.0915649
127816424,127815588,-0.0298077,0.0603775,-0.0388671
127836450,127835618,0.141976,0.0805451,-0.0730343
127858979,127858120,0.146062,0.11374,-0.0801374
127876477,127875633,0.0359028,0.0412848,-0.0385636
127893989,127893146,0.129208,-0.0418301,-0.0607836
127916496,127915664,0.187526,-0.0321874,-0.0386818
127939017,127938180,0.0865861,-0.0564329,-0.0365818
127956526,127955693,0.0436343,-0.0798507,-0.0446378
127976546,127975709,-0.0571157,-0.0975574,-0.0638288
127996568,127995724,0.0286056,0.0337327,-0.0678835
128014080,128013237,0.0230189,-0.0453204,-0.0467928
128036586,128035754,-0.17821,0.0254496,-0.0524078
128056605,128055769,-0.205795,-0.0598113,-0.0363786
128079128,128078286,-0.153317,-0.0718559,-0.026691
128096646,128095801,-0.198709,-0.0560613,-0.0519755
128116647,128115814,-0.144921,-0.0419192,-0.0146959
128136661,128135829,-0.0551552,0.108725,-0.0156685
128154179,128153343,-0.066216,0.0548199,-0.0385449
128176692,128175859,0.089191,0.111125,-0.00690952
128196716,128195874,0.167374,0.115264,-0.0206078
128219235,128218391,0.338582,0.124657,-0.0230506
128236740,128235908,0.294617,0.0875694,-0.015115
128256752,128255920,0.14758,0.143749,-0.00862162
128276776,128275935,0.152524,0.0698683,-0.0156911
128294294,128293448,0.0792441,-0.0123957,-0.0102629
128316797,128315965,-0.0362206,-0.111298,-0.00142002
128336815,128335980,-0.0704182,-0.0684063,-0.0155449
128359339,128358497,-0.150333,-0.0381783,-0.00039858
128376846,128376010,-0.206009,-0.123878,0.00186642
128396857,128396025,-0.0629727,-0.0477568,0.0378228
128416872,128416040,-0.0558928,0.0172723,-0.0146809
128434392,128433553,-0.0887988,-0.0493501,0.014657
128456904,128456070,-0.0415456,-0.00450169,0.0166579
128476924,128476085,0.0957137,0.0996006,0.00633506
128494446,128493610,0.0383663,0.115176,0.0138732
128516958,128516115,-0.0554712,0.131538,0.00310209
128536972,128536133,-0.0398982,0.109066,0.00194213
128556978,128556146,0.00218784,-0.00556206,0.038261
128574495,128573659,-0.012363,-0.00825052,0.00306679
128597021,128596178,-0.0241097,-0.00841732,0.00864715
128617028,128616191,-0.094685,-0.0270157,0.0581474
128637051,128636206,-0.056753,-0.0846618,0.0170982
128657060,128656225,0.0618816,0.0500241,0.0273485
128677085,128676238,0.0126222,-0.0629998,0.00873623
128694611,128693761,0.13025,-0.154272,0.0579012
128714622,128713775,-0.0067852,-0.20238,0.0490381
128737121,128736282,0.0966272,-0.160716,0.0109968
128757131,128756299,0.103358,-0.183139,0.00486334
128777149,128776317,-0.0198591,-0.241197,0.0368869
128794672,128793825,-0.0857175,-0.0341033,-0.000614839
128817174,128816342,-0.00484708,-0.0175097,0.00870223
128837192,128836359,-0.010552,0.0518168,0.00646983
128854707,128853870,-0.0327984,-0.0966035,-0.0172542
128877223,128876387,-0.0294755,-0.0971284,0.0148144
128894737,128893900,-0.0435631,0.038617,-0.014777
128917263,128916417,0.124736,-0.0394094,-0.0088633
128934767,128933930,0.0834275,-0.065449,0.0067671
128957308,128956447,-0.0086164,-0.0878983,-0.0128545
128977322,128976462,0.0880761,-0.139377,0.0272165
128994814,128993976,0.0828878,0.0803249,-0.0399852
129017333,129016492,0.0533348,0.0851374,-0.0133595
129037353,129036507,-0.099622,0.0314488,-0.0145437
129054859,129054021,-0.210794,-0.0316163,0.00406259
129074893,129074046,-0.0672749,0.0348707,-0.00484134
129097389,129096555,-0.12185,0.121669,-0.0234724
129117403,129116568,-0.134359,-0.0201465,-0.0142097
129134918,129134081,-0.113822,-0.0682219,-0.00739569
129157444,129156598,-0.0714003,-0.0699963,-0.0166689
129177451,129176613,0.0327769,-0.118863,-0.00716483
129194962,129194126,0.0261276,-0.0842427,-0.0349415
129214978,129214141,-0.0142306,-0.106895,-0.0289129
129237497,129236658,-0.00702369,-0.021084,-0.0445824
129255008,129254171,0.0614098,-0.0120919,-0.00669731
129275029,129274186,0.0619213,0.0287483,-0.0286205
129297543,129296705,0.108792,0.0600275,-0.0330746
129317558,129316719,0.00405531,0.0646233,-0.0110956
129337574,129336734,-0.18494,0.111582,-0.0493239
129355089,129354247,-0.240028,0.0487794,0.0108017
129377607,129376767,-0.171231,0.0322144,-0.0381731
129395118,129394281,-0.21221,-0.016593,-0.00994375
129415129,129414292,-0.387451,0.0175681,-0.0490158
129435144,129434307,-0.563583,-0.105842,-0.0400789
129457664,129456831,-0.582752,-0.246927,-0.0399137
129475176,129474340,-0.629223,-0.229384,-0.0667157
129495189,129494353,-0.500405,-0.28891,-0.0512607
129517702,129516869,-0.482652,-0.295514,-0.0321303
129535221,129534383,-0.522592,-0.285478,-0.0454122
129555242,129554398,-0.403651,-0.293891,-0.0465586
129575259,129574413,-0.205581,-0.230592,-0.0378881
129597769,129596936,-0.20022,-0.0806488,-0.0547608
129615292,129614443,-0.0881052,-0.0238571,-0.0202148
129635303,129634458,-0.0599009,0.0554618,-0.0811513
129657821,129656975,0.00413506,0.0510109,-0.032868
129675331,129674488,-0.0155931,0.0295857,-0.0372407
129695346,129694503,-0.0189238,-0.0238449,-0.0198939
129715354,129714518,-0.047744,-0.0129797,-0.00901683
129737867,129737035,-0.0753892,-0.0320779,-0.00686639
129755395,129754548,-0.202122,-0.169947,-0.0350303
129775419,129774579,-0.353049,-0.204097,-0.0330281
129797930,129797081,-0.259123,-0.234585,-0.0722693
129815444,129814595,-0.122632,-0.273583,-0.0530075
129835453,129834617,-0.0320934,-0.153122,-0.0594918
129855461,129854624,0.0270109,-0.108333,-0.0352405
129877973,129877141,0.127934,-0.048756,-0.00522393
129895500,129894662,-0.0306083,0.0252138,-0.0771634
129915506,129914669,-0.123428,0.107773,-0.0109931
129938024,129937186,-0.104011,0.153424,-0.0179096
129958049,129957201,-0.0518223,0.10428,-0.038386
129975559,129974721,-0.0763391,0.0103116,0.0192052
129995566,129994730,-0.249166,-0.00701564,-0.0118761
130018085,130017253,-0.0683622,-0.143997,-0.0215426
130035599,130034760,-0.0791061,-0.198407,0.0252586
130055611,130054775,0.060406,-0.141575,0.0128633
130075633,130074790,0.24642,0.0113583,0.0635965
130098154,130097309,0.149688,0.034246,0.0531648
130115656,130114820,0.119035,0.0140538,0.0351853
130135671,130134835,0.102699,-0.0727347,0.0694777
130158196,130157364,0.0930996,-0.0592114,0.0462588
130175702,130174865,0.141376,-0.0578439,0.0440225
130195717,130194880,0.0680669,-0.0295661,0.0780071
130215732,130214896,0.00475596,0.09118,0.0364921
130238261,130237425,0.0327496,0.107483,0.0387358
130255763,130254926,-0.0767069,0.114889,0.0606104
130275778,130274941,-0.0655069,0.105015,0.0459736
130298310,130297463,0.176456,0.0662729,0.0341484
130315818,130314972,0.152363,0.107997,0.00645598
130335823,130334986,0.0407339,-0.0337984,0.0471509
130355838,130355001,0.147721,-0.0773607,0.013902
130378352,130377518,0.170946,-0.0334592,0.0235135
130395876,130395031,0.106456,-0.0560403,0.0424466
130415892,130415049,-0.0254554,-0.029593,0.0361256
130438413,130437566,-0.0979795,0.039767,0.0504643
130455924,130455077,-0.173954,0.129483,0.0197991
130475928,130475092,-0.0338804,0.0915368,0.0582656
130495943,130495107,-0.040874,0.240939,0.0343887
130518456,130517624,0.0484499,0.209994,0.0229915
130535973,130535136,-0.0184719,0.0762683,0.0377755
130555988,130555152,-0.0605355,0.0238041,0.0410354
130578505,130577669,-0.0336755,-0.00982677,0.0604663
130596028,130595184,0.00965215,0.0192316,0.0308055
130616042,130615200,-0.0947767,-0.0227228,0.0287285
130636054,130635215,-0.0959029,-0.0626769,0.0141515
130658563,130657729,-0.0500451,-0.0259932,-0.00145707
130676095,130675253,0.0282604,0.01199,0.0524196
130698604,130697764,0.00868534,0.0514041,0.0168393
130716125,130715289,-0.0947418,0.113302,0.0178206
130738625,130737790,-0.0692962,0.166032,0.000134986
130756144,130755303,0.0319064,0.102845,0.0374332
130776155,130775318,0.0302917,0.117104,0.039492
130798668,130797835,0.0462391,0.0985838,0.0285841
130816185,130815349,-0.0144009,0.0609119,0.0440494
130836200,130835364,0.0298782,0.0793208,0.000308188
130856226,130855384,0.0871923,0.120503,0.00484802
130878731,130877896,0.0369544,0.0959893,0.0232902
130896247,130895409,0.0383574,0.0656435,-0.0165028
130916262,130915424,-0.0480918,-0.0299778,0.0505295
130938783,130937950,-0.0406953,-0.0556945,0.0462172
130956296,130955454,-0.0642265,0.0769267,-0.0192875
130976312,130975469,-0.147125,-0.0201938,0.0124429
130996326,130995484,-0.120799,-0.0174537,0.00710381
131018840,131018008,-0.0597503,-0.0380258,0.0239175
131036351,131035514,0.0633921,-0.00776848,-0.00738134
131056374,131055529,0.0752394,-0.0761646,-0.0143626
131078879,131078047,0.112112,-0.0481304,0.0227322
131096406,131095560,0.219008,0.0120898,-0.0174343
131116411,131115575,0.253573,0.11458,0.0482931
131136429,131135590,0.124636,0.178962,-0.0110041
131158939,131158107,0.0259605,0.227724,0.0326381
131176461,131175620,-0.0261614,0.198528,-0.000327786
131196475,131195635,0.00229032,0.170673,0.0133495
131218991,131218152,-0.00569956,0.174363,-0.00126326
131236505,131235665,0.0182539,0.30819,0.00193559
131256517,131255680,0.102322,0.203277,0.00144758
131276532,131275696,0.317545,0.13637,-0.0133036
131299054,131298219,0.470489,0.0931097,0.0103805
131316562,131315726,0.508872,0.000881808,-0.0130517
131336585,131335741,0.630076,-0.0494899,-0.00543727
131356592,131355756,0.731909,-0.0374193,-0.00438528
131374107,131373276,0.664617,0.0196386,-0.0332636
131396622,131395786,0.553156,0.0403214,-0.0301866
131416644,131415804,0.327223,-0.0605423,-0.0213982
131439161,131438321,0.180935,-0.0547209,-0.012618
131456681,131455832,0.169896,-0.036541,-0.0381087
131476683,131475847,0.066344,-0.0477398,-0.0563165
131496705,131495869,0.00113174,-0.164341,-0.0744087
131514207,131513375,-0.023318,-0.430684,-0.0596443
131536728,131535892,0.0927071,-0.559375,-0.0410221
131556747,131555911,0.154556,-0.553545,-0.0654935
131579269,131578427,0.128901,-0.629709,-0.0539512
131596773,131595937,0.0771709,-0.685322,-0.0309016
131616792,131615952,0.18737,-0.672784,-0.0138048
131636804,131635967,0.224524,-0.63718,-0.0129666
131654321,131653481,0.11681,-0.640818,-0.0123111
131676837,131675999,0.0902449,-0.491138,-0.00163086
131696849,131696013,0.0267137,-0.349585,-0.0189067
131719373,131718530,-0.116553,-0.250376,0.0206002
131736879,131736043,-0.15118,-0.242882,0.0119184
131756895,131756058,-0.0986545,-0.298158,0.0389429
131776910,131776073,-0.0051682,-0.146513,0.0294206
131794417,131793586,0.00535744,-0.10697,0.00163507
131816940,131816103,0.0060941,-0.132387,0.0186219
131836964,131836118,-0.047625,-0.221905,0.0111146
131859483,131858635,-0.06535,-0.256635,0.00383562
131876997,131876149,-0.0072486,-0.215285,0.0135967
131899502,131898667,-0.0486122,-0.127125,-0.00228084
131917025,131916179,-0.126204,-0.0653765,-0.00704621
131934537,131933706,-0.037096,0.0349961,0.0126408
131957051,131956209,-0.0293163,0.159011,0.0211276
131977065,131976229,0.0971751,0.365889,0.00481526
131997099,131996250,0.160426,0.627332,0.000674189
132014594,132013753,0.171904,0.707406,7.39089e-05
132037116,132036280,0.0835479,0.91093,-0.0160024
132057136,132056296,0.127621,0.962764,0.0196136
132074636,132073798,0.103195,1.0362,-0.00704799
132097153,132096317,0.0350686,0.952618,-0.0173882
132117173,132116336,0.0118926,0.860674,-0.0105496
132137211,132136375,0.0138373,0.687261,-0.0142489
132154689,132153858,0.0365543,0.484235,0.00509339
132177214,132176376,0.0272057,0.259257,0.00457909
132197242,132196393,-0.0281198,0.177978,-0.0126772
132214741,132213904,0.00114176,0.0355199,-0.006948
132237276,132236423,0.144809,-0.0543553,-0.00558841
132257291,132256436,0.0586707,-0.0362789,-0.0311822
132277303,132276451,-0.012692,-0.0229438,-0.0136203
132294798,132293964,0.0608575,0.004943,-0.00895931
132317325,132316481,0.207876,0.0471491,-0.0448102
132337340,132336496,0.385565,0.121492,-0.0221184
132354841,132354009,0.419452,0.0946766,-0.0210374
132377368,132376526,0.424384,0.110543,-0.04881
132397395,132396541,0.501742,0.0810141,-0.0313097
132417393,132416557,0.526325,0.0219471,-0.00411635
132434903,132434070,0.358118,0.0683463,-0.0691909
132457423,132456587,0.182691,0.0095104,-0.00584667
132477438,132476602,0.0602781,-0.0701652,-0.0141619
132494946,132494115,0.109481,-0.117181,-0.0199895
132517479,132516636,0.247013,-0.207174,-0.0208212
132537483,132536647,0.321093,-0.26317,-0.0122672
132557499,132556662,0.350528,-0.339552,-0.0261512
132575006,132574176,0.444217,-0.247691,-0.009973
132597529,132596693,0.48699,-0.17025,-0.00327342
132617552,132616708,0.307963,-0.0102886,-0.0123331
132635063,132634225,0.16965,0.0334426,0.0161212
132657577,132656738,0.134509,0.138513,0.0024964
132677589,132676753,-0.0633442,0.126944,0.01533
132697604,132696768,-0.102953,0.0819817,-0.000497996
132715135,132714296,-0.0909939,0.140621,0.0116289
132737638,132736799,-0.0485344,0.0750226,-0.023218
132757653,132756814,-0.155773,-0.0482019,0.00619042
132775158,132774327,-0.151747,-0.0194672,-0.00769932
132795173,132794342,-0.182594,-0.0420264,-0.023003
132817698,132816859,-0.0944273,0.0108735,-0.0059969
132837713,132836877,-0.0138837,0.0687099,-0.012252
132855220,132854387,-0.0376081,0.0884807,-0.0206099
132877740,132876904,0.00940519,0.0550546,-0.0351372
132897755,132896919,0.0123923,0.00692587,-0.000680103
132915277,132914432,-0.137627,0.113324,-0.0190451
132935285,132934448,-0.332862,0.0641106,-0.0107115
132957803,132956965,-0.662286,-0.0291335,-0.0251573
132977820,132976982,-0.789749,-0.0211478,-0.0255456
132995349,132994493,-0.717942,-0.0489165,-0.0068838
133017848,133017012,-0.7042,0.0345691,0.0069331
133037861,133037025,-0.652492,0.0874905,-0.00781759
133055390,133054542,-0.488668,0.0540404,0.0216539
133075402,133074571,-0.288812,0.0526981,0.000478599
133097906,133097070,-0.207443,0.0851438,0.00104176
133117922,133117085,-0.124456,0.110072,-0.0353084
133135434,133134600,0.0246736,0.0636107,0.00229937
133157966,133157116,0.0992262,-0.0243764,0.013913
133177967,133177131,0.137906,-0.101959,0.0210367
133195476,133194644,0.100156,-0.222215,0.0201942
133215491,133214659,0.280147,-0.231214,0.0143381
133238012,133237176,0.451748,-0.190596,0.0285032
133258044,133257191,0.521229,-0.102603,0.0134547
133275536,133274705,0.604373,-0.0473546,0.00267801
133295564,133294720,0.790386,-0.0261278,0.00168636
133318083,133317247,0.806027,-0.0312866,0.00154867
133335594,133334757,0.742267,-0.127012,0.0202333
133355596,133354765,0.598193,-0.127472,-0.00149717
133378127,133377284,0.613901,-0.111097,0.0150652
133398141,133397305,0.48562,-0.0771428,0.0193866
133415648,133414818,0.306859,-0.062488,0.0353418
133435663,133434825,0.140856,-0.065318,0.0364794
133458196,133457345,0.107942,0.0285774,0.00987261
133475686,133474856,0.169871,0.0452312,0.00291894
133495707,133494876,-0.037933,0.0813805,-0.00329563
133518244,133517394,-0.154835,0.106837,-0.0146454
133538253,133537403,-0.116264,0.0608185,0.025664
133555747,133554916,-0.0912667,0.0255336,0.0311058
133575762,133574931,0.00703747,0.0396605,0.026963
133598306,133597451,-0.11031,0.061889,0.0651461
133615792,133614961,-0.29909,0.101406,-0.0140639
133635807,133634976,-0.47689,0.0759711,-0.00286316
133658337,133657493,-0.780128,0.034908,0.0147274
133678353,133677509,-0.962778,0.0350142,-0.0149572
133695855,133695022,-0.928581,0.0253078,0.0190936
133715868,133715037,-0.822947,0.121596,-0.013971
133738390,133737554,-0.7683,0.150459,-0.00885301
133755898,133755067,-0.629543,0.0668198,0.0560107
133775919,133775085,-0.466166,0.0856106,0.0563086
133798458,133797599,-0.262776,0.127136,0.0207247
133815954,133815113,-0.236298,0.0521805,0.0240929
133835958,133835128,-0.200189,-0.0428434,0.0398684
133855974,133855143,-0.0497247,-0.137264,0.00440976
133878496,133877660,0.0897965,-0.274399,-0.024409
133896004,133895173,0.00769143,-0.394902,0.00348365
133916024,133915188,-0.025808,-0.44894,-0.0155173
133936038,133935203,0.00624737,-0.547503,-0.0391223
133958556,133957720,0.0513496,-0.688566,-0.0555308
133976070,133975233,0.109423,-0.778411,-0.00790642
133996083,133995248,0.0393644,-0.677038,-0.0297565
134018602,134017765,0.0209194,-0.62716,-0.0664678
134036138,134035284,-0.040525,-0.706967,-0.0305212
134056129,134055294,-0.0714627,-0.746914,-0.0100762
134076142,134075312,-0.199917,-0.674265,-0.0286899
134098670,134097826,-0.138177,-0.609878,-0.0346391
134116182,134115339,-0.116485,-0.556858,-0.0124169
134136185,134135355,-0.129108,-0.433997,-0.0414527
134158708,134157871,-0.129952,-0.237783,-0.0219415
134176217,134175385,0.024942,-0.0550629,-0.0139824
134196237,134195405,0.159016,0.176292,-0.0142706
134216260,134215421,0.187327,0.238364,-0.0176525
134238771,134237932,0.0621376,0.267741,-0.0170985
134256286,134255445,0.00884437,0.296701,0.010587
134276297,134275460,0.063981,0.265777,0.0114237
134298818,134297977,0.112429,0.254774,0.0406762
134316328,134315490,-0.00460563,0.388961,0.0303264
134336338,134335506,-0.101883,0.411582,0.0424118
134356353,134355521,-0.129107,0.456374,0.0112704
134378882,134378038,-0.139402,0.526661,0.00147983
134396385,134395554,-0.0927083,0.569593,0.0438628
134416397,134415566,-0.150912,0.713208,0.0153729
134438929,134438083,-0.0960124,0.656198,0.00906169
134456441,134455596,-0.0263012,0.47513,0.035872
134476442,134475611,-0.0124429,0.460637,0.00858225
134496458,134495627,-0.0538762,0.368424,0.00226569
134518980,134518143,0.0210425,0.28205,0.0113773
134536507,134535657,-0.0194173,0.18283,0.0343704
134556515,134555672,0.0212682,0.177594,0.0384516
134579032,134578190,0.0735617,0.177835,0.050597
134594047,134593200,0.105752,0.130601,0.0230944
134616549,134615717,0.184867,0.0945886,0.0117457
134636564,134635733,0.230236,0.0978873,0.0427042
134659100,134658249,0.189952,0.0729873,0.0292759
134676594,134675762,0.138769,0.0997927,0.0155257
134696611,134695778,0.0873592,0.0966971,0.0319479
134716628,134715793,0.0373631,0.105429,0.032828
134734146,134733306,0.069957,0.109895,0.0440298
134756658,134755823,0.033882,0.167666,0.00972412
134776669,134775838,0.00737914,0.11706,0.00513887
134799195,134798355,0.0296095,0.0839916,-0.00513305
134816710,134815871,0.0935219,0.0698777,0.00705746
134836715,134835883,0.0731243,0.100175,-0.0277474
134856733,134855902,-0.032722,0.0151192,-0.00289304
134874253,134873412,-0.0388558,-0.0545839,0.00227533
134896775,134895944,-0.101323,-0.163644,0.010178
134916782,134915944,-0.0442419,-0.130271,-0.00607765
134939306,134938461,-0.000912545,-0.0731359,0.00586031
134956805,134955974,-0.0610671,-0.0373114,0.00853955
134976842,134975996,-0.0278197,-0.0137682,-0.00512032
134996835,134996004,-0.0170557,0.0402702,0.00718483
135014355,135013518,-0.101409,0.114559,-0.0135802
135036870,135036036,-0.0619928,0.184899,-0.00497985
135056881,135056050,-0.0359101,0.160244,-0.00753251
135079415,135078567,-0.0403347,0.154908,-0.00942845
135096921,135096080,-0.0654305,0.112633,0.0035688
135116926,135116095,-0.100051,0.0828198,0.0142869
135136941,135136110,-0.14173,0.0888201,-0.0280149
135154460,135153623,-0.188064,0.0190635,0.0126119
135176971,135176140,-0.229084,0.0233052,0.00611563
135196986,135196156,-0.333451,0.0406719,0.00320356
135219513,135218673,-0.577902,-0.0635559,-0.0135823
135234520,135233684,-0.629139,-0.0440351,-0.0208088
135257032,135256201,-0.634293,-0.0236965,-0.019864
135277049,135276218,-0.633194,-0.0536811,-0.0209809
135294599,135293730,-0.530257,-0.0193949,0.000549049
135317084,135316246,-0.661336,-0.0756241,0.00612961
135337098,135336261,-0.560322,-0.00989557,-0.0106132
135357115,135356282,-0.396282,0.0476391,-0.0178393
135374640,135373790,-0.413984,0.163803,0.00655872
135397141,135396307,-0.504598,0.225715,-0.00794898
135417153,135416322,-0.441906,0.258755,0.0198535
135434678,135433835,-0.424855,0.403983,0.00128944
135457186,135456355,-0.264705,0.432149,-0.00668824
135477201,135476368,-0.253735,0.403266,-0.0102055
135497236,135496389,-0.202461,0.371785,-0.0082011
135514733,135513896,-0.120649,0.31006,-0.00879736
135537258,135536413,0.0270561,0.210691,-0.0335835
135557274,135556428,-0.0128825,0.0638281,-0.00215384
135574780,135573941,0.0630234,-0.00600853,-0.0545974
135597330,135596458,0.188604,-0.16133,-0.0594356
135617320,135616480,0.320689,-0.237214,-0.060177
135637336,135636491,0.1835,-0.317077,-0.028662
135654858,135654002,0.201132,-0.322935,-0.0502243
135677370,135676519,0.11159,-0.369154,-0.0643169
135697370,135696534,0.229319,-0.324839,-0.0376317
135714884,135714047,0.239498,-0.270929,-0.0416506
135737405,135736564,0.071993,-0.191087,-0.00414133
135757424,135756581,0.120651,-0.0765992,-0.0423996
135777425,135776594,0.241602,0.0222291,-0.024439
135794953,135794107,0.26712,0.0483986,-0.0262234
135817455,135816624,0.178205,0.00949789,-0.00548308
135837470,135836640,0.173959,-0.0100744,0.00958157
135854990,135854153,0.158507,0.0258518,-0.0358572
135877504,135876670,0.34227,0.0653034,-0.0476341
135897515,135896685,0.223425,0.0433206,-0.00940533
135917538,135916700,0.0887444,0.0559196,0.00176275
135935052,135934215,0.0103745,0.0236103,-0.000697617
135957561,135956730,0.0696631,-0.00306516,-0.0227902
135977576,135976745,0.0103239,-0.066647,-0.00499156
135995110,135994273,-0.0255722,-0.0424074,-0.0170686
136015120,136014283,-0.102855,-0.0942848,-0.0192866
136037622,136036791,0.0154215,-0.0322022,-0.0240292
136057637,136056806,0.120941,-0.063751,0.0347777
136075164,136074322,0.071613,-0.00197462,-0.0152644
136097675,136096836,0.117484,0.00173127,0.0124698
136117683,136116851,0.247561,0.0230566,-0.0139706
136135201,136134365,0.299007,0.00835988,0.00946776
136155221,136154380,0.444641,0.0442301,0.00131031
136177731,136176897,0.51008,-0.0109051,-0.00594183
136197746,136196912,0.687575,0.00531158,-0.0225142
136215270,136214425,0.670928,0.0289481,-0.00768771
136237777,136236942,0.573388,0.0659057,-0.00336673
136257789,136256957,0.425063,-0.00164111,0.0121546
136275313,136274470,0.336557,0.0293209,-0.00329371
136295328,136294486,0.265114,0.0168552,0.00471102
136317834,136317003,0.148797,-0.00920196,0.0256865
136337852,136337018,0.0240158,-0.00504998,-0.00780373
136355378,136354531,-0.0800218,-0.00167313,-0.00568108
136377894,136377049,-0.197884,-0.010671,0.00354656
136397894,136397063,-0.265568,-0.160575,0.0115855
136415416,136414579,-0.321095,-0.271236,0.0128161
136435433,136434593,-0.357452,-0.482911,0.0130425
136457945,136457114,-0.186726,-0.58422,-0.00579682
136477955,136477124,-0.201605,-0.834587,0.00165898
136495474,136494637,-0.125999,-0.929295,0.0256306
136517994,136517160,0.0410564,-0.911547,0.0328247
136538000,136537169,0.17632,-0.800928,0.00698365
136555523,136554683,0.14278,-0.613465,0.0245624
136575542,136574697,0.0513737,-0.531203,0.00493696
136598055,136597216,0.109583,-0.332513,-0.00608018
136618071,136617240,0.233698,-0.30167,0.0437327
136635579,136634743,0.114289,-0.160857,0.00333329
136655600,136654758,0.0616431,-0.127618,0.0381106
136678114,136677276,0.138795,-0.127315,0.00541347
136695637,136694791,0.0686824,-0.120507,-0.000204458
136715640,136714803,0.116754,-0.161683,0.0320459
136738160,136737324,-0.0403821,-0.116317,0.0435473
136755670,136754834,-0.0755589,-0.170747,0.0161456
136775685,136774849,-0.0918629,-0.149179,0.0219835
136795701,136794864,-0.115329,-0.0554387,-0.00573034
136818214,136817381,-0.0560105,-0.00967907,0.000266457
136835734,136834894,-0.012718,0.0787696,0.0506795
136855746,136854909,0.0857483,0.148984,-0.000199418
136878262,136877427,0.115734,0.26952,0.0386603
136895776,136894940,0.0782044,0.293127,0.0215619
136915792,136914955,0.139948,0.299226,0.0271729
136935806,136934970,0.195402,0.318287,0.0465741
136958327,136957487,0.159174,0.429934,0.0470063
136975840,136975000,0.168029,0.523165,0.043385
136995852,136995015,0.136396,0.612949,0.0504736
137018363,137017532,0.205705,0.743521,0.0379174
137035883,137035047,0.080192,0.737579,-0.02676
137055897,137055061,-0.032405,0.647922,0.0378951
137075912,137075076,-0.164604,0.544031,0.027665
137098423,137097593,-0.275032,0.503194,0.0163844
137115943,137115106,-0.176489,0.380467,0.0382999
137135960,137135121,-0.109931,0.276797,-0.014748
137158471,137157638,0.0207399,0.176983,-0.0156162
137175991,137175151,0.116239,0.0821245,0.00635261
137196015,137195167,0.166573,0.0700962,0.0165466
137216027,137215182,0.152275,0.0407789,-0.0271613
137238533,137237702,0.199645,-0.000867711,-0.00614852
137256050,137255214,0.216094,0.00547111,0.0216565
137276066,137275227,0.0553416,-0.00337746,0.0167555
137296094,137295244,0.0306076,0.0279234,0.00911711
137318597,137317759,0.0300565,0.0546231,0.00267067
137336116,137335279,-0.0139831,0.0611565,-0.0378064
137356125,137355288,-0.0426115,0.0739797,-0.0243118
137378635,137377805,-0.0587677,0.108515,-0.0221414
137396156,137395318,-0.0847557,0.0580026,-0.0187033
137416170,137415333,-0.0785854,-0.000920046,-0.0248096
137436195,137435349,-0.129442,0.0614545,-0.0274007
137458704,137457865,-0.0152999,0.0843922,-0.0297629
137476217,137475379,0.0399992,0.0999992,-0.00768444
137496233,137495394,0.0314073,0.139994,-0.00805705
137518742,137517911,-0.0288092,0.114752,-0.0116347
137536269,137535424,-0.020781,0.115834,-0.00754949
137556285,137555439,0.0282499,0.0932167,-0.0258824
137576300,137575454,-0.00408163,-0.00795122,-0.0196032
137598802,137597971,-0.0871691,-0.0850686,0.00778632
137616331,137615484,-0.0785088,-0.158383,0.0109036
137636343,137635500,-0.12691,-0.304062,-0.0328932
137658850,137658017,-0.194806,-0.413487,-0.0120339
137676375,137675538,-0.248983,-0.537634,0.0212385
137696382,137695545,-0.366355,-0.48391,-0.0312388
137716399,137715560,-0.297876,-0.373303,-0.0160873
137738908,137738077,-0.200301,-0.207661,-0.00660695
137756427,137755590,-0.232336,-0.0556725,-0.0268096
137776442,137775606,-0.217196,-0.0218971,0.021278
137798971,137798123,-0.210915,0.0634601,0.0203477
137816481,137815636,-0.248589,0.0877733,-0.0114867
137836487,137835651,-0.197003,0.0494651,-0.00999456
137856502,137855666,-0.145446,0.00239363,0.000965657
137879016,137878183,-0.00233267,-0.0148884,-0.0163849
137896533,137895696,0.0827386,-0.0564412,-0.00294094
137916549,137915712,0.0890514,-0.108721,-0.000902879
137936567,137935727,-0.0245202,-0.0723913,-0.027489
137954090,137953246,0.000431702,-0.0842185,0.0183107
137976605,137975757,-0.0673728,0.0453671,0.00504627
137996617,137995772,-0.0713601,0.18142,0.01913
138019121,138018289,-0.176379,0.235173,0.0139642
138036642,138035802,-0.164387,0.206055,0.0294098
138056657,138055818,-0.138124,0.167178,0.00143045
138076672,138075833,-0.0996497,0.00694167,-0.0148173
138094182,138093348,0.0561807,-0.0588002,0.00156825
138116700,138115863,0.14955,-0.108696,0.0241107
138136725,138135882,0.194641,-0.115387,-0.00500987
138159228,138158395,0.275729,-0.0798672,0.000161242
138176745,138175908,0.261666,-0.136762,0.0134791
138196764,138195923,0.158499,0.0441854,-0.00183754
138216776,138215939,0.105541,0.149408,-0.0148697
138234306,138233452,0.106752,0.241699,-0.0102224
138256809,138255969,0.21576,0.314662,-0.00980034
138276820,138275984,0.293403,0.292129,-0.0144815
138299338,138298501,0.263262,0.292087,-0.00413631
138316851,138316014,0.214182,0.299501,-0.0433007
138336866,138336030,0.249827,0.187869,-0.0476237
138356885,138356048,0.289006,0.168067,-0.0083892
138374395,138373560,0.153742,0.118767,-0.0488337
138396911,138396075,0.026281,0.0280691,-0.0401028
138416927,138416090,0.127783,-0.0105537,-0.0605769
138439451,138438607,0.0730035,0.0194972,-0.0331189
138456979,138456120,-0.0246103,0.0244012,-0.0207787
138476972,138476135,-0.169409,-0.0429464,-0.02261
138496993,138496151,-0.187502,0.00913447,-0.0517127
138514496,138513664,-0.153905,-0.0709277,-0.0652422
138537017,138536181,-0.067012,-0.124997,-0.0535839
138557037,138556196,-0.0241853,-0.222491,-0.0283179
138579554,138578713,0.01539,-0.319019,-0.0341056
138594568,138593724,-0.0310619,-0.405473,-0.0489127
138617085,138616241,0.024771,-0.478286,-0.074314
138637101,138636259,0.102806,-0.589446,-0.0356228
138654613,138653770,0.0706681,-0.531564,-0.0495834
138677131,138676294,0.0676547,-0.477623,-0.0531425
138697139,138696302,0.033352,-0.41243,-0.0319574
138717164,138716327,0.0303551,-0.340866,-0.0202805
138734701,138733846,-0.00195655,-0.268042,-0.000157784
138757184,138756348,-0.0600383,-0.216622,-0.014774
138777205,138776366,-0.0920905,-0.247108,0.00565707
138794709,138793876,-0.163957,-0.125289,-0.00161791
138817246,138816393,-0.203141,-0.114791,-0.000865612
138837258,138836408,-0.0854213,-0.174764,0.00493871
138857281,138856424,-0.0348104,-0.0710456,-2.17088e-05
138874769,138873937,-0.0409009,-0.0346675,-0.0241566
138897316,138896453,-0.0240485,0.00586143,-0.0138445
138917329,138916469,0.0204887,0.0352524,0.0237875
138934818,138933985,0.0653414,0.0990466,-0.0164781
138957343,138956499,0.0556379,0.231699,0.00992593
138977361,138976514,0.0602028,0.296981,-0.0155003
138997386,138996532,0.0739866,0.51275,-0.00392119
139014882,139014042,0.121674,0.521939,0.020641
139037406,139036559,0.16063,0.586262,0.0290571
139057411,139056574,0.0790367,0.565603,0.0145414
139074920,139074088,0.0868,0.468609,0.0159409
139097455,139096605,0.0933675,0.361244,0.0364518
139117459,139116620,0.0858276,0.354049,-0.00760442
139137472,139136635,-0.0723617,0.264394,-0.0159425
139154988,139154148,0.0401187,0.119709,0.0122763
139177502,139176665,0.0377527,0.082959,0.0111673
139197517,139196681,-0.00670036,0.0251342,-0.00924812
139215036,139214194,0.0339041,-0.0849494,-0.00785009
139235053,139234209,0.0360353,-0.057039,-0.0200537
139257563,139256726,0.039008,-0.0588278,-0.0372155
139277577,139276741,0.130593,0.00925799,-0.0229113
