timestamp,q[0],q[1],q[2],q[3],delta_q_reset[0],delta_q_reset[1],delta_q_reset[2],delta_q_reset[3],quat_reset_counter
116054285,0.99768,0.0611648,0.00642963,-0.0291951,1.0,-1.87992e-10,9.96352e-10,0.000508525,3
116059283,0.997629,0.0621888,0.00741996,-0.0285136,1.0,-1.87992e-10,9.96352e-10,0.000508525,3
116104316,0.997459,0.0645805,0.00515628,-0.0296423,1.0,-1.87992e-10,9.96352e-10,0.000508525,3
116154356,0.997513,0.064198,0.00711669,-0.0282279,1.0,-1.87992e-10,9.96352e-10,0.000508525,3
116204396,0.997495,0.0644463,0.00714113,-0.0282694,1.0,-1.87992e-10,9.96352e-10,0.000508525,3
116254431,0.997516,0.0641205,0.00568047,-0.0286122,1.0,-1.87992e-10,9.96352e-10,0.000508525,3
116304469,0.997537,0.0638106,0.00610911,-0.0284745,1.0,-1.87992e-10,9.96352e-10,0.000508525,3
116354508,0.997814,0.0587085,0.00621937,-0.0297095,1.0,-1.87992e-10,9.96352e-10,0.000508525,3
116404542,0.997751,0.0603325,0.00460256,-0.0288284,1.0,-1.87992e-10,9.96352e-10,0.000508525,3
116454579,0.997906,0.0570298,0.00828878,-0.0293838,1.0,-1.87992e-10,9.96352e-10,0.000508525,3
116504617,0.997663,0.0616113,0.00506322,-0.0291103,1.0,-1.87992e-10,9.96352e-10,0.000508525,3
116554652,0.99755,0.0632008,0.00497563,-0.0295707,1.0,-1.87992e-10,9.96352e-10,0.000508525,3
116604689,0.997087,0.0700574,0.00683045,-0.0293708,1.0,-1.87992e-10,9.96352e-10,0.000508525,3
116654726,0.996635,0.0761928,0.00350346,-0.0300098,1.0,-1.87992e-10,9.96352e-10,0.000508525,3
116704764,0.996372,0.079624,0.00520124,-0.0295922,1.0,-1.87992e-10,9.96352e-10,0.000508525,3
116754804,0.995879,0.0856447,0.00535982,-0.0293592,1.0,-1.87992e-10,9.96352e-10,0.000508525,3
116804838,0.995451,0.0903643,0.00149726,-0.0301587,1.0,-1.87992e-10,9.96352e-10,0.000508525,3
116854876,0.995105,0.0939938,0.00385458,-0.0302779,1.0,-1.87992e-10,9.96352e-10,0.000508525,3
116904913,0.994371,0.101279,0.00383643,-0.0309009,1.0,-1.87992e-10,9.96352e-10,0.000508525,3
116954950,0.993718,0.107269,0.000209404,-0.0319197,1.0,-1.87992e-10,9.96352e-10,0.000508525,3
117004988,0.993097,0.112624,0.00300016,-0.0326478,1.0,-1.87992e-10,9.96352e-10,0.000508525,3
117060071,0.991917,0.122208,0.00261979,-0.0340573,1.0,-1.87992e-10,9.96352e-10,0.000508525,3
117105062,0.990519,0.132438,-0.00159305,-0.0364817,1.0,-1.87992e-10,9.96352e-10,0.000508525,3
117155103,0.98992,0.137037,-0.00267656,-0.0356712,1.0,-1.87992e-10,9.96352e-10,0.000508525,3
117205137,0.989894,0.137121,-0.00915512,-0.0349983,1.0,-1.87992e-10,9.96352e-10,0.000508525,3
117255178,0.989594,0.138835,-0.0104861,-0.0363149,1.0,-1.87992e-10,9.96352e-10,0.000508525,3
117305214,0.989564,0.13935,-0.00581048,-0.0361959,1.0,-1.87992e-10,9.96352e-10,0.000508525,3
117355250,0.990004,0.135952,-0.00651731,-0.03698,1.0,-1.87992e-10,9.96352e-10,0.000508525,3
117405287,0.99037,0.133059,-0.00244738,-0.0381638,1.0,-1.87992e-10,9.96352e-10,0.000508525,3
117455324,0.990823,0.129591,0.000273366,-0.0384214,1.0,-1.87992e-10,9.96352e-10,0.000508525,3
117505361,0.99162,0.123039,-0.00118475,-0.0393676,1.0,-1.87992e-10,9.96352e-10,0.000508525,3
117555398,0.992419,0.116392,0.000428737,-0.0394545,1.0,-1.87992e-10,9.96352e-10,0.000508525,3
117605436,0.993126,0.10917,-0.00148033,-0.0421923,1.0,-1.87992e-10,9.96352e-10,0.000508525,3
117655474,0.993993,0.100591,0.00239332,-0.0430456,1.0,-1.87992e-10,9.96352e-10,0.000508525,3
117705514,0.994995,0.0904818,0.00176557,-0.0423699,1.0,-1.87992e-10,9.96352e-10,0.000508525,3
117755548,0.995798,0.0810465,0.00190048,-0.0425836,1.0,-1.87992e-10,9.96352e-10,0.000508525,3
117805587,0.996487,0.0722081,0.0045639,-0.0421722,1.0,-1.87992e-10,9.96352e-10,0.000508525,3
117855622,0.997186,0.0616045,0.00194342,-0.042687,1.0,-1.87992e-10,9.96352e-10,0.000508525,3
117905662,0.997672,0.0527189,0.00699123,-0.0426965,1.0,-1.87992e-10,9.96352e-10,0.000508525,3
117955697,0.997768,0.0506448,0.00350323,-0.0433918,1.0,-1.87992e-10,9.96352e-10,0.000508525,3
118000731,0.99786,0.048795,0.00407839,-0.0433302,1.0,-1.87992e-10,9.96352e-10,0.000508525,3
118055772,0.997731,0.0512615,0.00472401,-0.0434017,1.0,-1.87992e-10,9.96352e-10,0.000508525,3
118105809,0.997537,0.0549112,0.00619041,-0.0432039,1.0,-1.87992e-10,9.96352e-10,0.000508525,3
118155855,0.99734,0.058646,0.00518386,-0.0429737,1.0,-1.87992e-10,9.96352e-10,0.000508525,3
118205894,0.99723,0.0601231,0.00535613,-0.0434682,1.0,-1.87992e-10,9.96352e-10,0.000508525,3
118255921,0.997283,0.0594861,0.00372612,-0.043284,1.0,-1.87992e-10,9.96352e-10,0.000508525,3
118305959,0.997368,0.0572352,0.00172593,-0.0444858,1.0,-1.87992e-10,9.96352e-10,0.000508525,3
118350992,0.997495,0.0547311,0.00691993,-0.0442658,1.0,-1.87992e-10,9.96352e-10,0.000508525,3
118406033,0.997424,0.0554134,0.00517963,-0.0452581,1.0,-1.87992e-10,9.96352e-10,0.000508525,3
118456071,0.997412,0.0560572,0.00317885,-0.0449001,1.0,-1.87992e-10,9.96352e-10,0.000508525,3
118506108,0.997467,0.0550725,0.00130784,-0.0449983,1.0,-1.87992e-10,9.96352e-10,0.000508525,3
118556145,0.997643,0.051289,0.00483723,-0.0453245,1.0,-1.87992e-10,9.96352e-10,0.000508525,3
118606183,0.997764,0.0482953,0.00596324,-0.0458139,1.0,-1.87992e-10,9.96352e-10,0.000508525,3
118656222,0.997951,0.0447297,0.00534193,-0.0454447,1.0,-1.87992e-10,9.96352e-10,0.000508525,3
118701254,0.998095,0.0413143,0.00280386,-0.0457306,1.0,-1.87992e-10,9.96352e-10,0.000508525,3
118756295,0.998461,0.0324166,0.00420168,-0.0448059,1.0,-1.87992e-10,9.96352e-10,0.000508525,3
118806332,0.998784,0.0227203,0.00187527,-0.043715,1.0,-1.87992e-10,9.96352e-10,0.000508525,3
118851366,0.999016,0.0105552,0.00253673,-0.0430049,1.0,-1.87992e-10,9.96352e-10,0.000508525,3
118906407,0.999103,-0.00500275,0.00171886,-0.0420105,1.0,-1.87992e-10,9.96352e-10,0.000508525,3
118956444,0.998981,-0.0175262,0.00117787,-0.0415872,1.0,-1.87992e-10,9.96352e-10,0.000508525,3
119006482,0.998728,-0.0295897,0.000173654,-0.0408272,1.0,-1.87992e-10,9.96352e-10,0.000508525,3
119051515,0.998559,-0.0373341,-0.00120353,-0.0385204,1.0,-1.87992e-10,9.96352e-10,0.000508525,3
119106556,0.998411,-0.0436069,-0.000757306,-0.0356815,1.0,-1.87992e-10,9.96352e-10,0.000508525,3
119156594,0.998485,-0.0441275,0.00165328,-0.0328178,1.0,-1.87992e-10,9.96352e-10,0.000508525,3
119201627,0.998828,-0.0392056,0.000439688,-0.028365,1.0,-1.87992e-10,9.96352e-10,0.000508525,3
119256669,0.999277,-0.030551,-0.00197847,-0.0225245,1.0,-1.87992e-10,9.96352e-10,0.000508525,3
119306702,0.999557,-0.0237564,-0.00255287,-0.0177482,1.0,-1.87992e-10,9.96352e-10,0.000508525,3
119351745,0.999703,-0.0198488,-0.00201444,-0.0140184,1.0,-1.87992e-10,9.96352e-10,0.000508525,3
119401777,0.999741,-0.0199341,0.000870091,-0.0109101,1.0,-1.87992e-10,9.96352e-10,0.000508525,3
119456818,0.999737,-0.021433,-0.000178436,-0.00811319,1.0,-1.87992e-10,9.96352e-10,0.000508525,3
119506857,0.999665,-0.0249583,-0.00361478,-0.00589787,1.0,-1.87992e-10,9.96352e-10,0.000508525,3
119551889,0.999574,-0.0276195,-0.00759687,-0.00557442,1.0,-1.87992e-10,9.96352e-10,0.000508525,3
119606930,0.999367,-0.0328843,-0.0118515,-0.00662284,1.0,-1.87992e-10,9.96352e-10,0.000508525,3
119656968,0.999284,-0.034736,-0.0128522,-0.00779447,1.0,-1.87992e-10,9.96352e-10,0.000508525,3
119702002,0.999341,-0.0329715,-0.0122205,-0.00901934,1.0,-1.87992e-10,9.96352e-10,0.000508525,3
119752039,0.999543,-0.0269186,-0.0095191,-0.00994079,1.0,-1.87992e-10,9.96352e-10,0.000508525,3
119807080,0.999768,-0.0168941,-0.00591868,-0.0119747,1.0,-1.87992e-10,9.96352e-10,0.000508525,3
119857119,0.99986,-0.00903732,-0.00196291,-0.0139349,1.0,-1.87992e-10,9.96352e-10,0.000508525,3
119902151,0.999848,-0.0028471,-0.00188898,-0.0170681,1.0,-1.87992e-10,9.96352e-10,0.000508525,3
119957192,0.999762,0.000954469,-0.00438927,-0.0213331,1.0,-1.87992e-10,9.96352e-10,0.000508525,3
120007241,0.999646,0.00111186,-0.00582829,-0.0259242,1.0,-1.87992e-10,9.96352e-10,0.000508525,3
120052269,0.999549,-0.000715584,-0.00729915,-0.02913,1.0,-1.87992e-10,9.96352e-10,0.000508525,3
120102303,0.999443,-0.00410757,-0.00933549,-0.0317915,1.0,-1.87992e-10,9.96352e-10,0.000508525,3
120157343,0.999364,-0.00851939,-0.00756086,-0.0337895,1.0,-1.87992e-10,9.96352e-10,0.000508525,3
120202376,0.999273,-0.0137367,-0.00412828,-0.0353359,1.0,-1.87992e-10,9.96352e-10,0.000508525,3
120252413,0.999122,-0.0195773,-0.00129984,-0.0370267,1.0,-1.87992e-10,9.96352e-10,0.000508525,3
120307454,0.999139,-0.0191747,0.00295597,-0.0366692,1.0,-1.87992e-10,9.96352e-10,0.000508525,3
120357491,0.999249,-0.0185537,0.00206388,-0.0339613,1.0,-1.87992e-10,9.96352e-10,0.000508525,3
120402525,0.999359,-0.0156301,-0.00120362,-0.0321749,1.0,-1.87992e-10,9.96352e-10,0.000508525,3
120452563,0.999427,-0.00992259,-0.000447307,-0.0323721,1.0,-1.87992e-10,9.96352e-10,0.000508525,3
120507604,0.999419,-0.00632891,-0.00145552,-0.0334705,1.0,-1.87992e-10,9.96352e-10,0.000508525,3
120552638,0.99939,-0.00409898,-0.00127928,-0.0346621,1.0,-1.87992e-10,9.96352e-10,0.000508525,3
120602675,0.999341,-0.00526115,-0.000656858,-0.0359133,1.0,-1.87992e-10,9.96352e-10,0.000508525,3
120652712,0.999328,-0.0061287,-0.00037647,-0.0361504,1.0,-1.87992e-10,9.96352e-10,0.000508525,3
120702750,0.999322,-0.008551,0.00136878,-0.0357965,1.0,-1.87992e-10,9.96352e-10,0.000508525,3
120752790,0.999354,-0.00912219,0.000602487,-0.0347419,1.0,-1.87992e-10,9.96352e-10,0.000508525,3
120802825,0.999363,-0.00604823,0.00404682,-0.0349285,1.0,-1.87992e-10,9.96352e-10,0.000508525,3
120857866,0.999415,-0.00178863,0.00434072,-0.0338878,1.0,-1.87992e-10,9.96352e-10,0.000508525,3
120902899,0.999455,0.00307079,0.00194721,-0.0328182,1.0,-1.87992e-10,9.96352e-10,0.000508525,3
120952937,0.999436,0.00664865,-0.00240309,-0.0328212,1.0,-1.87992e-10,9.96352e-10,0.000508525,3
121007986,0.999456,0.00271323,-0.00689654,-0.0321476,1.0,-1.87992e-10,9.96352e-10,0.000508525,3
121053012,0.999469,-0.0021352,-0.00797555,-0.0315175,1.0,-1.87992e-10,9.96352e-10,0.000508525,3
121103052,0.999469,-0.00701576,-0.00563891,-0.0313316,1.0,-1.87992e-10,9.96352e-10,0.000508525,3
121153087,0.99947,-0.0108612,-0.00281358,-0.0305442,1.0,-1.87992e-10,9.96352e-10,0.000508525,3
121208128,0.999502,-0.00762693,0.00264527,-0.0305137,1.0,-1.87992e-10,9.96352e-10,0.000508525,3
121253162,0.999534,-0.00431186,0.00373055,-0.0299846,1.0,-1.87992e-10,9.96352e-10,0.000508525,3
121303199,0.999544,0.000216609,0.0022055,-0.0301009,1.0,-1.87992e-10,9.96352e-10,0.000508525,3
121358243,0.999542,0.00257861,-0.00204639,-0.0300822,1.0,-1.87992e-10,9.96352e-10,0.000508525,3
121403281,0.999526,0.0031642,-0.00447695,-0.0303041,1.0,-1.87992e-10,9.96352e-10,0.000508525,3
121453312,0.999466,0.00197305,-0.00636854,-0.0319937,1.0,-1.87992e-10,9.96352e-10,0.000508525,3
121503349,0.999375,0.000119519,-0.00757871,-0.034531,1.0,-1.87992e-10,9.96352e-10,0.000508525,3
121553386,0.999312,-0.0061764,-0.00483517,-0.03625,1.0,-1.87992e-10,9.96352e-10,0.000508525,3
121603424,0.999186,-0.0121822,-0.00335814,-0.0383095,1.0,-1.87992e-10,9.96352e-10,0.000508525,3
121653465,0.9991,-0.0168065,-0.00169206,-0.0389095,1.0,-1.87992e-10,9.96352e-10,0.000508525,3
121708504,0.999095,-0.0161243,-0.000456385,-0.039371,1.0,-1.87992e-10,9.96352e-10,0.000508525,3
121753543,0.999137,-0.0120514,-0.000379766,-0.0397462,1.0,-1.87992e-10,9.96352e-10,0.000508525,3
121803574,0.999207,-0.00608009,-0.00187481,-0.0392947,1.0,-1.87992e-10,9.96352e-10,0.000508525,3
121853611,0.999234,-0.0049575,-0.00501505,-0.0385002,1.0,-1.87992e-10,9.96352e-10,0.000508525,3
121903649,0.999235,-0.00630082,-0.00732631,-0.0379006,1.0,-1.87992e-10,9.96352e-10,0.000508525,3
121953686,0.999245,-0.00718043,-0.00677388,-0.0375793,1.0,-1.87992e-10,9.96352e-10,0.000508525,3
122003724,0.99926,-0.00886038,-0.0071067,-0.0367576,1.0,-1.87992e-10,9.96352e-10,0.000508525,3
122053761,0.999303,-0.00799494,-0.0074438,-0.0357007,1.0,-1.87992e-10,9.96352e-10,0.000508525,3
122103799,0.999361,-0.00524898,-0.00623132,-0.0347906,1.0,-1.87992e-10,9.96352e-10,0.000508525,3
122153836,0.999386,-0.00217584,-0.00609186,-0.0344501,1.0,-1.87992e-10,9.96352e-10,0.000508525,3
122203874,0.999401,0.000373498,-0.00550223,-0.0341788,1.0,-1.87992e-10,9.96352e-10,0.000508525,3
122253911,0.999412,0.000619047,-0.00335267,-0.0341043,1.0,-1.87992e-10,9.96352e-10,0.000508525,3
122303948,0.999417,0.00184973,-0.00299164,-0.0339532,1.0,-1.87992e-10,9.96352e-10,0.000508525,3
122353986,0.999414,0.000280732,-0.00402519,-0.0340049,1.0,-1.87992e-10,9.96352e-10,0.000508525,3
122404037,0.999401,-0.00282159,-0.00501363,-0.0341298,1.0,-1.87992e-10,9.96352e-10,0.000508525,3
122454061,0.999394,-0.00507819,-0.00390283,-0.0342119,1.0,-1.87992e-10,9.96352e-10,0.000508525,3
122504099,0.999407,-0.00566804,-0.00203899,-0.0339074,1.0,-1.87992e-10,9.96352e-10,0.000508525,3
122554136,0.999423,-0.00581662,-0.00181461,-0.0334233,1.0,-1.87992e-10,9.96352e-10,0.000508525,3
122604173,0.999438,-0.00196328,-0.00040303,-0.0334479,1.0,-1.87992e-10,9.96352e-10,0.000508525,3
122654211,0.999431,0.00200145,0.000542097,-0.0336754,1.0,-1.87992e-10,9.96352e-10,0.000508525,3
122704249,0.999402,0.00381162,-0.000621252,-0.0343508,1.0,-1.87992e-10,9.96352e-10,0.000508525,3
122754286,0.999371,0.000971427,-0.00355163,-0.0352759,1.0,-1.87992e-10,9.96352e-10,0.000508525,3
122804324,0.999322,-0.00269246,-0.00437324,-0.0364609,1.0,-1.87992e-10,9.96352e-10,0.000508525,3
122854361,0.999286,-0.00523966,-0.00393098,-0.03721,1.0,-1.87992e-10,9.96352e-10,0.000508525,3
122904398,0.999262,-0.00634342,-0.00382803,-0.0376876,1.0,-1.87992e-10,9.96352e-10,0.000508525,3
122954436,0.999263,-0.00682554,-0.00374398,-0.0375892,1.0,-1.87992e-10,9.96352e-10,0.000508525,3
123004477,0.999292,-0.00468514,-0.00428078,-0.0370827,1.0,-1.87992e-10,9.96352e-10,0.000508525,3
123054521,0.999328,-0.000539745,-0.00592883,-0.0361655,1.0,-1.87992e-10,9.96352e-10,0.000508525,3
123104549,0.999344,0.00189029,-0.00860066,-0.0351367,1.0,-1.87992e-10,9.96352e-10,0.000508525,3
123154588,0.999366,0.0016078,-0.00941593,-0.0342894,1.0,-1.87992e-10,9.96352e-10,0.000508525,3
123204624,0.999403,-0.000177702,-0.00791399,-0.0336309,1.0,-1.87992e-10,9.96352e-10,0.000508525,3
123254661,0.999414,-0.00285443,-0.00665919,-0.03345,1.0,-1.87992e-10,9.96352e-10,0.000508525,3
123304705,0.999382,-0.00811963,-0.00614554,-0.0336474,1.0,-1.87992e-10,9.96352e-10,0.000508525,3
123354736,0.999353,-0.0109511,-0.00565623,-0.0337895,1.0,-1.87992e-10,9.96352e-10,0.000508525,3
123404777,0.99938,-0.0108597,-0.00414424,-0.0332504,1.0,-1.87992e-10,9.96352e-10,0.000508525,3
123454811,0.999426,-0.00989915,-0.00264321,-0.0322845,1.0,-1.87992e-10,9.96352e-10,0.000508525,3
123504849,0.999478,-0.00774003,-0.00187452,-0.0313236,1.0,-1.87992e-10,9.96352e-10,0.000508525,3
123554886,0.999507,-0.00592522,-0.00280569,-0.0306886,1.0,-1.87992e-10,9.96352e-10,0.000508525,3
123604924,0.99953,-0.00440875,-0.00439938,-0.0300118,1.0,-1.87992e-10,9.96352e-10,0.000508525,3
123654961,0.999543,-0.00576583,-0.0052221,-0.0291968,1.0,-1.87992e-10,9.96352e-10,0.000508525,3
123704999,0.999583,-0.00481558,-0.00505197,-0.0280104,1.0,-1.87992e-10,9.96352e-10,0.000508525,3
123755036,0.999623,-0.00431104,-0.00404931,-0.0268233,1.0,-1.87992e-10,9.96352e-10,0.000508525,3
123805074,0.999663,-0.00438866,-0.00342835,-0.0253481,1.0,-1.87992e-10,9.96352e-10,0.000508525,3
123855111,0.999705,-0.00413305,-0.00326032,-0.0236972,1.0,-1.87992e-10,9.96352e-10,0.000508525,3
123905149,0.999748,-0.00397549,-0.00382953,-0.0217675,1.0,-1.87992e-10,9.96352e-10,0.000508525,3
123955187,0.99979,-0.00267454,-0.00311677,-0.0200581,1.0,-1.87992e-10,9.96352e-10,0.000508525,3
124005228,0.999821,-0.00183992,-0.00217375,-0.0187272,1.0,-1.87992e-10,9.96352e-10,0.000508525,3
124055270,0.999848,-0.000941173,-0.000964066,-0.0173794,1.0,-1.87992e-10,9.96352e-10,0.000508525,3
124105309,0.999857,-0.000740855,-0.00149372,-0.0168241,1.0,-1.87992e-10,9.96352e-10,0.000508525,3
124155339,0.999857,-0.000443895,-0.00315808,-0.016624,1.0,-1.87992e-10,9.96352e-10,0.000508525,3
124205377,0.999853,-0.00184742,-0.00276457,-0.0167937,1.0,-1.87992e-10,9.96352e-10,0.000508525,3
124255414,0.999835,-0.000702678,-0.0041779,-0.0176793,1.0,-1.87992e-10,9.96352e-10,0.000508525,3
124305449,0.999822,0.00220673,-0.00342245,-0.0184114,1.0,-1.87992e-10,9.96352e-10,0.000508525,3
124355490,0.999796,0.00500463,-0.00100897,-0.0195661,1.0,-1.87992e-10,9.96352e-10,0.000508525,3
124405525,0.999753,0.00570373,0.000142419,-0.0214911,1.0,-1.87992e-10,9.96352e-10,0.000508525,3
124455562,0.999711,0.00275343,0.00235755,-0.0237845,1.0,-1.87992e-10,9.96352e-10,0.000508525,3
124505600,0.999628,0.0023827,0.00543871,-0.0266015,1.0,-1.87992e-10,9.96352e-10,0.000508525,3
124555637,0.999567,0.00123363,0.00646281,-0.0286655,1.0,-1.87992e-10,9.96352e-10,0.000508525,3
124605675,0.999515,0.00363496,0.00550487,-0.0304274,1.0,-1.87992e-10,9.96352e-10,0.000508525,3
124655712,0.999449,0.00370326,0.00782897,-0.0320535,1.0,-1.87992e-10,9.96352e-10,0.000508525,3
124705750,0.999435,0.00295415,0.0089702,-0.0322495,1.0,-1.87992e-10,9.96352e-10,0.000508525,3
124755788,0.999491,0.000817092,0.00606817,-0.0313158,1.0,-1.87992e-10,9.96352e-10,0.000508525,3
124805825,0.999522,-0.00402954,0.0033282,-0.0304645,1.0,-1.87992e-10,9.96352e-10,0.000508525,3
124855863,0.999532,-0.00715757,0.000410137,-0.0297439,1.0,-1.87992e-10,9.96352e-10,0.000508525,3
124905904,0.999559,-0.00733254,0.0006082,-0.0287767,1.0,-1.87992e-10,9.96352e-10,0.000508525,3
124955938,0.999618,-0.00336337,0.000799789,-0.0274058,1.0,-1.87992e-10,9.96352e-10,0.000508525,3
125000972,0.999641,-0.00208464,0.000542914,-0.0266965,1.0,-1.87992e-10,9.96352e-10,0.000508525,3
125056013,0.999658,-0.00318278,0.00102043,-0.025928,1.0,-1.87992e-10,9.96352e-10,0.000508525,3
125106054,0.999651,-0.00432288,0.000830772,-0.0260656,1.0,-1.87992e-10,9.96352e-10,0.000508525,3
125156088,0.999635,-0.00854387,0.000369704,-0.0256175,1.0,-1.87992e-10,9.96352e-10,0.000508525,3
125206126,0.999627,-0.00950826,-0.001376,-0.0255768,1.0,-1.87992e-10,9.96352e-10,0.000508525,3
125256163,0.999658,-0.00232724,-0.00345864,-0.0258073,1.0,-1.87992e-10,9.96352e-10,0.000508525,3
125306201,0.999641,0.00354263,-0.00479942,-0.0261323,1.0,-1.87992e-10,9.96352e-10,0.000508525,3
125351235,0.999619,0.00596665,-0.00601505,-0.0262815,1.0,-1.87992e-10,9.96352e-10,0.000508525,3
125406281,0.999635,0.00117214,-0.0055629,-0.0264119,1.0,-1.87992e-10,9.96352e-10,0.000508525,3
125456314,0.999624,-0.00194222,-0.00531147,-0.026838,1.0,-1.87992e-10,9.96352e-10,0.000508525,3
125501348,0.999615,0.0014885,-0.0032273,-0.0275048,1.0,-1.87992e-10,9.96352e-10,0.000508525,3
125556389,0.999594,0.00374136,-0.00205881,-0.0281559,1.0,-1.87992e-10,9.96352e-10,0.000508525,3
125606429,0.999587,0.00259983,0.000243023,-0.0286239,1.0,-1.87992e-10,9.96352e-10,0.000508525,3
125656464,0.999591,-0.000318687,0.0035197,-0.0283784,1.0,-1.87992e-10,9.96352e-10,0.000508525,3
125701500,0.999611,-0.000854537,0.00366398,-0.0276328,1.0,-1.87992e-10,9.96352e-10,0.000508525,3
125756539,0.999631,0.000394986,0.0018296,-0.0271023,1.0,-1.87992e-10,9.96352e-10,0.000508525,3
125806580,0.999642,-0.00112504,-0.00180367,-0.0266836,1.0,-1.87992e-10,9.96352e-10,0.000508525,3
125851611,0.999624,-0.00486163,-0.00523862,-0.026458,1.0,-1.87992e-10,9.96352e-10,0.000508525,3
125906652,0.999601,-0.00811061,-0.00627694,-0.0263183,1.0,-1.87992e-10,9.96352e-10,0.000508525,3
125956690,0.999621,-0.00598633,-0.00583541,-0.0262412,1.0,-1.87992e-10,9.96352e-10,0.000508525,3
126001724,0.999644,-0.00115545,-0.00406935,-0.0263577,1.0,-1.87992e-10,9.96352e-10,0.000508525,3
126051761,0.999653,0.00369366,-0.00294738,-0.0259272,1.0,-1.87992e-10,9.96352e-10,0.000508525,3
126106803,0.99966,0.0032029,-0.00338023,-0.025669,1.0,-1.87992e-10,9.96352e-10,0.000508525,3
126156840,0.999674,-0.00284087,-0.00340916,-0.0251254,1.0,-1.87992e-10,9.96352e-10,0.000508525,3
126201874,0.999648,-0.00854588,-0.00660289,-0.0242196,1.0,-1.87992e-10,9.96352e-10,0.000508525,3
126256915,0.999547,-0.0114973,-0.0155279,-0.023064,1.0,-1.87992e-10,9.96352e-10,0.000508525,3
126306953,0.999362,-0.00979313,-0.0266094,-0.021721,1.0,-1.87992e-10,9.96352e-10,0.000508525,3
126351987,0.999202,-0.00751125,-0.0332833,-0.0207577,1.0,-1.87992e-10,9.96352e-10,0.000508525,3
126402025,0.999069,-0.0102402,-0.0367983,-0.0200313,1.0,-1.87992e-10,9.96352e-10,0.000508525,3
126457066,0.999033,-0.0184633,-0.0348482,-0.0194538,1.0,-1.87992e-10,9.96352e-10,0.000508525,3
126507104,0.998891,-0.0276984,-0.0326867,-0.0195081,1.0,-1.87992e-10,9.96352e-10,0.000508525,3
126552137,0.998832,-0.0293198,-0.0324951,-0.0204872,1.0,-1.87992e-10,9.96352e-10,0.000508525,3
126607179,0.998855,-0.0238745,-0.0356085,-0.021239,1.0,-1.87992e-10,9.96352e-10,0.000508525,3
126657218,0.99881,-0.0216993,-0.0377159,-0.0220341,1.0,-1.87992e-10,9.96352e-10,0.000508525,3
126702250,0.998664,-0.025384,-0.0391014,-0.0222804,1.0,-1.87992e-10,9.96352e-10,0.000508525,3
126752288,0.998681,-0.0289254,-0.0359617,-0.0225047,1.0,-1.87992e-10,9.96352e-10,0.000508525,3
126807333,0.998732,-0.0304235,-0.033335,-0.0223122,1.0,-1.87992e-10,9.96352e-10,0.000508525,3
126852366,0.998762,-0.0288327,-0.0334881,-0.0228498,1.0,-1.87992e-10,9.96352e-10,0.000508525,3
126902401,0.998703,-0.0285282,-0.0352745,-0.0231289,1.0,-1.87992e-10,9.96352e-10,0.000508525,3
126957442,0.998763,-0.0307624,-0.0318584,-0.0225929,1.0,-1.87992e-10,9.96352e-10,0.000508525,3
127007480,0.998743,-0.0356127,-0.0276419,-0.0218985,1.0,-1.87992e-10,9.96352e-10,0.000508525,3
127052514,0.99869,-0.0374376,-0.0274978,-0.0214664,1.0,-1.87992e-10,9.96352e-10,0.000508525,3
127102551,0.998597,-0.0392994,-0.0287037,-0.0208545,1.0,-1.87992e-10,9.96352e-10,0.000508525,3
127157593,0.998505,-0.0403812,-0.0311632,-0.0196442,1.0,-1.87992e-10,9.96352e-10,0.000508525,3
127202630,0.998541,-0.0388711,-0.032194,-0.0191944,1.0,-1.87992e-10,9.96352e-10,0.000508525,3
127252664,0.998609,-0.038686,-0.0303709,-0.019002,1.0,-1.87992e-10,9.96352e-10,0.000508525,3
127307706,0.99883,-0.0378819,-0.023476,-0.0187843,1.0,-1.87992e-10,9.96352e-10,0.000508525,3
127352740,0.999118,-0.0350072,-0.0141489,-0.0183551,1.0,-1.87992e-10,9.96352e-10,0.000508525,3
127402777,0.999418,-0.0276969,-0.00696231,-0.0186478,1.0,-1.87992e-10,9.96352e-10,0.000508525,3
127452815,0.999681,-0.0163107,-0.0024631,-0.0191311,1.0,-1.87992e-10,9.96352e-10,0.000508525,3
127507856,0.999789,-0.00511634,-0.00334746,-0.0196201,1.0,-1.87992e-10,9.96352e-10,0.000508525,3
127552890,0.999771,-0.00106307,-0.00481953,-0.0208382,1.0,-1.87992e-10,9.96352e-10,0.000508525,3
127602928,0.999728,-0.00261954,-0.00420397,-0.022801,1.0,-1.87992e-10,9.96352e-10,0.000508525,3
127657969,0.99967,-0.00685798,-0.00215716,-0.024651,1.0,-1.87992e-10,9.96352e-10,0.000508525,3
127703003,0.999598,-0.00952055,-0.00101522,-0.0266723,1.0,-1.87992e-10,9.96352e-10,0.000508525,3
127753049,0.999568,-0.00779125,0.000153436,-0.0283293,1.0,-1.87992e-10,9.96352e-10,0.000508525,3
127803082,0.999522,-0.00686712,0.00142181,-0.0301098,1.0,-1.87992e-10,9.96352e-10,0.000508525,3
127858120,0.99947,-0.00464866,0.00346246,-0.0320257,1.0,-1.87992e-10,9.96352e-10,0.000508525,3
127903163,0.999432,-0.00234654,0.0040288,-0.033371,1.0,-1.87992e-10,9.96352e-10,0.000508525,3
127953192,0.999389,0.000588752,0.00333352,-0.034791,1.0,-1.87992e-10,9.96352e-10,0.000508525,3
128008233,0.999328,0.000922816,0.00197112,-0.0365775,1.0,-1.87992e-10,9.96352e-10,0.000508525,3
128053275,0.99929,-0.00228463,0.00080593,-0.0375981,1.0,-1.87992e-10,9.96352e-10,0.000508525,3
128103307,0.999227,-0.00761987,-0.00111569,-0.0385532,1.0,-1.87992e-10,9.96352e-10,0.000508525,3
128153343,0.999184,-0.00924516,0.000412301,-0.0393084,1.0,-1.87992e-10,9.96352e-10,0.000508525,3
128203380,0.99919,-0.00531822,0.00308455,-0.0397775,1.0,-1.87992e-10,9.96352e-10,0.000508525,3
128253422,0.999171,0.00017155,0.0060139,-0.0402699,1.0,-1.87992e-10,9.96352e-10,0.000508525,3
128303459,0.999147,0.003463,0.00646588,-0.0406516,1.0,-1.87992e-10,9.96352e-10,0.000508525,3
128358497,0.99917,0.000581736,0.00459615,-0.0404606,1.0,-1.87992e-10,9.96352e-10,0.000508525,3
128403531,0.999173,-0.00212324,0.00394286,-0.0404138,1.0,-1.87992e-10,9.96352e-10,0.000508525,3
128453568,0.999179,-0.00406666,0.00273522,-0.0402116,1.0,-1.87992e-10,9.96352e-10,0.000508525,3
128503608,0.999181,-0.00308866,0.00556006,-0.0399614,1.0,-1.87992e-10,9.96352e-10,0.000508525,3
128553644,0.999184,-0.00308594,0.00752344,-0.0395523,1.0,-1.87992e-10,9.96352e-10,0.000508525,3
128603681,0.999195,-0.00358091,0.00778939,-0.0391824,1.0,-1.87992e-10,9.96352e-10,0.000508525,3
128653719,0.999227,-0.00434206,0.00770004,-0.0383025,1.0,-1.87992e-10,9.96352e-10,0.000508525,3
128703757,0.999282,-0.00259967,0.00475263,-0.0375133,1.0,-1.87992e-10,9.96352e-10,0.000508525,3
128753794,0.999313,-0.00131615,0.000523853,-0.0370325,1.0,-1.87992e-10,9.96352e-10,0.000508525,3
128803832,0.999331,-0.0017211,-0.00253783,-0.0364517,1.0,-1.87992e-10,9.96352e-10,0.000508525,3
128853870,0.999319,-0.0031606,-0.00245488,-0.0366711,1.0,-1.87992e-10,9.96352e-10,0.000508525,3
128903909,0.999331,-0.00279189,-0.00238026,-0.0363933,1.0,-1.87992e-10,9.96352e-10,0.000508525,3
128953945,0.999323,-0.00161127,-0.00423869,-0.0365157,1.0,-1.87992e-10,9.96352e-10,0.000508525,3
129003983,0.999323,0.00103064,-0.00380057,-0.0365911,1.0,-1.87992e-10,9.96352e-10,0.000508525,3
129054021,0.999317,-0.00119822,-0.00344767,-0.0367868,1.0,-1.87992e-10,9.96352e-10,0.000508525,3
129104059,0.99931,-0.00345125,-0.00251121,-0.0368867,1.0,-1.87992e-10,9.96352e-10,0.000508525,3
129154096,0.999276,-0.00622234,-0.00380373,-0.037343,1.0,-1.87992e-10,9.96352e-10,0.000508525,3
129204134,0.999253,-0.00477626,-0.00536116,-0.0379754,1.0,-1.87992e-10,9.96352e-10,0.000508525,3
129254171,0.999221,-0.00500885,-0.00645945,-0.0386032,1.0,-1.87992e-10,9.96352e-10,0.000508525,3
129304209,0.999213,-0.00328426,-0.00508914,-0.0392023,1.0,-1.87992e-10,9.96352e-10,0.000508525,3
129354247,0.999183,-0.00740073,-0.00309929,-0.0396103,1.0,-1.87992e-10,9.96352e-10,0.000508525,3
129404287,0.999104,-0.0131763,-0.00354542,-0.0400721,1.0,-1.87992e-10,9.96352e-10,0.000508525,3
129454322,0.998781,-0.0264328,-0.00610419,-0.0412456,1.0,-1.87992e-10,9.96352e-10,0.000508525,3
129504360,0.99818,-0.0409619,-0.0124617,-0.0424712,1.0,-1.87992e-10,9.96352e-10,0.000508525,3
129554398,0.997463,-0.0530698,-0.0188648,-0.0435455,1.0,-1.87992e-10,9.96352e-10,0.000508525,3
129604435,0.997043,-0.0581674,-0.0230555,-0.0446041,1.0,-1.87992e-10,9.96352e-10,0.000508525,3
129654476,0.996941,-0.0595108,-0.0216311,-0.0458095,1.0,-1.87992e-10,9.96352e-10,0.000508525,3
129704511,0.996912,-0.0595375,-0.0217666,-0.0463423,1.0,-1.87992e-10,9.96352e-10,0.000508525,3
129754548,0.996661,-0.062721,-0.0230674,-0.0469108,1.0,-1.87992e-10,9.96352e-10,0.000508525,3
129804588,0.995972,-0.0703419,-0.0284066,-0.0477935,1.0,-1.87992e-10,9.96352e-10,0.000508525,3
129854624,0.995743,-0.0708939,-0.0332492,-0.0486266,1.0,-1.87992e-10,9.96352e-10,0.000508525,3
129904662,0.995753,-0.0703092,-0.0327615,-0.049591,1.0,-1.87992e-10,9.96352e-10,0.000508525,3
129954699,0.99568,-0.0721446,-0.029697,-0.0503501,1.0,-1.87992e-10,9.96352e-10,0.000508525,3
130004737,0.995507,-0.0752283,-0.0282502,-0.0500885,1.0,-1.87992e-10,9.96352e-10,0.000508525,3
130054775,0.995286,-0.0765822,-0.03306,-0.0494734,1.0,-1.87992e-10,9.96352e-10,0.000508525,3
130104813,0.995701,-0.0720842,-0.0322627,-0.0484044,1.0,-1.87992e-10,9.96352e-10,0.000508525,3
130154850,0.995915,-0.0696776,-0.0328885,-0.0470788,1.0,-1.87992e-10,9.96352e-10,0.000508525,3
130204888,0.996153,-0.0669591,-0.0333843,-0.045615,1.0,-1.87992e-10,9.96352e-10,0.000508525,3
130254926,0.996214,-0.067789,-0.0311494,-0.0446232,1.0,-1.87992e-10,9.96352e-10,0.000508525,3
130304963,0.996477,-0.0656772,-0.0281227,-0.0439245,1.0,-1.87992e-10,9.96352e-10,0.000508525,3
130355001,0.99666,-0.0628788,-0.0291104,-0.0432285,1.0,-1.87992e-10,9.96352e-10,0.000508525,3
130405039,0.996832,-0.0600235,-0.030263,-0.0425203,1.0,-1.87992e-10,9.96352e-10,0.000508525,3
130455077,0.996747,-0.0627626,-0.0281998,-0.0419687,1.0,-1.87992e-10,9.96352e-10,0.000508525,3
130505116,0.996839,-0.0632172,-0.025362,-0.0408978,1.0,-1.87992e-10,9.96352e-10,0.000508525,3
130555152,0.996869,-0.0642024,-0.0231251,-0.0399386,1.0,-1.87992e-10,9.96352e-10,0.000508525,3
130605190,0.996929,-0.0639766,-0.0223179,-0.0392504,1.0,-1.87992e-10,9.96352e-10,0.000508525,3
130655228,0.996778,-0.0662209,-0.0236164,-0.0386112,1.0,-1.87992e-10,9.96352e-10,0.000508525,3
130705271,0.99685,-0.0658737,-0.0226262,-0.0379385,1.0,-1.87992e-10,9.96352e-10,0.000508525,3
130755303,0.996897,-0.066386,-0.0192124,-0.0376957,1.0,-1.87992e-10,9.96352e-10,0.000508525,3
130805341,0.997005,-0.0657772,-0.0161017,-0.0373419,1.0,-1.87992e-10,9.96352e-10,0.000508525,3
130855384,0.997152,-0.0643217,-0.0142138,-0.0367155,1.0,-1.87992e-10,9.96352e-10,0.000508525,3
130905417,0.997236,-0.0634755,-0.0119746,-0.0367033,1.0,-1.87992e-10,9.96352e-10,0.000508525,3
130955454,0.997207,-0.0642921,-0.0109115,-0.036405,1.0,-1.87992e-10,9.96352e-10,0.000508525,3
131005495,0.997011,-0.0673245,-0.0115507,-0.0360869,1.0,-1.87992e-10,9.96352e-10,0.000508525,3
131055529,0.997088,-0.0659998,-0.0121252,-0.0362191,1.0,-1.87992e-10,9.96352e-10,0.000508525,3
131105574,0.997376,-0.0616531,-0.0128509,-0.0357141,1.0,-1.87992e-10,9.96352e-10,0.000508525,3
131155605,0.99761,-0.0585533,-0.00878493,-0.0356045,1.0,-1.87992e-10,9.96352e-10,0.000508525,3
131205643,0.997652,-0.0583049,-0.00450376,-0.035651,1.0,-1.87992e-10,9.96352e-10,0.000508525,3
131255680,0.997703,-0.0572874,0.00161617,-0.0361165,1.0,-1.87992e-10,9.96352e-10,0.000508525,3
131300714,0.998111,-0.04952,0.00398506,-0.0361385,1.0,-1.87992e-10,9.96352e-10,0.000508525,3
131355756,0.998811,-0.0322557,0.002413,-0.0364684,1.0,-1.87992e-10,9.96352e-10,0.000508525,3
131405794,0.999171,-0.0170832,0.00169527,-0.0369149,1.0,-1.87992e-10,9.96352e-10,0.000508525,3
131455832,0.999226,-0.0121137,0.000117167,-0.0374168,1.0,-1.87992e-10,9.96352e-10,0.000508525,3
131505869,0.999156,-0.011648,-0.00430583,-0.03916,1.0,-1.87992e-10,9.96352e-10,0.000508525,3
131555911,0.998966,-0.0108762,-0.0179724,-0.0403314,1.0,-1.87992e-10,9.96352e-10,0.000508525,3
131605945,0.998509,-0.00882445,-0.0348683,-0.0410525,1.0,-1.87992e-10,9.96352e-10,0.000508525,3
131650979,0.997921,-0.00550677,-0.0491888,-0.0412736,1.0,-1.87992e-10,9.96352e-10,0.000508525,3
131706020,0.99725,-0.00428385,-0.0614455,-0.0412126,1.0,-1.87992e-10,9.96352e-10,0.000508525,3
131756058,0.99686,-0.00697728,-0.0673627,-0.0410359,1.0,-1.87992e-10,9.96352e-10,0.000508525,3
131806096,0.996676,-0.00691797,-0.0703235,-0.0405536,1.0,-1.87992e-10,9.96352e-10,0.000508525,3
131856134,0.996282,-0.0074121,-0.0758647,-0.0401436,1.0,-1.87992e-10,9.96352e-10,0.000508525,3
131906171,0.995986,-0.00869737,-0.0795018,-0.0402094,1.0,-1.87992e-10,9.96352e-10,0.000508525,3
131956209,0.996071,-0.00993577,-0.0782993,-0.04017,1.0,-1.87992e-10,9.96352e-10,0.000508525,3
132001243,0.996897,-0.00713503,-0.0674621,-0.0399205,1.0,-1.87992e-10,9.96352e-10,0.000508525,3
132056296,0.99827,-0.00201967,-0.0432138,-0.0398263,1.0,-1.87992e-10,9.96352e-10,0.000508525,3
132106323,0.999018,0.000801684,-0.0196078,-0.0397262,1.0,-1.87992e-10,9.96352e-10,0.000508525,3
132151356,0.999198,0.00160699,-0.00467686,-0.0397398,1.0,-1.87992e-10,9.96352e-10,0.000508525,3
132206398,0.999195,0.00215646,0.00224528,-0.0400048,1.0,-1.87992e-10,9.96352e-10,0.000508525,3
132256436,0.999179,0.00339789,0.0013704,-0.0403472,1.0,-1.87992e-10,9.96352e-10,0.000508525,3
132306476,0.999149,0.00535848,0.0016332,-0.040871,1.0,-1.87992e-10,9.96352e-10,0.000508525,3
132351507,0.999056,0.0129511,0.00288091,-0.041368,1.0,-1.87992e-10,9.96352e-10,0.000508525,3
132406549,0.998754,0.0261744,0.00526262,-0.0421553,1.0,-1.87992e-10,9.96352e-10,0.000508525,3
132456587,0.998442,0.0350757,0.00687024,-0.0428562,1.0,-1.87992e-10,9.96352e-10,0.000508525,3
132501621,0.998347,0.037543,0.0040588,-0.0433284,1.0,-1.87992e-10,9.96352e-10,0.000508525,3
132556662,0.997967,0.0456617,-0.00376332,-0.0442943,1.0,-1.87992e-10,9.96352e-10,0.000508525,3
132606700,0.997387,0.0561428,-0.00904391,-0.0445496,1.0,-1.87992e-10,9.96352e-10,0.000508525,3
132656738,0.997133,0.0608892,-0.00686679,-0.0443935,1.0,-1.87992e-10,9.96352e-10,0.000508525,3
132701772,0.997199,0.0603326,-0.00403515,-0.0440201,1.0,-1.87992e-10,9.96352e-10,0.000508525,3
132756814,0.997416,0.056702,-0.00302863,-0.0440197,1.0,-1.87992e-10,9.96352e-10,0.000508525,3
132806851,0.997602,0.0528611,-0.00402453,-0.0444846,1.0,-1.87992e-10,9.96352e-10,0.000508525,3
132851885,0.99765,0.0518149,-0.00291446,-0.0447389,1.0,-1.87992e-10,9.96352e-10,0.000508525,3
132906927,0.997661,0.0513637,-0.00111314,-0.0450852,1.0,-1.87992e-10,9.96352e-10,0.000508525,3
132956965,0.998108,0.0412467,0.00058883,-0.0456006,1.0,-1.87992e-10,9.96352e-10,0.000508525,3
133001999,0.998672,0.0232069,0.00111457,-0.0459825,1.0,-1.87992e-10,9.96352e-10,0.000508525,3
133052037,0.998916,0.00788268,0.00301377,-0.0457884,1.0,-1.87992e-10,9.96352e-10,0.000508525,3
133107078,0.998943,0.00083657,0.00506366,-0.0456894,1.0,-1.87992e-10,9.96352e-10,0.000508525,3
133157116,0.998938,-0.000133443,0.00510503,-0.0457928,1.0,-1.87992e-10,9.96352e-10,0.000508525,3
133202150,0.99895,0.00409901,0.00201737,-0.0455873,1.0,-1.87992e-10,9.96352e-10,0.000508525,3
133257191,0.998853,0.0149281,-0.00271221,-0.0454149,1.0,-1.87992e-10,9.96352e-10,0.000508525,3
133307250,0.998412,0.0333657,-0.00483295,-0.045124,1.0,-1.87992e-10,9.96352e-10,0.000508525,3
133352279,0.997733,0.0493555,-0.00807584,-0.0450407,1.0,-1.87992e-10,9.96352e-10,0.000508525,3
133402301,0.997017,0.0620343,-0.0118035,-0.0443773,1.0,-1.87992e-10,9.96352e-10,0.000508525,3
133457345,0.996666,0.0676926,-0.012695,-0.0437336,1.0,-1.87992e-10,9.96352e-10,0.000508525,3
133502376,0.996671,0.0677995,-0.0116401,-0.0437466,1.0,-1.87992e-10,9.96352e-10,0.000508525,3
133552414,0.996905,0.064982,-0.0104278,-0.0430091,1.0,-1.87992e-10,9.96352e-10,0.000508525,3
133607456,0.997151,0.0620704,-0.00825047,-0.0420528,1.0,-1.87992e-10,9.96352e-10,0.000508525,3
133657493,0.997924,0.0484549,-0.00607509,-0.0419815,1.0,-1.87992e-10,9.96352e-10,0.000508525,3
133702527,0.998687,0.0288478,-0.00393326,-0.0421605,1.0,-1.87992e-10,9.96352e-10,0.000508525,3
133752565,0.999076,0.0106825,-0.00133601,-0.0416158,1.0,-1.87992e-10,9.96352e-10,0.000508525,3
133807607,0.999151,0.000482055,0.00237752,-0.0411157,1.0,-1.87992e-10,9.96352e-10,0.000508525,3
133852641,0.999158,-0.00338749,0.0015221,-0.0408498,1.0,-1.87992e-10,9.96352e-10,0.000508525,3
133902679,0.999119,-0.00353834,-0.00813599,-0.041023,1.0,-1.87992e-10,9.96352e-10,0.000508525,3
133957720,0.998823,-0.00424188,-0.0239852,-0.0419547,1.0,-1.87992e-10,9.96352e-10,0.000508525,3
134002754,0.998263,-0.00359832,-0.0403332,-0.0427995,1.0,-1.87992e-10,9.96352e-10,0.000508525,3
134052792,0.997358,-0.00542456,-0.0579313,-0.0435004,1.0,-1.87992e-10,9.96352e-10,0.000508525,3
134102830,0.996135,-0.0109258,-0.074725,-0.0448528,1.0,-1.87992e-10,9.96352e-10,0.000508525,3
134157871,0.995212,-0.0143884,-0.0852742,-0.0455448,1.0,-1.87992e-10,9.96352e-10,0.000508525,3
134202905,0.995269,-0.0119344,-0.0849936,-0.0455319,1.0,-1.87992e-10,9.96352e-10,0.000508525,3
134252943,0.995863,-0.00883012,-0.0781569,-0.0455001,1.0,-1.87992e-10,9.96352e-10,0.000508525,3
134307985,0.996478,-0.00669034,-0.0704654,-0.0449525,1.0,-1.87992e-10,9.96352e-10,0.000508525,3
134353019,0.997132,-0.00811496,-0.0605814,-0.0446326,1.0,-1.87992e-10,9.96352e-10,0.000508525,3
134403057,0.997895,-0.0117717,-0.0457556,-0.0444343,1.0,-1.87992e-10,9.96352e-10,0.000508525,3
134453095,0.998466,-0.013078,-0.0311322,-0.0438824,1.0,-1.87992e-10,9.96352e-10,0.000508525,3
134508136,0.998737,-0.0133644,-0.0212055,-0.0435507,1.0,-1.87992e-10,9.96352e-10,0.000508525,3
134553170,0.998851,-0.0131163,-0.0170934,-0.0428155,1.0,-1.87992e-10,9.96352e-10,0.000508525,3
134603208,0.998962,-0.0108177,-0.0135543,-0.0421246,1.0,-1.87992e-10,9.96352e-10,0.000508525,3
134658249,0.999067,-0.00530895,-0.0111814,-0.0413664,1.0,-1.87992e-10,9.96352e-10,0.000508525,3
134703284,0.999123,-0.00206937,-0.00866722,-0.0409095,1.0,-1.87992e-10,9.96352e-10,0.000508525,3
134753321,0.999177,-0.00076915,-0.00561272,-0.0401613,1.0,-1.87992e-10,9.96352e-10,0.000508525,3
134803359,0.999208,0.000222,-0.00278794,-0.0396844,1.0,-1.87992e-10,9.96352e-10,0.000508525,3
134853397,0.999202,0.00125188,-0.00216678,-0.0398578,1.0,-1.87992e-10,9.96352e-10,0.000508525,3
134903436,0.999191,-0.00125744,-0.00405334,-0.0399866,1.0,-1.87992e-10,9.96352e-10,0.000508525,3
134953476,0.999176,-0.00260545,-0.00666685,-0.0399443,1.0,-1.87992e-10,9.96352e-10,0.000508525,3
135008514,0.999173,-0.00357656,-0.00633281,-0.0400003,1.0,-1.87992e-10,9.96352e-10,0.000508525,3
135053548,0.999182,-0.00453554,-0.00261197,-0.0400934,1.0,-1.87992e-10,9.96352e-10,0.000508525,3
135103586,0.999176,-0.00559456,0.00124834,-0.0401897,1.0,-1.87992e-10,9.96352e-10,0.000508525,3
135153623,0.999128,-0.00973875,0.00266971,-0.040517,1.0,-1.87992e-10,9.96352e-10,0.000508525,3
135203661,0.999049,-0.0165127,0.00347944,-0.0401984,1.0,-1.87992e-10,9.96352e-10,0.000508525,3
135253699,0.998688,-0.0311876,0.00283253,-0.0405283,1.0,-1.87992e-10,9.96352e-10,0.000508525,3
135303737,0.998112,-0.0462403,0.00184697,-0.040391,1.0,-1.87992e-10,9.96352e-10,0.000508525,3
135353775,0.997405,-0.0595927,0.00197807,-0.0403562,1.0,-1.87992e-10,9.96352e-10,0.000508525,3
135403812,0.996688,-0.070184,0.00688133,-0.0404991,1.0,-1.87992e-10,9.96352e-10,0.000508525,3
135453850,0.99585,-0.0795785,0.0165997,-0.0409187,1.0,-1.87992e-10,9.96352e-10,0.000508525,3
135503888,0.995274,-0.0835434,0.0266077,-0.0417302,1.0,-1.87992e-10,9.96352e-10,0.000508525,3
135553934,0.994977,-0.0849847,0.031392,-0.0425804,1.0,-1.87992e-10,9.96352e-10,0.000508525,3
135603964,0.995295,-0.0815271,0.028973,-0.0436236,1.0,-1.87992e-10,9.96352e-10,0.000508525,3
135654002,0.995836,-0.0769297,0.0209075,-0.0442288,1.0,-1.87992e-10,9.96352e-10,0.000508525,3
135704039,0.996259,-0.073129,0.0119225,-0.0444721,1.0,-1.87992e-10,9.96352e-10,0.000508525,3
135754077,0.996538,-0.0694555,0.00722868,-0.0451125,1.0,-1.87992e-10,9.96352e-10,0.000508525,3
135804115,0.996863,-0.0643488,0.00730202,-0.0454976,1.0,-1.87992e-10,9.96352e-10,0.000508525,3
135854153,0.997215,-0.0579658,0.0081087,-0.0462241,1.0,-1.87992e-10,9.96352e-10,0.000508525,3
135904191,0.997578,-0.0511667,0.00744685,-0.0465339,1.0,-1.87992e-10,9.96352e-10,0.000508525,3
135954229,0.997656,-0.04908,0.00831794,-0.0469428,1.0,-1.87992e-10,9.96352e-10,0.000508525,3
136004272,0.997592,-0.0502945,0.00700987,-0.0472303,1.0,-1.87992e-10,9.96352e-10,0.000508525,3
136054304,0.997613,-0.0502463,0.00539151,-0.0470613,1.0,-1.87992e-10,9.96352e-10,0.000508525,3
136104342,0.997719,-0.0477959,0.00552042,-0.0473596,1.0,-1.87992e-10,9.96352e-10,0.000508525,3
136154380,0.998078,-0.0400362,0.00502448,-0.0470409,1.0,-1.87992e-10,9.96352e-10,0.000508525,3
136204418,0.998579,-0.0247286,0.00362669,-0.047066,1.0,-1.87992e-10,9.96352e-10,0.000508525,3
136254463,0.99883,-0.0101175,0.00371857,-0.0471384,1.0,-1.87992e-10,9.96352e-10,0.000508525,3
136304497,0.998871,-0.00305202,0.00377396,-0.0472526,1.0,-1.87992e-10,9.96352e-10,0.000508525,3
136354531,0.998866,-0.0016254,0.00379306,-0.0474416,1.0,-1.87992e-10,9.96352e-10,0.000508525,3
136404579,0.998866,-0.00669497,0.00135696,-0.0471225,1.0,-1.87992e-10,9.96352e-10,0.000508525,3
136454613,0.998743,-0.0145373,-0.00999507,-0.0469189,1.0,-1.87992e-10,9.96352e-10,0.000508525,3
136504645,0.998234,-0.0190073,-0.031729,-0.0464782,1.0,-1.87992e-10,9.96352e-10,0.000508525,3
136554683,0.997489,-0.0178666,-0.051311,-0.0454323,1.0,-1.87992e-10,9.96352e-10,0.000508525,3
136604720,0.996902,-0.0151606,-0.0629446,-0.0446531,1.0,-1.87992e-10,9.96352e-10,0.000508525,3
136654758,0.996677,-0.0125796,-0.0673657,-0.0440255,1.0,-1.87992e-10,9.96352e-10,0.000508525,3
136704796,0.996485,-0.0109116,-0.0707008,-0.0435899,1.0,-1.87992e-10,9.96352e-10,0.000508525,3
136754834,0.996292,-0.0105251,-0.0737149,-0.0430938,1.0,-1.87992e-10,9.96352e-10,0.000508525,3
136804871,0.996027,-0.0133143,-0.0767862,-0.0430995,1.0,-1.87992e-10,9.96352e-10,0.000508525,3
136854909,0.996181,-0.0129317,-0.075195,-0.0424611,1.0,-1.87992e-10,9.96352e-10,0.000508525,3
136904947,0.996738,-0.0094541,-0.0686804,-0.041308,1.0,-1.87992e-10,9.96352e-10,0.000508525,3
136954988,0.997358,-0.00512831,-0.0602686,-0.0402219,1.0,-1.87992e-10,9.96352e-10,0.000508525,3
137005023,0.998237,-0.000493098,-0.0445727,-0.0391947,1.0,-1.87992e-10,9.96352e-10,0.000508525,3
137055061,0.998896,0.00128029,-0.0262672,-0.038926,1.0,-1.87992e-10,9.96352e-10,0.000508525,3
137105098,0.999186,-0.00315473,-0.012583,-0.0382062,1.0,-1.87992e-10,9.96352e-10,0.000508525,3
137155136,0.999232,-0.0053648,-0.00590049,-0.0383584,1.0,-1.87992e-10,9.96352e-10,0.000508525,3
137205177,0.999263,-0.00166047,-0.00519145,-0.0379848,1.0,-1.87992e-10,9.96352e-10,0.000508525,3
137255214,0.999256,0.00314162,-0.00580569,-0.0379969,1.0,-1.87992e-10,9.96352e-10,0.000508525,3
137305253,0.999267,0.00425667,-0.0051152,-0.037709,1.0,-1.87992e-10,9.96352e-10,0.000508525,3
137355288,0.999247,0.00407463,-0.00295897,-0.0384667,1.0,-1.87992e-10,9.96352e-10,0.000508525,3
137405326,0.999231,0.00212781,-0.00120471,-0.0391308,1.0,-1.87992e-10,9.96352e-10,0.000508525,3
137455363,0.999211,8.66649e-05,-3.53246e-05,-0.0397039,1.0,-1.87992e-10,9.96352e-10,0.000508525,3
137505401,0.999202,0.00110909,0.00290308,-0.0398125,1.0,-1.87992e-10,9.96352e-10,0.000508525,3
137555439,0.999186,0.00162658,0.00549497,-0.0399367,1.0,-1.87992e-10,9.96352e-10,0.000508525,3
137605477,0.9992,0.00109113,0.00365297,-0.0398131,1.0,-1.87992e-10,9.96352e-10,0.000508525,3
137655518,0.999183,-0.00263165,-0.00358939,-0.0401803,1.0,-1.87992e-10,9.96352e-10,0.000508525,3
137705553,0.999015,-0.0104676,-0.0153093,-0.0403197,1.0,-1.87992e-10,9.96352e-10,0.000508525,3
137755590,0.99881,-0.0171305,-0.0205912,-0.0407624,1.0,-1.87992e-10,9.96352e-10,0.000508525,3
137805628,0.998734,-0.022269,-0.0192902,-0.0407697,1.0,-1.87992e-10,9.96352e-10,0.000508525,3
137855666,0.99863,-0.0273085,-0.0178039,-0.0409297,1.0,-1.87992e-10,9.96352e-10,0.000508525,3
137905707,0.998614,-0.0270895,-0.0182788,-0.0412659,1.0,-1.87992e-10,9.96352e-10,0.000508525,3
137950738,0.998582,-0.0267044,-0.0206207,-0.0411806,1.0,-1.87992e-10,9.96352e-10,0.000508525,3
138005780,0.998564,-0.0293819,-0.0171997,-0.0413707,1.0,-1.87992e-10,9.96352e-10,0.000508525,3
138055818,0.998543,-0.0327311,-0.0121175,-0.0411556,1.0,-1.87992e-10,9.96352e-10,0.000508525,3
138105855,0.998502,-0.0335093,-0.0130357,-0.0412477,1.0,-1.87992e-10,9.96352e-10,0.000508525,3
138155904,0.998612,-0.0287704,-0.0156271,-0.0412549,1.0,-1.87992e-10,9.96352e-10,0.000508525,3
138205935,0.998717,-0.0241643,-0.016481,-0.0413456,1.0,-1.87992e-10,9.96352e-10,0.000508525,3
138255969,0.998875,-0.019832,-0.0111434,-0.0416094,1.0,-1.87992e-10,9.96352e-10,0.000508525,3
138301003,0.999006,-0.0137467,-0.00419878,-0.0421842,1.0,-1.87992e-10,9.96352e-10,0.000508525,3
138356048,0.999053,-0.00670101,0.00144692,-0.0429622,1.0,-1.87992e-10,9.96352e-10,0.000508525,3
138406082,0.999027,-0.00338826,0.00272415,-0.0438842,1.0,-1.87992e-10,9.96352e-10,0.000508525,3
138456120,0.998995,-0.00228718,0.00309345,-0.0446669,1.0,-1.87992e-10,9.96352e-10,0.000508525,3
138506158,0.998935,-0.00552842,0.0027381,-0.0457259,1.0,-1.87992e-10,9.96352e-10,0.000508525,3
138556196,0.998868,-0.00744833,-0.00112467,-0.0469701,1.0,-1.87992e-10,9.96352e-10,0.000508525,3
138606234,0.998776,-0.00672764,-0.00965486,-0.0480405,1.0,-1.87992e-10,9.96352e-10,0.000508525,3
138651274,0.998552,-0.00585171,-0.0215031,-0.0489536,1.0,-1.87992e-10,9.96352e-10,0.000508525,3
138706310,0.998175,-0.00434804,-0.0342309,-0.0495623,1.0,-1.87992e-10,9.96352e-10,0.000508525,3
138756348,0.997916,-0.0051711,-0.0404171,-0.0500312,1.0,-1.87992e-10,9.96352e-10,0.000508525,3
138801381,0.997714,-0.00908412,-0.0441385,-0.0503556,1.0,-1.87992e-10,9.96352e-10,0.000508525,3
138856424,0.997537,-0.0119511,-0.0474044,-0.0503061,1.0,-1.87992e-10,9.96352e-10,0.000508525,3
138906461,0.997518,-0.0130533,-0.0468033,-0.050953,1.0,-1.87992e-10,9.96352e-10,0.000508525,3
138956499,0.99766,-0.0121303,-0.0442692,-0.0506757,1.0,-1.87992e-10,9.96352e-10,0.000508525,3
139001533,0.998,-0.0104857,-0.0361934,-0.0507475,1.0,-1.87992e-10,9.96352e-10,0.000508525,3
139056574,0.998499,-0.00587949,-0.0203779,-0.0505022,1.0,-1.87992e-10,9.96352e-10,0.000508525,3
139106612,0.998678,-0.00379533,-0.0106476,-0.0501443,1.0,-1.87992e-10,9.96352e-10,0.000508525,3
139151658,0.998719,-0.00292209,-0.0060508,-0.0501617,1.0,-1.87992e-10,9.96352e-10,0.000508525,3
139206688,0.998705,-0.00348302,-0.00485003,-0.0505172,1.0,-1.87992e-10,9.96352e-10,0.000508525,3
139256726,0.998678,-0.00183877,-0.00680128,-0.0509242,1.0,-1.87992e-10,9.96352e-10,0.000508525,3
139301760,0.998673,0.000280055,-0.00683097,-0.0510357,1.0,-1.87992e-10,9.96352e-10,0.000508525,3
139351798,0.99866,0.00103996,-0.00649927,-0.0513312,1.0,-1.87992e-10,9.96352e-10,0.000508525,3
139406839,0.998653,0.00110546,-0.00788513,-0.0512677,1.0,-1.87992e-10,9.96352e-10,0.000508525,3
139456877,0.998647,-0.00068591,-0.00633086,-0.0516035,1.0,-1.87992e-10,9.96352e-10,0.000508525,3
139501930,0.998623,-0.00399247,-0.0039723,-0.0521501,1.0,-1.87992e-10,9.96352e-10,0.000508525,3
139556953,0.998534,-0.00761444,-0.00246787,-0.0535278,1.0,-1.87992e-10,9.96352e-10,0.000508525,3
139606991,0.998461,-0.0075653,-0.00188788,-0.0549163,1.0,-1.87992e-10,9.96352e-10,0.000508525,3
139652025,0.998396,-0.00927147,-0.00288321,-0.0557707,1.0,-1.87992e-10,9.96352e-10,0.000508525,3
139702063,0.99813,-0.0203703,-0.00860856,-0.0569881,1.0,-1.87992e-10,9.96352e-10,0.000508525,3
139757104,0.997641,-0.0311323,-0.0207826,-0.0575427,1.0,-1.87992e-10,9.96352e-10,0.000508525,3
139807142,0.997221,-0.0372378,-0.02913,-0.0575752,1.0,-1.87992e-10,9.96352e-10,0.000508525,3
139852178,0.997043,-0.0394897,-0.0318244,-0.0577402,1.0,-1.87992e-10,9.96352e-10,0.000508525,3
139907220,0.997205,-0.0381075,-0.0301404,-0.0567599,1.0,-1.87992e-10,9.96352e-10,0.000508525,3
139957257,0.99764,-0.0310109,-0.025343,-0.0557685,1.0,-1.87992e-10,9.96352e-10,0.000508525,3
140002292,0.998047,-0.0241722,-0.0188821,-0.0544191,1.0,-1.87992e-10,9.96352e-10,0.000508525,3
140052328,0.998276,-0.0218105,-0.00996668,-0.0535723,1.0,-1.87992e-10,9.96352e-10,0.000508525,3
140107370,0.998344,-0.0233376,-3.8495e-05,-0.0525738,1.0,-1.87992e-10,9.96352e-10,0.000508525,3
140152409,0.998441,-0.0205087,0.00336466,-0.051805,1.0,-1.87992e-10,9.96352e-10,0.000508525,3
140202441,0.998607,-0.0116297,0.00238187,-0.0514109,1.0,-1.87992e-10,9.96352e-10,0.000508525,3
140252482,0.998673,-0.0077319,0.000728176,-0.0509038,1.0,-1.87992e-10,9.96352e-10,0.000508525,3
140307521,0.998717,-0.00629477,0.00086706,-0.0502422,1.0,-1.87992e-10,9.96352e-10,0.000508525,3
140352555,0.998725,-0.00608986,0.000788764,-0.0501144,1.0,-1.87992e-10,9.96352e-10,0.000508525,3
140402593,0.998741,-0.00363564,-5.87118e-05,-0.0500406,1.0,-1.87992e-10,9.96352e-10,0.000508525,3
140457634,0.998737,-0.00226264,0.00416418,-0.0500159,1.0,-1.87992e-10,9.96352e-10,0.000508525,3
140502668,0.998732,-0.00376175,0.00689536,-0.0497278,1.0,-1.87992e-10,9.96352e-10,0.000508525,3
140552706,0.998742,-0.00361243,0.00699465,-0.0495259,1.0,-1.87992e-10,9.96352e-10,0.000508525,3
140607748,0.998763,-0.00301357,0.0042748,-0.0494544,1.0,-1.87992e-10,9.96352e-10,0.000508525,3
140652783,0.99878,-0.00285425,-0.000103124,-0.0492957,1.0,-1.87992e-10,9.96352e-10,0.000508525,3
140702831,0.998763,-0.00551621,-0.0062877,-0.0490177,1.0,-1.87992e-10,9.96352e-10,0.000508525,3
140752858,0.998675,-0.00739429,-0.0154003,-0.048534,1.0,-1.87992e-10,9.96352e-10,0.000508525,3
140807899,0.998597,-0.0037193,-0.0212487,-0.0483593,1.0,-1.87992e-10,9.96352e-10,0.000508525,3
140852933,0.998525,-0.000695442,-0.0249753,-0.0482057,1.0,-1.87992e-10,9.96352e-10,0.000508525,3
140902971,0.99844,0.00146475,-0.0290643,-0.0476546,1.0,-1.87992e-10,9.96352e-10,0.000508525,3
140958029,0.998465,0.000743027,-0.0293125,-0.046993,1.0,-1.87992e-10,9.96352e-10,0.000508525,3
141003047,0.998482,-0.00412154,-0.0293975,-0.0463955,1.0,-1.87992e-10,9.96352e-10,0.000508525,3
141053085,0.998364,-0.00832227,-0.033671,-0.0454666,1.0,-1.87992e-10,9.96352e-10,0.000508525,3
141103132,0.998073,-0.00920211,-0.0416971,-0.0450236,1.0,-1.87992e-10,9.96352e-10,0.000508525,3
141158168,0.997573,-0.00929652,-0.0527782,-0.0444515,1.0,-1.87992e-10,9.96352e-10,0.000508525,3
141203207,0.997538,-0.0111849,-0.0530326,-0.0444979,1.0,-1.87992e-10,9.96352e-10,0.000508525,3
141253239,0.997945,-0.0136655,-0.0433998,-0.045116,1.0,-1.87992e-10,9.96352e-10,0.000508525,3
141308284,0.998607,-0.00927356,-0.0247861,-0.0456443,1.0,-1.87992e-10,9.96352e-10,0.000508525,3
141353312,0.99886,-0.00580242,-0.0123728,-0.0457303,1.0,-1.87992e-10,9.96352e-10,0.000508525,3
141403350,0.998907,-0.00506333,-0.00744623,-0.0458612,1.0,-1.87992e-10,9.96352e-10,0.000508525,3
141453387,0.998935,-0.00321672,-0.00653915,-0.0455682,1.0,-1.87992e-10,9.96352e-10,0.000508525,3
141503425,0.998906,-0.00380318,-0.00468674,-0.0463648,1.0,-1.87992e-10,9.96352e-10,0.000508525,3
141553463,0.998862,-0.0039178,-0.00178857,-0.0474949,1.0,-1.87992e-10,9.96352e-10,0.000508525,3
141603508,0.998816,-0.00453491,0.00154995,-0.0484173,1.0,-1.87992e-10,9.96352e-10,0.000508525,3
141658543,0.998756,-0.00147857,-0.000937204,-0.0498405,1.0,-1.87992e-10,9.96352e-10,0.000508525,3
141703577,0.998708,-0.00152844,-0.00244582,-0.0507279,1.0,-1.87992e-10,9.96352e-10,0.000508525,3
141753633,0.998678,-0.00896791,-0.00261137,-0.0505493,1.0,-1.87992e-10,9.96352e-10,0.000508525,3
141803653,0.998605,-0.0122721,-0.00886311,-0.0505821,1.0,-1.87992e-10,9.96352e-10,0.000508525,3
141853690,0.998452,-0.00981192,-0.0222799,-0.0500118,1.0,-1.87992e-10,9.96352e-10,0.000508525,3
141903728,0.998255,-0.00663769,-0.0325748,-0.0488019,1.0,-1.87992e-10,9.96352e-10,0.000508525,3
141953766,0.998156,-0.00801339,-0.0365893,-0.0477745,1.0,-1.87992e-10,9.96352e-10,0.000508525,3
142003804,0.998096,-0.0140524,-0.0367976,-0.0474675,1.0,-1.87992e-10,9.96352e-10,0.000508525,3
142053842,0.998068,-0.0200199,-0.0351982,-0.0471203,1.0,-1.87992e-10,9.96352e-10,0.000508525,3
142103879,0.998136,-0.0229947,-0.0316905,-0.0468065,1.0,-1.87992e-10,9.96352e-10,0.000508525,3
142153917,0.99826,-0.0246775,-0.0261999,-0.0467093,1.0,-1.87992e-10,9.96352e-10,0.000508525,3
142203955,0.998381,-0.024716,-0.0214716,-0.046518,1.0,-1.87992e-10,9.96352e-10,0.000508525,3
142253996,0.998585,-0.0209111,-0.0156079,-0.0463402,1.0,-1.87992e-10,9.96352e-10,0.000508525,3
142304031,0.998808,-0.0126967,-0.00928809,-0.0461992,1.0,-1.87992e-10,9.96352e-10,0.000508525,3
142354069,0.99892,-0.00531656,-0.00345068,-0.046039,1.0,-1.87992e-10,9.96352e-10,0.000508525,3
142404107,0.998928,-0.00488063,-0.00104043,-0.0460286,1.0,-1.87992e-10,9.96352e-10,0.000508525,3
142454146,0.998936,-0.00540079,-0.00129858,-0.0457882,1.0,-1.87992e-10,9.96352e-10,0.000508525,3
142504182,0.998938,-0.00435096,0.00154428,-0.0458472,1.0,-1.87992e-10,9.96352e-10,0.000508525,3
142554222,0.998932,-0.0043521,0.00453127,-0.0457678,1.0,-1.87992e-10,9.96352e-10,0.000508525,3
142604260,0.99898,-0.00167075,0.00284943,-0.0450385,1.0,-1.87992e-10,9.96352e-10,0.000508525,3
142654296,0.999014,-0.000918389,-0.000179379,-0.0443937,1.0,-1.87992e-10,9.96352e-10,0.000508525,3
142704334,0.999027,0.00175357,-0.00166484,-0.0440293,1.0,-1.87992e-10,9.96352e-10,0.000508525,3
142754372,0.999012,0.00509717,-0.00137243,-0.0441254,1.0,-1.87992e-10,9.96352e-10,0.000508525,3
142804410,0.999024,0.00301796,-0.000338556,-0.0440681,1.0,-1.87992e-10,9.96352e-10,0.000508525,3
142854447,0.999028,0.00166256,-0.00239479,-0.0439919,1.0,-1.87992e-10,9.96352e-10,0.000508525,3
142904485,0.998945,0.000602478,-0.0103385,-0.0447373,1.0,-1.87992e-10,9.96352e-10,0.000508525,3
142954529,0.998615,0.000678601,-0.0275882,-0.0447928,1.0,-1.87992e-10,9.96352e-10,0.000508525,3
143004571,0.998,-9.25247e-06,-0.0445526,-0.0448485,1.0,-1.87992e-10,9.96352e-10,0.000508525,3
143054600,0.997437,-0.00121998,-0.0556168,-0.045004,1.0,-1.87992e-10,9.96352e-10,0.000508525,3
143104637,0.997325,-0.00511073,-0.0572917,-0.0451147,1.0,-1.87992e-10,9.96352e-10,0.000508525,3
143154675,0.997709,-0.00733868,-0.049792,-0.0452116,1.0,-1.87992e-10,9.96352e-10,0.000508525,3
143204712,0.998375,-0.00304781,-0.0343285,-0.0453755,1.0,-1.87992e-10,9.96352e-10,0.000508525,3
143254750,0.998751,-0.00595797,-0.0181455,-0.0461727,1.0,-1.87992e-10,9.96352e-10,0.000508525,3
143304788,0.998726,-0.0167891,-0.00644768,-0.0471571,1.0,-1.87992e-10,9.96352e-10,0.000508525,3
143354826,0.998584,-0.0224756,-0.00277053,-0.048143,1.0,-1.87992e-10,9.96352e-10,0.000508525,3
143404868,0.998587,-0.0201433,0.000233544,-0.0491668,1.0,-1.87992e-10,9.96352e-10,0.000508525,3
143454917,0.9986,-0.0169967,0.000633275,-0.0500946,1.0,-1.87992e-10,9.96352e-10,0.000508525,3
143504939,0.998621,-0.0133775,0.00257725,-0.0506947,1.0,-1.87992e-10,9.96352e-10,0.000508525,3
143554981,0.998673,-0.0104695,-0.00197479,-0.0503927,1.0,-1.87992e-10,9.96352e-10,0.000508525,3
143605015,0.998728,-0.00574648,-0.00334416,-0.0499782,1.0,-1.87992e-10,9.96352e-10,0.000508525,3
143655055,0.998721,-0.00901587,-0.00232084,-0.0496958,1.0,-1.87992e-10,9.96352e-10,0.000508525,3
143705091,0.998453,-0.0263028,0.00171231,-0.0489547,1.0,-1.87992e-10,9.96352e-10,0.000508525,3
143755130,0.997837,-0.0449384,0.00317537,-0.0478753,1.0,-1.87992e-10,9.96352e-10,0.000508525,3
143805166,0.997411,-0.0543574,0.00336559,-0.0469571,1.0,-1.87992e-10,9.96352e-10,0.000508525,3
143855211,0.997185,-0.059368,0.000977374,-0.0457924,1.0,-1.87992e-10,9.96352e-10,0.000508525,3
143905244,0.997518,-0.053853,-0.000131791,-0.0453685,1.0,-1.87992e-10,9.96352e-10,0.000508525,3
143955281,0.997843,-0.0483023,-0.00171078,-0.0444306,1.0,-1.87992e-10,9.96352e-10,0.000508525,3
144005318,0.998183,-0.0412469,-0.000954506,-0.0439078,1.0,-1.87992e-10,9.96352e-10,0.000508525,3
144055355,0.998429,-0.0347279,0.00203526,-0.0439218,1.0,-1.87992e-10,9.96352e-10,0.000508525,3
144105401,0.998804,-0.0224838,0.00122882,-0.0433993,1.0,-1.87992e-10,9.96352e-10,0.000508525,3
144155431,0.998978,-0.0119339,0.00180396,-0.0435565,1.0,-1.87992e-10,9.96352e-10,0.000508525,3
144205471,0.999027,-0.00599923,0.00157556,-0.0436553,1.0,-1.87992e-10,9.96352e-10,0.000508525,3
144255507,0.999064,-0.0028365,0.00254966,-0.0430788,1.0,-1.87992e-10,9.96352e-10,0.000508525,3
144305545,0.999079,-0.00347947,0.00444967,-0.042549,1.0,-1.87992e-10,9.96352e-10,0.000508525,3
144355585,0.999137,-0.000581618,0.00211884,-0.0414856,1.0,-1.87992e-10,9.96352e-10,0.000508525,3
144405620,0.999131,0.00505048,0.000215812,-0.0413679,1.0,-1.87992e-10,9.96352e-10,0.000508525,3
144455660,0.999049,0.00578175,-0.0117738,-0.0415759,1.0,-1.87992e-10,9.96352e-10,0.000508525,3
144505696,0.998701,0.000921958,-0.0288915,-0.0419541,1.0,-1.87992e-10,9.96352e-10,0.000508525,3
144555734,0.998104,-0.00421788,-0.0447893,-0.0420123,1.0,-1.87992e-10,9.96352e-10,0.000508525,3
144600768,0.997612,-0.00381735,-0.0549504,-0.0416687,1.0,-1.87992e-10,9.96352e-10,0.000508525,3
144655811,0.99733,-0.00220694,-0.0602835,-0.0411548,1.0,-1.87992e-10,9.96352e-10,0.000508525,3
144705847,0.997799,3.12068e-05,-0.0526249,-0.0403559,1.0,-1.87992e-10,9.96352e-10,0.000508525,3
144755885,0.998627,0.00467385,-0.0338825,-0.0396727,1.0,-1.87992e-10,9.96352e-10,0.000508525,3
144805927,0.999148,0.00241398,-0.0125618,-0.0392391,1.0,-1.87992e-10,9.96352e-10,0.000508525,3
144855961,0.99922,-0.00623851,-0.00353223,-0.0388348,1.0,-1.87992e-10,9.96352e-10,0.000508525,3
144906002,0.99922,-0.00803527,-0.00459454,-0.0384019,1.0,-1.87992e-10,9.96352e-10,0.000508525,3
144951033,0.999236,-0.00367025,-0.00840176,-0.0379821,1.0,-1.87992e-10,9.96352e-10,0.000508525,3
145006075,0.999214,0.00807293,-0.0097623,-0.0375638,1.0,-1.87992e-10,9.96352e-10,0.000508525,3
145056114,0.999164,0.0127526,-0.006581,-0.0382841,1.0,-1.87992e-10,9.96352e-10,0.000508525,3
145106150,0.999162,0.0110461,-0.00544809,-0.0390358,1.0,-1.87992e-10,9.96352e-10,0.000508525,3
145156188,0.999188,0.006599,-0.00213615,-0.0396869,1.0,-1.87992e-10,9.96352e-10,0.000508525,3
145206226,0.99918,0.00187224,-2.05839e-05,-0.0404503,1.0,-1.87992e-10,9.96352e-10,0.000508525,3
145256282,0.999156,0.00343568,-0.00244006,-0.0408491,1.0,-1.87992e-10,9.96352e-10,0.000508525,3
145301298,0.999091,0.00292289,-0.00881403,-0.0415997,1.0,-1.87992e-10,9.96352e-10,0.000508525,3
145356340,0.998787,-0.00206614,-0.0245998,-0.0426094,1.0,-1.87992e-10,9.96352e-10,0.000508525,3
145406377,0.998202,-0.00242477,-0.0415224,-0.0431546,1.0,-1.87992e-10,9.96352e-10,0.000508525,3
145451411,0.997652,0.000426121,-0.0526617,-0.0437836,1.0,-1.87992e-10,9.96352e-10,0.000508525,3
145506453,0.997614,0.0020198,-0.0534516,-0.0436419,1.0,-1.87992e-10,9.96352e-10,0.000508525,3
145556491,0.998468,-0.00121732,-0.0342256,-0.0434557,1.0,-1.87992e-10,9.96352e-10,0.000508525,3
145606534,0.998982,-0.0089476,-0.00825591,-0.0434427,1.0,-1.87992e-10,9.96352e-10,0.000508525,3
145651563,0.998957,-0.0136473,0.0046227,-0.0433352,1.0,-1.87992e-10,9.96352e-10,0.000508525,3
145706604,0.998994,-0.011869,0.00545674,-0.0428888,1.0,-1.87992e-10,9.96352e-10,0.000508525,3
145756643,0.999111,-0.00583883,-0.00196867,-0.0416971,1.0,-1.87992e-10,9.96352e-10,0.000508525,3
145801676,0.999143,9.30459e-05,-0.00453328,-0.0411327,1.0,-1.87992e-10,9.96352e-10,0.000508525,3
145856718,0.999162,0.00260993,-0.00305096,-0.0407347,1.0,-1.87992e-10,9.96352e-10,0.000508525,3
145906757,0.999158,0.00431748,-0.000505481,-0.0407973,1.0,-1.87992e-10,9.96352e-10,0.000508525,3
145951790,0.999147,0.000926438,0.00232923,-0.0412098,1.0,-1.87992e-10,9.96352e-10,0.000508525,3
146001831,0.999068,-0.00973558,0.00269048,-0.0419612,1.0,-1.87992e-10,9.96352e-10,0.000508525,3
146056869,0.998711,-0.0275881,0.0031543,-0.0424987,1.0,-1.87992e-10,9.96352e-10,0.000508525,3
146106907,0.998226,-0.0409833,0.00467814,-0.0429467,1.0,-1.87992e-10,9.96352e-10,0.000508525,3
146151941,0.99811,-0.0439271,0.00217533,-0.042925,1.0,-1.87992e-10,9.96352e-10,0.000508525,3
146206983,0.998241,-0.041081,-0.00245863,-0.0426731,1.0,-1.87992e-10,9.96352e-10,0.000508525,3
146257021,0.998553,-0.0324241,-0.00278161,-0.0428199,1.0,-1.87992e-10,9.96352e-10,0.000508525,3
146302055,0.998864,-0.020421,-0.00212771,-0.0430118,1.0,-1.87992e-10,9.96352e-10,0.000508525,3
146352093,0.999037,-0.00802887,0.000197455,-0.0431231,1.0,-1.87992e-10,9.96352e-10,0.000508525,3
146407134,0.999068,-0.00238232,6.88053e-05,-0.0431076,1.0,-1.87992e-10,9.96352e-10,0.000508525,3
146457172,0.999092,0.000773096,7.96562e-05,-0.0426108,1.0,-1.87992e-10,9.96352e-10,0.000508525,3
146502206,0.99911,0.000826472,0.00191699,-0.0421264,1.0,-1.87992e-10,9.96352e-10,0.000508525,3
146557253,0.999137,-0.00169532,0.00173013,-0.0414778,1.0,-1.87992e-10,9.96352e-10,0.000508525,3
146607293,0.999141,-0.00184347,0.00253198,-0.041318,1.0,-1.87992e-10,9.96352e-10,0.000508525,3
146652323,0.99914,-0.00192829,0.00315854,-0.0412933,1.0,-1.87992e-10,9.96352e-10,0.000508525,3
146702358,0.999135,0.000369195,0.00372639,-0.0414215,1.0,-1.87992e-10,9.96352e-10,0.000508525,3
146757399,0.999115,0.00472253,0.0028224,-0.041695,1.0,-1.87992e-10,9.96352e-10,0.000508525,3
146802433,0.999089,0.00686155,0.00314132,-0.0420072,1.0,-1.87992e-10,9.96352e-10,0.000508525,3
146852471,0.999121,0.00412562,0.000829358,-0.0417096,1.0,-1.87992e-10,9.96352e-10,0.000508525,3
146907513,0.999122,-0.000343499,-0.00318761,-0.0417641,1.0,-1.87992e-10,9.96352e-10,0.000508525,3
146957554,0.999091,-0.00193308,-0.00578288,-0.0421913,1.0,-1.87992e-10,9.96352e-10,0.000508525,3
147002585,0.998911,-0.00151872,-0.0189108,-0.0426342,1.0,-1.87992e-10,9.96352e-10,0.000508525,3
