timestamp,voltage_v,voltage_filtered_v,current_a,current_filtered_a,average_current_a,discharged_mah,remaining,scale,temperature,cell_count,voltage_cell_v[0],voltage_cell_v[1],voltage_cell_v[2],voltage_cell_v[3],voltage_cell_v[4],voltage_cell_v[5],voltage_cell_v[6],voltage_cell_v[7],voltage_cell_v[8],voltage_cell_v[9],max_cell_voltage_delta,capacity,cycle_count,run_time_to_empty,average_time_to_empty,serial_number,state_of_health,max_error,connected,source,priority,id,is_powering_off,warning
629809905,11.2285,11.4903,3.2523,0.213938,0.0,3711.41,1.0,1.0,nan,0,0.0,0.0,0.0,0.0,0.0,0.0,0.0,0.0,0.0,0.0,0.0,0,0,0,0,0,0,0,1,0,0,1,0,0
629819831,11.3889,11.4893,5.2447,0.312581,0.0,3711.42,1.0,1.0,nan,0,0.0,0.0,0.0,0.0,0.0,0.0,0.0,0.0,0.0,0.0,0.0,0,0,0,0,0,0,0,1,0,0,1,0,0
630109773,11.2431,11.4569,2.5198,1.91322,0.0,3711.75,1.0,1.0,nan,0,0.0,0.0,0.0,0.0,0.0,0.0,0.0,0.0,0.0,0.0,0.0,0,0,0,0,0,0,0,1,0,0,1,0,0
630410204,11.2285,11.4339,3.3402,2.36122,0.0,3711.99,1.0,1.0,nan,0,0.0,0.0,0.0,0.0,0.0,0.0,0.0,0.0,0.0,0.0,0.0,0,0,0,0,0,0,0,1,0,0,1,0,0
630709773,11.2869,11.4168,3.1937,2.75525,0.0,3712.26,1.0,1.0,nan,0,0.0,0.0,0.0,0.0,0.0,0.0,0.0,0.0,0.0,0.0,0.0,0,0,0,0,0,0,0,1,0,0,1,0,0
631009774,11.214,11.4001,3.0765,2.93083,0.0,3712.52,1.0,1.0,nan,0,0.0,0.0,0.0,0.0,0.0,0.0,0.0,0.0,0.0,0.0,0.0,0,0,0,0,0,0,0,1,0,0,1,0,0
631309773,10.8348,11.3785,12.0716,3.53754,0.0,3712.86,1.0,1.0,nan,0,0.0,0.0,0.0,0.0,0.0,0.0,0.0,0.0,0.0,0.0,0.0,0,0,0,0,0,0,0,1,0,0,1,0,0
631609920,11.0681,11.276,12.8334,8.84317,0.0,3714.16,1.0,1.0,nan,0,0.0,0.0,0.0,0.0,0.0,0.0,0.0,0.0,0.0,0.0,0.0,0,0,0,0,0,0,0,1,0,0,1,0,0
631909773,10.9223,11.2296,14.7965,10.1126,0.0,3715.13,1.0,1.0,nan,0,0.0,0.0,0.0,0.0,0.0,0.0,0.0,0.0,0.0,0.0,0.0,0,0,0,0,0,0,0,1,0,0,1,0,0
632209774,11.0681,11.1681,15.6169,12.941,0.0,3716.5,1.0,1.0,nan,0,0.0,0.0,0.0,0.0,0.0,0.0,0.0,0.0,0.0,0.0,0.0,0,0,0,0,0,0,0,1,0,0,1,0,0
632509777,10.9077,11.1173,15.2946,14.1069,0.0,3717.8,1.0,1.0,nan,0,0.0,0.0,0.0,0.0,0.0,0.0,0.0,0.0,0.0,0.0,0.0,0,0,0,0,0,0,0,1,0,0,1,0,0
632809781,10.7182,11.0563,20.7444,16.2895,0.0,3719.36,1.0,1.0,nan,0,0.0,0.0,0.0,0.0,0.0,0.0,0.0,0.0,0.0,0.0,0.0,0,0,0,0,0,0,0,1,0,0,1,0,0
633109866,10.6744,10.9924,22.9126,18.8028,0.0,3721.18,1.0,1.0,nan,0,0.0,0.0,0.0,0.0,0.0,0.0,0.0,0.0,0.0,0.0,0.0,0,0,0,0,0,0,0,1,0,0,1,0,0
633409774,10.8202,10.9533,19.1622,20.2182,0.0,3723.01,1.0,1.0,nan,0,0.0,0.0,0.0,0.0,0.0,0.0,0.0,0.0,0.0,0.0,0.0,0,0,0,0,0,0,0,1,0,0,1,0,0
633709773,10.7765,10.922,20.8616,20.4117,0.0,3724.73,1.0,1.0,nan,0,0.0,0.0,0.0,0.0,0.0,0.0,0.0,0.0,0.0,0.0,0.0,0,0,0,0,0,0,0,1,0,0,1,0,0
634010524,10.689,10.8997,22.0336,20.725,0.0,3726.49,1.0,1.0,nan,0,0.0,0.0,0.0,0.0,0.0,0.0,0.0,0.0,0.0,0.0,0.0,0,0,0,0,0,0,0,1,0,0,1,0,0
634309773,10.6598,10.8693,23.9674,21.819,0.0,3728.4,1.0,1.0,nan,0,0.0,0.0,0.0,0.0,0.0,0.0,0.0,0.0,0.0,0.0,0.0,0,0,0,0,0,0,0,1,0,0,1,0,0
634609869,10.6307,10.8391,24.0553,22.7129,0.0,3730.39,1.0,1.0,nan,0,0.0,0.0,0.0,0.0,0.0,0.0,0.0,0.0,0.0,0.0,0.0,0,0,0,0,0,0,0,1,0,0,1,0,0
634910384,10.7327,10.8151,22.2094,22.9326,0.0,3732.33,1.0,1.0,nan,0,0.0,0.0,0.0,0.0,0.0,0.0,0.0,0.0,0.0,0.0,0.0,0,0,0,0,0,0,0,1,0,0,1,0,0
635209773,10.689,10.7987,24.1139,22.9395,0.0,3734.24,1.0,1.0,nan,0,0.0,0.0,0.0,0.0,0.0,0.0,0.0,0.0,0.0,0.0,0.0,0,0,0,0,0,0,0,1,0,0,1,0,0
635510013,10.5286,10.7792,26.2235,23.5564,0.0,3736.25,1.0,1.0,nan,0,0.0,0.0,0.0,0.0,0.0,0.0,0.0,0.0,0.0,0.0,0.0,0,0,0,0,0,0,0,1,0,0,1,0,0
635809782,10.5723,10.7515,27.835,24.9142,0.0,3738.46,1.0,1.0,nan,0,0.0,0.0,0.0,0.0,0.0,0.0,0.0,0.0,0.0,0.0,0.0,0,0,0,0,0,0,0,1,0,0,1,0,0
636109773,10.4557,10.7137,27.6299,26.1324,0.0,3740.76,1.0,1.0,nan,0,0.0,0.0,0.0,0.0,0.0,0.0,0.0,0.0,0.0,0.0,0.0,0,0,0,0,0,0,0,1,0,0,1,0,0
636409824,10.4994,10.6832,27.3662,26.9335,0.0,3743.09,1.0,1.0,nan,0,0.0,0.0,0.0,0.0,0.0,0.0,0.0,0.0,0.0,0.0,0.0,0,0,0,0,0,0,0,1,0,0,1,0,0
636709773,10.4557,10.6606,27.7178,27.332,0.0,3745.4,1.0,1.0,nan,0,0.0,0.0,0.0,0.0,0.0,0.0,0.0,0.0,0.0,0.0,0.0,0,0,0,0,0,0,0,1,0,0,1,0,0
637010505,10.4557,10.6292,30.1204,28.2288,0.0,3747.85,1.0,1.0,nan,0,0.0,0.0,0.0,0.0,0.0,0.0,0.0,0.0,0.0,0.0,0.0,0,0,0,0,0,0,0,1,0,0,1,0,0
637309812,10.4265,10.5979,29.5637,28.9747,0.0,3750.33,1.0,1.0,nan,0,0.0,0.0,0.0,0.0,0.0,0.0,0.0,0.0,0.0,0.0,0.0,0,0,0,0,0,0,0,1,0,0,1,0,0
637609773,10.6307,10.5894,29.4465,29.314,0.0,3752.81,1.0,1.0,nan,0,0.0,0.0,0.0,0.0,0.0,0.0,0.0,0.0,0.0,0.0,0.0,0,0,0,0,0,0,0,1,0,0,1,0,0
637909796,10.3973,10.5833,29.6809,29.2765,0.0,3755.25,1.0,1.0,nan,0,0.0,0.0,0.0,0.0,0.0,0.0,0.0,0.0,0.0,0.0,0.0,0,0,0,0,0,0,0,1,0,0,1,0,0
638209925,10.4411,10.5718,28.3038,29.2062,0.0,3757.68,1.0,1.0,nan,0,0.0,0.0,0.0,0.0,0.0,0.0,0.0,0.0,0.0,0.0,0.0,0,0,0,0,0,0,0,1,0,0,1,0,0
638509825,10.514,10.5843,26.3407,28.3222,0.0,3759.95,1.0,1.0,nan,0,0.0,0.0,0.0,0.0,0.0,0.0,0.0,0.0,0.0,0.0,0.0,0,0,0,0,0,0,0,1,0,0,1,0,0
638809773,10.5723,10.5947,25.0222,27.2841,0.0,3762.13,1.0,1.0,nan,0,0.0,0.0,0.0,0.0,0.0,0.0,0.0,0.0,0.0,0.0,0.0,0,0,0,0,0,0,0,1,0,0,1,0,0
639109774,10.5286,10.6124,25.2273,26.3832,0.0,3764.24,1.0,1.0,nan,0,0.0,0.0,0.0,0.0,0.0,0.0,0.0,0.0,0.0,0.0,0.0,0,0,0,0,0,0,0,1,0,0,1,0,0
639409773,10.514,10.6161,25.9891,26.2577,0.0,3766.41,1.0,1.0,nan,0,0.0,0.0,0.0,0.0,0.0,0.0,0.0,0.0,0.0,0.0,0.0,0,0,0,0,0,0,0,1,0,0,1,0,0
639709947,10.5432,10.6279,26.077,25.8878,0.0,3768.53,1.0,1.0,nan,0,0.0,0.0,0.0,0.0,0.0,0.0,0.0,0.0,0.0,0.0,0.0,0,0,0,0,0,0,0,1,0,0,1,0,0
640009773,10.7036,10.6371,25.9598,25.8826,0.0,3770.68,1.0,1.0,nan,0,0.0,0.0,0.0,0.0,0.0,0.0,0.0,0.0,0.0,0.0,0.0,0,0,0,0,0,0,0,1,0,0,1,0,0
640309773,10.4848,10.639,25.4324,25.7476,0.0,3772.82,1.0,1.0,nan,0,0.0,0.0,0.0,0.0,0.0,0.0,0.0,0.0,0.0,0.0,0.0,0,0,0,0,0,0,0,1,0,0,1,0,0
640610176,10.5869,10.6384,25.2273,25.8204,0.0,3774.98,1.0,1.0,nan,0,0.0,0.0,0.0,0.0,0.0,0.0,0.0,0.0,0.0,0.0,0.0,0,0,0,0,0,0,0,1,0,0,1,0,0
640909772,10.5577,10.6345,25.1394,25.6908,0.0,3777.1,1.0,1.0,nan,0,0.0,0.0,0.0,0.0,0.0,0.0,0.0,0.0,0.0,0.0,0.0,0,0,0,0,0,0,0,1,0,0,1,0,0
641209773,10.5286,10.6434,25.2273,25.4488,0.0,3779.2,1.0,1.0,nan,0,0.0,0.0,0.0,0.0,0.0,0.0,0.0,0.0,0.0,0.0,0.0,0,0,0,0,0,0,0,1,0,0,1,0,0
641509831,10.2661,10.6049,32.3765,27.319,0.0,3781.62,1.0,1.0,nan,0,0.0,0.0,0.0,0.0,0.0,0.0,0.0,0.0,0.0,0.0,0.0,0,0,0,0,0,0,0,1,0,0,1,0,0
641809772,10.3536,10.5698,31.4096,29.2509,0.0,3784.27,1.0,1.0,nan,0,0.0,0.0,0.0,0.0,0.0,0.0,0.0,0.0,0.0,0.0,0.0,0,0,0,0,0,0,0,1,0,0,1,0,0
642109996,10.3536,10.5405,30.9994,30.0652,0.0,3786.86,1.0,1.0,nan,0,0.0,0.0,0.0,0.0,0.0,0.0,0.0,0.0,0.0,0.0,0.0,0,0,0,0,0,0,0,1,0,0,1,0,0
642409773,10.339,10.5129,33.3434,30.7231,0.0,3789.48,1.0,1.0,nan,0,0.0,0.0,0.0,0.0,0.0,0.0,0.0,0.0,0.0,0.0,0.0,0,0,0,0,0,0,0,1,0,0,1,0,0
642709792,10.3536,10.4949,31.2631,31.0341,0.0,3792.1,1.0,1.0,nan,0,0.0,0.0,0.0,0.0,0.0,0.0,0.0,0.0,0.0,0.0,0.0,0,0,0,0,0,0,0,1,0,0,1,0,0
643009924,10.2661,10.4879,31.7612,31.1781,0.0,3794.71,1.0,1.0,nan,0,0.0,0.0,0.0,0.0,0.0,0.0,0.0,0.0,0.0,0.0,0.0,0,0,0,0,0,0,0,1,0,0,1,0,0
643309773,10.4848,10.4847,31.6733,31.3564,0.0,3797.34,1.0,1.0,nan,0,0.0,0.0,0.0,0.0,0.0,0.0,0.0,0.0,0.0,0.0,0.0,0,0,0,0,0,0,0,1,0,0,1,0,0
643610234,10.4411,10.4851,28.3917,30.9503,0.0,3799.89,1.0,1.0,nan,0,0.0,0.0,0.0,0.0,0.0,0.0,0.0,0.0,0.0,0.0,0.0,0,0,0,0,0,0,0,1,0,0,1,0,0
643909773,10.7036,10.5177,25.2859,28.5821,0.0,3802.04,1.0,1.0,nan,0,0.0,0.0,0.0,0.0,0.0,0.0,0.0,0.0,0.0,0.0,0.0,0,0,0,0,0,0,0,1,0,0,1,0,0
644209773,10.4702,10.5335,26.2528,27.7049,0.0,3804.25,1.0,1.0,nan,0,0.0,0.0,0.0,0.0,0.0,0.0,0.0,0.0,0.0,0.0,0.0,0,0,0,0,0,0,0,1,0,0,1,0,0
644509773,10.6744,10.5473,26.1649,27.1504,0.0,3806.46,1.0,1.0,nan,0,0.0,0.0,0.0,0.0,0.0,0.0,0.0,0.0,0.0,0.0,0.0,0,0,0,0,0,0,0,1,0,0,1,0,0
644810010,10.4994,10.5468,26.2821,27.008,0.0,3808.69,1.0,1.0,nan,0,0.0,0.0,0.0,0.0,0.0,0.0,0.0,0.0,0.0,0.0,0.0,0,0,0,0,0,0,0,1,0,0,1,0,0
645109773,10.4702,10.5546,26.8974,26.8226,0.0,3810.9,1.0,1.0,nan,0,0.0,0.0,0.0,0.0,0.0,0.0,0.0,0.0,0.0,0.0,0.0,0,0,0,0,0,0,0,1,0,0,1,0,0
645409773,10.7182,10.5674,25.9305,26.6111,0.0,3813.1,1.0,1.0,nan,0,0.0,0.0,0.0,0.0,0.0,0.0,0.0,0.0,0.0,0.0,0.0,0,0,0,0,0,0,0,1,0,0,1,0,0
645710282,10.4557,10.5753,27.1318,26.5878,0.0,3815.32,1.0,1.0,nan,0,0.0,0.0,0.0,0.0,0.0,0.0,0.0,0.0,0.0,0.0,0.0,0,0,0,0,0,0,0,1,0,0,1,0,0
646009861,10.7036,10.587,26.37,26.5564,0.0,3817.52,1.0,1.0,nan,0,0.0,0.0,0.0,0.0,0.0,0.0,0.0,0.0,0.0,0.0,0.0,0,0,0,0,0,0,0,1,0,0,1,0,0
646309773,10.4557,10.5912,25.7547,26.4476,0.0,3819.72,1.0,1.0,nan,0,0.0,0.0,0.0,0.0,0.0,0.0,0.0,0.0,0.0,0.0,0.0,0,0,0,0,0,0,0,1,0,0,1,0,0
646609775,10.4557,10.5838,26.6337,26.3486,0.0,3821.9,1.0,1.0,nan,0,0.0,0.0,0.0,0.0,0.0,0.0,0.0,0.0,0.0,0.0,0.0,0,0,0,0,0,0,0,1,0,0,1,0,0
646909773,10.4702,10.5875,25.784,26.3863,0.0,3824.1,1.0,1.0,nan,0,0.0,0.0,0.0,0.0,0.0,0.0,0.0,0.0,0.0,0.0,0.0,0,0,0,0,0,0,0,1,0,0,1,0,0
647209973,10.4848,10.5821,25.9305,26.3631,0.0,3826.3,1.0,1.0,nan,0,0.0,0.0,0.0,0.0,0.0,0.0,0.0,0.0,0.0,0.0,0.0,0,0,0,0,0,0,0,1,0,0,1,0,0
647509780,10.3828,10.5849,26.3993,26.3317,0.0,3828.49,1.0,1.0,nan,0,0.0,0.0,0.0,0.0,0.0,0.0,0.0,0.0,0.0,0.0,0.0,0,0,0,0,0,0,0,1,0,0,1,0,0
647809773,10.6744,10.5863,26.1942,26.3557,0.0,3830.69,1.0,1.0,nan,0,0.0,0.0,0.0,0.0,0.0,0.0,0.0,0.0,0.0,0.0,0.0,0,0,0,0,0,0,0,1,0,0,1,0,0
648109774,10.4265,10.5776,26.5751,26.3684,0.0,3832.88,1.0,1.0,nan,0,0.0,0.0,0.0,0.0,0.0,0.0,0.0,0.0,0.0,0.0,0.0,0,0,0,0,0,0,0,1,0,0,1,0,0
648409775,10.6744,10.5803,25.8426,26.278,0.0,3835.06,1.0,1.0,nan,0,0.0,0.0,0.0,0.0,0.0,0.0,0.0,0.0,0.0,0.0,0.0,0,0,0,0,0,0,0,1,0,0,1,0,0
648709816,10.6598,10.5769,25.7547,26.3907,0.0,3837.28,1.0,1.0,nan,0,0.0,0.0,0.0,0.0,0.0,0.0,0.0,0.0,0.0,0.0,0.0,0,0,0,0,0,0,0,1,0,0,1,0,0
649009831,10.4411,10.5886,26.1942,26.3836,0.0,3839.47,1.0,1.0,nan,0,0.0,0.0,0.0,0.0,0.0,0.0,0.0,0.0,0.0,0.0,0.0,0,0,0,0,0,0,0,1,0,0,1,0,0
649309773,10.4119,10.5768,27.4834,26.6266,0.0,3841.71,1.0,1.0,nan,0,0.0,0.0,0.0,0.0,0.0,0.0,0.0,0.0,0.0,0.0,0.0,0,0,0,0,0,0,0,1,0,0,1,0,0
649609773,10.4994,10.5827,26.8095,26.6333,0.0,3843.93,1.0,1.0,nan,0,0.0,0.0,0.0,0.0,0.0,0.0,0.0,0.0,0.0,0.0,0.0,0,0,0,0,0,0,0,1,0,0,1,0,0
649909804,10.4265,10.5743,26.4579,26.7099,0.0,3846.16,1.0,1.0,nan,0,0.0,0.0,0.0,0.0,0.0,0.0,0.0,0.0,0.0,0.0,0.0,0,0,0,0,0,0,0,1,0,0,1,0,0
650209799,10.3536,10.5658,28.8019,27.4287,0.0,3848.5,1.0,1.0,nan,0,0.0,0.0,0.0,0.0,0.0,0.0,0.0,0.0,0.0,0.0,0.0,0,0,0,0,0,0,0,1,0,0,1,0,0
650509829,10.3244,10.5462,30.179,28.2524,0.0,3850.94,1.0,1.0,nan,0,0.0,0.0,0.0,0.0,0.0,0.0,0.0,0.0,0.0,0.0,0.0,0,0,0,0,0,0,0,1,0,0,1,0,0
650809773,10.3682,10.5306,29.7102,28.7567,0.0,3853.39,1.0,1.0,nan,0,0.0,0.0,0.0,0.0,0.0,0.0,0.0,0.0,0.0,0.0,0.0,0,0,0,0,0,0,0,1,0,0,1,0,0
651109773,10.5577,10.5266,29.2121,29.1541,0.0,3855.86,1.0,1.0,nan,0,0.0,0.0,0.0,0.0,0.0,0.0,0.0,0.0,0.0,0.0,0.0,0,0,0,0,0,0,0,1,0,0,1,0,0
651409773,10.4994,10.5113,30.6771,29.4526,0.0,3858.34,1.0,1.0,nan,0,0.0,0.0,0.0,0.0,0.0,0.0,0.0,0.0,0.0,0.0,0.0,0,0,0,0,0,0,0,1,0,0,1,0,0
651709773,10.3244,10.5079,29.593,29.5981,0.0,3860.83,1.0,1.0,nan,0,0.0,0.0,0.0,0.0,0.0,0.0,0.0,0.0,0.0,0.0,0.0,0,0,0,0,0,0,0,1,0,0,1,0,0
652009779,10.4557,10.5174,24.7585,28.5058,0.0,3863.11,1.0,1.0,nan,0,0.0,0.0,0.0,0.0,0.0,0.0,0.0,0.0,0.0,0.0,0.0,0,0,0,0,0,0,0,1,0,0,1,0,0
652311297,10.4265,10.5424,26.2235,27.2897,0.0,3865.27,1.0,1.0,nan,0,0.0,0.0,0.0,0.0,0.0,0.0,0.0,0.0,0.0,0.0,0.0,0,0,0,0,0,0,0,1,0,0,1,0,0
652609773,10.4994,10.5423,25.9305,26.7668,0.0,3867.44,1.0,1.0,nan,0,0.0,0.0,0.0,0.0,0.0,0.0,0.0,0.0,0.0,0.0,0.0,0,0,0,0,0,0,0,1,0,0,1,0,0
652909775,10.4411,10.5634,26.4286,26.248,0.0,3869.57,1.0,1.0,nan,0,0.0,0.0,0.0,0.0,0.0,0.0,0.0,0.0,0.0,0.0,0.0,0,0,0,0,0,0,0,1,0,0,1,0,0
653209908,10.6452,10.5661,25.7254,26.136,0.0,3871.75,1.0,1.0,nan,0,0.0,0.0,0.0,0.0,0.0,0.0,0.0,0.0,0.0,0.0,0.0,0,0,0,0,0,0,0,1,0,0,1,0,0
653509804,10.4119,10.5622,26.077,26.1635,0.0,3873.92,1.0,1.0,nan,0,0.0,0.0,0.0,0.0,0.0,0.0,0.0,0.0,0.0,0.0,0.0,0,0,0,0,0,0,0,1,0,0,1,0,0
653809818,10.3536,10.5465,26.1063,26.1153,0.0,3876.09,1.0,1.0,nan,0,0.0,0.0,0.0,0.0,0.0,0.0,0.0,0.0,0.0,0.0,0.0,0,0,0,0,0,0,0,1,0,0,1,0,0
654109774,10.4119,10.5558,25.8719,25.875,0.0,3878.22,1.0,1.0,nan,0,0.0,0.0,0.0,0.0,0.0,0.0,0.0,0.0,0.0,0.0,0.0,0,0,0,0,0,0,0,1,0,0,1,0,0
654409872,10.6015,10.5661,26.1063,25.8226,0.0,3880.37,1.0,1.0,nan,0,0.0,0.0,0.0,0.0,0.0,0.0,0.0,0.0,0.0,0.0,0.0,0,0,0,0,0,0,0,1,0,0,1,0,0
654709807,10.6307,10.5698,25.7547,25.8184,0.0,3882.52,1.0,1.0,nan,0,0.0,0.0,0.0,0.0,0.0,0.0,0.0,0.0,0.0,0.0,0.0,0,0,0,0,0,0,0,1,0,0,1,0,0
655009794,10.6452,10.5717,26.2528,25.8076,0.0,3884.67,1.0,1.0,nan,0,0.0,0.0,0.0,0.0,0.0,0.0,0.0,0.0,0.0,0.0,0.0,0,0,0,0,0,0,0,1,0,0,1,0,0
655309775,10.4411,10.5545,26.077,25.8802,0.0,3886.83,1.0,1.0,nan,0,0.0,0.0,0.0,0.0,0.0,0.0,0.0,0.0,0.0,0.0,0.0,0,0,0,0,0,0,0,1,0,0,1,0,0
655609778,10.689,10.5514,25.4617,25.7722,0.0,3888.97,1.0,1.0,nan,0,0.0,0.0,0.0,0.0,0.0,0.0,0.0,0.0,0.0,0.0,0.0,0,0,0,0,0,0,0,1,0,0,1,0,0
655909928,10.4702,10.5468,25.6668,25.7467,0.0,3891.12,1.0,1.0,nan,0,0.0,0.0,0.0,0.0,0.0,0.0,0.0,0.0,0.0,0.0,0.0,0,0,0,0,0,0,0,1,0,0,1,0,0
656209773,10.4702,10.5396,26.37,25.8382,0.0,3893.28,1.0,1.0,nan,0,0.0,0.0,0.0,0.0,0.0,0.0,0.0,0.0,0.0,0.0,0.0,0,0,0,0,0,0,0,1,0,0,1,0,0
656509872,10.7036,10.5372,26.1942,25.9118,0.0,3895.44,1.0,1.0,nan,0,0.0,0.0,0.0,0.0,0.0,0.0,0.0,0.0,0.0,0.0,0.0,0,0,0,0,0,0,0,1,0,0,1,0,0
656809773,10.3973,10.5247,27.7178,26.4277,0.0,3897.69,1.0,1.0,nan,0,0.0,0.0,0.0,0.0,0.0,0.0,0.0,0.0,0.0,0.0,0.0,0,0,0,0,0,0,0,1,0,0,1,0,0
657109773,10.5432,10.5187,28.0694,26.6755,0.0,3899.94,1.0,1.0,nan,0,0.0,0.0,0.0,0.0,0.0,0.0,0.0,0.0,0.0,0.0,0.0,0,0,0,0,0,0,0,1,0,0,1,0,0
657410237,10.6598,10.506,26.9267,26.8473,0.0,3902.21,1.0,1.0,nan,0,0.0,0.0,0.0,0.0,0.0,0.0,0.0,0.0,0.0,0.0,0.0,0,0,0,0,0,0,0,1,0,0,1,0,0
657709817,10.4411,10.4866,26.8095,26.9761,0.0,3904.47,1.0,1.0,nan,0,0.0,0.0,0.0,0.0,0.0,0.0,0.0,0.0,0.0,0.0,0.0,0,0,0,0,0,0,0,1,0,0,1,0,0
658009804,10.4411,10.4814,26.8974,26.9343,0.0,3906.71,1.0,1.0,nan,0,0.0,0.0,0.0,0.0,0.0,0.0,0.0,0.0,0.0,0.0,0.0,0,0,0,0,0,0,0,1,0,0,1,0,0
658309773,10.3973,10.4696,26.3993,26.7785,0.0,3908.92,1.0,1.0,nan,0,0.0,0.0,0.0,0.0,0.0,0.0,0.0,0.0,0.0,0.0,0.0,0,0,0,0,0,0,0,1,0,0,1,0,0
658609779,10.5869,10.4678,26.9267,26.769,0.0,3911.15,1.0,1.0,nan,0,0.0,0.0,0.0,0.0,0.0,0.0,0.0,0.0,0.0,0.0,0.0,0,0,0,0,0,0,0,1,0,0,1,0,0
658910074,10.6015,10.4595,27.8057,26.7069,0.0,3913.37,1.0,1.0,nan,0,0.0,0.0,0.0,0.0,0.0,0.0,0.0,0.0,0.0,0.0,0.0,0,0,0,0,0,0,0,1,0,0,1,0,0
659209798,10.4265,10.4543,26.4579,26.6196,0.0,3915.58,1.0,1.0,nan,0,0.0,0.0,0.0,0.0,0.0,0.0,0.0,0.0,0.0,0.0,0.0,0,0,0,0,0,0,0,1,0,0,1,0,0
659509773,10.6015,10.4473,27.1904,26.696,0.0,3917.81,1.0,1.0,nan,0,0.0,0.0,0.0,0.0,0.0,0.0,0.0,0.0,0.0,0.0,0.0,0,0,0,0,0,0,0,1,0,0,1,0,0
659809775,10.4411,10.4402,28.5675,27.2259,0.0,3920.13,1.0,1.0,nan,0,0.0,0.0,0.0,0.0,0.0,0.0,0.0,0.0,0.0,0.0,0.0,0,0,0,0,0,0,0,1,0,0,1,0,0
660109773,10.3828,10.444,28.1866,27.5658,0.0,3922.46,1.0,1.0,nan,0,0.0,0.0,0.0,0.0,0.0,0.0,0.0,0.0,0.0,0.0,0.0,0,0,0,0,0,0,0,1,0,0,1,0,0
660409868,10.3973,10.4292,28.1573,27.6218,0.0,3924.77,1.0,1.0,nan,0,0.0,0.0,0.0,0.0,0.0,0.0,0.0,0.0,0.0,0.0,0.0,0,0,0,0,0,0,0,1,0,0,1,0,0
660709832,10.3682,10.4263,27.8057,27.8136,0.0,3927.11,1.0,1.0,nan,0,0.0,0.0,0.0,0.0,0.0,0.0,0.0,0.0,0.0,0.0,0.0,0,0,0,0,0,0,0,1,0,0,1,0,0
661009775,10.4702,10.4197,27.5713,27.8021,0.0,3929.43,1.0,1.0,nan,0,0.0,0.0,0.0,0.0,0.0,0.0,0.0,0.0,0.0,0.0,0.0,0,0,0,0,0,0,0,1,0,0,1,0,0
661309818,10.5869,10.4315,27.3955,27.531,0.0,3931.69,1.0,1.0,nan,0,0.0,0.0,0.0,0.0,0.0,0.0,0.0,0.0,0.0,0.0,0.0,0,0,0,0,0,0,0,1,0,0,1,0,0
661609773,10.3973,10.4255,27.4834,27.5592,0.0,3933.99,1.0,1.0,nan,0,0.0,0.0,0.0,0.0,0.0,0.0,0.0,0.0,0.0,0.0,0.0,0,0,0,0,0,0,0,1,0,0,1,0,0
661909773,10.3244,10.4244,27.6006,27.4432,0.0,3936.27,1.0,1.0,nan,0,0.0,0.0,0.0,0.0,0.0,0.0,0.0,0.0,0.0,0.0,0.0,0,0,0,0,0,0,0,1,0,0,1,0,0
662209774,10.5577,10.4327,27.3662,27.3682,0.0,3938.55,1.0,1.0,nan,0,0.0,0.0,0.0,0.0,0.0,0.0,0.0,0.0,0.0,0.0,0.0,0,0,0,0,0,0,0,1,0,0,1,0,0
662509776,10.4265,10.4353,26.9267,27.2183,0.0,3940.8,1.0,1.0,nan,0,0.0,0.0,0.0,0.0,0.0,0.0,0.0,0.0,0.0,0.0,0.0,0,0,0,0,0,0,0,1,0,0,1,0,0
662809773,10.5869,10.442,28.0987,27.2307,0.0,3943.07,1.0,1.0,nan,0,0.0,0.0,0.0,0.0,0.0,0.0,0.0,0.0,0.0,0.0,0.0,0,0,0,0,0,0,0,1,0,0,1,0,0
663109962,10.6161,10.4342,27.5127,27.2656,0.0,3945.35,1.0,1.0,nan,0,0.0,0.0,0.0,0.0,0.0,0.0,0.0,0.0,0.0,0.0,0.0,0,0,0,0,0,0,0,1,0,0,1,0,0
663409848,10.5869,10.4356,28.128,27.4672,0.0,3947.66,1.0,1.0,nan,0,0.0,0.0,0.0,0.0,0.0,0.0,0.0,0.0,0.0,0.0,0.0,0,0,0,0,0,0,0,1,0,0,1,0,0
663709801,10.3973,10.4192,27.3369,27.4551,0.0,3949.95,1.0,1.0,nan,0,0.0,0.0,0.0,0.0,0.0,0.0,0.0,0.0,0.0,0.0,0.0,0,0,0,0,0,0,0,1,0,0,1,0,0
664010527,10.3828,10.4133,28.3038,27.5198,0.0,3952.25,1.0,1.0,nan,0,0.0,0.0,0.0,0.0,0.0,0.0,0.0,0.0,0.0,0.0,0.0,0,0,0,0,0,0,0,1,0,0,1,0,0
664309773,10.6307,10.4147,27.7471,27.572,0.0,3954.54,1.0,1.0,nan,0,0.0,0.0,0.0,0.0,0.0,0.0,0.0,0.0,0.0,0.0,0.0,0,0,0,0,0,0,0,1,0,0,1,0,0
664609829,10.4265,10.4118,27.7178,27.8858,0.0,3956.89,1.0,1.0,nan,0,0.0,0.0,0.0,0.0,0.0,0.0,0.0,0.0,0.0,0.0,0.0,0,0,0,0,0,0,0,1,0,0,1,0,0
664909909,10.6161,10.4136,26.5458,27.2345,0.0,3959.1,1.0,1.0,nan,0,0.0,0.0,0.0,0.0,0.0,0.0,0.0,0.0,0.0,0.0,0.0,0,0,0,0,0,0,0,1,0,0,1,0,0
665209773,10.6452,10.4327,25.6082,26.6841,0.0,3961.27,1.0,1.0,nan,0,0.0,0.0,0.0,0.0,0.0,0.0,0.0,0.0,0.0,0.0,0.0,0,0,0,0,0,0,0,1,0,0,1,0,0
665509865,10.4411,10.4513,26.1063,26.2945,0.0,3963.42,1.0,1.0,nan,0,0.0,0.0,0.0,0.0,0.0,0.0,0.0,0.0,0.0,0.0,0.0,0,0,0,0,0,0,0,1,0,0,1,0,0
665809772,10.6015,10.4529,27.3955,26.3679,0.0,3965.61,1.0,1.0,nan,0,0.0,0.0,0.0,0.0,0.0,0.0,0.0,0.0,0.0,0.0,0.0,0,0,0,0,0,0,0,1,0,0,1,0,0
666109774,10.5286,10.4503,26.7802,26.5357,0.0,3967.84,1.0,1.0,nan,0,0.0,0.0,0.0,0.0,0.0,0.0,0.0,0.0,0.0,0.0,0.0,0,0,0,0,0,0,0,1,0,0,1,0,0
666409795,10.4119,10.4437,25.8426,26.4091,0.0,3970.03,1.0,1.0,nan,0,0.0,0.0,0.0,0.0,0.0,0.0,0.0,0.0,0.0,0.0,0.0,0,0,0,0,0,0,0,1,0,0,1,0,0
666709783,10.6307,10.4465,26.3407,26.3948,0.0,3972.23,1.0,1.0,nan,0,0.0,0.0,0.0,0.0,0.0,0.0,0.0,0.0,0.0,0.0,0.0,0,0,0,0,0,0,0,1,0,0,1,0,0
667009791,10.3682,10.4491,26.5165,26.4728,0.0,3974.44,1.0,1.0,nan,0,0.0,0.0,0.0,0.0,0.0,0.0,0.0,0.0,0.0,0.0,0.0,0,0,0,0,0,0,0,1,0,0,1,0,0
667309774,10.5577,10.4573,26.4872,26.4601,0.0,3976.65,1.0,1.0,nan,0,0.0,0.0,0.0,0.0,0.0,0.0,0.0,0.0,0.0,0.0,0.0,0,0,0,0,0,0,0,1,0,0,1,0,0
667609816,10.6307,10.4606,26.3407,26.4901,0.0,3978.86,1.0,1.0,nan,0,0.0,0.0,0.0,0.0,0.0,0.0,0.0,0.0,0.0,0.0,0.0,0,0,0,0,0,0,0,1,0,0,1,0,0
667909784,10.2953,10.4468,28.2159,26.9897,0.0,3981.15,1.0,1.0,nan,0,0.0,0.0,0.0,0.0,0.0,0.0,0.0,0.0,0.0,0.0,0.0,0,0,0,0,0,0,0,1,0,0,1,0,0
668209951,10.5577,10.4367,28.5675,27.5687,0.0,3983.51,1.0,1.0,nan,0,0.0,0.0,0.0,0.0,0.0,0.0,0.0,0.0,0.0,0.0,0.0,0,0,0,0,0,0,0,1,0,0,1,0,0
668509773,10.2369,10.4154,29.5051,28.2888,0.0,3985.94,1.0,1.0,nan,0,0.0,0.0,0.0,0.0,0.0,0.0,0.0,0.0,0.0,0.0,0.0,0,0,0,0,0,0,0,1,0,0,1,0,0
668809773,10.4557,10.4081,28.7726,28.3658,0.0,3988.32,1.0,1.0,nan,0,0.0,0.0,0.0,0.0,0.0,0.0,0.0,0.0,0.0,0.0,0.0,0,0,0,0,0,0,0,1,0,0,1,0,0
669110216,10.3244,10.4023,28.714,28.4561,0.0,3990.7,1.0,1.0,nan,0,0.0,0.0,0.0,0.0,0.0,0.0,0.0,0.0,0.0,0.0,0.0,0,0,0,0,0,0,0,1,0,0,1,0,0
669409773,10.5723,10.3884,28.7726,28.6575,0.0,3993.11,1.0,1.0,nan,0,0.0,0.0,0.0,0.0,0.0,0.0,0.0,0.0,0.0,0.0,0.0,0,0,0,0,0,0,0,1,0,0,1,0,0
669709816,10.3682,10.3904,28.1866,28.6324,0.0,3995.49,1.0,1.0,nan,0,0.0,0.0,0.0,0.0,0.0,0.0,0.0,0.0,0.0,0.0,0.0,0,0,0,0,0,0,0,1,0,0,1,0,0
670009777,10.5432,10.3872,28.6261,28.6133,0.0,3997.87,1.0,1.0,nan,0,0.0,0.0,0.0,0.0,0.0,0.0,0.0,0.0,0.0,0.0,0.0,0,0,0,0,0,0,0,1,0,0,1,0,0
670309826,10.3244,10.3801,28.421,28.6738,0.0,4000.27,1.0,1.0,nan,0,0.0,0.0,0.0,0.0,0.0,0.0,0.0,0.0,0.0,0.0,0.0,0,0,0,0,0,0,0,1,0,0,1,0,0
670610393,10.3536,10.3735,28.421,28.5901,0.0,4002.65,1.0,1.0,nan,0,0.0,0.0,0.0,0.0,0.0,0.0,0.0,0.0,0.0,0.0,0.0,0,0,0,0,0,0,0,1,0,0,1,0,0
670909779,10.5577,10.3714,28.5089,28.5458,0.0,4005.01,1.0,1.0,nan,0,0.0,0.0,0.0,0.0,0.0,0.0,0.0,0.0,0.0,0.0,0.0,0,0,0,0,0,0,0,1,0,0,1,0,0
671209773,10.3682,10.3873,28.6847,28.5131,0.0,4007.39,1.0,1.0,nan,0,0.0,0.0,0.0,0.0,0.0,0.0,0.0,0.0,0.0,0.0,0.0,0,0,0,0,0,0,0,1,0,0,1,0,0
671520013,10.3244,10.3697,28.8605,28.7287,0.0,4009.88,1.0,1.0,nan,0,0.0,0.0,0.0,0.0,0.0,0.0,0.0,0.0,0.0,0.0,0.0,0,0,0,0,0,0,0,1,0,0,1,0,0
671809773,10.3536,10.3719,27.7764,28.543,0.0,4012.17,1.0,1.0,nan,0,0.0,0.0,0.0,0.0,0.0,0.0,0.0,0.0,0.0,0.0,0.0,0,0,0,0,0,0,0,1,0,0,1,0,0
672109848,10.4994,10.3814,28.3331,27.8306,0.0,4014.41,1.0,1.0,nan,0,0.0,0.0,0.0,0.0,0.0,0.0,0.0,0.0,0.0,0.0,0.0,0,0,0,0,0,0,0,1,0,0,1,0,0
672409822,10.5869,10.3971,26.8974,27.4388,0.0,4016.66,1.0,1.0,nan,0,0.0,0.0,0.0,0.0,0.0,0.0,0.0,0.0,0.0,0.0,0.0,0,0,0,0,0,0,0,1,0,0,1,0,0
672709794,10.3973,10.4099,26.0477,27.0643,0.0,4018.88,1.0,1.0,nan,0,0.0,0.0,0.0,0.0,0.0,0.0,0.0,0.0,0.0,0.0,0.0,0,0,0,0,0,0,0,1,0,0,1,0,0
673009780,10.4119,10.4194,25.491,26.5761,0.0,4021.06,1.0,1.0,nan,0,0.0,0.0,0.0,0.0,0.0,0.0,0.0,0.0,0.0,0.0,0.0,0,0,0,0,0,0,0,1,0,0,1,0,0
673309773,10.6452,10.4351,25.5203,26.0482,0.0,4023.17,1.0,1.0,nan,0,0.0,0.0,0.0,0.0,0.0,0.0,0.0,0.0,0.0,0.0,0.0,0,0,0,0,0,0,0,1,0,0,1,0,0
673610357,10.6307,10.4492,25.3152,25.7557,0.0,4025.29,1.0,1.0,nan,0,0.0,0.0,0.0,0.0,0.0,0.0,0.0,0.0,0.0,0.0,0.0,0,0,0,0,0,0,0,1,0,0,1,0,0
673909790,10.6307,10.4639,25.7254,25.766,0.0,4027.43,1.0,1.0,nan,0,0.0,0.0,0.0,0.0,0.0,0.0,0.0,0.0,0.0,0.0,0.0,0,0,0,0,0,0,0,1,0,0,1,0,0
674209773,10.4702,10.456,25.491,25.8346,0.0,4029.6,1.0,1.0,nan,0,0.0,0.0,0.0,0.0,0.0,0.0,0.0,0.0,0.0,0.0,0.0,0,0,0,0,0,0,0,1,0,0,1,0,0
674519781,10.3536,10.4577,26.2528,25.8496,0.0,4031.82,1.0,1.0,nan,0,0.0,0.0,0.0,0.0,0.0,0.0,0.0,0.0,0.0,0.0,0.0,0,0,0,0,0,0,0,1,0,0,1,0,0
674809778,10.6161,10.4529,26.0184,25.8696,0.0,4033.9,1.0,1.0,nan,0,0.0,0.0,0.0,0.0,0.0,0.0,0.0,0.0,0.0,0.0,0.0,0,0,0,0,0,0,0,1,0,0,1,0,0
675109786,10.3828,10.4637,25.6961,25.747,0.0,4036.04,1.0,1.0,nan,0,0.0,0.0,0.0,0.0,0.0,0.0,0.0,0.0,0.0,0.0,0.0,0,0,0,0,0,0,0,1,0,0,1,0,0
675409773,10.6452,10.4672,25.6375,25.6426,0.0,4038.16,1.0,1.0,nan,0,0.0,0.0,0.0,0.0,0.0,0.0,0.0,0.0,0.0,0.0,0.0,0,0,0,0,0,0,0,1,0,0,1,0,0
675710063,10.3828,10.4647,26.4579,25.8752,0.0,4040.34,1.0,1.0,nan,0,0.0,0.0,0.0,0.0,0.0,0.0,0.0,0.0,0.0,0.0,0.0,0,0,0,0,0,0,0,1,0,0,1,0,0
676009805,10.3973,10.4495,25.9891,25.9082,0.0,4042.51,1.0,1.0,nan,0,0.0,0.0,0.0,0.0,0.0,0.0,0.0,0.0,0.0,0.0,0.0,0,0,0,0,0,0,0,1,0,0,1,0,0
676309801,10.4994,10.4273,29.9153,27.1134,0.0,4044.88,1.0,1.0,nan,0,0.0,0.0,0.0,0.0,0.0,0.0,0.0,0.0,0.0,0.0,0.0,0,0,0,0,0,0,0,1,0,0,1,0,0
676609884,10.5286,10.4262,28.2159,27.6689,0.0,4047.25,1.0,1.0,nan,0,0.0,0.0,0.0,0.0,0.0,0.0,0.0,0.0,0.0,0.0,0.0,0,0,0,0,0,0,0,1,0,0,1,0,0
676909834,10.4119,10.4236,28.8019,27.8237,0.0,4049.58,1.0,1.0,nan,0,0.0,0.0,0.0,0.0,0.0,0.0,0.0,0.0,0.0,0.0,0.0,0,0,0,0,0,0,0,1,0,0,1,0,0
677210041,10.5723,10.433,27.249,27.7716,0.0,4051.9,1.0,1.0,nan,0,0.0,0.0,0.0,0.0,0.0,0.0,0.0,0.0,0.0,0.0,0.0,0,0,0,0,0,0,0,1,0,0,1,0,0
677509773,10.4994,10.4321,27.835,27.7663,0.0,4054.21,1.0,1.0,nan,0,0.0,0.0,0.0,0.0,0.0,0.0,0.0,0.0,0.0,0.0,0.0,0,0,0,0,0,0,0,1,0,0,1,0,0
677809805,10.6161,10.4321,26.8388,27.6697,0.0,4056.51,1.0,1.0,nan,0,0.0,0.0,0.0,0.0,0.0,0.0,0.0,0.0,0.0,0.0,0.0,0,0,0,0,0,0,0,1,0,0,1,0,0
678109773,10.514,10.4305,27.8936,27.7486,0.0,4058.82,1.0,1.0,nan,0,0.0,0.0,0.0,0.0,0.0,0.0,0.0,0.0,0.0,0.0,0.0,0,0,0,0,0,0,0,1,0,0,1,0,0
678409798,10.6015,10.4366,27.1904,27.4705,0.0,4061.09,1.0,1.0,nan,0,0.0,0.0,0.0,0.0,0.0,0.0,0.0,0.0,0.0,0.0,0.0,0,0,0,0,0,0,0,1,0,0,1,0,0
678709773,10.4994,10.44,28.714,27.5426,0.0,4063.38,1.0,1.0,nan,0,0.0,0.0,0.0,0.0,0.0,0.0,0.0,0.0,0.0,0.0,0.0,0,0,0,0,0,0,0,1,0,0,1,0,0
679009773,10.5286,10.442,28.0401,27.769,0.0,4065.72,1.0,1.0,nan,0,0.0,0.0,0.0,0.0,0.0,0.0,0.0,0.0,0.0,0.0,0.0,0,0,0,0,0,0,0,1,0,0,1,0,0
679309778,10.5432,10.4383,28.6261,27.8965,0.0,4068.06,1.0,1.0,nan,0,0.0,0.0,0.0,0.0,0.0,0.0,0.0,0.0,0.0,0.0,0.0,0,0,0,0,0,0,0,1,0,0,1,0,0
679609777,10.5286,10.4433,27.7178,27.964,0.0,4070.4,1.0,1.0,nan,0,0.0,0.0,0.0,0.0,0.0,0.0,0.0,0.0,0.0,0.0,0.0,0,0,0,0,0,0,0,1,0,0,1,0,0
679909848,10.5432,10.4371,29.4465,28.0899,0.0,4072.75,1.0,1.0,nan,0,0.0,0.0,0.0,0.0,0.0,0.0,0.0,0.0,0.0,0.0,0.0,0,0,0,0,0,0,0,1,0,0,1,0,0
680210019,10.5286,10.4379,27.9522,27.9483,0.0,4075.06,1.0,1.0,nan,0,0.0,0.0,0.0,0.0,0.0,0.0,0.0,0.0,0.0,0.0,0.0,0,0,0,0,0,0,0,1,0,0,1,0,0
680509773,10.5577,10.4336,27.5127,27.8238,0.0,4077.37,1.0,1.0,nan,0,0.0,0.0,0.0,0.0,0.0,0.0,0.0,0.0,0.0,0.0,0.0,0,0,0,0,0,0,0,1,0,0,1,0,0
680809774,10.5723,10.4431,27.4541,27.4733,0.0,4079.62,1.0,1.0,nan,0,0.0,0.0,0.0,0.0,0.0,0.0,0.0,0.0,0.0,0.0,0.0,0,0,0,0,0,0,0,1,0,0,1,0,0
681109803,10.5723,10.4434,27.4834,27.529,0.0,4081.92,1.0,1.0,nan,0,0.0,0.0,0.0,0.0,0.0,0.0,0.0,0.0,0.0,0.0,0.0,0,0,0,0,0,0,0,1,0,0,1,0,0
681409892,10.5869,10.4442,27.4541,27.4752,0.0,4084.2,1.0,1.0,nan,0,0.0,0.0,0.0,0.0,0.0,0.0,0.0,0.0,0.0,0.0,0.0,0,0,0,0,0,0,0,1,0,0,1,0,0
681709773,10.5869,10.446,27.1318,27.5847,0.0,4086.52,1.0,1.0,nan,0,0.0,0.0,0.0,0.0,0.0,0.0,0.0,0.0,0.0,0.0,0.0,0,0,0,0,0,0,0,1,0,0,1,0,0
682009773,10.5723,10.4487,27.3076,27.3709,0.0,4088.78,1.0,1.0,nan,0,0.0,0.0,0.0,0.0,0.0,0.0,0.0,0.0,0.0,0.0,0.0,0,0,0,0,0,0,0,1,0,0,1,0,0
682310059,10.5432,10.4569,28.8898,27.5537,0.0,4091.08,1.0,1.0,nan,0,0.0,0.0,0.0,0.0,0.0,0.0,0.0,0.0,0.0,0.0,0.0,0,0,0,0,0,0,0,1,0,0,1,0,0
682609773,10.514,10.4517,27.9522,27.7718,0.0,4093.42,1.0,1.0,nan,0,0.0,0.0,0.0,0.0,0.0,0.0,0.0,0.0,0.0,0.0,0.0,0,0,0,0,0,0,0,1,0,0,1,0,0
682909773,10.5286,10.4542,27.3662,27.6047,0.0,4095.7,1.0,1.0,nan,0,0.0,0.0,0.0,0.0,0.0,0.0,0.0,0.0,0.0,0.0,0.0,0,0,0,0,0,0,0,1,0,0,1,0,0
683209815,10.5432,10.4559,27.5127,27.5455,0.0,4097.99,1.0,1.0,nan,0,0.0,0.0,0.0,0.0,0.0,0.0,0.0,0.0,0.0,0.0,0.0,0,0,0,0,0,0,0,1,0,0,1,0,0
683509810,10.4994,10.4573,27.1025,27.4265,0.0,4100.27,1.0,1.0,nan,0,0.0,0.0,0.0,0.0,0.0,0.0,0.0,0.0,0.0,0.0,0.0,0,0,0,0,0,0,0,1,0,0,1,0,0
683809774,10.6452,10.4656,26.1649,26.9164,0.0,4102.46,1.0,1.0,nan,0,0.0,0.0,0.0,0.0,0.0,0.0,0.0,0.0,0.0,0.0,0.0,0,0,0,0,0,0,0,1,0,0,1,0,0
684109813,10.6307,10.4701,26.6044,26.7012,0.0,4104.67,1.0,1.0,nan,0,0.0,0.0,0.0,0.0,0.0,0.0,0.0,0.0,0.0,0.0,0.0,0,0,0,0,0,0,0,1,0,0,1,0,0
684409785,10.6452,10.4727,27.3076,26.6524,0.0,4106.88,1.0,1.0,nan,0,0.0,0.0,0.0,0.0,0.0,0.0,0.0,0.0,0.0,0.0,0.0,0,0,0,0,0,0,0,1,0,0,1,0,0
684709773,10.6307,10.4739,26.8388,26.6915,0.0,4109.11,1.0,1.0,nan,0,0.0,0.0,0.0,0.0,0.0,0.0,0.0,0.0,0.0,0.0,0.0,0,0,0,0,0,0,0,1,0,0,1,0,0
685009773,10.5869,10.4796,25.9305,26.5434,0.0,4111.31,1.0,1.0,nan,0,0.0,0.0,0.0,0.0,0.0,0.0,0.0,0.0,0.0,0.0,0.0,0,0,0,0,0,0,0,1,0,0,1,0,0
685309776,10.5869,10.4809,26.2821,26.495,0.0,4113.52,1.0,1.0,nan,0,0.0,0.0,0.0,0.0,0.0,0.0,0.0,0.0,0.0,0.0,0.0,0,0,0,0,0,0,0,1,0,0,1,0,0
685609773,10.4848,10.4541,27.7764,27.9003,0.0,4115.98,1.0,1.0,nan,0,0.0,0.0,0.0,0.0,0.0,0.0,0.0,0.0,0.0,0.0,0.0,0,0,0,0,0,0,0,1,0,0,1,0,0
685909778,10.5432,10.4474,28.4503,28.0602,0.0,4118.33,1.0,1.0,nan,0,0.0,0.0,0.0,0.0,0.0,0.0,0.0,0.0,0.0,0.0,0.0,0,0,0,0,0,0,0,1,0,0,1,0,0
686209806,10.4994,10.4431,28.4796,28.1514,0.0,4120.68,1.0,1.0,nan,0,0.0,0.0,0.0,0.0,0.0,0.0,0.0,0.0,0.0,0.0,0.0,0,0,0,0,0,0,0,1,0,0,1,0,0
686509865,10.4557,10.4351,29.007,28.2629,0.0,4123.05,1.0,1.0,nan,0,0.0,0.0,0.0,0.0,0.0,0.0,0.0,0.0,0.0,0.0,0.0,0,0,0,0,0,0,0,1,0,0,1,0,0
686809773,10.5723,10.4344,28.8312,28.2803,0.0,4125.41,1.0,1.0,nan,0,0.0,0.0,0.0,0.0,0.0,0.0,0.0,0.0,0.0,0.0,0.0,0,0,0,0,0,0,0,1,0,0,1,0,0
687109773,10.514,10.4324,28.0401,28.3965,0.0,4127.79,1.0,1.0,nan,0,0.0,0.0,0.0,0.0,0.0,0.0,0.0,0.0,0.0,0.0,0.0,0,0,0,0,0,0,0,1,0,0,1,0,0
687410174,10.4702,10.425,28.5089,28.4845,0.0,4130.17,1.0,1.0,nan,0,0.0,0.0,0.0,0.0,0.0,0.0,0.0,0.0,0.0,0.0,0.0,0,0,0,0,0,0,0,1,0,0,1,0,0
687709783,10.5577,10.4245,28.128,28.3205,0.0,4132.51,1.0,1.0,nan,0,0.0,0.0,0.0,0.0,0.0,0.0,0.0,0.0,0.0,0.0,0.0,0,0,0,0,0,0,0,1,0,0,1,0,0
688009777,10.5577,10.4232,28.1866,28.2672,0.0,4134.86,1.0,1.0,nan,0,0.0,0.0,0.0,0.0,0.0,0.0,0.0,0.0,0.0,0.0,0.0,0,0,0,0,0,0,0,1,0,0,1,0,0
688309887,10.5432,10.427,27.9522,28.1586,0.0,4137.2,1.0,1.0,nan,0,0.0,0.0,0.0,0.0,0.0,0.0,0.0,0.0,0.0,0.0,0.0,0,0,0,0,0,0,0,1,0,0,1,0,0
688609815,10.5577,10.4298,28.3917,28.1214,0.0,4139.54,1.0,1.0,nan,0,0.0,0.0,0.0,0.0,0.0,0.0,0.0,0.0,0.0,0.0,0.0,0,0,0,0,0,0,0,1,0,0,1,0,0
688909805,10.5869,10.4396,26.3114,27.6457,0.0,4141.8,1.0,1.0,nan,0,0.0,0.0,0.0,0.0,0.0,0.0,0.0,0.0,0.0,0.0,0.0,0,0,0,0,0,0,0,1,0,0,1,0,0
689209864,10.6015,10.4521,25.9305,26.9646,0.0,4143.98,1.0,1.0,nan,0,0.0,0.0,0.0,0.0,0.0,0.0,0.0,0.0,0.0,0.0,0.0,0,0,0,0,0,0,0,1,0,0,1,0,0
689509774,10.6015,10.4639,26.4579,26.5983,0.0,4146.16,1.0,1.0,nan,0,0.0,0.0,0.0,0.0,0.0,0.0,0.0,0.0,0.0,0.0,0.0,0,0,0,0,0,0,0,1,0,0,1,0,0
689809773,10.5723,10.4698,26.8681,26.4292,0.0,4148.34,1.0,1.0,nan,0,0.0,0.0,0.0,0.0,0.0,0.0,0.0,0.0,0.0,0.0,0.0,0,0,0,0,0,0,0,1,0,0,1,0,0
690109799,10.6015,10.4711,26.5165,26.5556,0.0,4150.57,1.0,1.0,nan,0,0.0,0.0,0.0,0.0,0.0,0.0,0.0,0.0,0.0,0.0,0.0,0,0,0,0,0,0,0,1,0,0,1,0,0
690409773,10.5432,10.4597,29.0656,27.4064,0.0,4152.93,1.0,1.0,nan,0,0.0,0.0,0.0,0.0,0.0,0.0,0.0,0.0,0.0,0.0,0.0,0,0,0,0,0,0,0,1,0,0,1,0,0
690709773,10.6015,10.4561,27.4248,27.4977,0.0,4155.24,1.0,1.0,nan,0,0.0,0.0,0.0,0.0,0.0,0.0,0.0,0.0,0.0,0.0,0.0,0,0,0,0,0,0,0,1,0,0,1,0,0
691009773,10.5432,10.4505,27.2197,27.5319,0.0,4157.54,1.0,1.0,nan,0,0.0,0.0,0.0,0.0,0.0,0.0,0.0,0.0,0.0,0.0,0.0,0,0,0,0,0,0,0,1,0,0,1,0,0
691309773,10.5286,10.4563,27.9815,27.5335,0.0,4159.83,1.0,1.0,nan,0,0.0,0.0,0.0,0.0,0.0,0.0,0.0,0.0,0.0,0.0,0.0,0,0,0,0,0,0,0,1,0,0,1,0,0
691609964,10.5432,10.4539,27.4541,27.566,0.0,4162.14,1.0,1.0,nan,0,0.0,0.0,0.0,0.0,0.0,0.0,0.0,0.0,0.0,0.0,0.0,0,0,0,0,0,0,0,1,0,0,1,0,0
691910197,10.514,10.4528,28.3917,27.6556,0.0,4164.45,1.0,1.0,nan,0,0.0,0.0,0.0,0.0,0.0,0.0,0.0,0.0,0.0,0.0,0.0,0,0,0,0,0,0,0,1,0,0,1,0,0
692209773,10.4994,10.4464,28.4796,27.9112,0.0,4166.8,1.0,1.0,nan,0,0.0,0.0,0.0,0.0,0.0,0.0,0.0,0.0,0.0,0.0,0.0,0,0,0,0,0,0,0,1,0,0,1,0,0
692509773,10.5286,10.4386,28.1573,28.1293,0.0,4169.17,1.0,1.0,nan,0,0.0,0.0,0.0,0.0,0.0,0.0,0.0,0.0,0.0,0.0,0.0,0,0,0,0,0,0,0,1,0,0,1,0,0
692809773,10.5432,10.4376,27.9229,28.1447,0.0,4171.51,1.0,1.0,nan,0,0.0,0.0,0.0,0.0,0.0,0.0,0.0,0.0,0.0,0.0,0.0,0,0,0,0,0,0,0,1,0,0,1,0,0
693109836,10.5286,10.4392,27.7471,28.2366,0.0,4173.89,1.0,1.0,nan,0,0.0,0.0,0.0,0.0,0.0,0.0,0.0,0.0,0.0,0.0,0.0,0,0,0,0,0,0,0,1,0,0,1,0,0
693409774,10.4994,10.447,27.5127,27.9197,0.0,4176.18,1.0,1.0,nan,0,0.0,0.0,0.0,0.0,0.0,0.0,0.0,0.0,0.0,0.0,0.0,0,0,0,0,0,0,0,1,0,0,1,0,0
693709850,10.514,10.445,28.6847,27.9205,0.0,4178.5,1.0,1.0,nan,0,0.0,0.0,0.0,0.0,0.0,0.0,0.0,0.0,0.0,0.0,0.0,0,0,0,0,0,0,0,1,0,0,1,0,0
694010104,10.5286,10.4502,27.9815,27.9088,0.0,4180.83,1.0,1.0,nan,0,0.0,0.0,0.0,0.0,0.0,0.0,0.0,0.0,0.0,0.0,0.0,0,0,0,0,0,0,0,1,0,0,1,0,0
694309772,10.5432,10.4471,27.9815,27.8515,0.0,4183.15,1.0,1.0,nan,0,0.0,0.0,0.0,0.0,0.0,0.0,0.0,0.0,0.0,0.0,0.0,0,0,0,0,0,0,0,1,0,0,1,0,0
694609800,10.5286,10.4454,27.8936,27.7734,0.0,4185.45,1.0,1.0,nan,0,0.0,0.0,0.0,0.0,0.0,0.0,0.0,0.0,0.0,0.0,0.0,0,0,0,0,0,0,0,1,0,0,1,0,0
694909800,10.5286,10.4377,27.7178,27.9041,0.0,4187.79,1.0,1.0,nan,0,0.0,0.0,0.0,0.0,0.0,0.0,0.0,0.0,0.0,0.0,0.0,0,0,0,0,0,0,0,1,0,0,1,0,0
695209773,10.5723,10.439,27.9522,27.8842,0.0,4190.11,1.0,1.0,nan,0,0.0,0.0,0.0,0.0,0.0,0.0,0.0,0.0,0.0,0.0,0.0,0,0,0,0,0,0,0,1,0,0,1,0,0
695509927,10.5286,10.4315,28.128,27.9477,0.0,4192.45,1.0,1.0,nan,0,0.0,0.0,0.0,0.0,0.0,0.0,0.0,0.0,0.0,0.0,0.0,0,0,0,0,0,0,0,1,0,0,1,0,0
695809859,10.4994,10.4416,27.9522,27.8637,0.0,4194.77,1.0,1.0,nan,0,0.0,0.0,0.0,0.0,0.0,0.0,0.0,0.0,0.0,0.0,0.0,0,0,0,0,0,0,0,1,0,0,1,0,0
696109880,10.5432,10.4438,27.4248,27.6058,0.0,4197.05,1.0,1.0,nan,0,0.0,0.0,0.0,0.0,0.0,0.0,0.0,0.0,0.0,0.0,0.0,0,0,0,0,0,0,0,1,0,0,1,0,0
696409779,10.514,10.4427,27.8643,27.6245,0.0,4199.35,1.0,1.0,nan,0,0.0,0.0,0.0,0.0,0.0,0.0,0.0,0.0,0.0,0.0,0.0,0,0,0,0,0,0,0,1,0,0,1,0,0
696709773,10.5286,10.4428,27.9229,27.5806,0.0,4201.64,1.0,1.0,nan,0,0.0,0.0,0.0,0.0,0.0,0.0,0.0,0.0,0.0,0.0,0.0,0,0,0,0,0,0,0,1,0,0,1,0,0
697009774,10.6015,10.4423,26.2821,27.4111,0.0,4203.92,1.0,1.0,nan,0,0.0,0.0,0.0,0.0,0.0,0.0,0.0,0.0,0.0,0.0,0.0,0,0,0,0,0,0,0,1,0,0,1,0,0
697309857,10.5869,10.4575,26.0184,26.6945,0.0,4206.07,1.0,1.0,nan,0,0.0,0.0,0.0,0.0,0.0,0.0,0.0,0.0,0.0,0.0,0.0,0,0,0,0,0,0,0,1,0,0,1,0,0
697609799,10.5869,10.4675,26.077,26.3503,0.0,4208.23,1.0,1.0,nan,0,0.0,0.0,0.0,0.0,0.0,0.0,0.0,0.0,0.0,0.0,0.0,0,0,0,0,0,0,0,1,0,0,1,0,0
697909774,10.5869,10.4723,25.9305,26.0798,0.0,4210.38,1.0,1.0,nan,0,0.0,0.0,0.0,0.0,0.0,0.0,0.0,0.0,0.0,0.0,0.0,0,0,0,0,0,0,0,1,0,0,1,0,0
698209777,10.5869,10.4732,26.5165,26.127,0.0,4212.56,1.0,1.0,nan,0,0.0,0.0,0.0,0.0,0.0,0.0,0.0,0.0,0.0,0.0,0.0,0,0,0,0,0,0,0,1,0,0,1,0,0
698509773,10.5577,10.465,26.7802,26.6977,0.0,4214.84,1.0,1.0,nan,0,0.0,0.0,0.0,0.0,0.0,0.0,0.0,0.0,0.0,0.0,0.0,0,0,0,0,0,0,0,1,0,0,1,0,0
698809773,10.6161,10.4677,26.2821,26.6409,0.0,4217.06,1.0,1.0,nan,0,0.0,0.0,0.0,0.0,0.0,0.0,0.0,0.0,0.0,0.0,0.0,0,0,0,0,0,0,0,1,0,0,1,0,0
699110165,10.5723,10.4678,27.2783,27.0757,0.0,4219.36,1.0,1.0,nan,0,0.0,0.0,0.0,0.0,0.0,0.0,0.0,0.0,0.0,0.0,0.0,0,0,0,0,0,0,0,1,0,0,1,0,0
699409799,10.5577,10.4627,27.3955,27.101,0.0,4221.62,1.0,1.0,nan,0,0.0,0.0,0.0,0.0,0.0,0.0,0.0,0.0,0.0,0.0,0.0,0,0,0,0,0,0,0,1,0,0,1,0,0
699709798,10.5432,10.4533,27.3369,27.3756,0.0,4223.93,1.0,1.0,nan,0,0.0,0.0,0.0,0.0,0.0,0.0,0.0,0.0,0.0,0.0,0.0,0,0,0,0,0,0,0,1,0,0,1,0,0
700009773,10.514,10.4453,27.8057,27.5798,0.0,4226.25,1.0,1.0,nan,0,0.0,0.0,0.0,0.0,0.0,0.0,0.0,0.0,0.0,0.0,0.0,0,0,0,0,0,0,0,1,0,0,1,0,0
700309773,10.6015,10.4507,27.2783,27.4949,0.0,4228.53,1.0,1.0,nan,0,0.0,0.0,0.0,0.0,0.0,0.0,0.0,0.0,0.0,0.0,0.0,0,0,0,0,0,0,0,1,0,0,1,0,0
700609979,10.514,10.4437,27.5713,27.68,0.0,4230.86,1.0,1.0,nan,0,0.0,0.0,0.0,0.0,0.0,0.0,0.0,0.0,0.0,0.0,0.0,0,0,0,0,0,0,0,1,0,0,1,0,0
700909772,10.4994,10.439,28.3917,27.9973,0.0,4233.22,1.0,1.0,nan,0,0.0,0.0,0.0,0.0,0.0,0.0,0.0,0.0,0.0,0.0,0.0,0,0,0,0,0,0,0,1,0,0,1,0,0
701209938,10.4994,10.44,27.9229,28.0877,0.0,4235.57,1.0,1.0,nan,0,0.0,0.0,0.0,0.0,0.0,0.0,0.0,0.0,0.0,0.0,0.0,0,0,0,0,0,0,0,1,0,0,1,0,0
701509773,10.4848,10.4306,28.7726,28.2096,0.0,4237.93,1.0,1.0,nan,0,0.0,0.0,0.0,0.0,0.0,0.0,0.0,0.0,0.0,0.0,0.0,0,0,0,0,0,0,0,1,0,0,1,0,0
701809773,10.4702,10.4239,28.2452,28.4375,0.0,4240.33,1.0,1.0,nan,0,0.0,0.0,0.0,0.0,0.0,0.0,0.0,0.0,0.0,0.0,0.0,0,0,0,0,0,0,0,1,0,0,1,0,0
702109774,10.5286,10.4207,28.1866,28.344,0.0,4242.68,1.0,1.0,nan,0,0.0,0.0,0.0,0.0,0.0,0.0,0.0,0.0,0.0,0.0,0.0,0,0,0,0,0,0,0,1,0,0,1,0,0
702409773,10.5286,10.4284,27.6592,28.1696,0.0,4245.02,1.0,1.0,nan,0,0.0,0.0,0.0,0.0,0.0,0.0,0.0,0.0,0.0,0.0,0.0,0,0,0,0,0,0,0,1,0,0,1,0,0
702709774,10.514,10.4243,28.9484,28.1641,0.0,4247.36,1.0,1.0,nan,0,0.0,0.0,0.0,0.0,0.0,0.0,0.0,0.0,0.0,0.0,0.0,0,0,0,0,0,0,0,1,0,0,1,0,0
703009773,10.5286,10.4149,28.5382,28.4132,0.0,4249.75,1.0,1.0,nan,0,0.0,0.0,0.0,0.0,0.0,0.0,0.0,0.0,0.0,0.0,0.0,0,0,0,0,0,0,0,1,0,0,1,0,0
703309888,10.4265,10.4117,29.7395,28.5333,0.0,4252.14,1.0,1.0,nan,0,0.0,0.0,0.0,0.0,0.0,0.0,0.0,0.0,0.0,0.0,0.0,0,0,0,0,0,0,0,1,0,0,1,0,0
703609857,10.5577,10.412,28.3624,28.398,0.0,4254.49,1.0,1.0,nan,0,0.0,0.0,0.0,0.0,0.0,0.0,0.0,0.0,0.0,0.0,0.0,0,0,0,0,0,0,0,1,0,0,1,0,0
703909774,10.4994,10.4124,28.421,28.3165,0.0,4256.85,1.0,1.0,nan,0,0.0,0.0,0.0,0.0,0.0,0.0,0.0,0.0,0.0,0.0,0.0,0,0,0,0,0,0,0,1,0,0,1,0,0
704209773,10.5286,10.4079,28.8898,28.4904,0.0,4259.23,1.0,1.0,nan,0,0.0,0.0,0.0,0.0,0.0,0.0,0.0,0.0,0.0,0.0,0.0,0,0,0,0,0,0,0,1,0,0,1,0,0
704509773,10.4848,10.4076,28.6261,28.5783,0.0,4261.63,1.0,1.0,nan,0,0.0,0.0,0.0,0.0,0.0,0.0,0.0,0.0,0.0,0.0,0.0,0,0,0,0,0,0,0,1,0,0,1,0,0
704809853,10.514,10.4084,28.5089,28.5917,0.0,4264.01,1.0,1.0,nan,0,0.0,0.0,0.0,0.0,0.0,0.0,0.0,0.0,0.0,0.0,0.0,0,0,0,0,0,0,0,1,0,0,1,0,0
705109781,10.4702,10.4139,28.9191,28.6247,0.0,4266.4,1.0,1.0,nan,0,0.0,0.0,0.0,0.0,0.0,0.0,0.0,0.0,0.0,0.0,0.0,0,0,0,0,0,0,0,1,0,0,1,0,0
705409888,10.4265,10.4091,28.714,28.6476,0.0,4268.79,1.0,1.0,nan,0,0.0,0.0,0.0,0.0,0.0,0.0,0.0,0.0,0.0,0.0,0.0,0,0,0,0,0,0,0,1,0,0,1,0,0
705710064,10.5286,10.4173,27.835,28.4566,0.0,4271.15,1.0,1.0,nan,0,0.0,0.0,0.0,0.0,0.0,0.0,0.0,0.0,0.0,0.0,0.0,0,0,0,0,0,0,0,1,0,0,1,0,0
706009773,10.5432,10.432,26.8974,27.6354,0.0,4273.37,1.0,1.0,nan,0,0.0,0.0,0.0,0.0,0.0,0.0,0.0,0.0,0.0,0.0,0.0,0,0,0,0,0,0,0,1,0,0,1,0,0
706309774,10.6161,10.4424,26.3407,27.0663,0.0,4275.57,1.0,1.0,nan,0,0.0,0.0,0.0,0.0,0.0,0.0,0.0,0.0,0.0,0.0,0.0,0,0,0,0,0,0,0,1,0,0,1,0,0
706609884,10.5723,10.4556,25.8133,26.4052,0.0,4277.7,1.0,1.0,nan,0,0.0,0.0,0.0,0.0,0.0,0.0,0.0,0.0,0.0,0.0,0.0,0,0,0,0,0,0,0,1,0,0,1,0,0
706909847,10.5432,10.4652,26.663,26.4309,0.0,4279.9,1.0,1.0,nan,0,0.0,0.0,0.0,0.0,0.0,0.0,0.0,0.0,0.0,0.0,0.0,0,0,0,0,0,0,0,1,0,0,1,0,0
707209842,10.5723,10.4748,26.6337,26.3353,0.0,4282.09,1.0,1.0,nan,0,0.0,0.0,0.0,0.0,0.0,0.0,0.0,0.0,0.0,0.0,0.0,0,0,0,0,0,0,0,1,0,0,1,0,0
707509794,10.5577,10.465,26.3407,26.7129,0.0,4284.35,1.0,1.0,nan,0,0.0,0.0,0.0,0.0,0.0,0.0,0.0,0.0,0.0,0.0,0.0,0,0,0,0,0,0,0,1,0,0,1,0,0
707809773,10.4557,10.464,27.8057,26.7514,0.0,4286.58,1.0,1.0,nan,0,0.0,0.0,0.0,0.0,0.0,0.0,0.0,0.0,0.0,0.0,0.0,0,0,0,0,0,0,0,1,0,0,1,0,0
708109859,10.5577,10.4525,27.1025,27.1442,0.0,4288.88,1.0,1.0,nan,0,0.0,0.0,0.0,0.0,0.0,0.0,0.0,0.0,0.0,0.0,0.0,0,0,0,0,0,0,0,1,0,0,1,0,0
708409773,10.5432,10.4537,26.3993,26.9648,0.0,4291.11,1.0,1.0,nan,0,0.0,0.0,0.0,0.0,0.0,0.0,0.0,0.0,0.0,0.0,0.0,0,0,0,0,0,0,0,1,0,0,1,0,0
708709778,10.5432,10.443,27.0439,27.1986,0.0,4293.4,1.0,1.0,nan,0,0.0,0.0,0.0,0.0,0.0,0.0,0.0,0.0,0.0,0.0,0.0,0,0,0,0,0,0,0,1,0,0,1,0,0
709009773,10.5577,10.442,27.0732,27.1889,0.0,4295.67,1.0,1.0,nan,0,0.0,0.0,0.0,0.0,0.0,0.0,0.0,0.0,0.0,0.0,0.0,0,0,0,0,0,0,0,1,0,0,1,0,0
709309773,10.5869,10.4392,27.7178,27.413,0.0,4297.97,1.0,1.0,nan,0,0.0,0.0,0.0,0.0,0.0,0.0,0.0,0.0,0.0,0.0,0.0,0,0,0,0,0,0,0,1,0,0,1,0,0
709609773,10.4994,10.4395,26.8388,27.3083,0.0,4300.24,1.0,1.0,nan,0,0.0,0.0,0.0,0.0,0.0,0.0,0.0,0.0,0.0,0.0,0.0,0,0,0,0,0,0,0,1,0,0,1,0,0
709909893,10.4848,10.4378,26.8974,27.2079,0.0,4302.5,1.0,1.0,nan,0,0.0,0.0,0.0,0.0,0.0,0.0,0.0,0.0,0.0,0.0,0.0,0,0,0,0,0,0,0,1,0,0,1,0,0
710210138,10.5577,10.4408,27.3076,27.236,0.0,4304.77,1.0,1.0,nan,0,0.0,0.0,0.0,0.0,0.0,0.0,0.0,0.0,0.0,0.0,0.0,0,0,0,0,0,0,0,1,0,0,1,0,0
710509773,10.5286,10.4385,27.5127,27.3939,0.0,4307.07,1.0,1.0,nan,0,0.0,0.0,0.0,0.0,0.0,0.0,0.0,0.0,0.0,0.0,0.0,0,0,0,0,0,0,0,1,0,0,1,0,0
710810299,10.514,10.4454,26.8095,27.2118,0.0,4309.32,1.0,1.0,nan,0,0.0,0.0,0.0,0.0,0.0,0.0,0.0,0.0,0.0,0.0,0.0,0,0,0,0,0,0,0,1,0,0,1,0,0
711109779,10.4848,10.4513,27.249,27.1268,0.0,4311.57,1.0,1.0,nan,0,0.0,0.0,0.0,0.0,0.0,0.0,0.0,0.0,0.0,0.0,0.0,0,0,0,0,0,0,0,1,0,0,1,0,0
711409773,10.5286,10.4592,27.1904,27.2044,0.0,4313.84,1.0,1.0,nan,0,0.0,0.0,0.0,0.0,0.0,0.0,0.0,0.0,0.0,0.0,0.0,0,0,0,0,0,0,0,1,0,0,1,0,0
711709773,10.4994,10.4349,28.2745,28.3438,0.0,4316.32,1.0,1.0,nan,0,0.0,0.0,0.0,0.0,0.0,0.0,0.0,0.0,0.0,0.0,0.0,0,0,0,0,0,0,0,1,0,0,1,0,0
712009774,10.4994,10.4269,28.5968,28.4482,0.0,4318.7,1.0,1.0,nan,0,0.0,0.0,0.0,0.0,0.0,0.0,0.0,0.0,0.0,0.0,0.0,0,0,0,0,0,0,0,1,0,0,1,0,0
712309838,10.5286,10.4328,28.9191,28.6166,0.0,4321.1,1.0,1.0,nan,0,0.0,0.0,0.0,0.0,0.0,0.0,0.0,0.0,0.0,0.0,0.0,0,0,0,0,0,0,0,1,0,0,1,0,0
712609936,10.4702,10.4223,28.421,28.7943,0.0,4323.51,1.0,1.0,nan,0,0.0,0.0,0.0,0.0,0.0,0.0,0.0,0.0,0.0,0.0,0.0,0,0,0,0,0,0,0,1,0,0,1,0,0
712909797,10.4848,10.4208,29.3,28.8798,0.0,4325.93,1.0,1.0,nan,0,0.0,0.0,0.0,0.0,0.0,0.0,0.0,0.0,0.0,0.0,0.0,0,0,0,0,0,0,0,1,0,0,1,0,0
713209775,10.5432,10.4132,27.542,28.5881,0.0,4328.29,1.0,1.0,nan,0,0.0,0.0,0.0,0.0,0.0,0.0,0.0,0.0,0.0,0.0,0.0,0,0,0,0,0,0,0,1,0,0,1,0,0
713509773,10.4848,10.4188,27.8057,28.3392,0.0,4330.62,1.0,1.0,nan,0,0.0,0.0,0.0,0.0,0.0,0.0,0.0,0.0,0.0,0.0,0.0,0,0,0,0,0,0,0,1,0,0,1,0,0
713809786,10.4702,10.4164,27.6299,28.0895,0.0,4332.94,1.0,1.0,nan,0,0.0,0.0,0.0,0.0,0.0,0.0,0.0,0.0,0.0,0.0,0.0,0,0,0,0,0,0,0,1,0,0,1,0,0
714109818,10.4994,10.4192,28.8898,28.2014,0.0,4335.29,1.0,1.0,nan,0,0.0,0.0,0.0,0.0,0.0,0.0,0.0,0.0,0.0,0.0,0.0,0,0,0,0,0,0,0,1,0,0,1,0,0
714409775,10.5286,10.4181,28.0401,28.1527,0.0,4337.63,1.0,1.0,nan,0,0.0,0.0,0.0,0.0,0.0,0.0,0.0,0.0,0.0,0.0,0.0,0,0,0,0,0,0,0,1,0,0,1,0,0
714709772,10.514,10.4219,27.5127,27.9169,0.0,4339.94,1.0,1.0,nan,0,0.0,0.0,0.0,0.0,0.0,0.0,0.0,0.0,0.0,0.0,0.0,0,0,0,0,0,0,0,1,0,0,1,0,0
715009916,10.514,10.4184,28.6261,27.9282,0.0,4342.26,1.0,1.0,nan,0,0.0,0.0,0.0,0.0,0.0,0.0,0.0,0.0,0.0,0.0,0.0,0,0,0,0,0,0,0,1,0,0,1,0,0
715309863,10.4994,10.4135,27.8643,28.179,0.0,4344.63,1.0,1.0,nan,0,0.0,0.0,0.0,0.0,0.0,0.0,0.0,0.0,0.0,0.0,0.0,0,0,0,0,0,0,0,1,0,0,1,0,0
715609805,10.514,10.4271,27.6299,28.0418,0.0,4346.96,1.0,1.0,nan,0,0.0,0.0,0.0,0.0,0.0,0.0,0.0,0.0,0.0,0.0,0.0,0,0,0,0,0,0,0,1,0,0,1,0,0
715909774,10.514,10.4231,27.4834,27.9013,0.0,4349.27,1.0,1.0,nan,0,0.0,0.0,0.0,0.0,0.0,0.0,0.0,0.0,0.0,0.0,0.0,0,0,0,0,0,0,0,1,0,0,1,0,0
716209773,10.514,10.4306,27.4248,27.7985,0.0,4351.57,1.0,1.0,nan,0,0.0,0.0,0.0,0.0,0.0,0.0,0.0,0.0,0.0,0.0,0.0,0,0,0,0,0,0,0,1,0,0,1,0,0
716509773,10.4994,10.424,27.542,27.8302,0.0,4353.9,1.0,1.0,nan,0,0.0,0.0,0.0,0.0,0.0,0.0,0.0,0.0,0.0,0.0,0.0,0,0,0,0,0,0,0,1,0,0,1,0,0
716809797,10.5432,10.4265,27.2783,27.7269,0.0,4356.2,1.0,1.0,nan,0,0.0,0.0,0.0,0.0,0.0,0.0,0.0,0.0,0.0,0.0,0.0,0,0,0,0,0,0,0,1,0,0,1,0,0
717109773,10.514,10.4275,27.542,27.5904,0.0,4358.49,1.0,1.0,nan,0,0.0,0.0,0.0,0.0,0.0,0.0,0.0,0.0,0.0,0.0,0.0,0,0,0,0,0,0,0,1,0,0,1,0,0
717409957,10.4848,10.4286,28.0108,27.7783,0.0,4360.82,1.0,1.0,nan,0,0.0,0.0,0.0,0.0,0.0,0.0,0.0,0.0,0.0,0.0,0.0,0,0,0,0,0,0,0,1,0,0,1,0,0
717709774,10.4994,10.4249,27.8057,27.9133,0.0,4363.16,1.0,1.0,nan,0,0.0,0.0,0.0,0.0,0.0,0.0,0.0,0.0,0.0,0.0,0.0,0,0,0,0,0,0,0,1,0,0,1,0,0
718009773,10.5869,10.4439,25.5203,27.4391,0.0,4365.4,1.0,1.0,nan,0,0.0,0.0,0.0,0.0,0.0,0.0,0.0,0.0,0.0,0.0,0.0,0,0,0,0,0,0,0,1,0,0,1,0,0
718309851,10.5577,10.4607,26.0184,26.4465,0.0,4367.5,1.0,1.0,nan,0,0.0,0.0,0.0,0.0,0.0,0.0,0.0,0.0,0.0,0.0,0.0,0,0,0,0,0,0,0,1,0,0,1,0,0
718609773,10.5723,10.469,26.5751,26.3062,0.0,4369.68,1.0,1.0,nan,0,0.0,0.0,0.0,0.0,0.0,0.0,0.0,0.0,0.0,0.0,0.0,0,0,0,0,0,0,0,1,0,0,1,0,0
718910468,10.4994,10.4496,28.5089,27.1212,0.0,4372.01,1.0,1.0,nan,0,0.0,0.0,0.0,0.0,0.0,0.0,0.0,0.0,0.0,0.0,0.0,0,0,0,0,0,0,0,1,0,0,1,0,0
719209773,10.5432,10.447,27.0146,27.3642,0.0,4374.32,1.0,1.0,nan,0,0.0,0.0,0.0,0.0,0.0,0.0,0.0,0.0,0.0,0.0,0.0,0,0,0,0,0,0,0,1,0,0,1,0,0
719509782,10.514,10.4403,27.4834,27.4726,0.0,4376.62,1.0,1.0,nan,0,0.0,0.0,0.0,0.0,0.0,0.0,0.0,0.0,0.0,0.0,0.0,0,0,0,0,0,0,0,1,0,0,1,0,0
719809773,10.5286,10.4429,27.6299,27.5643,0.0,4378.92,1.0,1.0,nan,0,0.0,0.0,0.0,0.0,0.0,0.0,0.0,0.0,0.0,0.0,0.0,0,0,0,0,0,0,0,1,0,0,1,0,0
720109781,10.514,10.437,26.9267,27.6175,0.0,4381.24,1.0,1.0,nan,0,0.0,0.0,0.0,0.0,0.0,0.0,0.0,0.0,0.0,0.0,0.0,0,0,0,0,0,0,0,1,0,0,1,0,0
720409774,10.514,10.4348,27.3662,27.5244,0.0,4383.52,1.0,1.0,nan,0,0.0,0.0,0.0,0.0,0.0,0.0,0.0,0.0,0.0,0.0,0.0,0,0,0,0,0,0,0,1,0,0,1,0,0
720709874,10.5432,10.4315,27.5127,27.5725,0.0,4385.82,1.0,1.0,nan,0,0.0,0.0,0.0,0.0,0.0,0.0,0.0,0.0,0.0,0.0,0.0,0,0,0,0,0,0,0,1,0,0,1,0,0
721009773,10.4994,10.4385,26.9853,27.5077,0.0,4388.11,1.0,1.0,nan,0,0.0,0.0,0.0,0.0,0.0,0.0,0.0,0.0,0.0,0.0,0.0,0,0,0,0,0,0,0,1,0,0,1,0,0
721309774,10.4702,10.4428,27.4541,27.5463,0.0,4390.41,1.0,1.0,nan,0,0.0,0.0,0.0,0.0,0.0,0.0,0.0,0.0,0.0,0.0,0.0,0,0,0,0,0,0,0,1,0,0,1,0,0
721609793,10.4994,10.4348,27.6885,27.5431,0.0,4392.71,1.0,1.0,nan,0,0.0,0.0,0.0,0.0,0.0,0.0,0.0,0.0,0.0,0.0,0.0,0,0,0,0,0,0,0,1,0,0,1,0,0
721909773,10.514,10.4319,28.0694,27.6105,0.0,4395.01,1.0,1.0,nan,0,0.0,0.0,0.0,0.0,0.0,0.0,0.0,0.0,0.0,0.0,0.0,0,0,0,0,0,0,0,1,0,0,1,0,0
722209834,10.5432,10.4254,27.6885,27.7607,0.0,4397.34,1.0,1.0,nan,0,0.0,0.0,0.0,0.0,0.0,0.0,0.0,0.0,0.0,0.0,0.0,0,0,0,0,0,0,0,1,0,0,1,0,0
722510204,10.5286,10.4325,28.0987,27.8292,0.0,4399.67,1.0,1.0,nan,0,0.0,0.0,0.0,0.0,0.0,0.0,0.0,0.0,0.0,0.0,0.0,0,0,0,0,0,0,0,1,0,0,1,0,0
722809811,10.514,10.4271,28.3038,28.0227,0.0,4402.02,1.0,1.0,nan,0,0.0,0.0,0.0,0.0,0.0,0.0,0.0,0.0,0.0,0.0,0.0,0,0,0,0,0,0,0,1,0,0,1,0,0
723109773,10.3244,10.4213,26.8974,27.8227,0.0,4404.32,1.0,1.0,nan,0,0.0,0.0,0.0,0.0,0.0,0.0,0.0,0.0,0.0,0.0,0.0,0,0,0,0,0,0,0,1,0,0,1,0,0
723409773,10.4848,10.429,28.2452,27.9999,0.0,4406.67,1.0,1.0,nan,0,0.0,0.0,0.0,0.0,0.0,0.0,0.0,0.0,0.0,0.0,0.0,0,0,0,0,0,0,0,1,0,0,1,0,0
723709809,10.514,10.4193,27.5713,28.1192,0.0,4409.03,1.0,1.0,nan,0,0.0,0.0,0.0,0.0,0.0,0.0,0.0,0.0,0.0,0.0,0.0,0,0,0,0,0,0,0,1,0,0,1,0,0
724010013,10.5286,10.4285,27.4248,27.953,0.0,4411.34,1.0,1.0,nan,0,0.0,0.0,0.0,0.0,0.0,0.0,0.0,0.0,0.0,0.0,0.0,0,0,0,0,0,0,0,1,0,0,1,0,0
724309778,10.4994,10.4246,27.6006,27.7604,0.0,4413.64,1.0,1.0,nan,0,0.0,0.0,0.0,0.0,0.0,0.0,0.0,0.0,0.0,0.0,0.0,0,0,0,0,0,0,0,1,0,0,1,0,0
724609774,10.5286,10.4183,27.3076,27.7984,0.0,4415.96,1.0,1.0,nan,0,0.0,0.0,0.0,0.0,0.0,0.0,0.0,0.0,0.0,0.0,0.0,0,0,0,0,0,0,0,1,0,0,1,0,0
724909804,10.4557,10.4161,26.6923,27.8163,0.0,4418.28,1.0,1.0,nan,0,0.0,0.0,0.0,0.0,0.0,0.0,0.0,0.0,0.0,0.0,0.0,0,0,0,0,0,0,0,1,0,0,1,0,0
725209801,10.4848,10.3898,28.714,29.6767,0.0,4420.96,1.0,1.0,nan,0,0.0,0.0,0.0,0.0,0.0,0.0,0.0,0.0,0.0,0.0,0.0,0,0,0,0,0,0,0,1,0,0,1,0,0
725509784,10.4557,10.382,29.5051,29.7571,0.0,4423.44,1.0,1.0,nan,0,0.0,0.0,0.0,0.0,0.0,0.0,0.0,0.0,0.0,0.0,0.0,0,0,0,0,0,0,0,1,0,0,1,0,0
725809773,10.4994,10.3796,27.9522,29.2855,0.0,4425.84,1.0,1.0,nan,0,0.0,0.0,0.0,0.0,0.0,0.0,0.0,0.0,0.0,0.0,0.0,0,0,0,0,0,0,0,1,0,0,1,0,0
726109773,10.2661,10.3695,28.7726,28.9208,0.0,4428.21,1.0,1.0,nan,0,0.0,0.0,0.0,0.0,0.0,0.0,0.0,0.0,0.0,0.0,0.0,0,0,0,0,0,0,0,1,0,0,1,0,0
726409792,10.514,10.3751,28.0987,28.972,0.0,4430.64,1.0,1.0,nan,0,0.0,0.0,0.0,0.0,0.0,0.0,0.0,0.0,0.0,0.0,0.0,0,0,0,0,0,0,0,1,0,0,1,0,0
726710002,10.2515,10.388,27.9229,28.7678,0.0,4433.02,1.0,1.0,nan,0,0.0,0.0,0.0,0.0,0.0,0.0,0.0,0.0,0.0,0.0,0.0,0,0,0,0,0,0,0,1,0,0,1,0,0
727009791,10.4702,10.3856,28.4796,28.5721,0.0,4435.38,1.0,1.0,nan,0,0.0,0.0,0.0,0.0,0.0,0.0,0.0,0.0,0.0,0.0,0.0,0,0,0,0,0,0,0,1,0,0,1,0,0
727309773,10.4557,10.3958,28.6261,28.5541,0.0,4437.75,1.0,1.0,nan,0,0.0,0.0,0.0,0.0,0.0,0.0,0.0,0.0,0.0,0.0,0.0,0,0,0,0,0,0,0,1,0,0,1,0,0
727609773,10.4702,10.3885,28.421,28.6064,0.0,4440.14,1.0,1.0,nan,0,0.0,0.0,0.0,0.0,0.0,0.0,0.0,0.0,0.0,0.0,0.0,0,0,0,0,0,0,0,1,0,0,1,0,0
727909773,10.4411,10.3987,27.7471,28.3948,0.0,4442.49,1.0,1.0,nan,0,0.0,0.0,0.0,0.0,0.0,0.0,0.0,0.0,0.0,0.0,0.0,0,0,0,0,0,0,0,1,0,0,1,0,0
728209774,10.4848,10.3992,28.1573,28.4379,0.0,4444.87,1.0,1.0,nan,0,0.0,0.0,0.0,0.0,0.0,0.0,0.0,0.0,0.0,0.0,0.0,0,0,0,0,0,0,0,1,0,0,1,0,0
728509828,10.4119,10.4016,28.6554,28.5123,0.0,4447.25,1.0,1.0,nan,0,0.0,0.0,0.0,0.0,0.0,0.0,0.0,0.0,0.0,0.0,0.0,0,0,0,0,0,0,0,1,0,0,1,0,0
728809773,10.3973,10.4045,27.1904,28.3006,0.0,4449.59,1.0,1.0,nan,0,0.0,0.0,0.0,0.0,0.0,0.0,0.0,0.0,0.0,0.0,0.0,0,0,0,0,0,0,0,1,0,0,1,0,0
729110048,10.2807,10.402,27.3369,27.858,0.0,4451.87,1.0,1.0,nan,0,0.0,0.0,0.0,0.0,0.0,0.0,0.0,0.0,0.0,0.0,0.0,0,0,0,0,0,0,0,1,0,0,1,0,0
729409774,10.339,10.4101,26.8388,27.4825,0.0,4454.12,1.0,1.0,nan,0,0.0,0.0,0.0,0.0,0.0,0.0,0.0,0.0,0.0,0.0,0.0,0,0,0,0,0,0,0,1,0,0,1,0,0
729709783,10.339,10.398,27.0732,27.3187,0.0,4456.39,1.0,1.0,nan,0,0.0,0.0,0.0,0.0,0.0,0.0,0.0,0.0,0.0,0.0,0.0,0,0,0,0,0,0,0,1,0,0,1,0,0
730009827,10.3973,10.4024,26.3407,26.6113,0.0,4458.53,1.0,1.0,nan,0,0.0,0.0,0.0,0.0,0.0,0.0,0.0,0.0,0.0,0.0,0.0,0,0,0,0,0,0,0,1,0,0,1,0,0
730309849,10.3828,10.4032,25.9891,26.4107,0.0,4460.71,1.0,1.0,nan,0,0.0,0.0,0.0,0.0,0.0,0.0,0.0,0.0,0.0,0.0,0.0,0,0,0,0,0,0,0,1,0,0,1,0,0
730609775,10.2661,10.3882,27.0146,26.6416,0.0,4462.95,1.0,1.0,nan,0,0.0,0.0,0.0,0.0,0.0,0.0,0.0,0.0,0.0,0.0,0.0,0,0,0,0,0,0,0,1,0,0,1,0,0
730909776,10.4119,10.3896,26.3407,26.5269,0.0,4465.14,1.0,1.0,nan,0,0.0,0.0,0.0,0.0,0.0,0.0,0.0,0.0,0.0,0.0,0.0,0,0,0,0,0,0,0,1,0,0,1,0,0
731209773,10.3536,10.3824,26.37,26.4936,0.0,4467.35,1.0,1.0,nan,0,0.0,0.0,0.0,0.0,0.0,0.0,0.0,0.0,0.0,0.0,0.0,0,0,0,0,0,0,0,1,0,0,1,0,0
731509773,10.3973,10.3682,26.956,26.6127,0.0,4469.58,1.0,1.0,nan,0,0.0,0.0,0.0,0.0,0.0,0.0,0.0,0.0,0.0,0.0,0.0,0,0,0,0,0,0,0,1,0,0,1,0,0
731809774,10.3244,10.3553,27.3955,26.9747,0.0,4471.86,1.0,1.0,nan,0,0.0,0.0,0.0,0.0,0.0,0.0,0.0,0.0,0.0,0.0,0.0,0,0,0,0,0,0,0,1,0,0,1,0,0
732109866,10.3098,10.3398,27.542,27.3976,0.0,4474.19,1.0,1.0,nan,0,0.0,0.0,0.0,0.0,0.0,0.0,0.0,0.0,0.0,0.0,0.0,0,0,0,0,0,0,0,1,0,0,1,0,0
732409837,10.3098,10.3431,27.9522,27.5272,0.0,4476.5,1.0,1.0,nan,0,0.0,0.0,0.0,0.0,0.0,0.0,0.0,0.0,0.0,0.0,0.0,0,0,0,0,0,0,0,1,0,0,1,0,0
732709793,10.2369,10.3264,27.9229,27.791,0.0,4478.84,1.0,1.0,nan,0,0.0,0.0,0.0,0.0,0.0,0.0,0.0,0.0,0.0,0.0,0.0,0,0,0,0,0,0,0,1,0,0,1,0,0
733009774,10.2807,10.329,27.5713,27.8025,0.0,4481.16,1.0,1.0,nan,0,0.0,0.0,0.0,0.0,0.0,0.0,0.0,0.0,0.0,0.0,0.0,0,0,0,0,0,0,0,1,0,0,1,0,0
733309808,10.2369,10.3242,27.7764,27.8904,0.0,4483.49,1.0,1.0,nan,0,0.0,0.0,0.0,0.0,0.0,0.0,0.0,0.0,0.0,0.0,0.0,0,0,0,0,0,0,0,1,0,0,1,0,0
733609773,10.3244,10.3321,27.3662,27.7267,0.0,4485.79,1.0,1.0,nan,0,0.0,0.0,0.0,0.0,0.0,0.0,0.0,0.0,0.0,0.0,0.0,0,0,0,0,0,0,0,1,0,0,1,0,0
733909829,10.3244,10.3317,27.1611,27.647,0.0,4488.09,1.0,1.0,nan,0,0.0,0.0,0.0,0.0,0.0,0.0,0.0,0.0,0.0,0.0,0.0,0,0,0,0,0,0,0,1,0,0,1,0,0
734210334,10.3244,10.3317,27.9229,28.0119,0.0,4490.46,1.0,1.0,nan,0,0.0,0.0,0.0,0.0,0.0,0.0,0.0,0.0,0.0,0.0,0.0,0,0,0,0,0,0,0,1,0,0,1,0,0
734509805,10.3098,10.3364,27.6592,28.0977,0.0,4492.81,1.0,1.0,nan,0,0.0,0.0,0.0,0.0,0.0,0.0,0.0,0.0,0.0,0.0,0.0,0,0,0,0,0,0,0,1,0,0,1,0,0
734809774,10.2807,10.3361,28.2159,28.2168,0.0,4495.17,1.0,1.0,nan,0,0.0,0.0,0.0,0.0,0.0,0.0,0.0,0.0,0.0,0.0,0.0,0,0,0,0,0,0,0,1,0,0,1,0,0
735109773,10.2369,10.3416,27.7471,28.1999,0.0,4497.52,1.0,1.0,nan,0,0.0,0.0,0.0,0.0,0.0,0.0,0.0,0.0,0.0,0.0,0.0,0,0,0,0,0,0,0,1,0,0,1,0,0
735409773,10.2807,10.3243,28.8898,28.4395,0.0,4499.91,1.0,1.0,nan,0,0.0,0.0,0.0,0.0,0.0,0.0,0.0,0.0,0.0,0.0,0.0,0,0,0,0,0,0,0,1,0,0,1,0,0
735709985,10.2223,10.3179,29.3586,28.5537,0.0,4502.31,1.0,1.0,nan,0,0.0,0.0,0.0,0.0,0.0,0.0,0.0,0.0,0.0,0.0,0.0,0,0,0,0,0,0,0,1,0,0,1,0,0
736009776,10.2807,10.3035,28.2452,28.5711,0.0,4504.69,1.0,1.0,nan,0,0.0,0.0,0.0,0.0,0.0,0.0,0.0,0.0,0.0,0.0,0.0,0,0,0,0,0,0,0,1,0,0,1,0,0
736309773,10.2078,10.3072,28.9484,28.5252,0.0,4507.06,1.0,1.0,nan,0,0.0,0.0,0.0,0.0,0.0,0.0,0.0,0.0,0.0,0.0,0.0,0,0,0,0,0,0,0,1,0,0,1,0,0
736609777,10.2369,10.2964,29.0949,28.729,0.0,4509.48,1.0,1.0,nan,0,0.0,0.0,0.0,0.0,0.0,0.0,0.0,0.0,0.0,0.0,0.0,0,0,0,0,0,0,0,1,0,0,1,0,0
736909774,10.2953,10.2903,28.8605,28.82,0.0,4511.9,1.0,1.0,nan,0,0.0,0.0,0.0,0.0,0.0,0.0,0.0,0.0,0.0,0.0,0.0,0,0,0,0,0,0,0,1,0,0,1,0,0
737209835,10.2661,10.2779,29.2121,29.0298,0.0,4514.34,1.0,1.0,nan,0,0.0,0.0,0.0,0.0,0.0,0.0,0.0,0.0,0.0,0.0,0.0,0,0,0,0,0,0,0,1,0,0,1,0,0
737509871,10.2807,10.2674,29.3,29.1762,0.0,4516.78,1.0,1.0,nan,0,0.0,0.0,0.0,0.0,0.0,0.0,0.0,0.0,0.0,0.0,0.0,0,0,0,0,0,0,0,1,0,0,1,0,0
737809773,10.2369,10.2732,28.9777,29.2107,0.0,4519.22,1.0,1.0,nan,0,0.0,0.0,0.0,0.0,0.0,0.0,0.0,0.0,0.0,0.0,0.0,0,0,0,0,0,0,0,1,0,0,1,0,0
738109774,10.2515,10.2718,28.5382,29.2014,0.0,4521.65,1.0,1.0,nan,0,0.0,0.0,0.0,0.0,0.0,0.0,0.0,0.0,0.0,0.0,0.0,0,0,0,0,0,0,0,1,0,0,1,0,0
738409773,10.2807,10.2808,27.7764,28.6955,0.0,4524.0,1.0,1.0,nan,0,0.0,0.0,0.0,0.0,0.0,0.0,0.0,0.0,0.0,0.0,0.0,0,0,0,0,0,0,0,1,0,0,1,0,0
738709774,10.3098,10.2841,28.0401,28.501,0.0,4526.35,1.0,1.0,nan,0,0.0,0.0,0.0,0.0,0.0,0.0,0.0,0.0,0.0,0.0,0.0,0,0,0,0,0,0,0,1,0,0,1,0,0
739009871,10.2369,10.2938,28.0987,28.3891,0.0,4528.7,1.0,1.0,nan,0,0.0,0.0,0.0,0.0,0.0,0.0,0.0,0.0,0.0,0.0,0.0,0,0,0,0,0,0,0,1,0,0,1,0,0
739309773,10.2515,10.295,28.2452,28.281,0.0,4531.05,1.0,1.0,nan,0,0.0,0.0,0.0,0.0,0.0,0.0,0.0,0.0,0.0,0.0,0.0,0,0,0,0,0,0,0,1,0,0,1,0,0
739609783,10.2223,10.293,28.4796,28.4304,0.0,4533.43,1.0,1.0,nan,0,0.0,0.0,0.0,0.0,0.0,0.0,0.0,0.0,0.0,0.0,0.0,0,0,0,0,0,0,0,1,0,0,1,0,0
739909791,10.2661,10.2915,27.6006,28.3201,0.0,4535.79,1.0,1.0,nan,0,0.0,0.0,0.0,0.0,0.0,0.0,0.0,0.0,0.0,0.0,0.0,0,0,0,0,0,0,0,1,0,0,1,0,0
740209773,10.2661,10.2993,29.4465,28.3983,0.0,4538.15,1.0,1.0,nan,0,0.0,0.0,0.0,0.0,0.0,0.0,0.0,0.0,0.0,0.0,0.0,0,0,0,0,0,0,0,1,0,0,1,0,0
740509805,10.2661,10.3039,28.8605,28.6388,0.0,4540.56,1.0,1.0,nan,0,0.0,0.0,0.0,0.0,0.0,0.0,0.0,0.0,0.0,0.0,0.0,0,0,0,0,0,0,0,1,0,0,1,0,0
740810498,10.2223,10.3063,28.5382,28.734,0.0,4542.97,1.0,1.0,nan,0,0.0,0.0,0.0,0.0,0.0,0.0,0.0,0.0,0.0,0.0,0.0,0,0,0,0,0,0,0,1,0,0,1,0,0
741109813,10.2369,10.3042,28.6261,28.8836,0.0,4545.39,1.0,1.0,nan,0,0.0,0.0,0.0,0.0,0.0,0.0,0.0,0.0,0.0,0.0,0.0,0,0,0,0,0,0,0,1,0,0,1,0,0
741409807,10.2223,10.2957,29.0656,28.9258,0.0,4547.81,1.0,1.0,nan,0,0.0,0.0,0.0,0.0,0.0,0.0,0.0,0.0,0.0,0.0,0.0,0,0,0,0,0,0,0,1,0,0,1,0,0
741709863,10.2515,10.2897,28.6847,28.9093,0.0,4550.22,1.0,1.0,nan,0,0.0,0.0,0.0,0.0,0.0,0.0,0.0,0.0,0.0,0.0,0.0,0,0,0,0,0,0,0,1,0,0,1,0,0
742009862,10.2661,10.2955,29.007,28.9099,0.0,4552.62,1.0,1.0,nan,0,0.0,0.0,0.0,0.0,0.0,0.0,0.0,0.0,0.0,0.0,0.0,0,0,0,0,0,0,0,1,0,0,1,0,0
742309784,10.2369,10.2944,28.421,28.8675,0.0,4555.02,1.0,1.0,nan,0,0.0,0.0,0.0,0.0,0.0,0.0,0.0,0.0,0.0,0.0,0.0,0,0,0,0,0,0,0,1,0,0,1,0,0
742609773,10.2661,10.286,28.4503,28.8359,0.0,4557.42,1.0,1.0,nan,0,0.0,0.0,0.0,0.0,0.0,0.0,0.0,0.0,0.0,0.0,0.0,0,0,0,0,0,0,0,1,0,0,1,0,0
742909835,10.3244,10.287,27.5713,28.704,0.0,4559.81,1.0,1.0,nan,0,0.0,0.0,0.0,0.0,0.0,0.0,0.0,0.0,0.0,0.0,0.0,0,0,0,0,0,0,0,1,0,0,1,0,0
743209774,10.3682,10.3203,25.2566,27.399,0.0,4561.96,1.0,1.0,nan,0,0.0,0.0,0.0,0.0,0.0,0.0,0.0,0.0,0.0,0.0,0.0,0,0,0,0,0,0,0,1,0,0,1,0,0
743509813,10.2953,10.3414,25.9891,26.7956,0.0,4564.13,1.0,1.0,nan,0,0.0,0.0,0.0,0.0,0.0,0.0,0.0,0.0,0.0,0.0,0.0,0,0,0,0,0,0,0,1,0,0,1,0,0
743809842,10.339,10.3373,25.7547,26.6015,0.0,4566.33,1.0,1.0,nan,0,0.0,0.0,0.0,0.0,0.0,0.0,0.0,0.0,0.0,0.0,0.0,0,0,0,0,0,0,0,1,0,0,1,0,0
744109773,10.3098,10.3465,26.5165,26.6098,0.0,4568.54,1.0,1.0,nan,0,0.0,0.0,0.0,0.0,0.0,0.0,0.0,0.0,0.0,0.0,0.0,0,0,0,0,0,0,0,1,0,0,1,0,0
744409773,10.3828,10.3518,25.2566,26.3156,0.0,4570.71,1.0,1.0,nan,0,0.0,0.0,0.0,0.0,0.0,0.0,0.0,0.0,0.0,0.0,0.0,0,0,0,0,0,0,0,1,0,0,1,0,0
744709774,10.3098,10.3592,27.1318,26.3839,0.0,4572.91,1.0,1.0,nan,0,0.0,0.0,0.0,0.0,0.0,0.0,0.0,0.0,0.0,0.0,0.0,0,0,0,0,0,0,0,1,0,0,1,0,0
745009923,10.2953,10.3609,27.0439,26.6875,0.0,4575.17,1.0,1.0,nan,0,0.0,0.0,0.0,0.0,0.0,0.0,0.0,0.0,0.0,0.0,0.0,0,0,0,0,0,0,0,1,0,0,1,0,0
745309778,10.2807,10.3628,26.7509,26.683,0.0,4577.39,1.0,1.0,nan,0,0.0,0.0,0.0,0.0,0.0,0.0,0.0,0.0,0.0,0.0,0.0,0,0,0,0,0,0,0,1,0,0,1,0,0
745609775,10.3098,10.3562,26.1356,27.0298,0.0,4579.68,1.0,1.0,nan,0,0.0,0.0,0.0,0.0,0.0,0.0,0.0,0.0,0.0,0.0,0.0,0,0,0,0,0,0,0,1,0,0,1,0,0
745910298,10.339,10.3635,27.249,27.1024,0.0,4581.95,1.0,1.0,nan,0,0.0,0.0,0.0,0.0,0.0,0.0,0.0,0.0,0.0,0.0,0.0,0,0,0,0,0,0,0,1,0,0,1,0,0
746209773,10.2953,10.3697,26.0184,27.1442,0.0,4584.22,1.0,1.0,nan,0,0.0,0.0,0.0,0.0,0.0,0.0,0.0,0.0,0.0,0.0,0.0,0,0,0,0,0,0,0,1,0,0,1,0,0
746509775,10.2807,10.3586,27.1904,27.1698,0.0,4586.49,1.0,1.0,nan,0,0.0,0.0,0.0,0.0,0.0,0.0,0.0,0.0,0.0,0.0,0.0,0,0,0,0,0,0,0,1,0,0,1,0,0
746809776,10.3098,10.3595,27.6299,27.1773,0.0,4588.75,1.0,1.0,nan,0,0.0,0.0,0.0,0.0,0.0,0.0,0.0,0.0,0.0,0.0,0.0,0,0,0,0,0,0,0,1,0,0,1,0,0
747109773,10.2661,10.339,27.835,27.4051,0.0,4591.06,1.0,1.0,nan,0,0.0,0.0,0.0,0.0,0.0,0.0,0.0,0.0,0.0,0.0,0.0,0,0,0,0,0,0,0,1,0,0,1,0,0
747410395,10.1932,10.3259,29.0949,28.5319,0.0,4593.56,1.0,1.0,nan,0,0.0,0.0,0.0,0.0,0.0,0.0,0.0,0.0,0.0,0.0,0.0,0,0,0,0,0,0,0,1,0,0,1,0,0
747709843,10.2515,10.3257,28.0987,28.366,0.0,4595.91,1.0,1.0,nan,0,0.0,0.0,0.0,0.0,0.0,0.0,0.0,0.0,0.0,0.0,0.0,0,0,0,0,0,0,0,1,0,0,1,0,0
748009775,10.2953,10.3272,27.9522,28.2715,0.0,4598.26,1.0,1.0,nan,0,0.0,0.0,0.0,0.0,0.0,0.0,0.0,0.0,0.0,0.0,0.0,0,0,0,0,0,0,0,1,0,0,1,0,0
748309974,10.2515,10.3187,27.6299,28.1516,0.0,4600.6,1.0,1.0,nan,0,0.0,0.0,0.0,0.0,0.0,0.0,0.0,0.0,0.0,0.0,0.0,0,0,0,0,0,0,0,1,0,0,1,0,0
748609773,10.2515,10.3127,27.9815,28.1035,0.0,4602.93,1.0,1.0,nan,0,0.0,0.0,0.0,0.0,0.0,0.0,0.0,0.0,0.0,0.0,0.0,0,0,0,0,0,0,0,1,0,0,1,0,0
748909774,10.2953,10.3274,27.9229,28.0071,0.0,4605.26,1.0,1.0,nan,0,0.0,0.0,0.0,0.0,0.0,0.0,0.0,0.0,0.0,0.0,0.0,0,0,0,0,0,0,0,1,0,0,1,0,0
749209774,10.2369,10.3246,29.5637,28.0569,0.0,4607.59,1.0,1.0,nan,0,0.0,0.0,0.0,0.0,0.0,0.0,0.0,0.0,0.0,0.0,0.0,0,0,0,0,0,0,0,1,0,0,1,0,0
749509803,10.2953,10.322,27.9522,28.4035,0.0,4610.01,1.0,1.0,nan,0,0.0,0.0,0.0,0.0,0.0,0.0,0.0,0.0,0.0,0.0,0.0,0,0,0,0,0,0,0,1,0,0,1,0,0
749809778,10.2515,10.3167,28.6261,28.3536,0.0,4612.37,1.0,1.0,nan,0,0.0,0.0,0.0,0.0,0.0,0.0,0.0,0.0,0.0,0.0,0.0,0,0,0,0,0,0,0,1,0,0,1,0,0
750109773,10.3244,10.3174,29.2414,28.6693,0.0,4614.79,1.0,1.0,nan,0,0.0,0.0,0.0,0.0,0.0,0.0,0.0,0.0,0.0,0.0,0.0,0,0,0,0,0,0,0,1,0,0,1,0,0
750409775,10.2223,10.3183,29.3586,28.8044,0.0,4617.2,1.0,1.0,nan,0,0.0,0.0,0.0,0.0,0.0,0.0,0.0,0.0,0.0,0.0,0.0,0,0,0,0,0,0,0,1,0,0,1,0,0
750709822,10.2369,10.3154,28.5089,29.0343,0.0,4619.65,1.0,1.0,nan,0,0.0,0.0,0.0,0.0,0.0,0.0,0.0,0.0,0.0,0.0,0.0,0,0,0,0,0,0,0,1,0,0,1,0,0
751009773,10.339,10.3181,29.2121,28.9919,0.0,4622.06,1.0,1.0,nan,0,0.0,0.0,0.0,0.0,0.0,0.0,0.0,0.0,0.0,0.0,0.0,0,0,0,0,0,0,0,1,0,0,1,0,0
751309780,10.2369,10.3226,29.1242,28.9415,0.0,4624.46,1.0,1.0,nan,0,0.0,0.0,0.0,0.0,0.0,0.0,0.0,0.0,0.0,0.0,0.0,0,0,0,0,0,0,0,1,0,0,1,0,0
751609895,10.1932,10.3211,28.8019,29.0151,0.0,4626.89,1.0,1.0,nan,0,0.0,0.0,0.0,0.0,0.0,0.0,0.0,0.0,0.0,0.0,0.0,0,0,0,0,0,0,0,1,0,0,1,0,0
751909886,10.2515,10.3256,28.6261,28.8546,0.0,4629.28,1.0,1.0,nan,0,0.0,0.0,0.0,0.0,0.0,0.0,0.0,0.0,0.0,0.0,0.0,0,0,0,0,0,0,0,1,0,0,1,0,0
752209773,10.2953,10.3352,28.0987,28.261,0.0,4631.58,1.0,1.0,nan,0,0.0,0.0,0.0,0.0,0.0,0.0,0.0,0.0,0.0,0.0,0.0,0,0,0,0,0,0,0,1,0,0,1,0,0
752510181,10.3682,10.3485,26.8974,27.8581,0.0,4633.86,1.0,1.0,nan,0,0.0,0.0,0.0,0.0,0.0,0.0,0.0,0.0,0.0,0.0,0.0,0,0,0,0,0,0,0,1,0,0,1,0,0
752809773,10.2661,10.3584,27.6006,27.5783,0.0,4636.12,1.0,1.0,nan,0,0.0,0.0,0.0,0.0,0.0,0.0,0.0,0.0,0.0,0.0,0.0,0,0,0,0,0,0,0,1,0,0,1,0,0
753109786,10.2515,10.3606,27.6592,27.7057,0.0,4638.45,1.0,1.0,nan,0,0.0,0.0,0.0,0.0,0.0,0.0,0.0,0.0,0.0,0.0,0.0,0,0,0,0,0,0,0,1,0,0,1,0,0
753409863,10.3244,10.359,27.835,27.9763,0.0,4640.81,1.0,1.0,nan,0,0.0,0.0,0.0,0.0,0.0,0.0,0.0,0.0,0.0,0.0,0.0,0,0,0,0,0,0,0,1,0,0,1,0,0
753709779,10.2807,10.3538,28.2452,28.0226,0.0,4643.15,1.0,1.0,nan,0,0.0,0.0,0.0,0.0,0.0,0.0,0.0,0.0,0.0,0.0,0.0,0,0,0,0,0,0,0,1,0,0,1,0,0
754009829,10.2807,10.3528,28.0987,28.2293,0.0,4645.52,1.0,1.0,nan,0,0.0,0.0,0.0,0.0,0.0,0.0,0.0,0.0,0.0,0.0,0.0,0,0,0,0,0,0,0,1,0,0,1,0,0
754309860,10.2515,10.3544,28.0694,28.3427,0.0,4647.9,1.0,1.0,nan,0,0.0,0.0,0.0,0.0,0.0,0.0,0.0,0.0,0.0,0.0,0.0,0,0,0,0,0,0,0,1,0,0,1,0,0
754609799,10.2223,10.3546,28.5968,28.3502,0.0,4650.26,1.0,1.0,nan,0,0.0,0.0,0.0,0.0,0.0,0.0,0.0,0.0,0.0,0.0,0.0,0,0,0,0,0,0,0,1,0,0,1,0,0
754909775,10.3244,10.3545,28.2745,28.3702,0.0,4652.63,1.0,1.0,nan,0,0.0,0.0,0.0,0.0,0.0,0.0,0.0,0.0,0.0,0.0,0.0,0,0,0,0,0,0,0,1,0,0,1,0,0
755209789,10.3098,10.3595,28.1573,28.2968,0.0,4654.98,1.0,1.0,nan,0,0.0,0.0,0.0,0.0,0.0,0.0,0.0,0.0,0.0,0.0,0.0,0,0,0,0,0,0,0,1,0,0,1,0,0
755509801,10.2223,10.3582,28.3624,28.3404,0.0,4657.35,1.0,1.0,nan,0,0.0,0.0,0.0,0.0,0.0,0.0,0.0,0.0,0.0,0.0,0.0,0,0,0,0,0,0,0,1,0,0,1,0,0
755809774,10.2661,10.3607,27.8936,28.2633,0.0,4659.69,1.0,1.0,nan,0,0.0,0.0,0.0,0.0,0.0,0.0,0.0,0.0,0.0,0.0,0.0,0,0,0,0,0,0,0,1,0,0,1,0,0
756109774,10.2223,10.3596,28.3038,28.2832,0.0,4662.05,1.0,1.0,nan,0,0.0,0.0,0.0,0.0,0.0,0.0,0.0,0.0,0.0,0.0,0.0,0,0,0,0,0,0,0,1,0,0,1,0,0
756409773,10.2661,10.3587,28.3624,28.3431,0.0,4664.42,1.0,1.0,nan,0,0.0,0.0,0.0,0.0,0.0,0.0,0.0,0.0,0.0,0.0,0.0,0,0,0,0,0,0,0,1,0,0,1,0,0
756709913,10.2515,10.36,28.2745,28.4217,0.0,4666.8,1.0,1.0,nan,0,0.0,0.0,0.0,0.0,0.0,0.0,0.0,0.0,0.0,0.0,0.0,0,0,0,0,0,0,0,1,0,0,1,0,0
757010280,10.2369,10.3587,28.3917,28.4736,0.0,4669.18,1.0,1.0,nan,0,0.0,0.0,0.0,0.0,0.0,0.0,0.0,0.0,0.0,0.0,0.0,0,0,0,0,0,0,0,1,0,0,1,0,0
757309864,10.2369,10.3564,28.3038,28.4515,0.0,4671.54,1.0,1.0,nan,0,0.0,0.0,0.0,0.0,0.0,0.0,0.0,0.0,0.0,0.0,0.0,0,0,0,0,0,0,0,1,0,0,1,0,0
757609773,10.2078,10.3524,28.2452,28.3726,0.0,4673.9,1.0,1.0,nan,0,0.0,0.0,0.0,0.0,0.0,0.0,0.0,0.0,0.0,0.0,0.0,0,0,0,0,0,0,0,1,0,0,1,0,0
757909862,10.2369,10.353,28.1573,28.3985,0.0,4676.27,1.0,1.0,nan,0,0.0,0.0,0.0,0.0,0.0,0.0,0.0,0.0,0.0,0.0,0.0,0,0,0,0,0,0,0,1,0,0,1,0,0
