timestamp,timestamp_sample,accel_device_id,gyro_device_id,delta_angle[0],delta_angle[1],delta_angle[2],delta_velocity[0],delta_velocity[1],delta_velocity[2],delta_angle_dt,delta_velocity_dt,delta_velocity_clipping
629813924,629813524,3932170,3932170,8.05093e-06,4.50975e-05,-0.00015192,-0.00231265,-0.00130231,-0.0482767,4964,4964,0
629819404,629818514,3932170,3932170,-1.68252e-05,5.16985e-05,-0.000109475,-0.00105009,-0.00222843,-0.0490329,4990,4990,0
630312999,630312647,3932170,3932170,2.32436e-05,1.44128e-05,8.12584e-05,0.00342658,-0.00233074,-0.0474725,4960,4960,0
630816630,630816325,3932170,3932170,-0.00056086,-0.00020839,0.000310462,0.00546881,-0.00850845,-0.0459726,4989,4989,0
631315538,631315232,3932170,3932170,-0.00197714,0.00285403,3.82034e-05,-0.0102135,0.000869111,-0.0497681,4989,4989,0
631814384,631814138,3932170,3932170,-0.000304327,-0.000886608,-9.87029e-05,0.0141716,-0.00200489,-0.0489821,4973,4973,0
632318281,632318034,3932170,3932170,-0.000315693,-0.000358543,0.000300954,0.00264762,0.00505892,-0.0501266,4989,4989,0
632812302,632811951,3932170,3932170,-0.00142861,0.00112884,0.000289949,-0.00678931,0.00917982,-0.0536004,4989,4989,0
633316185,633315928,3932170,3932170,0.00141865,-0.000215837,-0.000694435,0.00464192,0.00347574,-0.0465404,4966,4966,0
633815219,633814964,3932170,3932170,0.000265093,-0.000534602,-2.80745e-05,0.00516343,0.00800618,-0.0543557,4963,4963,0
634313929,634313663,3932170,3932170,0.000126862,-0.000631857,0.000456782,0.00215416,0.019698,-0.0555065,4992,4992,0
634812843,634812572,3932170,3932170,-0.00288122,0.00121412,0.00171818,-0.00929901,0.0045103,-0.0560166,4995,4995,0
635317484,635316465,3932170,3932170,0.000105482,0.000236701,-0.00017608,-0.00141361,-0.0300883,-0.0449975,4992,4992,0
635815708,635815368,3932170,3932170,-0.00242085,0.00150002,0.000265826,-0.00763063,0.0114013,-0.056784,4988,4988,0
636314892,636314273,3932170,3932170,0.00144402,-0.00335354,0.000424348,0.000696038,-0.00665882,-0.0437374,4935,4935,0
636813495,636813210,3932170,3932170,-0.00195573,0.00257456,0.000276553,0.00327754,0.0210089,-0.0553078,4967,4967,0
637313106,637312257,3932170,3932170,-9.06158e-05,-0.000670212,-0.000376705,-0.00226355,-0.0135928,-0.0458144,4969,4969,0
637816296,637816035,3932170,3932170,0.0001376,-0.000392395,0.00085728,0.00509207,0.024915,-0.0525295,4988,4988,0
638315161,638314890,3932170,3932170,0.000518121,-0.000180445,-0.000620761,-0.00151204,0.0139924,-0.0514478,4988,4988,0
638814085,638813796,3932170,3932170,0.000269612,0.000954044,-0.000288562,-0.0018781,-0.00429461,-0.0445848,4988,4988,0
639313001,639312753,3932170,3932170,0.0018737,-0.000431425,0.000133419,-0.0020466,-0.0159977,-0.0411001,5035,5035,0
639811857,639811611,3932170,3932170,-0.000992977,1.67391e-05,0.0010392,-0.00446733,0.00218067,-0.0472201,4990,4990,0
640315788,640315507,3932170,3932170,-0.00100807,0.000649649,0.0004902,-0.00539439,0.000706737,-0.0511938,4989,4989,0
640814814,640814560,3932170,3932170,-0.000190636,-0.000634141,-0.000634066,-0.00505572,-0.0274898,-0.0437559,4960,4960,0
641313577,641313318,3932170,3932170,-0.00046308,-0.00103459,-2.72871e-05,-0.00456948,-0.0070118,-0.046485,4989,4989,0
641817562,641817214,3932170,3932170,0.000801312,-7.6521e-05,-0.000729331,0.00596138,-0.0309397,-0.0512806,4989,4989,0
642316364,642316120,3932170,3932170,0.00181582,-0.000962847,0.000613597,-0.000566962,-0.00612444,-0.0477591,4983,4983,0
642815582,642815028,3932170,3932170,0.0022753,-0.0018412,-0.00046122,-0.00165351,0.00208303,-0.0526467,4989,4989,0
643314183,643313935,3932170,3932170,-0.000967755,0.000109321,0.000381948,-0.0047857,-0.0264672,-0.0476823,4981,4981,0
643813749,643812841,3932170,3932170,0.0013981,-0.000199422,-0.000766654,-0.00200507,-0.00708608,-0.0435359,4987,4987,0
644312278,644311896,3932170,3932170,0.000699469,-0.000921527,-0.0008622,-0.00118738,-0.0261728,-0.0440489,4954,4954,0
644815919,644815659,3932170,3932170,0.000196304,0.000558258,-0.00037633,-0.00142203,0.00416275,-0.0512036,5007,5007,0
645314845,645314587,3932170,3932170,-0.000799951,0.000183195,-0.000183426,-0.0018231,0.0123688,-0.0468277,4995,4995,0
645813699,645813455,3932170,3932170,-0.00165847,0.00268313,0.000641094,-0.0113235,-0.00390567,-0.0489997,4990,4990,0
646317594,646317350,3932170,3932170,0.000145183,-0.000801124,0.000426106,-0.00324584,0.00401094,-0.0453403,4986,4986,0
646811517,646811269,3932170,3932170,-0.00124144,0.000340441,-1.05537e-05,-0.00754887,-0.0113229,-0.0483112,4988,4988,0
647315516,647315164,3932170,3932170,-0.000740117,0.00147518,-0.000181988,0.000799925,-0.00476066,-0.0473479,4987,4987,0
647814504,647814210,3932170,3932170,0.00149264,-0.00431053,-0.000246077,-0.000106068,0.00389784,-0.0468691,4966,4966,0
648313239,648312976,3932170,3932170,-0.000500763,0.00388255,0.000267108,-0.00502221,0.0102211,-0.0523865,4985,4985,0
648817136,648816873,3932170,3932170,-0.00324425,0.000368742,0.00133443,-0.00805421,0.00421241,-0.0488103,4990,4990,0
649316082,649315783,3932170,3932170,0.00166569,-0.000380443,-0.000855765,-0.000602337,-0.00352801,-0.0481964,4989,4989,0
649814933,649814685,3932170,3932170,0.000861629,-0.000235356,-5.62691e-05,-0.00313115,0.0086144,-0.0469977,4989,4989,0
650313937,650313628,3932170,3932170,-0.000561513,7.86907e-05,0.000378351,-0.00528418,0.00480252,-0.0562401,5023,5023,0
650812807,650812516,3932170,3932170,0.000611291,-0.00146083,0.0001427,-0.00516691,0.0142057,-0.0618482,4976,4976,0
651316910,651316570,3932170,3932170,-0.00231963,0.000389754,0.000229296,-0.00879494,0.0033951,-0.0572188,4972,4972,0
651815606,651815304,3932170,3932170,-0.000479098,-0.00106619,-0.000231788,-0.000558341,-0.0187943,-0.0439937,4992,4992,0
652314516,652314207,3932170,3932170,0.000993323,-0.0015117,-0.000153353,-0.000366586,0.0186823,-0.04546,4988,4988,0
652818356,652818105,3932170,3932170,6.65405e-05,0.000401351,-0.00026896,-0.00213973,-0.00863742,-0.0424962,4991,4991,0
653317394,653317014,3932170,3932170,0.00170036,0.000212815,-0.000465261,-0.00399172,0.00439086,-0.0503362,4993,4993,0
653811215,653810927,3932170,3932170,0.00319905,-0.00189326,-0.0010408,-0.0012085,-0.00914904,-0.0448296,4989,4989,0
654315067,654314818,3932170,3932170,0.00137364,-0.000696507,-0.000410156,-0.00179254,0.00223486,-0.047317,4960,4960,0
654814135,654813845,3932170,3932170,-0.000268871,0.000524495,0.000391191,-0.00118807,0.00557594,-0.0505694,4955,4955,0
655312889,655312635,3932170,3932170,-0.00063405,-0.000534773,-0.000811318,-0.000275926,-0.029153,-0.0431802,4988,4988,0
655816790,655816531,3932170,3932170,-0.000907908,0.000558543,0.000476467,-0.00280736,-0.00346591,-0.0499371,4986,4986,0
656315716,656315438,3932170,3932170,-0.000281217,0.000112551,-0.000247195,-0.00201222,0.00459992,-0.0453884,4989,4989,0
656814723,656814348,3932170,3932170,-0.00163647,0.000677062,0.000807834,-0.0068433,0.0263885,-0.0552572,4986,4986,0
657313500,657313252,3932170,3932170,-0.000472749,-0.00201031,0.000532769,0.00163973,0.00556472,-0.0497866,4989,4989,0
657812921,657812159,3932170,3932170,0.00101674,0.00322287,-3.26592e-05,0.000907939,0.00295069,-0.0417836,4985,4985,0
658316483,658316165,3932170,3932170,0.00131547,-0.000671659,-0.000384907,0.00321313,-0.0256383,-0.0362783,4970,4970,0
658815226,658814960,3932170,3932170,0.000309423,0.00199879,0.000490623,-0.00218335,0.0251777,-0.0504103,4982,4982,0
659314132,659313870,3932170,3932170,0.000243144,-0.000966573,0.000608119,-0.00659982,-0.00573753,-0.0460878,4993,4993,0
659818066,659817763,3932170,3932170,-0.00125887,0.000989447,0.00113201,-0.010896,0.00718772,-0.0601032,4990,4990,0
660311928,660311680,3932170,3932170,9.77774e-05,-0.000473621,-0.000135901,-0.00757741,0.00776058,-0.0504949,4987,4987,0
660815889,660815578,3932170,3932170,-0.00238905,0.000731813,0.000938307,-0.00862823,-0.000912213,-0.0538114,4991,4991,0
661314896,661314484,3932170,3932170,-0.000848424,-0.000508973,0.000556928,-0.00366998,0.0144793,-0.050689,4989,4989,0
661813902,661813500,3932170,3932170,-0.000466382,-0.000622878,0.000107746,-0.000728829,0.000497206,-0.0447497,4961,4961,0
662312568,662312296,3932170,3932170,0.000854916,-0.00173637,-0.000418198,0.00250431,-0.0141409,-0.0443911,4986,4986,0
662816492,662816192,3932170,3932170,-0.00170748,0.000834475,0.000154309,-0.00974564,0.00168409,-0.0567377,4989,4989,0
663315370,663315107,3932170,3932170,0.00169864,0.002491,-0.000825758,-0.00170934,0.00264016,-0.046866,4998,4998,0
663814281,663814005,3932170,3932170,0.000878896,0.000405289,-0.000115841,-0.00668908,0.0053517,-0.0531949,4974,4974,0
664314128,664312913,3932170,3932170,0.000757451,0.000750577,0.000116639,-0.00445592,-0.00391761,-0.0499704,4988,4988,0
664812063,664811818,3932170,3932170,0.000696234,-0.000626405,-0.000742246,-0.0050105,0.00107046,-0.0484817,4987,4987,0
665317433,665315802,3932170,3932170,0.00117706,-0.00251565,-0.000627237,0.00259169,-0.018601,-0.0431846,4966,4966,0
665815305,665814892,3932170,3932170,-0.000613218,0.00378599,-0.00119619,0.00124282,-0.00183367,-0.0499435,5260,5260,0
666313783,666313528,3932170,3932170,0.000704457,0.000670387,-0.000574444,-0.0033779,-0.0141401,-0.042896,4986,4986,0
666817672,666817423,3932170,3932170,0.00178406,-0.00206131,0.000294597,-0.00326072,0.020929,-0.0532625,4989,4989,0
667316614,667316329,3932170,3932170,0.000796983,-0.000589031,6.30723e-05,-0.00539645,0.0150681,-0.0529445,4988,4988,0
667815562,667815245,3932170,3932170,-0.00015172,0.00247117,-0.000738499,0.00189055,-0.0165005,-0.0427307,4987,4987,0
668314457,668314147,3932170,3932170,0.00165304,-0.000403287,-0.000129644,0.00361186,-0.00343958,-0.045358,4937,4937,0
668813491,668813153,3932170,3932170,0.000127272,-0.00258459,-0.000582028,-0.00721723,-0.0122837,-0.051591,4952,4952,0
669312215,669311960,3932170,3932170,-0.00119562,8.3375e-05,0.000197423,-0.00814026,0.00132391,-0.0527385,4992,4992,0
669816107,669815852,3932170,3932170,0.000475704,0.00031076,-0.000286807,-0.00621952,-0.00535387,-0.0571037,4987,4987,0
670315006,670314759,3932170,3932170,-0.00199436,0.00016422,0.00131185,0.000540768,0.00814437,-0.0560006,4983,4983,0
670818917,670818658,3932170,3932170,0.00202753,-0.000636482,-0.000974652,-0.00156318,-0.0112799,-0.049676,4988,4988,0
671312913,671312573,3932170,3932170,0.00116502,9.03641e-05,0.000222509,-0.0121658,0.00385882,-0.0568133,4990,4990,0
671817126,671816470,3932170,3932170,-0.000915996,0.00015958,0.000336409,-0.00430057,-0.016343,-0.0511977,4989,4989,0
672315823,672315550,3932170,3932170,0.000987476,-0.000181913,-1.88171e-05,-0.00534148,0.00115884,-0.0512043,5012,5012,0
672815314,672814542,3932170,3932170,0.000169104,0.000628025,-0.000180308,-0.00552779,-0.0198052,-0.0500246,5246,5246,0
673313450,673313194,3932170,3932170,0.000555926,-0.000388521,0.000254998,0.00159548,-0.000131628,-0.0414562,4994,4994,0
673817331,673817084,3932170,3932170,-0.00250507,0.00100042,0.000929778,-0.00010348,0.0178629,-0.0482475,4989,4989,0
674311260,674311002,3932170,3932170,0.00142187,-0.000952779,-0.000426285,0.00070527,-0.00952688,-0.0457047,4989,4989,0
674815280,674814898,3932170,3932170,0.000635089,-0.000196168,-0.000867323,0.000332523,-0.00607518,-0.0477654,4990,4990,0
675314173,675313806,3932170,3932170,-0.000841696,-0.00102353,-0.000457118,-0.00283776,-0.0145921,-0.0440751,4989,4989,0
675813210,675812796,3932170,3932170,0.000130379,-0.000242792,0.000640446,0.000217455,0.00362575,-0.0468018,4975,4975,0
676317243,676316910,3932170,3932170,5.79642e-05,-0.000201042,-0.00107704,-0.00252665,-0.0237096,-0.0485995,5012,5012,0
676815771,676815514,3932170,3932170,0.0011568,-0.000715703,0.000478461,-0.00190788,-0.0197726,-0.0508169,4987,4987,0
677315160,677314424,3932170,3932170,-0.00508546,0.00467022,0.000965574,-0.00832943,-0.000752625,-0.0533203,4992,4992,0
677818610,677818317,3932170,3932170,-0.000719061,-0.000685154,0.00109864,-0.00863637,0.0113667,-0.0543192,4990,4990,0
678312496,678312235,3932170,3932170,0.00141353,-0.000247772,0.000485495,-0.00102268,0.0104,-0.0519977,4988,4988,0
678816412,678816126,3932170,3932170,-0.00127046,0.000503401,1.18811e-05,-0.00489934,0.00415855,-0.0570644,4983,4983,0
679316019,679315102,3932170,3932170,-0.000405969,-0.000629524,0.00136298,-0.00767147,0.00262068,-0.0531069,4966,4966,0
679814589,679814191,3932170,3932170,-0.00525223,0.0024653,0.000485802,-0.0062372,-0.0065265,-0.0496453,4961,4961,0
680313107,680312850,3932170,3932170,-0.00197937,0.000243223,0.000707326,-0.0048294,-0.0123698,-0.0487592,4989,4989,0
680817019,680816746,3932170,3932170,-0.000407308,0.00017738,-0.000102483,-0.00318201,-0.0285014,-0.0473523,4989,4989,0
681315907,681315658,3932170,3932170,0.00209172,-0.000336282,-0.000647904,0.00425562,-0.0212535,-0.0378425,4994,4994,0
681814914,681814562,3932170,3932170,-0.00029622,0.000412637,0.000519782,-0.00173871,0.00376599,-0.0524273,4991,4991,0
682313763,682313467,3932170,3932170,-0.00391273,0.000839965,-0.00114587,-9.14573e-05,-0.00271706,-0.0500257,4988,4988,0
682812667,682812446,3932170,3932170,-0.000322848,-0.00034184,0.00111754,-0.00268648,0.0176991,-0.0545119,4971,4971,0
683316782,683316494,3932170,3932170,-0.00130796,0.0015747,0.000898389,-0.00210696,0.0176208,-0.052165,4960,4960,0
683815481,683815177,3932170,3932170,-0.00111077,4.07465e-05,0.000441028,-0.00660538,0.00887987,-0.0507846,4985,4985,0
684314330,684314083,3932170,3932170,0.00385407,-0.0031967,-0.000200344,0.0027765,0.00392989,-0.0460088,4985,4985,0
684813439,684812994,3932170,3932170,-0.00134459,0.0030042,-4.41666e-05,0.000953159,0.000827793,-0.0462894,4991,4991,0
685312149,685311897,3932170,3932170,0.00165059,-0.00149458,-0.000144766,-0.00399509,-0.0189744,-0.045405,4988,4988,0
685816463,685815795,3932170,3932170,0.0011802,0.00033709,-7.77335e-05,0.001554,0.0082915,-0.0471955,4990,4990,0
686314964,686314746,3932170,3932170,0.0012372,0.000656145,-0.00100391,-0.00163172,-0.0195769,-0.0434198,4944,4944,0
686814259,686813839,3932170,3932170,0.00154201,5.3598e-05,0.000696154,-0.00345644,0.0157813,-0.0518384,4967,4967,0
687312768,687312513,3932170,3932170,-0.00481463,0.00254761,0.000876724,-0.00402136,0.009722,-0.0486153,4980,4980,0
687816760,687816455,3932170,3932170,0.00328155,-0.00216666,-0.00117122,-0.00162661,-0.000845743,-0.0485961,5035,5035,0
688315609,688315316,3932170,3932170,-0.000224415,0.000247181,0.000306178,-0.00216123,-0.00552588,-0.0485072,4989,4989,0
688814491,688814224,3932170,3932170,-0.000252194,-9.65363e-05,-0.00100327,-0.00452059,-0.0320575,-0.0451117,4988,4988,0
689313466,689313173,3932170,3932170,-0.000484469,-0.000179607,0.000299268,-0.00295615,-0.00836564,-0.0511472,5031,5031,0
689812315,689812094,3932170,3932170,-0.000585365,0.00076289,0.00127359,-0.00325884,0.02084,-0.051456,4958,4958,0
690316507,690316165,3932170,3932170,0.0011849,-0.00143851,-0.000548959,0.000167537,-0.0038424,-0.0453685,4980,4980,0
690815098,690814840,3932170,3932170,-0.001161,-0.00137274,0.000841719,-0.00369612,-0.00345493,-0.0495921,4989,4989,0
691314126,691313754,3932170,3932170,-0.000281924,1.78211e-05,-0.000483109,0.000915017,-0.0185814,-0.0461091,4996,4996,0
691817937,691817643,3932170,3932170,0.000798329,0.000159778,0.000781397,-0.00527367,0.00970002,-0.0520192,4990,4990,0
692311964,692311561,3932170,3932170,0.000938971,2.53991e-05,0.000446918,0.000247741,0.0219271,-0.0532128,4987,4987,0
692815763,692815469,3932170,3932170,-0.00569016,0.00204489,0.00125261,-0.00560527,0.00924611,-0.0510715,5001,5001,0
693315459,693314453,3932170,3932170,0.00280154,-0.00277931,-0.000391162,-0.0050596,-0.000123068,-0.0474572,4966,4966,0
693813780,693813491,3932170,3932170,-0.000719193,0.00185549,0.000452443,-0.00179637,0.00129808,-0.0487093,4972,4972,0
694317480,694317167,3932170,3932170,0.00149945,-0.000262362,-0.000282451,-0.00325074,0.0110648,-0.0450208,4959,4959,0
694816332,694816082,3932170,3932170,0.00106455,-0.00049473,-0.000879447,-0.00122568,-0.020685,-0.0459433,4995,4995,0
695315325,695314985,3932170,3932170,-0.00529109,0.0015927,0.000348906,-0.0091536,-0.0198147,-0.0508251,4994,4994,0
695814171,695813923,3932170,3932170,-0.00259095,-0.000493075,0.000773098,-0.00409173,-0.00683311,-0.0491591,5025,5025,0
696313051,696312796,3932170,3932170,-0.00141357,0.00142647,0.000518339,-0.00257398,-0.0053332,-0.0541456,4990,4990,0
696817064,696816726,3932170,3932170,0.0035298,-0.00108386,-0.00107074,0.0005269,-0.00704076,-0.0486941,4982,4982,0
697316210,697315804,3932170,3932170,-0.00235275,0.00047442,0.000148184,-0.0064253,-0.012403,-0.0474249,4964,4964,0
697814768,697814505,3932170,3932170,0.000201115,-0.00145797,-0.000503752,-0.00670681,-0.00343872,-0.0446168,4986,4986,0
698313651,698313411,3932170,3932170,0.000344449,-0.00265213,0.000615876,-0.00136403,0.00475586,-0.0480693,4939,4939,0
698818101,698817311,3932170,3932170,-0.00121723,-0.00243799,0.000951642,-0.00170593,0.0188993,-0.0544866,4993,4993,0
699311469,699311225,3932170,3932170,-0.00030929,0.000221135,0.000382223,0.000456551,0.0217874,-0.0486326,4988,4988,0
699815860,699815129,3932170,3932170,-0.000463859,-8.95731e-05,2.67939e-05,-7.61342e-05,0.00810886,-0.0465622,4995,4995,0
700314399,700314060,3932170,3932170,0.00115985,-0.000362438,-0.000563121,6.95019e-05,-0.0023054,-0.0442116,4970,4970,0
700813891,700813138,3932170,3932170,0.00111706,-0.000682045,6.4175e-05,-0.000624826,-0.00193227,-0.0516772,4963,4963,0
701317090,701316834,3932170,3932170,0.00654082,-0.00367049,-0.000463659,0.00316369,0.0164402,-0.0522444,4989,4989,0
701815985,701815738,3932170,3932170,-0.00171815,0.000813153,0.000301457,-0.000162222,-0.00594128,-0.0543398,4990,4990,0
702314889,702314645,3932170,3932170,0.000692864,1.28043e-05,-0.000432956,-0.000323311,-0.00877486,-0.0494672,4989,4989,0
702813844,702813553,3932170,3932170,-0.000932529,0.00095529,0.000457142,-0.000510068,-0.00136072,-0.0501261,4979,4979,0
703317755,703317458,3932170,3932170,0.000957257,-0.00148291,-0.000113481,-0.00535242,-0.0297207,-0.0496049,4989,4989,0
703816710,703816417,3932170,3932170,-5.59152e-05,7.5491e-05,0.000424222,4.60706e-05,0.00641371,-0.0480078,4965,4965,0
704315717,704315455,3932170,3932170,-0.00250702,0.00165138,-0.00013107,0.00599446,-0.0139767,-0.0403623,4969,4969,0
704814438,704814175,3932170,3932170,0.00235345,-0.00281987,-0.000268973,-0.00153468,0.00470816,-0.048616,4996,4996,0
705313474,705313077,3932170,3932170,-0.00229557,0.000667421,-3.41642e-05,-0.00312418,0.00941626,-0.0508244,4991,4991,0
705817221,705816971,3932170,3932170,-0.00044221,-1.25019e-05,-0.000695346,-0.00511833,-0.0221352,-0.0449532,4989,4989,0
706316169,706315886,3932170,3932170,0.00182852,-0.00105547,-0.00010654,-0.0014363,-0.0119087,-0.0458092,4996,4996,0
706815073,706814785,3932170,3932170,0.00292857,-0.00219707,-0.000157898,0.00140495,0.0166434,-0.0461287,4988,4988,0
707315262,707313762,3932170,3932170,-0.00085185,0.000344132,0.000150964,-0.00237535,-0.0022316,-0.0484857,4967,4967,0
707813082,707812789,3932170,3932170,-0.000192586,-0.00210918,0.00052764,-0.00786657,-0.0154409,-0.0520713,4969,4969,0
708316752,708316495,3932170,3932170,-0.000147269,0.000335695,-0.000607111,-0.00337945,-0.00872035,-0.0455655,4989,4989,0
708815716,708815402,3932170,3932170,-0.00428151,0.00242987,7.84257e-05,-0.00515527,-0.00694805,-0.0456549,4984,4984,0
709314654,709314365,3932170,3932170,0.000257278,-0.00108111,0.00120301,-0.00322296,0.0147376,-0.0510837,5042,5042,0
709813461,709813216,3932170,3932170,0.000102918,0.000365753,0.000354531,-0.000156449,-0.00325564,-0.0468584,4993,4993,0
710312419,710312124,3932170,3932170,-0.000195643,-0.000328988,-0.000575324,-0.00517409,-0.0192272,-0.0485019,4989,4989,0
710816376,710816078,3932170,3932170,0.000866179,9.32964e-05,-0.000335636,-0.00146652,-0.00760188,-0.0458363,4933,4933,0
711315500,711315107,3932170,3932170,-0.0045438,0.00152032,0.000636594,-0.00591875,0.00109621,-0.0472453,4966,4966,0
711814097,711813833,3932170,3932170,0.00154011,-7.9981e-05,-0.000791974,-0.0014936,-0.00550391,-0.0503052,4990,4990,0
712312983,712312739,3932170,3932170,0.00403316,-0.00195523,-0.000917008,0.00330737,-0.00783017,-0.0451848,4989,4989,0
712816897,712816650,3932170,3932170,-0.000181342,-0.000127999,2.16247e-05,-0.000258336,-0.00391563,-0.0481328,5001,5001,0
713310836,713310553,3932170,3932170,0.00141061,-0.000330067,-0.000690513,0.00168128,-0.0075202,-0.0451451,4989,4989,0
713815265,713814498,3932170,3932170,0.00138418,-0.00148712,0.000412431,-0.00496977,0.00267539,-0.0511632,4988,4988,0
714313649,714313405,3932170,3932170,-0.00212776,0.000891367,0.000873036,-0.00201393,0.0096979,-0.0514995,4953,4953,0
714817754,714817416,3932170,3932170,0.00331457,-0.00230358,-0.000296105,0.00095748,-0.00654182,-0.0437064,4974,4974,0
715316423,715316168,3932170,3932170,0.000140813,0.00193034,-0.000765226,0.00423098,-0.00719538,-0.0441074,4998,4998,0
715815339,715815065,3932170,3932170,0.000578862,-6.46547e-05,-0.000639834,-0.00179777,-0.00940428,-0.0445006,4989,4989,0
716314223,716313972,3932170,3932170,-0.00323946,0.00223158,0.000237374,-0.00479592,-0.00969762,-0.0442677,4986,4986,0
716813172,716812925,3932170,3932170,-0.000232509,-0.00164439,0.000385976,-0.000950679,-0.00869136,-0.0522439,4989,4989,0
717317028,717316777,3932170,3932170,-0.0015695,0.00123196,0.00058769,-0.00298147,-0.00162057,-0.0529123,4991,4991,0
717815934,717815684,3932170,3932170,0.000116468,-0.00080578,0.000459331,0.00287438,-0.00627334,-0.0435925,4981,4981,0
718315061,718314761,3932170,3932170,0.00211094,-0.000526183,-0.00117271,-0.000736459,-0.0249334,-0.0432298,4964,4964,0
718813753,718813496,3932170,3932170,-0.00154564,0.00078296,0.000212353,-0.00326713,-0.0125714,-0.051038,4989,4989,0
719317698,719317393,3932170,3932170,0.00283995,-0.00250895,-0.000203745,-0.00632145,-0.0139449,-0.0500572,4987,4987,0
719816631,719816298,3932170,3932170,0.000669813,-0.000963955,-0.00057596,0.000856563,-0.0174324,-0.0449391,4988,4988,0
720315933,720315210,3932170,3932170,-0.00137305,-0.000106016,-0.000929214,-0.00172185,-0.0159585,-0.0464623,4993,4993,0
720814458,720814116,3932170,3932170,-0.000744869,-0.0018624,0.000480475,-0.00368939,0.00426821,-0.0473135,4993,4993,0
721313841,721313066,3932170,3932170,-0.00130389,0.00217489,-3.79221e-05,-0.00455842,-0.0198995,-0.0500093,4974,4974,0
721817369,721817060,3932170,3932170,0.000270718,-0.00101794,-0.000407163,0.00464759,-0.0069357,-0.0413666,4968,4968,0
722316080,722315822,3932170,3932170,0.00131362,0.00242944,-0.000702016,0.00156086,0.00670615,-0.0465267,4989,4989,0
722815021,722814759,3932170,3932170,0.00139243,-0.00158799,-0.000668155,0.00581306,-0.000501881,-0.0445905,4980,4980,0
723313923,723313676,3932170,3932170,0.000516685,-0.000133933,-2.79705e-05,-0.0014598,-0.0038811,-0.048735,5029,5029,0
723812869,723812543,3932170,3932170,0.00360514,-0.00360822,-0.00161292,-0.00412376,-0.0182954,-0.0443567,4989,4989,0
724311728,724311450,3932170,3932170,0.000682228,0.000378539,0.000186236,-0.00224417,0.0160636,-0.050272,4981,4981,0
724815685,724815347,3932170,3932170,-0.00190212,0.00242728,-0.000317484,-0.000250156,-0.0257965,-0.0471811,4990,4990,0
725314703,725314411,3932170,3932170,0.00196254,-0.000132901,-0.00178471,0.000463556,-0.0202539,-0.0498708,4972,4972,0
725813470,725813206,3932170,3932170,0.000417966,8.37263e-05,-0.000395169,-0.00278272,0.00160104,-0.0496855,5001,5001,0
726317350,726317093,3932170,3932170,-0.00299133,0.00294864,0.000562755,-0.00832999,-0.0117392,-0.0544558,5027,5027,0
726816342,726815975,3932170,3932170,0.000283442,-0.0020979,-5.09899e-05,0.00369616,-0.00433357,-0.0422681,5002,5002,0
727315114,727314869,3932170,3932170,-0.00425974,0.00114608,0.00140226,-0.00660938,0.00665625,-0.0496668,4985,4985,0
727814511,727813778,3932170,3932170,0.000922343,-0.000410029,6.33281e-06,0.00289299,0.00406101,-0.0450573,4990,4990,0
728313024,728312718,3932170,3932170,-0.0029323,0.00185185,0.000432744,-0.00273205,0.0166875,-0.0458901,5018,5018,0
728817735,728816761,3932170,3932170,0.00156416,-0.000881643,-0.000657251,0.00380835,-0.00665852,-0.0467027,5016,5016,0
729315741,729315485,3932170,3932170,0.000583232,-9.33041e-05,0.000504529,-0.0006805,0.00227756,-0.0498081,4987,4987,0
729814710,729814393,3932170,3932170,-0.000349334,-0.000252161,0.00049811,0.00142637,-0.00454838,-0.0456694,4990,4990,0
730318542,730318288,3932170,3932170,-0.00207479,0.00161509,0.000566448,-0.00661535,0.0121088,-0.0524998,4989,4989,0
730812533,730812206,3932170,3932170,-0.00137481,0.000167786,0.000175625,-0.00671319,-0.00662838,-0.0509473,4988,4988,0
731316407,731316104,3932170,3932170,-0.000870783,-0.000441141,0.00024495,-0.00287356,-0.00595723,-0.0498322,4990,4990,0
731815273,731815019,3932170,3932170,0.00085534,0.000498472,-0.000264693,0.000285542,-0.0117999,-0.0473573,4961,4961,0
732314354,732314107,3932170,3932170,0.00272805,-0.0013823,0.000655042,-0.00182956,-0.0101514,-0.0468363,4965,4965,0
732813078,732812822,3932170,3932170,-0.000840715,-0.000299188,-0.000548173,-0.00747461,-0.019346,-0.0499264,4984,4984,0
733316985,733316720,3932170,3932170,-0.000272097,0.000370055,0.000382909,-0.00748035,-0.00284119,-0.054058,4987,4987,0
733815875,733815625,3932170,3932170,-0.000148784,-1.54087e-05,0.000169962,-0.000316077,-0.00722528,-0.0494298,4989,4989,0
734315717,734314536,3932170,3932170,0.000484061,-0.00170286,0.000245933,-0.00188963,0.0145594,-0.0506048,4990,4990,0
734813768,734813439,3932170,3932170,0.000771982,0.000495739,0.00018659,-0.000556975,-0.0139899,-0.0481092,4989,4989,0
735312682,735312357,3932170,3932170,0.00356193,-0.00423397,0.000269658,0.00120311,-0.00532354,-0.0482992,4963,4963,0
735816617,735816371,3932170,3932170,-0.00217142,0.000190384,0.000521695,-0.00446602,0.0127244,-0.0516887,4978,4978,0
736316196,736315446,3932170,3932170,-0.000668914,-0.000247226,0.000719961,-0.00168955,0.0185402,-0.0499394,4949,4949,0
736814441,736814180,3932170,3932170,0.000647732,0.000573676,0.000112908,-0.000593715,0.00164112,-0.0493769,4985,4985,0
737313400,737313100,3932170,3932170,0.000664505,0.00103112,-0.0015069,-0.000807751,-0.0144224,-0.0482725,4999,4999,0
737812299,737811999,3932170,3932170,0.00137975,-0.000352432,-0.000849003,0.00122037,0.000490157,-0.0487614,4995,4995,0
738316143,738315890,3932170,3932170,-4.58707e-05,0.000245974,0.000815188,-0.00211898,0.0240013,-0.0543374,4984,4984,0
738815089,738814797,3932170,3932170,-0.00068704,0.000400903,0.000741768,-0.000771648,0.00439093,-0.0498807,4988,4988,0
739313961,739313709,3932170,3932170,0.000744756,0.000237663,-0.000653015,-0.00327586,-0.00339847,-0.0484901,4966,4966,0
739813144,739812846,3932170,3932170,6.98686e-05,0.000562368,1.1508e-05,-0.00315675,-0.00291088,-0.054369,5013,5013,0
740316807,740316551,3932170,3932170,-0.00115241,0.000930862,0.00114776,-0.00665239,0.0171812,-0.0518935,4986,4986,0
740815693,740815417,3932170,3932170,-0.00173434,-0.00102805,0.000409709,-0.00721172,-0.00480436,-0.052064,4991,4991,0
741314607,741314319,3932170,3932170,0.00109034,-0.00112748,2.43295e-05,0.00127694,0.0105769,-0.0481544,4984,4984,0
741813904,741813228,3932170,3932170,0.00180043,-2.89573e-05,0.000119783,0.00602056,0.0129791,-0.0459615,4989,4989,0
742312410,742312162,3932170,3932170,-0.00115434,-9.6084e-05,0.00114098,0.000560144,0.0153781,-0.0531627,5013,5013,0
742816476,742816030,3932170,3932170,0.000763756,0.000302414,-0.000439463,-0.000777244,-0.0206581,-0.0491558,4985,4985,0
743315446,743315151,3932170,3932170,0.00165457,-0.000526954,-0.000810765,0.00492763,0.0219532,-0.0453797,4940,4940,0
743814098,743813842,3932170,3932170,0.00192851,-0.000943022,-0.000790241,0.0034615,-0.0131905,-0.0436327,4989,4989,0
744318011,744317737,3932170,3932170,-0.00330762,0.00142397,0.00125359,-0.00240347,0.0101459,-0.043259,4983,4983,0
744811901,744811656,3932170,3932170,-0.000863608,0.000221573,0.000611943,0.000603015,0.0156169,-0.0471593,4976,4976,0
745315854,745315552,3932170,3932170,0.00188949,-0.00124352,-9.17572e-06,-0.000615952,-0.00150341,-0.0492388,4987,4987,0
745814711,745814459,3932170,3932170,-0.000446965,0.000201217,-0.000300613,-0.00545662,-0.0220394,-0.0540643,4974,4974,0
746313733,746313479,3932170,3932170,-0.000892941,-0.000340725,-0.000648807,-0.000894177,-0.00299836,-0.0486614,5029,5029,0
746817674,746817421,3932170,3932170,0.00246584,-0.000928798,-0.000458325,0.00140593,0.0101127,-0.0509426,4973,4973,0
747316422,747316169,3932170,3932170,0.000133004,-3.29787e-05,-0.00108221,0.00242357,-0.0082597,-0.0492862,4970,4970,0
747815384,747815077,3932170,3932170,-0.000164852,-9.6237e-05,-0.000623334,0.00512774,0.0188189,-0.0470591,4991,4991,0
748314232,748313981,3932170,3932170,-0.00253357,0.00262397,0.00177047,-0.00568064,0.00698365,-0.0473347,4993,4993,0
748813227,748812887,3932170,3932170,0.00039167,-0.000611723,0.00095581,0.000190594,0.012836,-0.0489018,4989,4989,0
749317073,749316786,3932170,3932170,-0.000258908,0.000564581,0.00060353,0.00490719,-0.00115432,-0.0470682,4990,4990,0
749815936,749815690,3932170,3932170,-0.000667866,0.000246226,0.000525625,-0.000440999,-0.0107012,-0.0490131,4986,4986,0
750315662,750314759,3932170,3932170,-0.000490603,0.000574978,0.000356714,-0.00628131,0.0163267,-0.060679,4967,4967,0
750813794,750813539,3932170,3932170,-0.0016098,-0.000773615,0.000741781,-0.00213895,-0.0114558,-0.0463064,4988,4988,0
751317709,751317399,3932170,3932170,0.000743378,-0.000145627,-0.000331522,2.79043e-05,-0.0113155,-0.0494991,4989,4989,0
751811569,751811316,3932170,3932170,0.000773547,-8.55609e-05,-0.0011841,0.000138361,-0.00335353,-0.0476276,4988,4988,0
752315467,752315217,3932170,3932170,-0.00109902,0.000477366,0.00139116,-0.00421475,0.00210828,-0.051556,4993,4993,0
752814412,752814119,3932170,3932170,0.00283288,-0.000781305,-0.000878549,0.00479275,-0.010428,-0.0434684,4989,4989,0
753313279,753313027,3932170,3932170,-0.000423333,-2.16006e-05,-0.000308233,-0.00189706,-0.022827,-0.0488892,4993,4993,0
753817452,753817167,3932170,3932170,0.00168874,-0.000805047,-0.000496285,0.00414978,0.0015219,-0.0459627,5029,5029,0
754316082,754315828,3932170,3932170,0.000788279,0.000139528,-0.000773835,0.00170542,-0.0129329,-0.0456709,4989,4989,0
754815093,754814749,3932170,3932170,0.000385499,-2.81823e-05,3.60265e-05,-0.000655162,-0.0173273,-0.0484212,5003,5003,0
755313886,755313641,3932170,3932170,-0.00018634,0.000513524,0.000100839,-0.00392561,0.0101988,-0.0544137,4988,4988,0
755813023,755812551,3932170,3932170,0.00176826,-0.0006973,-0.000990434,0.0023246,0.00258272,-0.04795,4992,4992,0
756311792,756311455,3932170,3932170,0.00122298,-0.000628467,-0.000703394,0.00213269,-0.00416671,-0.0473691,4989,4989,0
756815704,756815352,3932170,3932170,0.000351064,0.000812023,-0.000859898,0.000922054,-0.00539178,-0.0436427,4989,4989,0
757314732,757314433,3932170,3932170,0.00122583,-0.000669368,-0.00114329,-0.000338624,-0.0292192,-0.0428417,4940,4940,0
757813420,757813164,3932170,3932170,-0.00144396,0.000203319,0.00105358,-0.00192242,-0.0157219,-0.0471183,4989,4989,0
758312368,758312108,3932170,3932170,-9.37047e-05,1.67392e-05,-0.0010557,-0.00243336,-0.000438199,-0.0569214,4992,4992,0
758811226,758810977,3932170,3932170,-0.000164371,-0.000560012,-0.00523957,-0.00262706,-0.0180165,-0.0522941,4987,4987,0
759315133,759314876,3932170,3932170,-0.000927891,-0.000129865,0.000218756,-0.0062022,-0.0224914,-0.042152,4991,4991,0
759814114,759813808,3932170,3932170,0.000355438,0.00041423,0.000941175,-0.00203646,0.016547,-0.0443756,4989,4989,0
760318722,760317671,3932170,3932170,-0.00196599,-0.000393194,-0.00153609,0.000584738,-0.00602284,-0.0471226,4973,4973,0
760817075,760816705,3932170,3932170,0.000546512,0.000435009,-0.00104621,0.001342,0.00599402,-0.0400983,4960,4960,0
761315787,761315530,3932170,3932170,0.0030698,-0.000695307,-0.00100402,0.00268901,-0.0127039,-0.049305,5001,5001,0
761814699,761814443,3932170,3932170,0.000103719,0.000282431,-0.000329268,-0.00110929,-0.0252658,-0.0567127,5037,5037,0
762313630,762313305,3932170,3932170,0.000505452,-0.000347279,-0.00158924,-0.00052328,-0.000344455,-0.0538621,4993,4993,0
762812482,762812208,3932170,3932170,-3.86219e-05,-0.00035432,-0.00475187,0.0015327,-0.000887556,-0.0453941,4989,4989,0
763318145,763316113,3932170,3932170,0.000314412,0.000126801,0.00015675,-0.00153306,-0.0162375,-0.0427835,4983,4983,0
763815303,763815010,3932170,3932170,0.00222047,-0.000900553,-0.000461705,0.00560767,0.00457777,-0.0407199,4976,4976,0
764315934,764314044,3932170,3932170,-0.00109327,0.000181805,0.00059128,-0.00313066,-0.00278896,-0.0435977,4928,4928,0
764818102,764817841,3932170,3932170,-0.000375818,9.71695e-05,0.000697406,-0.00392,0.0172391,-0.0514448,5012,5012,0
765317023,765316719,3932170,3932170,-0.00231398,0.000474995,-0.000216249,-0.0026079,-0.00346817,-0.0430477,4989,4989,0
765815910,765815650,3932170,3932170,0.00128201,0.00138725,-0.000254692,0.000573962,0.0253834,-0.0492981,4993,4993,0
766314821,766314532,3932170,3932170,0.00086722,-0.00137321,-5.89869e-05,0.00264363,-0.0241784,-0.0459246,4988,4988,0
766813722,766813439,3932170,3932170,0.000377984,0.00026778,-0.000538447,0.000150753,-0.0208058,-0.0445682,4979,4979,0
767312647,767312400,3932170,3932170,-0.00286739,0.0021037,0.00052803,-0.00205857,-0.00411032,-0.0521991,4960,4960,0
767816616,767816365,3932170,3932170,0.000779062,-8.41081e-05,0.000154254,-0.000736124,0.018024,-0.0551545,4972,4972,0
768315407,768315148,3932170,3932170,-0.000151635,0.00023838,0.000425904,0.000883447,-0.0023004,-0.0501416,4989,4989,0
768814326,768814059,3932170,3932170,-0.0010331,0.00362669,0.000560086,-0.00737142,0.0109606,-0.0578602,4994,4994,0
769313285,769312996,3932170,3932170,-0.00228981,-0.000133786,0.000345067,-0.00830263,-0.00540315,-0.0589088,5022,5022,0
769817420,769816858,3932170,3932170,-0.000104629,8.98205e-05,-0.000148385,-0.00720151,0.0122217,-0.0500382,4990,4990,0
770316064,770315775,3932170,3932170,0.000263806,-5.29306e-05,0.000500317,-0.00192477,0.00224413,-0.0455636,4978,4978,0
770815030,770814670,3932170,3932170,0.000377866,0.00140777,-0.000129592,0.002506,0.0126246,-0.0448075,4980,4980,0
771313946,771313690,3932170,3932170,0.00151821,-0.000505622,-0.000371993,0.00412581,0.00121309,-0.0454143,4967,4967,0
771818177,771817744,3932170,3932170,0.00048849,-0.000323472,-0.000572077,-0.00346315,0.00650116,-0.0511842,5261,5261,0
772316641,772316380,3932170,3932170,0.000777017,4.56139e-05,1.08548e-06,0.00157117,-0.020332,-0.0460413,4990,4990,0
772815538,772815285,3932170,3932170,0.000219597,-1.1428e-05,0.000168474,0.000156152,0.00734304,-0.0467249,4989,4989,0
773314541,773314231,3932170,3932170,-0.00125085,-0.000275586,0.000236155,-0.00214448,-0.000293647,-0.0445608,5013,5013,0
773813402,773813103,3932170,3932170,0.00149025,-0.000800644,-0.000488848,0.000352612,-0.005034,-0.0455999,4993,4993,0
774317302,774316995,3932170,3932170,0.000327997,0.00126466,-0.000853389,0.00347928,-0.0213995,-0.0404586,4988,4988,0
774816292,774816040,3932170,3932170,0.00363737,-0.00211384,-0.000980454,0.00514483,-0.0235028,-0.0403209,4963,4963,0
775315114,775314854,3932170,3932170,-0.000268058,-4.73256e-05,0.000882529,-0.000308678,-0.0116276,-0.0519504,5035,5035,0
775814011,775813713,3932170,3932170,0.00146167,-0.00121516,-0.000645184,-0.000244811,-0.00925147,-0.0437921,4988,4988,0
776312879,776312632,3932170,3932170,-0.00108056,-0.000327175,-0.00148216,-0.00272125,-0.0286179,-0.0469808,4984,4984,0
776811773,776811526,3932170,3932170,0.000415777,-0.00206017,0.000887263,-0.000236556,0.0129311,-0.0548773,4988,4988,0
777316826,777315424,3932170,3932170,0.000329164,0.000752756,0.000100524,0.000272324,0.0215124,-0.0538478,4989,4989,0
777814662,777814339,3932170,3932170,-0.000475768,0.000222674,-0.000265286,-0.00545626,-0.0137896,-0.0527504,4989,4989,0
778313740,778313411,3932170,3932170,-0.0010707,0.0016715,0.000811054,-0.00179227,-0.00556624,-0.0514242,4988,4988,0
778817680,778817435,3932170,3932170,-0.0023599,0.000703101,0.000935749,-0.00945617,0.00454941,-0.060352,5290,5290,0
779316346,779316041,3932170,3932170,-0.000130501,-0.000569384,-0.000234155,-0.00278579,0.00130516,-0.0429641,4982,4982,0
779815225,779814946,3932170,3932170,-0.000183706,-0.0015324,0.000786591,-0.00393144,-0.0241443,-0.0437444,4964,4964,0
780314107,780313851,3932170,3932170,-0.00150438,0.000593622,0.000518319,0.00141828,0.0027855,-0.0476284,4990,4990,0
780813077,780812757,3932170,3932170,-0.000350287,0.00028806,0.000117259,-9.71899e-05,-0.00970828,-0.0449347,4989,4989,0
781316901,781316653,3932170,3932170,-0.000478319,-0.000552265,0.0010237,0.00325521,-0.00204729,-0.0473805,4989,4989,0
781816004,781815651,3932170,3932170,-0.000694338,-0.00215,0.000717462,-0.00660869,-0.00640556,-0.0464275,4960,4960,0
782315041,782314752,3932170,3932170,-0.000606955,4.51721e-05,0.000272258,-0.000275311,0.0238652,-0.0538407,5260,5260,0
782813635,782813376,3932170,3932170,0.000941075,-0.000298506,-0.00035632,-0.00107387,-0.0136101,-0.052668,4992,4992,0
783312526,783312279,3932170,3932170,-3.24919e-05,-0.000457705,-7.73355e-05,-0.000211576,0.00876971,-0.0472122,4989,4989,0
783817683,783816177,3932170,3932170,-5.54772e-05,-0.000374266,-0.00636772,0.000489207,-0.0274695,-0.0547544,4986,4986,0
784315462,784315083,3932170,3932170,9.88838e-05,0.00050138,-0.00142739,-0.00565842,-0.00108247,-0.0622636,4991,4991,0
784815652,784813990,3932170,3932170,-0.000964588,-6.47466e-05,0.000886888,-0.00282767,-0.00102334,-0.0437452,4990,4990,0
785313327,785313030,3932170,3932170,-0.00168374,0.000174017,0.000678945,-0.000393386,-0.00417324,-0.0510811,4977,4977,0
785817454,785817033,3932170,3932170,0.00185009,-0.000821633,-0.00104992,-0.00045337,-0.0220904,-0.05057,4956,4956,0
786315999,786315697,3932170,3932170,-0.00031104,-7.11932e-05,-0.000552363,-0.00646041,-0.0355263,-0.0432624,4990,4990,0
786814851,786814603,3932170,3932170,0.00273905,-0.00033569,-0.00122854,0.00146643,-0.00412021,-0.0383498,4989,4989,0
787313760,787313509,3932170,3932170,0.000386015,-0.000164724,0.000306767,-0.00389692,-0.00466762,-0.0430925,4989,4989,0
787812705,787812416,3932170,3932170,-2.64867e-05,0.000797795,0.000334575,-0.00165874,-0.00957904,-0.044348,4988,4988,0
788316561,788316318,3932170,3932170,-0.00117821,0.00197985,0.000266491,-4.36767e-06,0.0101528,-0.0454236,4983,4983,0
788815630,788815338,3932170,3932170,0.000913125,0.000268772,-0.00100861,-0.0066907,-0.000777567,-0.0524189,5000,5000,0
789314681,789314389,3932170,3932170,-0.000136152,-0.000395538,0.0013791,-0.00512194,0.00795153,-0.0575175,4978,4978,0
789818323,789818071,3932170,3932170,-0.000706824,0.000497719,0.00132108,-0.00158818,0.0236449,-0.0539595,5040,5040,0
790312310,790311937,3932170,3932170,0.000135071,-0.000271492,-0.000654646,-0.000228888,0.01953,-0.0499257,4986,4986,0
790816081,790815833,3932170,3932170,0.000348175,-0.000994263,-0.000303364,0.000148861,0.00886535,-0.0455858,4989,4989,0
791315335,791314742,3932170,3932170,-0.000965665,0.00114858,0.00095449,-0.00329968,0.0209427,-0.0619212,4977,4977,0
791813939,791813648,3932170,3932170,8.59967e-05,-0.00165982,0.000987782,-0.000632575,-0.00244459,-0.0528661,4991,4991,0
792317943,792317595,3932170,3932170,-0.000214942,0.000699567,0.000421211,0.00144201,-0.00717598,-0.0443087,4940,4940,0
792816886,792816669,3932170,3932170,-7.09208e-05,-0.000319911,-0.000124668,-0.00186309,0.0137775,-0.0477896,4965,4965,0
793315613,793315355,3932170,3932170,-0.000224802,0.000158688,0.000438276,0.000975911,0.0152312,-0.0444115,4990,4990,0
793814620,793814261,3932170,3932170,0.00127478,-0.000406266,-0.000301655,0.00354407,0.0101548,-0.042771,4987,4987,0
794313456,794313211,3932170,3932170,-8.24917e-05,0.000103433,0.000340188,-0.00115957,-0.00867486,-0.045569,4982,4982,0
794812346,794812078,3932170,3932170,0.00205808,-0.00083009,-0.000565446,0.00640784,-0.00909704,-0.042508,4988,4988,0
795316235,795315973,3932170,3932170,0.000657225,-8.06411e-05,-0.000222447,-0.00391086,0.00675737,-0.0466562,4992,4992,0
795815192,795814936,3932170,3932170,-0.00221364,0.00252753,0.00104289,-0.00116084,0.0103343,-0.0484533,4969,4969,0
796314363,796314027,3932170,3932170,0.000525011,0.00058405,-0.00160843,-0.000647996,-0.00141647,-0.0450743,4975,4975,0
796817996,796817681,3932170,3932170,0.00203005,-0.000866205,-0.00295631,0.0016455,-0.00961827,-0.0465098,4992,4992,0
797311886,797311602,3932170,3932170,-0.000642846,0.00140068,8.71873e-05,-0.00613254,-0.0166678,-0.0523865,4997,4997,0
797815838,797815492,3932170,3932170,-0.000414429,0.00294807,4.20755e-05,-0.0145595,-0.0190519,-0.0616194,4986,4986,0
798314685,798314397,3932170,3932170,-0.000917852,-2.86765e-05,8.33332e-05,-0.00295164,0.01099,-0.0545042,4977,4977,0
798815080,798813306,3932170,3932170,0.000164352,-0.000492119,-7.2952e-05,-0.00138932,0.00204856,-0.0447237,4989,4989,0
799317550,799317237,3932170,3932170,-0.000255094,-4.47528e-05,0.00102054,-0.003981,0.00617697,-0.0472944,4966,4966,0
799817078,799816322,3932170,3932170,-0.00140411,0.000100407,0.000160248,-0.00346562,9.21902e-05,-0.0511813,4958,4958,0
800315314,800315056,3932170,3932170,-0.000142578,-0.000194451,-0.00370149,0.00051,-0.0114055,-0.0442582,4984,4984,0
800814165,800813919,3932170,3932170,-0.000483732,-0.00051467,-0.0100353,-0.00326114,-0.00741528,-0.0439672,4988,4988,0
801313072,801312825,3932170,3932170,0.00317108,-0.00170584,-0.000692628,0.00142854,0.00356011,-0.0483858,4989,4989,0
801817081,801816763,3932170,3932170,-0.00149083,0.000340972,0.0014441,-0.00169821,0.00733332,-0.0451548,4984,4984,0
802315907,802315658,3932170,3932170,-0.00632584,0.00258607,0.0016586,-0.00265345,0.0235746,-0.0491901,5020,5020,0
802814923,802814577,3932170,3932170,-0.00174232,0.000274277,0.000138275,-0.00627806,-0.000858345,-0.0549871,4967,4967,0
803314015,803313664,3932170,3932170,0.0011712,-0.000275344,-0.00120795,-0.000168565,-0.0076922,-0.0516233,4967,4967,0
803817588,803817335,3932170,3932170,0.00121097,-0.000613863,-0.000117875,-0.00101134,-0.0216141,-0.048181,4976,4976,0
804317155,804316244,3932170,3932170,-0.00108865,0.000308933,0.000754254,-0.00388886,0.0063671,-0.0547293,4991,4991,0
804815405,804815155,3932170,3932170,-0.000179232,-0.00124725,0.000652195,-0.000157071,-0.00922061,-0.0548626,4994,4994,0
805315114,805314057,3932170,3932170,-0.00126469,0.000265082,0.000813156,-0.00689521,-0.011797,-0.0518422,4977,4977,0
805813295,805812962,3932170,3932170,-0.00174282,0.000305668,0.000858445,-0.00442659,0.0109322,-0.047061,4990,4990,0
806317276,806316941,3932170,3932170,0.000599055,0.000219412,-0.000141795,-0.00380282,0.0177797,-0.0479249,4972,4972,0
806816266,806815960,3932170,3932170,-0.00369931,0.00174523,0.00116535,-0.0043326,0.0101559,-0.0507542,4949,4949,0
807314983,807314674,3932170,3932170,0.0005798,-0.000310602,0.000336719,-0.000800112,0.00826144,-0.0472757,4993,4993,0
807813856,807813576,3932170,3932170,-0.00211313,0.00109003,0.00104544,-0.000675504,0.00768802,-0.047595,4988,4988,0
808312739,808312484,3932170,3932170,-0.00158745,-0.00127109,0.000600791,-0.00174549,0.00549107,-0.050317,4990,4990,0
808816716,808816382,3932170,3932170,0.00110862,0.000852883,-0.000740904,-0.00217451,-0.00524925,-0.0616311,4993,4993,0
809315616,809315323,3932170,3932170,-0.00298747,0.00216261,0.000370052,-0.004902,-0.018332,-0.0551335,4993,4993,0
809814601,809814354,3932170,3932170,-0.000614538,0.000719788,-0.000415377,-0.0100514,-0.0173544,-0.0619817,4985,4985,0
810313637,810313361,3932170,3932170,0.000443095,-0.000134948,0.000498845,-0.00295974,0.0228906,-0.0481759,5022,5022,0
810817253,810816993,3932170,3932170,0.000446254,-0.000417507,-3.66981e-05,-0.00234868,-0.00661393,-0.0418847,4988,4988,0
811311155,811310911,3932170,3932170,-0.00125425,0.000268058,0.000686426,-0.00270503,-0.00417606,-0.0491425,4990,4990,0
811815132,811814810,3932170,3932170,0.000340153,-0.000606495,0.00027031,-0.00593627,-0.0187824,-0.0514536,4993,4993,0
812314003,812313712,3932170,3932170,-0.000755551,-0.000218023,0.000277631,-0.00391192,-0.00360423,-0.0500129,4988,4988,0
812812908,812812621,3932170,3932170,-0.000302307,-0.000547039,0.00091528,-0.00498629,-0.0071392,-0.0466741,4989,4989,0
813311801,813311553,3932170,3932170,-0.0023497,0.000531485,2.82328e-05,0.000480131,-0.00931739,-0.0485071,4967,4967,0
813816101,813815674,3932170,3932170,0.000366796,0.000218361,0.000558422,-0.00119248,0.0207141,-0.0526236,4980,4980,0
814314581,814314328,3932170,3932170,0.000417922,-7.52624e-06,0.00117185,0.000108883,0.00985074,-0.0489256,4990,4990,0
814813594,814813234,3932170,3932170,-0.00122308,0.000708645,0.000962608,-0.00579799,0.000827373,-0.0548199,4989,4989,0
815312408,815312140,3932170,3932170,-0.00066754,-0.000311746,0.000388709,-0.00170128,0.011351,-0.0477779,4989,4989,0
815816348,815816036,3932170,3932170,-0.00216716,0.00143381,0.000568002,-0.00582823,-0.014099,-0.0503915,4983,4983,0
816315282,816314954,3932170,3932170,-0.000570037,0.000374952,0.000400545,-0.00287602,-0.00316177,-0.0500541,4984,4984,0
816814170,816813919,3932170,3932170,0.000610215,-0.000398832,-0.000974965,-9.13567e-05,-0.00687059,-0.0413539,5020,5020,0
817318231,817317924,3932170,3932170,-0.000107685,-0.000246729,-0.000161196,-0.00311463,-0.00121174,-0.0440337,4971,4971,0
817816911,817816651,3932170,3932170,0.000232155,0.00048405,-0.000665909,-0.00084485,-0.0141522,-0.045803,4989,4989,0
818315838,818315558,3932170,3932170,-0.00280273,-0.000310745,0.00152022,-0.00602313,-0.00237532,-0.0507647,4990,4990,0
818814733,818814487,3932170,3932170,0.00140831,-0.000145376,-0.0003896,0.000388145,0.00384789,-0.0541614,5013,5013,0
819313827,819313371,3932170,3932170,0.00108414,-0.000501734,-0.00036157,-0.00154746,0.00258219,-0.0566787,4989,4989,0
819812521,819812277,3932170,3932170,-0.000361286,6.53829e-05,-0.000697268,0.00164868,-0.0104884,-0.0457649,4989,4989,0
820317690,820316226,3932170,3932170,0.00335244,-0.00192167,-0.000908657,-0.00144603,-0.000622815,-0.0566199,4968,4968,0
820815504,820815257,3932170,3932170,-0.00200542,0.00242264,0.000457157,-0.000474402,-0.00122668,-0.0530427,4972,4972,0
821314245,821313985,3932170,3932170,-4.73895e-06,-0.000202979,-0.000187022,-0.000662,0.008983,-0.045317,4984,4984,0
821813201,821812892,3932170,3932170,-0.000264501,-0.000167008,-0.000387715,-0.00183242,-0.0117203,-0.0502848,4989,4989,0
822312087,822311798,3932170,3932170,0.00355817,0.000403592,0.000707174,8.38969e-05,-0.000544452,-0.0462559,4989,4989,0
822815941,822815693,3932170,3932170,-0.000584848,0.00028604,0.000931815,-0.000592432,0.020863,-0.0484305,4987,4987,0
823314856,823314600,3932170,3932170,0.00116841,-7.99561e-05,0.000352718,0.00385545,0.0178914,-0.0452348,4989,4989,0
823813884,823813508,3932170,3932170,-0.000554522,-0.000211517,0.000382098,0.000282985,0.0127343,-0.0425038,4955,4955,0
824312943,824312647,3932170,3932170,-0.000733244,0.000307391,0.000554814,-0.00432815,0.00641392,-0.0564972,4957,4957,0
824816579,824816325,3932170,3932170,-0.000496403,-0.000295959,0.0014632,-0.00630471,0.0192511,-0.0589576,5003,5003,0
825315519,825315214,3932170,3932170,-0.00294434,0.00145988,0.0014284,-0.00595331,0.00201125,-0.0583291,4987,4987,0
825814427,825814123,3932170,3932170,0.00212623,-0.00209602,0.000892938,-0.00322107,0.017407,-0.0497803,4986,4986,0
826313341,826313030,3932170,3932170,0.000868032,0.00184429,-0.000836162,0.00373686,0.00342503,-0.0452623,4991,4991,0
826817470,826816937,3932170,3932170,-0.00226114,-0.00188259,0.00120573,-0.00899367,0.0122665,-0.0526002,5001,5001,0
827316076,827315830,3932170,3932170,-6.11916e-05,0.00176422,3.25703e-05,-0.00484515,0.0017389,-0.0546863,4981,4981,0
827815899,827814903,3932170,3932170,0.000469217,-0.000334369,-0.000697978,-0.00260719,-0.00979227,-0.0408162,4952,4952,0
828313908,828313642,3932170,3932170,0.000461591,-0.000240335,0.000125462,-0.00239087,-0.00396315,-0.0492992,4989,4989,0
828812789,828812549,3932170,3932170,0.00100677,-0.000364532,0.000403909,0.0015641,0.0147985,-0.0516507,4983,4983,0
829311739,829311455,3932170,3932170,-0.00524287,0.00114921,0.000885806,-0.0045875,0.00328304,-0.0485447,4989,4989,0
829815597,829815351,3932170,3932170,-0.00401529,0.0014895,7.47431e-05,-0.00576776,-0.00890954,-0.0395135,4989,4989,0
830314511,830314257,3932170,3932170,-3.74238e-05,0.000165144,0.000237894,-0.00209872,-0.0037594,-0.0496106,4989,4989,0
830813532,830813168,3932170,3932170,0.00122021,-0.000160108,-0.00098906,-0.000112973,-0.00103474,-0.049686,4969,4969,0
831317555,831317213,3932170,3932170,0.00364763,-0.000955151,-0.00117093,-0.000252661,-0.0229113,-0.0440242,4962,4962,0
831816251,831815983,3932170,3932170,-0.00428935,0.000579861,0.000960671,-0.00691034,0.00961676,-0.0528589,4927,4927,0
832315185,832314877,3932170,3932170,0.000216613,-0.000373986,0.000438368,-5.27048e-05,-0.00638595,-0.0474322,4994,4994,0
832814022,832813778,3932170,3932170,-0.000409738,0.000341001,0.000662063,0.000427285,-0.00157324,-0.0492727,4989,4989,0
833313353,833312688,3932170,3932170,-0.00031636,0.0021329,0.000621213,-0.00289974,0.0211651,-0.0529486,4991,4991,0
833816859,833816580,3932170,3932170,-0.000666105,-0.00143119,0.000119146,-0.00742466,0.00318518,-0.051354,4989,4989,0
834315961,834315487,3932170,3932170,0.000169027,-1.25801e-05,-0.000692852,-0.00179398,0.00389482,-0.0495017,4987,4987,0
834814945,834814547,3932170,3932170,-0.000282487,-4.74655e-05,0.000662786,-0.00150898,-0.00416374,-0.0498002,4972,4972,0
835318555,835318288,3932170,3932170,-0.000309322,0.000933213,0.000461786,0.00188256,-0.0169031,-0.047606,4989,4989,0
835812516,835812205,3932170,3932170,0.00217975,-0.00158063,-0.000415098,-4.25461e-05,-0.00926745,-0.048642,4989,4989,0
836316383,836316103,3932170,3932170,-0.00217123,0.000653478,-0.000599882,0.000840881,-0.00449138,-0.0455774,4991,4991,0
836815267,836815015,3932170,3932170,0.00162313,-0.00128007,-0.000194159,-0.00217615,0.000894311,-0.0482269,4997,4997,0
837314162,837313916,3932170,3932170,0.000856291,-0.000223497,6.33075e-06,0.000753843,-0.00435766,-0.0466318,4990,4990,0
837813070,837812822,3932170,3932170,-0.000762452,3.95298e-05,0.00026198,-0.00334799,-0.0170655,-0.0533662,4994,4994,0
838317200,838316851,3932170,3932170,0.001615,-0.000369098,2.00983e-05,-0.00179276,-0.00803137,-0.0485793,4968,4968,0
838815885,838815624,3932170,3932170,0.00138924,-0.00040669,-0.000646199,0.00186408,-0.0176306,-0.0457105,4994,4994,0
839314798,839314528,3932170,3932170,0.00114533,-9.39761e-05,-0.000202161,-0.000793588,-0.0115358,-0.0516564,4989,4989,0
839813899,839813437,3932170,3932170,0.000475639,-0.000313478,-0.00165516,0.00256356,-0.0219063,-0.0453565,4992,4992,0
840312587,840312341,3932170,3932170,0.000210795,3.71016e-05,-0.000160588,-0.00113748,0.00639217,-0.0465095,4989,4989,0
840816907,840816245,3932170,3932170,-0.000371282,-0.00043605,0.000951653,-0.00250454,-0.00748657,-0.0466481,4996,4996,0
841315482,841315143,3932170,3932170,0.000765433,-1.93131e-05,-0.000915192,-0.000390217,-0.0140261,-0.0455072,4990,4990,0
841814940,841814191,3932170,3932170,-0.00113173,4.79925e-05,0.000993413,-0.00332835,0.0151492,-0.0512448,4967,4967,0
842318209,842317945,3932170,3932170,-0.002243,0.000510083,0.000686056,-0.00330581,0.00368144,-0.0467581,4952,4952,0
842812166,842811861,3932170,3932170,-0.00172571,0.000255303,0.000401282,-0.0033897,-0.00918114,-0.0467609,4989,4989,0
843316026,843315761,3932170,3932170,-0.00177599,0.000272324,0.000588478,-0.000569092,-0.00708934,-0.047108,4993,4993,0
843814913,843814664,3932170,3932170,-0.00148495,0.000567074,0.000684139,-0.00115708,-0.0119721,-0.046851,4978,4978,0
844318885,844318561,3932170,3932170,0.00128159,-0.00152314,-0.000421233,0.000201756,-0.0151455,-0.0450605,4986,4986,0
844817823,844817474,3932170,3932170,-0.00291645,0.000742955,-9.98758e-05,-0.00209434,0.00332312,-0.0472103,4996,4996,0
845316828,845316583,3932170,3932170,0.00243487,-0.00292513,-0.00134087,0.00336268,-0.0276103,-0.0397738,4945,4945,0
845815539,845815278,3932170,3932170,0.000878531,6.76883e-05,0.000264362,0.00267535,0.0185446,-0.0498918,4987,4987,0
846314898,846314186,3932170,3932170,0.00198962,-0.000914727,0.000393517,-0.00128415,0.0115049,-0.0463507,4986,4986,0
846813365,846813100,3932170,3932170,-0.00285,0.00155684,-8.36409e-05,-0.00552509,-0.0181433,-0.0521055,4989,4989,0
847317579,847316990,3932170,3932170,-0.0008281,0.00038758,0.000551999,-0.00360714,0.00828188,-0.0529057,4992,4992,0
847816235,847815893,3932170,3932170,-0.000147843,-0.000117216,0.000298581,0.00181776,-0.0093711,-0.0429223,4988,4988,0
848316467,848314797,3932170,3932170,-0.00123776,-2.01439e-05,0.00107199,0.00168698,-0.00027047,-0.0493871,4964,4964,0
848814140,848813824,3932170,3932170,0.000189256,-3.95198e-05,0.00068076,-0.000494547,0.00141467,-0.0512756,4960,4960,0
849317868,849317605,3932170,3932170,-7.18093e-05,0.000396829,-0.00101695,-0.00167623,-0.0331421,-0.0442367,4993,4993,0
849811793,849811537,3932170,3932170,0.00130253,-0.000500076,-0.000323747,-0.000642041,0.00772526,-0.0500654,5008,5008,0
850315725,850315414,3932170,3932170,0.00160093,-0.000522669,-1.9559e-05,0.00120924,0.00894497,-0.0477926,4989,4989,0
850814600,850814320,3932170,3932170,0.00150741,-0.000416857,0.000307355,-0.00566551,0.00334654,-0.0550417,4989,4989,0
851313488,851313227,3932170,3932170,0.000932898,0.000223371,-0.000275447,0.00234919,0.0198659,-0.0489275,4983,4983,0
851817497,851817123,3932170,3932170,0.00178721,1.10462e-05,0.00031402,0.00154158,0.0213559,-0.0496527,4985,4985,0
852316477,852316139,3932170,3932170,-0.000859851,0.00023741,-0.000736809,-0.00512542,-0.0145962,-0.0509231,4963,4963,0
852815220,852814944,3932170,3932170,0.000846901,0.000682463,-0.000273324,-0.00158822,0.0074652,-0.0482352,4998,4998,0
853314144,853313841,3932170,3932170,0.000887003,-2.99392e-05,-0.000193648,0.00663968,0.00759817,-0.0480257,4989,4989,0
853812995,853812749,3932170,3932170,-0.00117369,-0.000811054,0.0014813,-0.00600385,0.0254668,-0.0562848,4988,4988,0
854311965,854311718,3932170,3932170,-0.00123421,0.00155315,0.000573972,-0.00298256,0.00664831,-0.05498,5044,5044,0
854816310,854815552,3932170,3932170,-0.00074874,0.000288985,0.00113489,-0.0017227,0.0186059,-0.0506032,4989,4989,0
855314717,855314471,3932170,3932170,0.000534581,1.50313e-05,0.0004577,-0.00316224,0.00385365,-0.0535942,4996,4996,0
855814216,855813473,3932170,3932170,0.00171432,-0.000656989,-0.00115248,0.00431216,-0.00286158,-0.0439384,4962,4962,0
856317875,856317539,3932170,3932170,0.00177072,-0.000259479,-0.00104605,9.50568e-05,-0.0298273,-0.0515495,5269,5269,0
856811521,856811176,3932170,3932170,-0.00266301,-6.5174e-05,0.00149856,-0.0059601,-0.0100056,-0.0493756,4990,4990,0
857315409,857315071,3932170,3932170,0.000756109,-0.000529195,9.7887e-05,0.000622988,-0.00256877,-0.047729,4987,4987,0
857814293,857813977,3932170,3932170,0.00272693,-0.000683693,-0.00113539,0.00223363,-0.00795669,-0.0456637,4986,4986,0
858318226,858317877,3932170,3932170,-0.00263843,-3.65738e-05,0.000748653,-0.00707543,0.00391552,-0.0503428,4992,4992,0
858817040,858816794,3932170,3932170,0.000235726,0.00022001,-0.000138514,0.000972714,0.0161205,-0.0457925,4954,4954,0
859316027,859315779,3932170,3932170,-0.00124497,0.0026026,1.55864e-05,-0.000785703,0.00532213,-0.0446957,4960,4960,0
859814851,859814595,3932170,3932170,0.00311335,-0.00143929,0.00072866,0.000291166,-0.0127449,-0.044209,4992,4992,0
860313765,860313503,3932170,3932170,-3.39141e-05,0.000185399,0.000127268,-0.00224021,-0.018244,-0.0497899,4992,4992,0
860812801,860812407,3932170,3932170,0.000628469,0.00146452,-0.000179449,-0.00587942,0.0046498,-0.0532444,4991,4991,0
861317344,861316304,3932170,3932170,0.00242449,-0.00116633,-0.00114343,-0.0023012,-0.0244701,-0.0469546,4990,4990,0
861815454,861815207,3932170,3932170,0.00081918,-0.00109136,6.78821e-05,0.00413608,-0.0123306,-0.0449602,4989,4989,0
862315496,862314114,3932170,3932170,-0.000462882,0.000473329,-0.000744164,-0.00106164,0.0124176,-0.049432,4985,4985,0
862818435,862818145,3932170,3932170,-0.000520545,-0.00043995,-0.000107835,-0.00578581,-0.0171152,-0.0500023,4979,4979,0
863318115,863317174,3932170,3932170,0.00233137,-0.000968086,-0.00115487,0.000732175,-0.0275377,-0.0455957,5243,5243,0
863811095,863810835,3932170,3932170,-0.00157061,0.00152326,0.000525163,-0.00384535,-0.0134855,-0.0505771,4948,4948,0
864314978,864314731,3932170,3932170,-0.000477214,0.00055047,0.000764569,-0.00122556,-0.00439603,-0.0523617,4992,4992,0
864813881,864813634,3932170,3932170,0.00189097,-0.000612276,0.000776433,-0.000488012,0.0330894,-0.0539878,4989,4989,0
865312838,865312541,3932170,3932170,-0.00329148,0.00105249,0.000261478,-0.00376662,-0.0110362,-0.0432842,4990,4990,0
865816773,865816436,3932170,3932170,-0.00104553,0.000428723,0.000474441,-0.00229565,0.0142448,-0.0550102,4989,4989,0
866315729,866315437,3932170,3932170,0.000694891,-0.0001259,-0.000703256,-0.00410078,-0.00337269,-0.0499887,4978,4978,0
866814870,866814522,3932170,3932170,3.03553e-05,6.50662e-05,0.000875649,-0.00107567,0.000895386,-0.0550441,5263,5263,0
867313461,867313156,3932170,3932170,-0.000133234,0.000888598,-0.000143529,-0.00132715,-0.0121133,-0.0481854,4990,4990,0
867812554,867812062,3932170,3932170,-0.00117752,-0.000113996,0.000438739,-0.00552583,-0.00940695,-0.04845,4990,4990,0
868316235,868315957,3932170,3932170,-0.00022467,0.00179157,0.0001222,-0.00311983,-0.00897738,-0.0511242,4989,4989,0
868815609,868814866,3932170,3932170,0.000122547,-0.000298241,-0.000772712,-0.00370696,-0.00869022,-0.0463833,4985,4985,0
869314028,869313772,3932170,3932170,-0.000690844,0.00193714,0.000364054,-0.0042529,-0.00395164,-0.051027,4987,4987,0
869818120,869817764,3932170,3932170,0.0032823,-0.000752667,0.000336293,-0.00215209,0.018018,-0.0497373,4991,4991,0
870317120,870316811,3932170,3932170,-0.00625464,0.000657233,0.000839114,-0.00528693,0.00400751,-0.0504361,4946,4946,0
870815788,870815479,3932170,3932170,-0.000353647,0.000248053,0.00104562,-0.00105502,0.021987,-0.0489015,4991,4991,0
871314634,871314384,3932170,3932170,-0.000188823,-0.000397713,0.000530872,-0.000391604,0.00359213,-0.0528422,4989,4989,0
871813583,871813291,3932170,3932170,-0.000885612,0.000691292,0.000613679,-0.0033901,-0.00411154,-0.0484371,4990,4990,0
872312446,872312200,3932170,3932170,0.00151452,-0.000538069,-0.000917942,0.00162008,-0.0107566,-0.0412495,4981,4981,0
872816368,872816094,3932170,3932170,0.00227211,0.000246675,-0.00171757,0.00329748,-0.0240841,-0.0430437,4986,4986,0
873315377,873315072,3932170,3932170,-0.000461593,0.000294501,0.000244192,-0.00802972,-0.0121087,-0.050499,4974,4974,0
873814491,873814151,3932170,3932170,-0.00102378,-0.000297584,0.000322733,-0.00200973,-0.00104972,-0.0487106,4955,4955,0
874313082,874312814,3932170,3932170,0.000194086,-1.68951e-05,0.000491967,-0.00418987,-0.0112137,-0.0489243,4992,4992,0
874812007,874811717,3932170,3932170,-0.00149089,3.50586e-05,-4.78015e-05,-0.000750198,0.00249065,-0.0448845,4988,4988,0
875316163,875315615,3932170,3932170,-0.00185609,0.000247447,0.000986294,-0.00393433,-0.0143287,-0.0516312,4990,4990,0
875814764,875814519,3932170,3932170,0.000316901,-0.0003677,-0.000668334,-0.00486392,-0.0111041,-0.0462684,4989,4989,0
876314224,876313427,3932170,3932170,-0.000938841,0.000758253,0.000935484,-0.00405712,0.011412,-0.0512732,4990,4990,0
876817752,876817472,3932170,3932170,0.00131944,-0.000170614,-0.00105495,-0.000369438,-0.021052,-0.0457756,4961,4961,0
877317350,877316456,3932170,3932170,-0.00101757,0.000308827,0.000180924,-0.00283508,-0.0119816,-0.0510588,4955,4955,0
877815397,877815138,3932170,3932170,0.000697665,8.76493e-05,9.53428e-05,-0.000243056,0.00935614,-0.0518115,4993,4993,0
878314330,878314040,3932170,3932170,-0.00150712,0.000388841,0.000543185,-0.001719,0.0153663,-0.0485893,4983,4983,0
878813271,878812947,3932170,3932170,-0.00165693,0.000270756,0.000899554,-0.00120164,-0.00106766,-0.0487069,4987,4987,0
879317137,879316842,3932170,3932170,-0.00112506,0.000615227,0.000368812,-0.0057686,-0.000304348,-0.0531755,4989,4989,0
879816000,879815752,3932170,3932170,-0.00137961,0.000805443,0.000440333,-0.00902112,-0.00667535,-0.0560558,4982,4982,0
