timestamp,gyro_device_id,gyro_bias[0],gyro_bias[1],gyro_bias[2],accel_device_id,accel_bias[0],accel_bias[1],accel_bias[2],mag_device_id,mag_bias[0],mag_bias[1],mag_bias[2]
26844575,3670026,-0.00013181515,0.0026878498,-0.006528238,3670026,0.0,0.0,-0.11092627,396809,0.0,0.0,0.0
26854504,3670026,-0.00013110766,0.0026885795,-0.006497143,3670026,0.0,0.0,-0.11097993,396809,0.0,0.0,0.0
27847541,3670026,-0.00032822578,0.0025620335,-0.006363476,3670026,0.0,0.0,-0.10738839,396809,0.0,0.0,0.0
28845539,3670026,-0.00045987862,0.0024846026,-0.0062872996,3670026,0.0057223216,-0.008852277,-0.10470823,396809,0.0,0.0,0.0
29843539,3670026,-0.000518549,0.0024766878,-0.00608964,3670026,0.023001699,-0.06919467,-0.1021966,396809,0.0,0.0,0.0
30841539,3670026,-0.00046874007,0.002502874,-0.0051080803,3670026,0.02127399,-0.077502266,-0.101267986,396809,0.0,0.0,0.0
31844665,3670026,-0.00043086597,0.002539032,-0.0043014516,3670026,0.0265224,-0.07423761,-0.100570954,396809,0.0,0.0,0.0
32847471,3670026,-0.0004064002,0.0025528274,-0.0036583846,3670026,0.025317132,-0.07063244,-0.098624006,396809,0.0,0.0,0.0
33845471,3670026,-0.00039388493,0.002588132,-0.0031230652,3670026,0.021116545,-0.0671064,-0.097932406,396809,0.0,0.0,0.0
34843471,3670026,-0.00043544243,0.0026009711,-0.00269716,3670026,0.025333792,-0.065466695,-0.096633494,396809,0.0,0.0,0.0
35846500,3670026,-0.00047048106,0.0026221126,-0.0025354743,3670026,0.02867742,-0.06032728,-0.095386475,396809,0.0,0.0,0.0
36844439,3670026,-0.00047251885,0.0026445047,-0.0025240062,3670026,0.035839114,-0.07031811,-0.086642094,396809,0.0,0.0,0.0
37847405,3670026,-0.0004188642,0.0026932019,-0.0025255755,3670026,0.042419612,-0.07861591,-0.06824798,396809,0.0,0.0,0.0
38845409,3670026,-0.00043667963,0.0027107454,-0.0025081753,3670026,0.0455595,-0.07469226,-0.054949958,396809,0.0,0.0,0.0
39843407,3670026,-0.00043874743,0.002745121,-0.0024963368,3670026,0.049717076,-0.07408203,-0.039547134,396809,0.0,0.0,0.0
40841408,3670026,-0.00044426564,0.0027328038,-0.0024520336,3670026,0.050881412,-0.07401769,-0.03320703,396809,0.0,0.0,0.0
41849340,3670026,-0.000433854,0.0027399745,-0.0024536385,3670026,0.05195261,-0.07438452,-0.027172573,396809,0.0,0.0,0.0
42842405,3670026,-0.00045028958,0.0027405058,-0.0024112645,3670026,0.052682742,-0.07357917,-0.022808192,396809,0.0,0.0,0.0
43845384,3670026,-0.00043517942,0.0027437224,-0.0023209576,3670026,0.053468477,-0.07394219,-0.020772146,396809,0.0,0.0,0.0
44848309,3670026,-0.00044698478,0.0026258104,-0.0022001807,3670026,0.047813993,-0.07340675,-0.020550398,396809,0.0,0.0,0.0
45846311,3670026,-0.00051574176,0.0026380806,-0.0020328565,3670026,0.04813741,-0.069942266,-0.021463133,396809,0.0,0.0,0.0
46839347,3670026,-0.00059589883,0.0025350053,-0.0018317604,3670026,0.043285027,-0.064915985,-0.01954796,396809,0.0,0.0,0.0
47847279,3670026,-0.0007887736,0.00252155,-0.0016978253,3670026,0.04192381,-0.055328846,-0.018167216,396809,0.0,0.0,0.0
48850246,3670026,-0.00088062184,0.0024233798,-0.001475796,3670026,0.037311725,-0.050451018,-0.016172213,396809,0.0,0.0,0.0
49838389,3670026,-0.00093249907,0.0023362213,-0.0013061482,3670026,0.033977035,-0.048278105,-0.0151990345,396809,0.0,0.0,0.0
50846250,3670026,-0.0010153645,0.0023225537,-0.0011249945,3670026,0.03303123,-0.04499226,-0.014008555,396809,0.0,0.0,0.0
51849217,3670026,-0.0010733786,0.002287399,-0.0009660527,3670026,0.03193225,-0.041931443,-0.012691403,396809,0.0,0.0,0.0
52847218,3670026,-0.0010089162,0.0022544672,-0.0008680898,3670026,0.030795943,-0.044222653,-0.012252818,396809,0.0,0.0,0.0
53845220,3670026,-0.0009622871,0.002160213,-0.00077183335,3670026,0.027430719,-0.04608044,-0.012610508,396809,0.0,0.0,0.0
54848187,3670026,-0.0009507124,0.0021437905,-0.00062533136,3670026,0.026609544,-0.046782438,-0.012769461,396809,0.0,0.0,0.0
55846194,3670026,-0.0009809978,0.0021121355,-0.00050743856,3670026,0.025557706,-0.045736656,-0.012275053,396809,0.0,0.0,0.0
56844317,3670026,-0.0010505083,0.002062323,-0.00041435397,3670026,0.0236978,-0.043887615,-0.012050631,396809,0.0,0.0,0.0
57847159,3670026,-0.001086321,0.002054874,-0.00036162738,3670026,0.02349285,-0.042524885,-0.011832845,396809,0.0,0.0,0.0
58845161,3670026,-0.0011371257,0.0020522745,-0.0003456673,3670026,0.023379914,-0.040827706,-0.011651209,396809,0.0,0.0,0.0
59838203,3670026,-0.0011263326,0.002096078,-0.00036314173,3670026,0.024956618,-0.0409941,-0.011024336,396809,0.0,0.0,0.0
60846131,3670026,-0.0012205143,0.0019361436,-0.00033597887,3670026,0.02227916,-0.039868552,-0.011150499,396809,0.0,0.0,0.0
61849099,3670026,-0.0012851631,0.0018826799,-0.0003552159,3670026,0.021237014,-0.038758364,-0.0113383895,396809,0.0,0.0,0.0
62847102,3670026,-0.0013157738,0.0019002157,-0.00040270895,3670026,0.021589871,-0.03859891,-0.011561421,396809,0.0,0.0,0.0
63845206,3670026,-0.0013502225,0.0018916151,-0.0004487692,3670026,0.02148541,-0.03722153,-0.011273799,396809,0.0,0.0,0.0
64848071,3670026,-0.0013455654,0.0019069501,-0.00049091736,3670026,0.021659745,-0.036633752,-0.010884963,396809,0.0,0.0,0.0
65846078,3670026,-0.0013098783,0.0019141979,-0.0005156594,3670026,0.021388816,-0.036924355,-0.01042433,396809,0.0,0.0,0.0
66839110,3670026,-0.0013191683,0.0018867922,-0.0005311697,3670026,0.020873247,-0.036142606,-0.010062817,396809,0.0,0.0,0.0
67842078,3670026,-0.0013617896,0.0018704998,-0.0005645339,3670026,0.020506533,-0.035175934,-0.009812387,396809,0.0,0.0,0.0
68840081,3670026,-0.001375116,0.001825348,-0.0005864765,3670026,0.019928338,-0.034255803,-0.00918888,396809,0.0,0.0,0.0
69848020,3670026,-0.0013119447,0.0017820698,-0.0005607044,3670026,0.015585242,-0.032783262,-0.008221393,396809,0.0,0.0,0.0
70846145,3670026,-0.0012860694,0.0016874976,-0.0004651004,3670026,0.008597685,-0.025601557,-0.0076237316,396809,0.0,0.0,0.0
71844020,3670026,-0.0013102381,0.0016214368,-0.00043959622,3670026,0.00637012,-0.01640809,-0.007299655,396809,0.0,0.0,0.0
72846997,3670026,-0.0012754656,0.0015750251,-0.00042043405,3670026,-2.2263686e-05,-0.0124582015,-0.0068999883,396809,0.0,0.0,0.0
73844990,3670026,-0.0012915169,0.0015472623,-0.00046379663,3670026,0.00011612777,-0.00814544,-0.006951599,396809,0.0,0.0,0.0
74847965,3670026,-0.0012536565,0.001528826,-0.0005069132,3670026,-0.0025427009,-0.0075829383,-0.006643348,396809,0.0,0.0,0.0
75845960,3670026,-0.0012506532,0.0015171774,-0.0005445633,3670026,-0.0023772328,-0.006269981,-0.006439624,396809,0.0,0.0,0.0
76848929,3670026,-0.0012824355,0.0015024843,-0.00053704873,3670026,-0.00095239916,-0.0055130343,-0.006356577,396809,0.0,0.0,0.0
77847088,3670026,-0.0012916751,0.0014743989,-0.00052871386,3670026,-0.0008078874,-0.0046281726,-0.006226264,396809,0.0,0.0,0.0
78844934,3670026,-0.0013212606,0.0014532814,-0.0005231384,3670026,-0.00068046746,-0.00433496,-0.0061477693,396809,0.0,0.0,0.0
79847905,3670026,-0.0013454783,0.0013840648,-0.0005117364,3670026,-0.00085211435,-0.0041005425,-0.00600355,396809,0.0,0.0,0.0
80845906,3670026,-0.0013406897,0.0013724321,-0.0005065539,3670026,-0.0013642047,-0.0040974366,-0.00585284,396809,0.0,0.0,0.0
81838992,3670026,-0.001313427,0.0013391123,-0.00051618257,3670026,-0.0018647949,-0.00435693,-0.005456396,396809,0.0,0.0,0.0
82846878,3670026,-0.0013244897,0.0013229479,-0.00052931794,3670026,-0.0025785684,-0.004692006,-0.005259361,396809,0.0,0.0,0.0
83844879,3670026,-0.0013054893,0.0012824996,-0.0005345543,3670026,-0.0027192112,-0.005543115,-0.005196644,396809,0.0,0.0,0.0
84843056,3670026,-0.0013409725,0.0012624146,-0.00055150344,3670026,-0.0039052488,-0.005923487,-0.005141859,396809,0.0,0.0,0.0
85845852,3670026,-0.0013669071,0.0012289757,-0.0005623427,3670026,-0.005141356,-0.0065073627,-0.004942226,396809,0.0,0.0,0.0
86843854,3670026,-0.00139577,0.0012601202,-0.0005869038,3670026,-0.005916717,-0.0055907867,-0.0047761668,396809,0.0,0.0,0.0
87846822,3670026,-0.0014262333,0.001280687,-0.000619743,3670026,-0.006966393,-0.004747429,-0.0046109366,396809,0.0,0.0,0.0
88839877,3670026,-0.0014030654,0.0012243377,-0.00063103484,3670026,-0.0071601765,-0.005480709,-0.004519176,396809,0.0,0.0,0.0
89842830,3670026,-0.001428104,0.001250107,-0.0006580263,3670026,-0.007736642,-0.0050050714,-0.004281955,396809,0.0,0.0,0.0
90845796,3670026,-0.001452858,0.001223774,-0.0006942603,3670026,-0.0082594855,-0.0054132156,-0.004138689,396809,0.0,0.0,0.0
91838996,3670026,-0.0014109963,0.0012140882,-0.00074200955,3670026,-0.0049945954,-0.0059166322,-0.0026454295,396809,0.0,0.0,0.0
92846767,3670026,-0.0013861888,0.0012492887,-0.0007543178,3670026,-0.0031691126,-0.0067477403,-0.0019849152,396809,0.0,0.0,0.0
93844811,3670026,-0.0014147011,0.0012271501,-0.00076118734,3670026,-0.0019473162,-0.0052357605,-0.0018358,396809,0.0,0.0,0.0
94837808,3670026,-0.0014694168,0.0012216299,-0.0007647006,3670026,0.00046880954,-0.0045939027,-0.001984731,396809,0.0,0.0,0.0
95845866,3670026,-0.0015095263,0.0011981871,-0.00077507703,3670026,0.0018057004,-0.003537723,-0.0019359614,396809,0.0,0.0,0.0
96848709,3670026,-0.0015227636,0.0011569464,-0.00077740254,3670026,0.002602526,-0.0025543615,-0.0020492715,396809,0.0,0.0,0.0
97846713,3670026,-0.0014920792,0.001125714,-0.0007862038,3670026,0.0023499634,-0.0022333737,-0.0020442142,396809,0.0,0.0,0.0
98844715,3670026,-0.0015043753,0.001133187,-0.0007957846,3670026,0.002683849,-0.0026243774,-0.0021048607,396809,0.0,0.0,0.0
99847683,3670026,-0.0014988411,0.0011156952,-0.0008076305,3670026,0.0026197731,-0.0027756928,-0.0019849385,396809,0.0,0.0,0.0
100840720,3670026,-0.0015041428,0.00110713,-0.00082046766,3670026,0.0024687056,-0.002825116,-0.0018496659,396809,0.0,0.0,0.0
101838767,3670026,-0.0015122405,0.0011033163,-0.0008213577,3670026,0.0022989397,-0.0027302473,-0.0016947727,396809,0.0,0.0,0.0
102846702,3670026,-0.0014796979,0.0011269116,-0.0008274196,3670026,0.0025091742,-0.0023055992,-0.0015729635,396809,0.0,0.0,0.0
103844659,3670026,-0.0014863184,0.0011204035,-0.00083282555,3670026,0.0023023568,-0.002198713,-0.0014315335,396809,0.0,0.0,0.0
104847627,3670026,-0.0015024435,0.0011105133,-0.0008204547,3670026,0.0020430384,-0.0020915105,-0.0013178797,396809,0.0,0.0,0.0
105845631,3670026,-0.0015076485,0.0011276986,-0.0008164281,3670026,0.0018946618,-0.0016493895,-0.0012003793,396809,0.0,0.0,0.0
106843633,3670026,-0.0014983303,0.0011012879,-0.00079902116,3670026,0.001978956,-0.0019477557,-0.0011173737,396809,0.0,0.0,0.0
107846601,3670026,-0.0014792675,0.001094091,-0.000777146,3670026,0.0021606563,-0.0018926008,-0.0010370143,396809,0.0,0.0,0.0
108839639,3670026,-0.0014873265,0.0011055043,-0.00075463986,3670026,0.0018619632,-0.0014548001,-0.00093594065,396809,0.0,0.0,0.0
109847639,3670026,-0.0015010552,0.0011007483,-0.0007280152,3670026,0.0016735964,-0.0014632714,-0.0008906333,396809,0.0,0.0,0.0
110845574,3670026,-0.0014642482,0.0011023135,-0.0006970806,3670026,0.0022408615,-0.0012248645,-0.00073717843,396809,0.0,0.0,0.0
111848543,3670026,-0.0014634604,0.0010845456,-0.00066025957,3670026,0.001953201,-0.0010858254,-0.00042289338,396809,0.0,0.0,0.0
112846545,3670026,-0.0014970229,0.0010588397,-0.00060862757,3670026,0.001477458,-0.0012786491,-0.00022475212,396809,0.0,0.0,0.0
113839590,3670026,-0.0015657074,0.0010592972,-0.00054894394,3670026,0.00050475914,-0.0010198449,-8.327871e-05,396809,0.0,0.0,0.0
114847516,3670026,-0.0015444984,0.0010413482,-0.00048156775,3670026,0.00060201925,-0.001082559,-5.0237406e-05,396809,0.0,0.0,0.0
115840554,3670026,-0.0015279118,0.0010547611,-0.00042569835,3670026,0.0009633822,-0.0006495941,-9.0521375e-05,396809,0.0,0.0,0.0
116843597,3670026,-0.0015577859,0.0010984753,-0.0003792713,3670026,0.00044544574,0.00038683336,-8.081765e-05,396809,0.0,0.0,0.0
117846490,3670026,-0.0016067286,0.0010883283,-0.00031716234,3670026,-0.00025244057,0.00019700527,0.00010153337,396809,0.0,0.0,0.0
118844499,3670026,-0.0016528278,0.0010680897,-0.00026002902,3670026,-0.00051025517,-0.0004916628,9.677536e-05,396809,0.0,0.0,0.0
119847455,3670026,-0.0016157661,0.0010482194,-0.00021110254,3670026,-2.7802924e-05,-0.0007438412,3.868599e-05,396809,0.0,0.0,0.0
120845465,3670026,-0.0016310907,0.0010126961,-0.00015152372,3670026,-0.0005054925,-0.00080789585,0.00018988574,396809,0.0,0.0,0.0
121843466,3670026,-0.0016455762,0.0009858041,-8.698718e-05,3670026,-0.00095974194,-0.00064597186,0.00018355627,396809,0.0,0.0,0.0
122846434,3670026,-0.0016828338,0.0009948226,-2.7639517e-05,3670026,-0.001217567,0.00028131937,0.0003862533,396809,0.0,0.0,0.0
123844526,3670026,-0.0016960115,0.0010488403,-2.2191311e-06,3670026,0.0044590333,-0.00067296386,0.003731682,396809,0.0,0.0,0.0
124842440,3670026,-0.0016719123,0.0010211266,1.8747101e-05,3670026,0.006690156,0.00017893019,0.0061723,396809,0.0,0.0,0.0
125845408,3670026,-0.0016307408,0.00096988986,0.0001416978,3670026,0.005274995,0.003548136,0.00845086,396809,0.0,0.0,0.0
126838446,3670026,-0.0016413046,0.000939336,0.00037867672,3670026,0.0042436197,0.011700715,0.009515599,396809,0.0,0.0,0.0
127841415,3670026,-0.0016668427,0.0009180882,0.00049307477,3670026,0.0050487746,0.022787454,0.009501309,396809,0.0,0.0,0.0
128844384,3670026,-0.0016608709,0.0009067722,0.00053556415,3670026,0.0063094194,0.02690875,0.009270903,396809,0.0,0.0,0.0
129847350,3670026,-0.0016569345,0.00089195574,0.0005721998,3670026,0.007744635,0.028788682,0.009525764,396809,0.0,0.0,0.0
130845467,3670026,-0.0016494199,0.00091035606,0.0006032362,3670026,0.007316311,0.028459748,0.009612345,396809,0.0,0.0,0.0
131843355,3670026,-0.0016484774,0.0008659863,0.0006556975,3670026,0.008566619,0.029828327,0.009493109,396809,0.0,0.0,0.0
132846325,3670026,-0.0016322995,0.00083086547,0.0007064811,3670026,0.009231067,0.03040078,0.009435565,396809,0.0,0.0,0.0
133839361,3670026,-0.0016367644,0.000810476,0.00074351876,3670026,0.00957458,0.030131774,0.009383764,396809,0.0,0.0,0.0
134847307,3670026,-0.0016243967,0.0007818859,0.00079231977,3670026,0.010145557,0.030122634,0.009391564,396809,0.0,0.0,0.0
135840332,3670026,-0.0016062869,0.00076355255,0.0008484891,3670026,0.010507921,0.030083591,0.009421306,396809,0.0,0.0,0.0
136838333,3670026,-0.0016071424,0.00074752385,0.0009035026,3670026,0.010607314,0.029941967,0.009462109,396809,0.0,0.0,0.0
137846450,3670026,-0.0016173768,0.0007075034,0.00095229206,3670026,0.010328949,0.029092027,0.0094044525,396809,0.0,0.0,0.0
138844269,3670026,-0.00162096,0.0006952649,0.0010017265,3670026,0.0104202,0.028822975,0.009381605,396809,0.0,0.0,0.0
139847236,3670026,-0.0016367041,0.0006736743,0.0010375044,3670026,0.009860173,0.02838188,0.00940386,396809,0.0,0.0,0.0
140840274,3670026,-0.0017224088,0.0006570244,0.0010661352,3670026,0.007910279,0.02839357,0.009640324,396809,0.0,0.0,0.0
141848210,3670026,-0.0017651144,0.00063573127,0.0011332962,3670026,0.007073074,0.028131055,0.009532526,396809,0.0,0.0,0.0
142841243,3670026,-0.0017673982,0.00064773374,0.0011674011,3670026,0.0072287084,0.028345374,0.00956843,396809,0.0,0.0,0.0
143839289,3670026,-0.0017385125,0.00064186694,0.0011626685,3670026,0.007184712,0.028170988,0.009361856,396809,0.0,0.0,0.0
144847339,3670026,-0.0017233033,0.0006325278,0.001149033,3670026,0.007352432,0.028193291,0.009401168,396809,0.0,0.0,0.0
145845181,3670026,-0.0017473488,0.00064645946,0.001134227,3670026,0.0070670494,0.028413767,0.009562299,396809,0.0,0.0,0.0
146848150,3670026,-0.0017261994,0.0006275562,0.0011265209,3670026,0.007258172,0.028203864,0.009518537,396809,0.0,0.0,0.0
147846151,3670026,-0.0017356445,0.0005430361,0.0011378666,3670026,0.007171047,0.027255198,0.009512747,396809,0.0,0.0,0.0
148844154,3670026,-0.0017284502,0.00051854784,0.0011210478,3670026,0.0072363145,0.026940107,0.009503057,396809,0.0,0.0,0.0
149847121,3670026,-0.0017659363,0.00048382473,0.0010936795,3670026,0.0066707265,0.026498128,0.009540772,396809,0.0,0.0,0.0
150840158,3670026,-0.0017333511,0.00044168622,0.0010632457,3670026,0.007166577,0.02596489,0.009596873,396809,0.0,0.0,0.0
151843303,3670026,-0.0017452089,0.00043857042,0.0010338548,3670026,0.0071878005,0.025919745,0.009553458,396809,0.0,0.0,0.0
152846094,3670026,-0.0018193226,0.00045807756,0.0010056321,3670026,0.0065999595,0.025887325,0.00936741,396809,0.0,0.0,0.0
153844139,3670026,-0.0018183014,0.00040980714,0.0009804852,3670026,0.0066218795,0.025725797,0.0094236275,396809,0.0,0.0,0.0
154847063,3670026,-0.0018532542,0.0003628903,0.0009942575,3670026,0.0063327644,0.02559956,0.009482658,396809,0.0,0.0,0.0
155840100,3670026,-0.0018316101,0.00035222986,0.0009902265,3670026,0.006213306,0.025344586,0.009289097,396809,0.0,0.0,0.0
156843066,3670026,-0.0019246292,0.0003780953,0.0010073043,3670026,0.0053783176,0.025811326,0.009240083,396809,0.0,0.0,0.0
157846043,3670026,-0.0018606434,0.00037946177,0.0010020721,3670026,0.006211781,0.026049627,0.0090414435,396809,0.0,0.0,0.0
158839227,3670026,-0.0018904611,0.00039166547,0.000991164,3670026,0.0057936884,0.025971243,0.008944013,396809,0.0,0.0,0.0
159847002,3670026,-0.0019314834,0.00043201947,0.0009586935,3670026,0.0053822775,0.02645535,0.00869712,396809,0.0,0.0,0.0
160845006,3670026,-0.001885352,0.0003779122,0.0009360985,3670026,0.005844338,0.025962671,0.008825552,396809,0.0,0.0,0.0
161847973,3670026,-0.0018641243,0.0003825414,0.00097258174,3670026,0.00723202,0.027595475,0.010732415,396809,0.0,0.0,0.0
162846057,3670026,-0.0018572832,0.00031306906,0.0010615791,3670026,0.0074355183,0.03047119,0.009707748,396809,0.0,0.0,0.0
163843977,3670026,-0.0019171969,0.00031439099,0.0011318,3670026,0.010547647,0.0322676,0.0076472824,396809,0.0,0.0,0.0
164846943,3670026,-0.0018966316,0.0002915955,0.0012313484,3670026,0.0073188436,0.03156641,0.0066352095,396809,0.0,0.0,0.0
165844951,3670026,-0.0018868227,0.0002803104,0.0012699431,3670026,0.0042078854,0.029687526,0.006042876,396809,0.0,0.0,0.0
166847916,3670026,-0.001870382,0.00026574393,0.0012559075,3670026,0.0005012395,0.026058422,0.0060153482,396809,0.0,0.0,0.0
167845910,3670026,-0.0019036895,0.00014102377,0.0012470679,3670026,0.0020334106,0.026340302,0.0064699342,396809,0.0,0.0,0.0
168838950,3670026,-0.0018932255,8.666544e-05,0.0012483321,3670026,0.0021699185,0.026199987,0.0063996534,396809,0.0,0.0,0.0
169846984,3670026,-0.0019117135,7.244671e-05,0.0012265842,3670026,0.0026967889,0.025831755,0.0062406748,396809,0.0,0.0,0.0
170849843,3670026,-0.0018999034,0.00013751516,0.0012244894,3670026,0.0016695017,0.02582575,0.0064340755,396809,0.0,0.0,0.0
171837914,3670026,-0.0018530372,0.00010183115,0.0011827013,3670026,0.002728963,0.0263069,0.0060452092,396809,0.0,0.0,0.0
172845845,3670026,-0.0017934875,0.000119327735,0.0011742017,3670026,0.0032298265,0.027252179,0.0058890474,396809,0.0,0.0,0.0
173848812,3670026,-0.0018567218,9.0458474e-05,0.0011849384,3670026,0.0025109667,0.026212119,0.00621084,396809,0.0,0.0,0.0
174846865,3670026,-0.0018042041,9.431251e-05,0.0011823343,3670026,0.0031548357,0.026669946,0.0061139455,396809,0.0,0.0,0.0
175844813,3670026,-0.001814626,0.00014674902,0.0011791376,3670026,0.0029481293,0.02741983,0.0060814545,396809,0.0,0.0,0.0
176847900,3670026,-0.0017981888,0.00014141333,0.0011775749,3670026,0.0030372434,0.027283693,0.006103472,396809,0.0,0.0,0.0
177845777,3670026,-0.0017937998,8.877556e-05,0.0011915013,3670026,0.0032102305,0.026787693,0.0061781984,396809,0.0,0.0,0.0
178838814,3670026,-0.0018191249,7.513394e-05,0.0011886059,3670026,0.0029044105,0.026731921,0.006162146,396809,0.0,0.0,0.0
179846744,3670026,-0.0018266902,0.00012239162,0.0011790565,3670026,0.0029952994,0.02715823,0.00611994,396809,0.0,0.0,0.0
180844743,3670026,-0.0018248127,0.00017731712,0.0011748098,3670026,0.003257936,0.027642613,0.0060970346,396809,0.0,0.0,0.0
181847709,3670026,-0.001822592,0.0001856006,0.0011702466,3670026,0.0033062978,0.027746674,0.006058647,396809,0.0,0.0,0.0
182845709,3670026,-0.0018248116,0.00020107816,0.0011563097,3670026,0.0033910437,0.027925767,0.006078331,396809,0.0,0.0,0.0
183843824,3670026,-0.0018313947,0.00022666036,0.0011421707,3670026,0.0034903379,0.028213028,0.006044571,396809,0.0,0.0,0.0
184846681,3670026,-0.0017934543,0.00014035596,0.001117885,3670026,0.0036593264,0.027753813,0.0061198147,396809,0.0,0.0,0.0
185839709,3670026,-0.0018343377,0.00015440542,0.0011208251,3670026,0.0035424994,0.027960518,0.0061112526,396809,0.0,0.0,0.0
186842674,3670026,-0.0018326913,0.00016794472,0.0011165877,3670026,0.0035189935,0.027971355,0.006294829,396809,0.0,0.0,0.0
187845640,3670026,-0.001812754,0.00017647531,0.0010973595,3670026,0.003527272,0.027876126,0.0063351574,396809,0.0,0.0,0.0
188848658,3670026,-0.001799555,0.00019439893,0.001090116,3670026,0.0036229983,0.02795074,0.0063774916,396809,0.0,0.0,0.0
189846606,3670026,-0.0018598787,0.00017108147,0.0010953933,3670026,0.0033004603,0.027891926,0.00612758,396809,0.0,0.0,0.0
190839729,3670026,-0.0018491993,0.00013568484,0.0010897927,3670026,0.0031888112,0.0277122,0.0060323635,396809,0.0,0.0,0.0
191842604,3670026,-0.0018279203,0.00012874382,0.0010938131,3670026,0.0032778382,0.027788417,0.006109743,396809,0.0,0.0,0.0
192845569,3670026,-0.0017960499,0.00010035841,0.0010813551,3670026,0.0033343898,0.027512744,0.0060481117,396809,0.0,0.0,0.0
193843568,3670026,-0.0017859191,0.00014784346,0.0010865568,3670026,0.0034384017,0.027556378,0.0060077123,396809,0.0,0.0,0.0
194846533,3670026,-0.0018204033,0.00012931127,0.0011024616,3670026,0.0034658792,0.027620824,0.00602267,396809,0.0,0.0,0.0
195849512,3670026,-0.0018122428,0.00014996313,0.0011005223,3670026,0.0036229899,0.02763078,0.0060649863,396809,0.0,0.0,0.0
196847497,3670026,-0.0018423935,0.00012144438,0.0010963498,3670026,0.0035687923,0.027557498,0.0060588266,396809,0.0,0.0,0.0
197840635,3670026,-0.0018543026,4.7508896e-05,0.001103498,3670026,0.0036285913,0.027482292,0.006142812,396809,0.0,0.0,0.0
198843495,3670026,-0.0018574295,3.5801684e-05,0.001101438,3670026,0.0036593147,0.027339324,0.006119139,396809,0.0,0.0,0.0
199841495,3670026,-0.0018692163,2.5218225e-05,0.0011184022,3670026,0.003566912,0.02732811,0.0060926033,396809,0.0,0.0,0.0
200844461,3670026,-0.001901574,-1.617379e-05,0.0011340781,3670026,0.003390479,0.02744901,0.0060269004,396809,0.0,0.0,0.0
201847438,3670026,-0.0019083257,-5.8248028e-05,0.0011335746,3670026,0.0033826532,0.02723288,0.0059613627,396809,0.0,0.0,0.0
202845421,3670026,-0.001917873,-0.00010733599,0.0011389229,3670026,0.003224695,0.027302567,0.0058090505,396809,0.0,0.0,0.0
203838454,3670026,-0.0019433292,-8.725215e-05,0.0011356416,3670026,0.003064835,0.027490983,0.0057634204,396809,0.0,0.0,0.0
204846535,3670026,-0.0018869081,-1.0146551e-05,0.0010777478,3670026,0.006674134,0.026290026,0.00032298235,396809,0.0,0.0,0.0
205844381,3670026,-0.0018785789,7.593625e-05,0.0010072531,3670026,0.01194518,0.024937117,-0.007981585,396809,0.0,0.0,0.0
206847346,3670026,-0.0018668037,0.00010651148,0.00092589384,3670026,0.015306178,0.025086634,-0.013704198,396809,0.0,0.0,0.0
207845345,3670026,-0.0019076433,0.00012279923,0.0009135232,3670026,0.017845778,0.027360447,-0.018094523,396809,0.0,0.0,0.0
208843342,3670026,-0.001947117,0.00011218856,0.0009392908,3670026,0.018931191,0.030929307,-0.021354413,396809,0.0,0.0,0.0
209846326,3670026,-0.001908174,0.00010541612,0.00095491187,3670026,0.016876346,0.031924512,-0.021615464,396809,0.0,0.0,0.0
210839337,3670026,-0.0019020714,6.605888e-05,0.0009929081,3670026,0.017390149,0.03655197,-0.027797602,396809,0.0,0.0,0.0
211842459,3670026,-0.0018672931,2.7441865e-05,0.0010338251,3670026,0.016116057,0.04280836,-0.03442037,396809,0.0,0.0,0.0
212845264,3670026,-0.0018233929,-2.4995807e-06,0.001027346,3670026,0.015434982,0.04617052,-0.036539413,396809,0.0,0.0,0.0
213838296,3670026,-0.0017842649,-5.0634382e-05,0.0010238067,3670026,0.016547179,0.048582986,-0.036788445,396809,0.0,0.0,0.0
214841278,3670026,-0.0017774621,-2.0561067e-05,0.0010335756,3670026,0.016532721,0.048922528,-0.0367306,396809,0.0,0.0,0.0
215844343,3670026,-0.0017589852,3.351926e-05,0.0010451742,3670026,0.016421944,0.048870325,-0.036413386,396809,0.0,0.0,0.0
216847185,3670026,-0.0017677385,1.3130746e-07,0.001063843,3670026,0.017147982,0.048690904,-0.036098808,396809,0.0,0.0,0.0
217845188,3670026,-0.0017746687,-8.4109015e-05,0.0010966783,3670026,0.018337755,0.04852199,-0.03588492,396809,0.0,0.0,0.0
218848149,3670026,-0.0017606588,-0.00010906433,0.0011200204,3670026,0.018806728,0.0481455,-0.03543952,396809,0.0,0.0,0.0
219846144,3670026,-0.0017472962,-0.0001606541,0.0011272269,3670026,0.019198274,0.047813717,-0.03534039,396809,0.0,0.0,0.0
220839185,3670026,-0.0017154879,-0.00015675202,0.001133523,3670026,0.019742943,0.047860906,-0.035343487,396809,0.0,0.0,0.0
221847110,3670026,-0.0017897006,-0.00023015216,0.0011511643,3670026,0.019439537,0.04760016,-0.034477104,396809,0.0,0.0,0.0
222845175,3670026,-0.0018532318,-0.00029037436,0.0011600921,3670026,0.019016393,0.047486935,-0.034246385,396809,0.0,0.0,0.0
223848064,3670026,-0.0019396829,-0.00022224865,0.0011441194,3670026,0.018761162,0.048890274,-0.034167144,396809,0.0,0.0,0.0
224846064,3670026,-0.002000495,-0.0002038827,0.0011382998,3670026,0.018558264,0.0496828,-0.03396246,396809,0.0,0.0,0.0
225844059,3670026,-0.0020646474,-0.0002108742,0.0011337294,3670026,0.018488081,0.05043034,-0.033658013,396809,0.0,0.0,0.0
226842056,3670026,-0.0020421713,-0.00018735319,0.0011205951,3670026,0.019158613,0.05098924,-0.03347944,396809,0.0,0.0,0.0
227845055,3670026,-0.002040985,-0.00016535715,0.0011073392,3670026,0.019591415,0.05161129,-0.033337828,396809,0.0,0.0,0.0
228847980,3670026,-0.0020301363,-0.00019537576,0.0011058445,3670026,0.020073289,0.051892918,-0.033183295,396809,0.0,0.0,0.0
229846068,3670026,-0.0020373596,-0.0002443568,0.001106282,3670026,0.020432666,0.05209528,-0.032947768,396809,0.0,0.0,0.0
230844010,3670026,-0.001995892,-0.0003535627,0.0010905806,3670026,0.021120973,0.052136336,-0.03252727,396809,0.0,0.0,0.0
231841975,3670026,-0.0020609198,-0.00042536313,0.0010789336,3670026,0.02082084,0.051999185,-0.03237953,396809,0.0,0.0,0.0
232835194,3670026,-0.0021426592,-0.00041583422,0.0010495044,3670026,0.020453919,0.052292865,-0.03214171,396809,0.0,0.0,0.0
233847895,3670026,-0.0021359795,-0.000381784,0.0010088253,3670026,0.020688904,0.05261902,-0.031874556,396809,0.0,0.0,0.0
234845910,3670026,-0.0021892309,-0.00031748685,0.000985685,3670026,0.0209695,0.053563457,-0.031942483,396809,0.0,0.0,0.0
235838923,3670026,-0.0021522113,-0.0003197058,0.000941305,3670026,0.02124035,0.053602498,-0.031691782,396809,0.0,0.0,0.0
236846918,3670026,-0.0022033285,-0.00039133817,0.00088725245,3670026,0.021031816,0.05381149,-0.031674996,396809,0.0,0.0,0.0
237844846,3670026,-0.0022114825,-0.00039910697,0.0008409959,3670026,0.02113201,0.054074824,-0.031582903,396809,0.0,0.0,0.0
238847808,3670026,-0.002214105,-0.0004021345,0.0007968686,3670026,0.021190941,0.054261636,-0.03156269,396809,0.0,0.0,0.0
239840838,3670026,-0.0021715302,-0.00035299323,0.00073972164,3670026,0.021404238,0.054399643,-0.031445783,396809,0.0,0.0,0.0
240843800,3670026,-0.0021850388,-0.00037818667,0.00069369236,3670026,0.021526493,0.054725338,-0.031385526,396809,0.0,0.0,0.0
241846762,3670026,-0.0022048978,-0.000475665,0.0006417356,3670026,0.021453861,0.054405667,-0.031168036,396809,0.0,0.0,0.0
242839791,3670026,-0.0022495692,-0.00048251593,0.0005879522,3670026,0.021502804,0.054643434,-0.031005578,396809,0.0,0.0,0.0
243842787,3670026,-0.0022759621,-0.000471297,0.0005250657,3670026,0.023036916,0.05644761,-0.020143315,396809,0.0,0.0,0.0
244845712,3670026,-0.002237321,-0.0004703224,0.00057592004,3670026,0.022075094,0.058223445,-0.013430158,396809,0.0,0.0,0.0
245838743,3670026,-0.0022161093,-0.00051371503,0.00061228074,3670026,0.019499475,0.06145492,-0.010522879,396809,0.0,0.0,0.0
246846668,3670026,-0.002258821,-0.0005166509,0.0006157461,3670026,0.018465212,0.06273519,-0.010263534,396809,0.0,0.0,0.0
247844702,3670026,-0.002262793,-0.0005369116,0.00058450573,3670026,0.016620375,0.06280075,-0.010350652,396809,0.0,0.0,0.0
248837694,3670026,-0.002265725,-0.00051460526,0.00057624,3670026,0.01664848,0.060760047,-0.010254393,396809,0.0,0.0,0.0
249845620,3670026,-0.0022469256,-0.00050167466,0.0005635809,3670026,0.0152004035,0.060651023,-0.0101946425,396809,0.0,0.0,0.0
250848579,3670026,-0.0022234754,-0.00050698395,0.00054391567,3670026,0.014824874,0.061235588,-0.009814033,396809,0.0,0.0,0.0
251846574,3670026,-0.002230964,-0.0004684686,0.00053744396,3670026,0.013733382,0.06074669,-0.009773466,396809,0.0,0.0,0.0
252844569,3670026,-0.0022120327,-0.0004641996,0.00052362744,3670026,0.013479015,0.060945854,-0.009725912,396809,0.0,0.0,0.0
253847530,3670026,-0.0021536807,-0.0004951874,0.0004878942,3670026,0.013788387,0.061195575,-0.009664393,396809,0.0,0.0,0.0
254845644,3670026,-0.0021439258,-0.0005485988,0.0004201285,3670026,0.009784688,0.06302204,-0.007880599,396809,0.0,0.0,0.0
255843527,3670026,-0.0022325187,-0.0005885014,0.0003445087,3670026,0.004700108,0.06420146,-0.0065283445,396809,0.0,0.0,0.0
256846478,3670026,-0.0022626629,-0.0006355309,0.00031790312,3670026,0.00252671,0.06432052,-0.006451046,396809,0.0,0.0,0.0
257844472,3670026,-0.0023148255,-0.0006063251,0.00030658575,3670026,0.002095198,0.064575054,-0.0064154333,396809,0.0,0.0,0.0
258847432,3670026,-0.002298697,-0.00056625245,0.0002901834,3670026,0.0020830955,0.064650774,-0.006242574,396809,0.0,0.0,0.0
259840462,3670026,-0.0023022124,-0.00056366535,0.00027703703,3670026,0.0022991188,0.06517747,-0.006254899,396809,0.0,0.0,0.0
260843421,3670026,-0.0023481252,-0.00058311876,0.00027801807,3670026,0.0020757727,0.06538757,-0.006188188,396809,0.0,0.0,0.0
261846518,3670026,-0.002350985,-0.00062051555,0.0002664295,3670026,0.0018714304,0.06462837,-0.0061606523,396809,0.0,0.0,0.0
262839407,3670026,-0.0023871276,-0.0006337819,0.00025108474,3670026,0.0014817656,0.064591564,-0.0061787157,396809,0.0,0.0,0.0
263847332,3670026,-0.0024021042,-0.0006433215,0.00023377803,3670026,0.0013755498,0.06449851,-0.0061324993,396809,0.0,0.0,0.0
264845328,3670026,-0.0024008017,-0.0006520916,0.00022757615,3670026,0.0014720599,0.064533256,-0.006061567,396809,0.0,0.0,0.0
265848284,3670026,-0.0023671733,-0.0006612231,0.0002117295,3670026,0.0017363477,0.064375386,-0.0058562653,396809,0.0,0.0,0.0
266846279,3670026,-0.0023655654,-0.0006812892,0.00021704633,3670026,0.001955123,0.06492446,-0.005744027,396809,0.0,0.0,0.0
267839307,3670026,-0.0023033195,-0.0006678913,0.00023555839,3670026,0.0026713405,0.06499834,-0.005806447,396809,0.0,0.0,0.0
268842417,3670026,-0.00235939,-0.0006647763,0.00025033345,3670026,0.0022110029,0.06483565,-0.0057932283,396809,0.0,0.0,0.0
269845223,3670026,-0.0024333894,-0.0006975578,0.0002815076,3670026,0.001970338,0.06547258,-0.005636813,396809,0.0,0.0,0.0
270848182,3670026,-0.0025205936,-0.0007522653,0.00031393574,3670026,0.001233912,0.065175325,-0.005623423,396809,0.0,0.0,0.0
271846175,3670026,-0.0024923491,-0.0007207418,0.0003643842,3670026,0.0016094722,0.06545101,-0.005666401,396809,0.0,0.0,0.0
272844168,3670026,-0.0023948273,-0.0006848715,0.00041304325,3670026,0.0025559796,0.065525435,-0.0041823667,396809,0.0,0.0,0.0
273847174,3670026,-0.0023843704,-0.000680657,0.0002956721,3670026,0.0060778456,0.06729627,6.24272e-05,396809,0.0,0.0,0.0
274845119,3670026,-0.002431109,-0.0006484789,0.00011032421,3670026,0.010649168,0.07016945,0.00090928504,396809,0.0,0.0,0.0
275843277,3670026,-0.0024854222,-0.00059960835,6.916761e-05,3670026,0.014487174,0.07188008,-0.0013112366,396809,0.0,0.0,0.0
276846070,3670026,-0.0024688833,-0.0006273251,3.8281567e-05,3670026,0.01257346,0.07352196,-0.0043225284,396809,0.0,0.0,0.0
277844062,3670026,-0.0024903934,-0.0006215776,-2.3777156e-05,3670026,0.012048185,0.071424656,-0.0068956674,396809,0.0,0.0,0.0
278842055,3670026,-0.002511819,-0.00062824204,-0.0001246329,3670026,0.009014457,0.07302342,-0.0056412998,396809,0.0,0.0,0.0
279850000,3670026,-0.00246712,-0.00063087785,-0.0001328211,3670026,0.008054307,0.07474829,-0.003698758,396809,0.0,0.0,0.0
280843050,3670026,-0.0024570385,-0.0005757883,-0.0001237761,3670026,0.0056814067,0.07514688,-0.0032546227,396809,0.0,0.0,0.0
281846005,3670026,-0.002398189,-0.0005693596,-0.00011233664,3670026,0.0049730865,0.07703342,-0.0031437648,396809,0.0,0.0,0.0
282844095,3670026,-0.002373656,-0.00056462944,-9.416238e-05,3670026,0.0048276465,0.07736327,-0.0031097753,396809,0.0,0.0,0.0
283846914,3670026,-0.0023392513,-0.0005836884,-6.703638e-05,3670026,0.005131902,0.07732863,-0.0031092549,396809,0.0,0.0,0.0
284844904,3670026,-0.0023757247,-0.0005709379,-3.67262e-05,3670026,0.0044960026,0.07750736,-0.003082814,396809,0.0,0.0,0.0
285847859,3670026,-0.0023695526,-0.00061812747,1.9802849e-06,3670026,0.004456035,0.07693894,-0.0027135103,396809,0.0,0.0,0.0
286845851,3670026,-0.0023975787,-0.00064611295,4.6059202e-05,3670026,0.0039929203,0.07669969,-0.002546395,396809,0.0,0.0,0.0
287843889,3670026,-0.002497148,-0.00062663545,8.670191e-05,3670026,0.0026950194,0.07725481,-0.0024740945,396809,0.0,0.0,0.0
288846823,3670026,-0.0024627033,-0.000701872,0.00012159502,3670026,0.0025478099,0.075996965,-0.002483491,396809,0.0,0.0,0.0
289844945,3670026,-0.0024610986,-0.00071307365,0.00014218711,3670026,0.0024597964,0.07584467,-0.0024896306,396809,0.0,0.0,0.0
290837816,3670026,-0.0024913275,-0.0007596334,0.00012653363,3670026,0.0019253893,0.075295456,-0.002402372,396809,0.0,0.0,0.0
291845737,3670026,-0.002543522,-0.00079310546,0.0001177671,3670026,0.0013462364,0.075476184,-0.0022436467,396809,0.0,0.0,0.0
292843732,3670026,-0.00254805,-0.00082308927,0.000105507635,3670026,0.0012022966,0.07539879,-0.0022441277,396809,0.0,0.0,0.0
293846691,3670026,-0.0025118552,-0.00087496516,7.4986114e-05,3670026,0.001213669,0.07455783,-0.0022666994,396809,0.0,0.0,0.0
294844676,3670026,-0.0025440159,-0.00086030096,3.7301765e-05,3670026,0.0011724762,0.07511178,-0.0023113044,396809,0.0,0.0,0.0
295847631,3670026,-0.0025685024,-0.00088084483,-5.4172756e-07,3670026,0.0010620547,0.07518292,-0.0022832577,396809,0.0,0.0,0.0
296845810,3670026,-0.002569146,-0.0008881938,-1.5457583e-05,3670026,0.000970678,0.07495455,-0.0021386386,396809,0.0,0.0,0.0
297838696,3670026,-0.002558685,-0.00091295876,-2.405191e-05,3670026,0.0009954156,0.074732184,-0.002071175,396809,0.0,0.0,0.0
298846568,3670026,-0.0025526006,-0.00090178795,-5.6244775e-05,3670026,0.0011126479,0.07517104,-0.001998988,396809,0.0,0.0,0.0
299844560,3670026,-0.0025593762,-0.0009315391,-7.6981734e-05,3670026,0.0009993656,0.07514143,-0.0019612075,396809,0.0,0.0,0.0
300847542,3670026,-0.0025539326,-0.0009242017,-6.563147e-05,3670026,0.0008752175,0.07491777,-0.001897537,396809,0.0,0.0,0.0
301845521,3670026,-0.0026762418,-0.0009256641,-6.2249535e-05,3670026,0.00014769768,0.07564931,-0.0016078608,396809,0.0,0.0,0.0
302848462,3670026,-0.002612688,-0.00089480326,-1.6668928e-05,3670026,0.00049035007,0.07502298,-0.0018949336,396809,0.0,0.0,0.0
303846452,3670026,-0.002600917,-0.00094451534,2.9735202e-05,3670026,0.00035869668,0.07502765,-0.0020043352,396809,0.0,0.0,0.0
304844441,3670026,-0.0026045782,-0.0010255985,6.800346e-05,3670026,-0.00027391696,0.0747782,-0.0020079925,396809,0.0,0.0,0.0
305847396,3670026,-0.0025812339,-0.0010113269,7.983224e-05,3670026,-2.4016852e-05,0.07490998,-0.0021088652,396809,0.0,0.0,0.0
306845386,3670026,-0.0025518178,-0.0010592827,9.786043e-05,3670026,6.4935457e-06,0.07428165,-0.0020086123,396809,0.0,0.0,0.0
307843399,3670026,-0.002560113,-0.0011000487,7.7028126e-05,3670026,-0.0001962494,0.07676912,-0.005278396,396809,0.0,0.0,0.0
308846341,3670026,-0.0025817815,-0.0011301953,-6.2317495e-06,3670026,-0.001018904,0.07907516,-0.009419878,396809,0.0,0.0,0.0
309839356,3670026,-0.0025970344,-0.0011729877,-6.555723e-05,3670026,-0.0037302978,0.082266204,-0.014949045,396809,0.0,0.0,0.0
310847276,3670026,-0.0026341553,-0.0011608629,-0.000104351326,3670026,-0.002686826,0.080502175,-0.018447617,396809,0.0,0.0,0.0
311840301,3670026,-0.0025829333,-0.001141899,-0.00021477086,3670026,-0.007794223,0.075643405,-0.021039343,396809,0.0,0.0,0.0
312843255,3670026,-0.002592111,-0.0011558502,-0.00028277535,3670026,-0.014718377,0.071426556,-0.023729581,396809,0.0,0.0,0.0
313846209,3670026,-0.0026626652,-0.0012285548,-0.0003294118,3670026,-0.014399551,0.06789496,-0.025390739,396809,0.0,0.0,0.0
314849233,3670026,-0.0026929579,-0.0011937234,-0.0003402855,3670026,-0.01472443,0.06536797,-0.025127292,396809,0.0,0.0,0.0
315847158,3670026,-0.0027269057,-0.0011515195,-0.00034143907,3670026,-0.015908336,0.0640971,-0.025057757,396809,0.0,0.0,0.0
316845141,3670026,-0.0027525236,-0.0011043253,-0.000339889,3670026,-0.01724253,0.06384999,-0.025070362,396809,0.0,0.0,0.0
317848094,3670026,-0.0027345743,-0.0010976228,-0.00033500747,3670026,-0.017255057,0.06302851,-0.02474671,396809,0.0,0.0,0.0
318846083,3670026,-0.0027507676,-0.001086022,-0.00032720467,3670026,-0.017587425,0.06292442,-0.024717132,396809,0.0,0.0,0.0
319844071,3670026,-0.0027478735,-0.001115155,-0.00031837303,3670026,-0.017535126,0.06274937,-0.024723528,396809,0.0,0.0,0.0
320847026,3670026,-0.002715926,-0.0010987703,-0.00031184475,3670026,-0.017219268,0.06259724,-0.024557576,396809,0.0,0.0,0.0
321845081,3670026,-0.002683003,-0.0010898155,-0.00030916152,3670026,-0.016883694,0.06262821,-0.024544567,396809,0.0,0.0,0.0
322847979,3670026,-0.0026582289,-0.0011935405,-0.00029399493,3670026,-0.016927596,0.061308708,-0.024229053,396809,0.0,0.0,0.0
323845955,3670026,-0.0026726786,-0.0012318155,-0.00027299536,3670026,-0.01714088,0.061097234,-0.024077475,396809,0.0,0.0,0.0
324843943,3670026,-0.002663756,-0.0012076675,-0.00025054137,3670026,-0.01688834,0.061407525,-0.023824725,396809,0.0,0.0,0.0
325841952,3670026,-0.002633922,-0.0012271636,-0.00022539982,3670026,-0.016709372,0.061181404,-0.02370505,396809,0.0,0.0,0.0
326844884,3670026,-0.002602442,-0.0012036897,-0.00021181924,3670026,-0.016324978,0.06121185,-0.023490947,396809,0.0,0.0,0.0
327847837,3670026,-0.0026135538,-0.0012176078,-0.0001843744,3670026,-0.016481336,0.06103183,-0.023266809,396809,0.0,0.0,0.0
328845825,3670026,-0.0026879427,-0.0012369194,-0.0001695873,3670026,-0.017057752,0.061526548,-0.023185654,396809,0.0,0.0,0.0
329838871,3670026,-0.0026533788,-0.0012385646,-0.00013846984,3670026,-0.016934618,0.061016083,-0.022840144,396809,0.0,0.0,0.0
330846767,3670026,-0.0026477117,-0.0012539743,-0.0001064227,3670026,-0.017038237,0.061438955,-0.022818865,396809,0.0,0.0,0.0
331844754,3670026,-0.0026432143,-0.001289338,-6.4315675e-05,3670026,-0.017166836,0.06119912,-0.022572627,396809,0.0,0.0,0.0
332837824,3670026,-0.0026155154,-0.0012833594,-2.090849e-05,3670026,-0.017053574,0.060981344,-0.022344407,396809,0.0,0.0,0.0
333845695,3670026,-0.0025955518,-0.0012605205,1.9904768e-05,3670026,-0.016920578,0.061084542,-0.022258472,396809,0.0,0.0,0.0
334843682,3670026,-0.002575019,-0.0013082218,5.7431676e-05,3670026,-0.016976668,0.061059818,-0.022365293,396809,0.0,0.0,0.0
335836925,3670026,-0.0025685162,-0.0013362133,0.000100653415,3670026,-0.016958306,0.060543295,-0.022047382,396809,0.0,0.0,0.0
336844625,3670026,-0.002572777,-0.0013166444,0.0001411447,3670026,-0.016961388,0.060839824,-0.021987043,396809,0.0,0.0,0.0
337847574,3670026,-0.0025474315,-0.00132896,0.00018978473,3670026,-0.01647006,0.060558345,-0.023501901,396809,0.0,0.0,0.0
338845561,3670026,-0.00255662,-0.0013063003,0.00023985372,3670026,-0.014452632,0.061043803,-0.032662936,396809,0.0,0.0,0.0
339843612,3670026,-0.0025842052,-0.0012386994,0.0003114992,3670026,-0.010824723,0.061880875,-0.0385489,396809,0.0,0.0,0.0
340841537,3670026,-0.002638829,-0.0012227173,0.00042555935,3670026,-0.0075782966,0.06511572,-0.043688778,396809,0.0,0.0,0.0
341844491,3670026,-0.0026354338,-0.0012237994,0.0005209962,3670026,-0.008379387,0.06740194,-0.04831098,396809,0.0,0.0,0.0
342847440,3670026,-0.0026311837,-0.0011967636,0.0005509568,3670026,-0.008672205,0.06512168,-0.047969136,396809,0.0,0.0,0.0
343845433,3670026,-0.0026609858,-0.0011601828,0.00058258837,3670026,-0.006472438,0.06048123,-0.047186762,396809,0.0,0.0,0.0
344848379,3670026,-0.002664704,-0.0011315823,0.0006280402,3670026,-0.0074213864,0.05902423,-0.046905607,396809,0.0,0.0,0.0
345846367,3670026,-0.002669607,-0.0010935765,0.00066985865,3670026,-0.00860397,0.057618424,-0.046796292,396809,0.0,0.0,0.0
346839449,3670026,-0.0025804795,-0.0011384464,0.00069786096,3670026,-0.0072543644,0.05819213,-0.045880005,396809,0.0,0.0,0.0
347847305,3670026,-0.002603285,-0.0011313881,0.00073652924,3670026,-0.007429357,0.058199637,-0.04601117,396809,0.0,0.0,0.0
348845294,3670026,-0.0025544534,-0.001129258,0.0007629062,3670026,-0.0068626404,0.05828998,-0.045845307,396809,0.0,0.0,0.0
349848244,3670026,-0.0025213708,-0.0011476354,0.0007823531,3670026,-0.006284849,0.0579243,-0.045625895,396809,0.0,0.0,0.0
350846232,3670026,-0.002574631,-0.0011795388,0.0008009918,3670026,-0.0063539133,0.057354026,-0.045442834,396809,0.0,0.0,0.0
351844217,3670026,-0.0025913233,-0.0011734762,0.0008233306,3670026,-0.0060884613,0.057469852,-0.045351163,396809,0.0,0.0,0.0
352847175,3670026,-0.0025842881,-0.0012251623,0.0008299948,3670026,-0.005947296,0.056328766,-0.044791203,396809,0.0,0.0,0.0
353845322,3670026,-0.0025903538,-0.0012567989,0.00083625136,3670026,-0.00582663,0.05620142,-0.04480599,396809,0.0,0.0,0.0
354843143,3670026,-0.0025715968,-0.0012227739,0.0008564223,3670026,-0.0055769566,0.056200538,-0.044490326,396809,0.0,0.0,0.0
355846094,3670026,-0.0025033208,-0.0011597815,0.00092269975,3670026,-0.005650267,0.056476206,-0.04401291,396809,0.0,0.0,0.0
356844080,3670026,-0.0025238171,-0.0011763136,0.0009948724,3670026,-0.0056428583,0.05659576,-0.044012576,396809,0.0,0.0,0.0
357847124,3670026,-0.0025260604,-0.0011887166,0.0010401957,3670026,-0.005285261,0.056324285,-0.04170476,396809,0.0,0.0,0.0
