timestamp,yaw_composite,yaw_variance,yaw[0],yaw[1],yaw[2],yaw[3],yaw[4],innov_vn[0],innov_vn[1],innov_vn[2],innov_vn[3],innov_vn[4],innov_ve[0],innov_ve[1],innov_ve[2],innov_ve[3],innov_ve[4],weight[0],weight[1],weight[2],weight[3],weight[4]
28974633,1.9609823,3.8623638,-2.509133,-1.2524496,0.0042369617,1.2608582,2.5174363,0.00043723732,-0.027313817,-0.03390169,-0.01022218,0.011000455,0.032143008,0.030053038,0.0030143782,-0.011606453,0.006396003,0.199994,0.19997413,0.19999003,0.20001964,0.20002222
28984563,1.9800153,3.8409908,-2.5096464,-1.2529638,0.0037270153,1.2603519,2.5169277,0.00043723732,-0.027313817,-0.03390169,-0.01022218,0.011000455,0.032143008,0.030053038,0.0030143782,-0.011606453,0.006396003,0.199994,0.19997413,0.19999003,0.20001964,0.20002222
29183170,1.3019593,3.5529292,-2.507289,-1.2503765,0.006352133,1.2627704,2.5191808,0.044876486,0.005728472,-0.02055572,0.002348395,0.0427853,0.048444547,0.063362956,0.030739546,-0.004337311,0.0066045783,0.19990633,0.19990003,0.20003189,0.20011961,0.20004211
29381814,1.2766742,3.551203,-2.5062685,-1.2493036,0.007433689,1.2638049,2.5201774,0.021737494,-0.012007066,-0.02644971,-0.0016411003,0.028136004,0.029277883,0.03350737,0.0027223509,-0.020522878,-0.004118505,0.1998857,0.19988249,0.20004168,0.20014322,0.20004693
29575419,2.2510583,3.621395,-2.506992,-1.2500073,0.0072371857,1.2639016,2.5199485,-0.015510045,-0.071606055,-0.09167439,-0.04800256,-0.0009374805,0.041226976,0.044116728,-0.008337583,-0.043626897,-0.013010491,0.20001253,0.19974163,0.19982772,0.20015182,0.20026632
29774026,2.6725686,3.5702581,-2.5043333,-1.247572,0.009827455,1.2668114,2.522901,0.036855437,-0.046067126,-0.08613206,-0.027951222,0.048006997,0.03967013,0.054884095,-0.019312449,-0.08029994,-0.043850906,0.2001505,0.19975947,0.19970086,0.20005544,0.2003337
29977598,2.084607,3.7353854,-2.5083094,-1.2510898,0.006320611,1.262853,2.5186527,0.054156695,-0.026457757,-0.057235174,0.0044090017,0.073193215,0.07733345,0.08352274,0.00871845,-0.043617494,-0.0011973251,0.19995552,0.19963422,0.19981827,0.20025344,0.20033853
30176205,1.4733347,3.5908911,-2.5071669,-1.2497538,0.007274476,1.2633773,2.5192935,0.07811355,-0.014062105,-0.05481963,0.012170483,0.09425301,0.063025914,0.07598595,-0.0077139065,-0.072277635,-0.028579816,0.19976974,0.19968387,0.20003487,0.20033772,0.20017385
30379778,1.6173929,3.6614978,-2.5059135,-1.2472444,0.010724564,1.2661527,2.5207121,0.033227738,-0.071577124,-0.10791215,-0.025643284,0.061541144,0.12322218,0.12744516,0.029077312,-0.035838455,0.022279792,0.19947684,0.19909567,0.1999631,0.20088284,0.20058157
30578384,1.5910405,3.6396677,-2.498641,-1.2401332,0.017662892,1.2731456,2.5279114,0.06269867,-0.037112303,-0.078992054,-0.0052147466,0.08220658,0.055215843,0.06700357,-0.02430863,-0.09222925,-0.0432266,0.19949993,0.19918427,0.19999501,0.20081371,0.20050709
30781957,1.7976655,3.803135,-2.488803,-1.2305375,0.027473737,1.2833316,2.5381143,0.030793257,-0.06525245,-0.08871296,-0.0073499866,0.066409945,0.057589997,0.051211674,-0.042096425,-0.09315805,-0.031699963,0.19966269,0.1991907,0.19983616,0.20070885,0.20060155
30980569,2.037039,3.802269,-2.4723961,-1.2138461,0.045038678,1.3011506,2.555218,0.040427342,-0.064189926,-0.11931108,-0.04882005,0.04973448,0.07750172,0.10162349,0.009511126,-0.071232095,-0.029305585,0.1997708,0.19888861,0.19954044,0.20082857,0.20097171
31179186,2.2745306,3.6215234,-2.4513798,-1.1929243,0.06671162,1.3233812,2.5770433,0.014426045,-0.068620384,-0.11274072,-0.05695221,0.021439306,0.052130703,0.0716864,-0.0013616257,-0.06572334,-0.03272284,0.20001335,0.19871008,0.19918707,0.20078817,0.2013013
31377778,2.9582894,3.650767,-2.4298542,-1.1733959,0.08716288,1.3463964,2.60072,0.009268232,-0.09950318,-0.18204606,-0.12403473,-0.006153345,0.010306727,0.0619072,-0.025865743,-0.1311871,-0.10878296,0.20113626,0.19899657,0.19824594,0.19991425,0.20170684
31576555,3.0943615,3.73773,-2.4124608,-1.1567471,0.10503853,1.3657739,2.6197975,0.04757016,-0.038320653,-0.14744738,-0.1282214,-0.007897325,0.03482711,0.12144918,0.06617031,-0.0545237,-0.07345609,0.20179872,0.19886513,0.1975066,0.19958326,0.20224635
31774992,-2.7395418,3.6182828,-2.4047,-1.151841,0.10885595,1.3717786,2.6282332,0.054389626,-0.04791691,-0.15334773,-0.11507005,0.013007335,-0.045886144,0.03143239,-0.04250449,-0.16535705,-0.16681547,0.20276858,0.19993177,0.19720404,0.19832787,0.20176776
31983584,-2.6592472,3.5554414,-2.4070144,-1.1560012,0.10544694,1.3706813,2.627807,0.042305052,-0.062930614,-0.17630759,-0.13983107,-0.0047091916,0.012656575,0.097046524,0.022621961,-0.10821471,-0.113519214,0.20380077,0.20022887,0.19636689,0.19750644,0.20209704
32177171,-2.5738494,3.4980917,-2.4200997,-1.1716125,0.090276204,1.3583163,2.6167188,0.059380636,-0.07969642,-0.1930032,-0.12184621,0.034007087,0.016430032,0.08948071,-0.02096339,-0.16274485,-0.13830996,0.20506097,0.20079505,0.19547291,0.196381,0.20229006
32375914,-2.4639382,3.4413428,-2.4332733,-1.1899993,0.07240332,1.3460052,2.607288,0.026604578,-0.11642975,-0.25622305,-0.19677654,-0.021743,-0.021906257,0.07709716,-0.02912213,-0.1951023,-0.18874213,0.20757024,0.20207429,0.19379398,0.19405472,0.20250674
32574385,-2.3991587,3.424456,-2.4483929,-1.2082448,0.05357024,1.329957,2.5935178,0.07431821,-0.06817493,-0.17994383,-0.10270035,0.054680772,-0.003921367,0.065305986,-0.04992399,-0.19204219,-0.1610488,0.20885092,0.20310025,0.1931645,0.19264756,0.20223679
32778012,-2.3986337,3.4031992,-2.472046,-1.2352929,0.026914721,1.3069731,2.572366,0.06800122,-0.086183876,-0.21860397,-0.14163208,0.036269106,0.012629263,0.098985925,-0.022042908,-0.18605341,-0.1613645,0.2105492,0.20393033,0.1920149,0.19110464,0.20240097
32976565,-2.4107656,3.3641155,-2.4881096,-1.2567737,0.0067773326,1.2931468,2.5610092,0.012865752,-0.14234826,-0.27361092,-0.19405693,-0.016050294,-0.009007752,0.07525682,-0.047563814,-0.21119261,-0.18349466,0.21347481,0.20504357,0.18986052,0.18864363,0.2029775
33175268,-2.3656178,3.3397017,-2.497911,-1.2721896,-0.009364411,1.2822878,2.5540304,0.089153126,-0.08894186,-0.2512468,-0.16553158,0.046558753,-0.011838384,0.09587588,-0.04183416,-0.24025804,-0.21598274,0.21596855,0.2068263,0.18852273,0.18606481,0.20261759
33378744,-2.4203053,3.2516685,-2.5042884,-1.2883493,-0.021159744,1.2832263,2.5581508,-0.036436677,-0.22859052,-0.40182373,-0.30697414,-0.07865684,-0.004130706,0.10903324,-0.04051756,-0.25369504,-0.22399588,0.22199014,0.2082454,0.18367611,0.18155532,0.204533
33577351,-2.3530009,3.23507,-2.499201,-1.2886266,-0.02381721,1.2846164,2.564324,0.14118753,-0.046225578,-0.23823065,-0.15612632,0.08211672,-0.017741315,0.11401744,-0.025713444,-0.25485578,-0.23990847,0.22400549,0.21049552,0.18307179,0.17903927,0.20338784
33775959,-2.3659463,3.1714525,-2.4923816,-1.2894878,-0.022073008,1.2958901,2.578703,-0.06548479,-0.17902859,-0.34694338,-0.32943138,-0.14993179,-0.011564374,0.12022243,0.05345104,-0.13172099,-0.16492158,0.2286607,0.21187276,0.17955588,0.17543182,0.2044789
33974630,-2.3467066,3.1650822,-2.4855685,-1.2843323,-0.017442456,1.3018904,2.5861964,-0.046253115,-0.022308633,-0.0846954,-0.15034454,-0.121964134,-0.023727184,0.047802776,0.09600597,0.047708698,-0.026826002,0.22935832,0.21253319,0.17928086,0.17463863,0.20418888
34173173,-2.252155,3.1134794,-2.4779081,-1.2909223,-0.029619375,1.3023579,2.5991573,-0.15064967,0.015681028,0.025696784,-0.15163675,-0.25549877,0.17471245,0.22283146,0.40379453,0.46518314,0.3139503,0.23520294,0.21823028,0.17703836,0.167955,0.20157349
34371779,-1.9230539,3.246132,-2.459486,-1.2918255,-0.06006859,1.2744752,2.603487,-0.4548468,-0.16226004,-0.023995727,-0.2650513,-0.53126216,0.10002439,0.06629738,0.34422714,0.5625992,0.38864577,0.2361378,0.23355213,0.18385985,0.15889241,0.18755777
34575353,-1.7186489,3.0084586,-2.440788,-1.2916586,-0.08683252,1.2508068,2.609814,-0.42277998,-0.053275377,0.1836702,-0.076208994,-0.46833062,0.024081558,-0.074693605,0.24853235,0.5902251,0.41895193,0.23696192,0.248678,0.19001935,0.1499399,0.17440085
34783959,-1.482244,2.678093,-2.4066532,-1.2773923,-0.11261833,1.2202482,2.6196249,-0.5604592,-0.14070448,0.14837861,-0.12795216,-0.6013619,0.026931286,-0.09862816,0.25503403,0.6714853,0.4911098,0.23303543,0.27019882,0.20245798,0.13967785,0.15462995
34982496,-1.4243605,2.2367215,-2.3444917,-1.2744054,-0.16495335,1.1964974,2.6712217,-0.39236116,0.010573134,0.3593219,0.16703938,-0.3602576,0.4514797,0.26172987,0.5583763,1.0357221,0.94002014,0.24343589,0.31149262,0.20564914,0.11171312,0.1277092
35176142,-1.3596957,2.0446153,-2.308792,-1.259839,-0.17872499,1.1851178,2.6931992,-0.39499202,-0.08435621,0.30887216,0.2858898,-0.24939197,0.21892966,-0.045318037,0.11010432,0.6140003,0.6718885,0.24165025,0.33169886,0.21188669,0.10138872,0.113375396
35379711,-1.3512892,1.7588556,-2.2565331,-1.2542273,-0.2091631,1.1763431,2.7424784,-0.107279435,0.11895193,0.5538939,0.70628256,0.18120636,0.43160224,0.07691166,0.09974623,0.6089814,0.8477699,0.24867637,0.36379948,0.20994453,0.082017496,0.09556212
35578383,-1.2675236,1.5149467,-2.19597,-1.2254322,-0.22502014,1.155945,2.7784178,-0.23778875,-0.09665829,0.36337745,0.6969915,0.1828287,0.5342948,0.10722962,-0.005117476,0.49514756,0.9164851,0.24019036,0.3947997,0.21994705,0.0690906,0.075972274
35776926,-1.2145044,1.2753905,-2.1349854,-1.2021086,-0.24718902,1.1338205,2.8201652,-0.12360665,-0.029417798,0.41325012,0.8501919,0.3700602,0.55193245,0.103654385,-0.080081284,0.37429607,0.9082774,0.2328014,0.42799994,0.22586572,0.055171426,0.05816145
35975532,-1.2007893,1.0751038,-2.0823567,-1.1896001,-0.2720255,1.1195027,2.868229,-0.019997925,0.028515339,0.43452734,0.95523536,0.5285146,0.4552899,0.005071372,-0.2381812,0.14730603,0.7764224,0.2311453,0.45876187,0.2228424,0.04215574,0.045094702
36179104,-1.2140346,1.0393989,-2.075801,-1.1885679,-0.2688951,1.1341363,2.8871667,-0.29737014,-0.27895984,0.059080508,0.58279175,0.22836642,0.14697061,-0.25334507,-0.5095974,-0.21047322,0.42017674,0.23592722,0.46431875,0.21649337,0.039136734,0.04412384
36377713,-1.1880912,0.9407966,-2.041651,-1.1739856,-0.27751678,1.1245959,2.912209,-0.00047785044,-0.023023188,0.24520953,0.7266905,0.47334564,0.40708914,0.06345743,-0.19126639,0.020794958,0.5968062,0.23008102,0.48162723,0.21787271,0.033521786,0.036897354
36576321,-1.1522034,0.8916452,-2.0140448,-1.152813,-0.27053678,1.1247187,2.9287171,-0.0957986,-0.13683458,0.07257061,0.5158995,0.3385113,0.3883724,0.09450811,-0.14847884,-0.009312391,0.5266756,0.22257432,0.49068895,0.22265543,0.031326365,0.03275499
36774927,-1.1366262,0.8724037,-1.9975425,-1.1386497,-0.2594149,1.13637,2.945292,-0.12220607,-0.18557036,-0.0378846,0.34919176,0.26193154,0.21973112,-0.02023092,-0.24514839,-0.18206197,0.291876,0.22129248,0.49430946,0.22265178,0.030233974,0.031512365
36978498,-1.1190001,0.8392885,-1.975861,-1.1245265,-0.25352123,1.1415727,2.963874,0.053153962,-0.02952315,0.077307254,0.42867976,0.40324426,0.24236177,0.037324935,-0.17877844,-0.16644132,0.26610902,0.21873052,0.50063956,0.22303842,0.028366419,0.02922503
37177105,-1.1120751,0.8255836,-1.964765,-1.116195,-0.2468937,1.150261,2.9768677,-0.07620367,-0.14324576,-0.037830822,0.28836718,0.24915951,0.15569432,-0.036842555,-0.23271245,-0.2106714,0.19253743,0.21883884,0.5033482,0.22184657,0.027454043,0.028512351
37375712,-1.104428,0.81054926,-1.9582481,-1.1117682,-0.24645056,1.1494124,2.9809787,-0.05981341,-0.10253632,0.011442065,0.3092281,0.23496199,0.21360087,0.030519187,-0.1396079,-0.08902657,0.27777922,0.21674773,0.50635374,0.22280726,0.026708428,0.02738287
37574320,-1.1072773,0.7880139,-1.9563966,-1.115407,-0.2563858,1.140408,2.9809272,0.012617424,0.028599992,0.16909522,0.40795732,0.24587087,0.20326963,0.03556311,-0.07811102,0.045342356,0.3361669,0.21541838,0.5110575,0.22229691,0.025329815,0.025897417
37777892,-1.1031576,0.7782798,-1.96032,-1.1181443,-0.2633285,1.1285622,2.9719057,-0.22166485,-0.15740213,0.0045353156,0.19640565,-0.0396142,0.18823168,0.033702463,-0.034218937,0.1496852,0.3787228,0.2115372,0.5131667,0.22533926,0.02510064,0.024856234
37976546,-1.1156672,0.75534284,-1.9651093,-1.1290625,-0.28142253,1.1131707,2.966495,-0.0189998,0.069823995,0.2297443,0.37352988,0.11470603,0.2062715,0.07449213,0.04162109,0.2453219,0.41416585,0.2110408,0.51814955,0.22373168,0.023582036,0.02349603
38175106,-1.1280255,0.7344499,-1.9693507,-1.1391383,-0.29835528,1.0994045,2.9623797,-0.040282995,0.069478065,0.22414199,0.3212923,0.04389055,0.19190806,0.08514586,0.08443639,0.30425715,0.4127168,0.2109185,0.52279013,0.22180013,0.022177642,0.022313645
38378679,-1.1462983,0.7213418,-1.9783834,-1.1528212,-0.3154539,1.0872369,2.9556313,-0.011238471,0.104466096,0.24062313,0.29238686,0.02673538,0.09392613,0.016920686,0.040385783,0.2525488,0.30343738,0.21242486,0.52578026,0.21888028,0.02115041,0.02176416
38577289,-1.1616564,0.7023689,-1.9856495,-1.1655782,-0.33508313,1.0708244,2.9494247,-0.09201161,0.044526555,0.17959212,0.1883195,-0.09949874,0.16932505,0.113193035,0.1666058,0.3993724,0.3937077,0.21252364,0.53009856,0.2167495,0.019894125,0.020734042
38775893,-1.1909798,0.67469156,-1.9940041,-1.1847453,-0.36289632,1.0538597,2.9480977,-0.00078839064,0.17218928,0.32967916,0.3129143,-0.041622907,0.2032792,0.15079987,0.23335254,0.5211242,0.4768288,0.21615405,0.5363407,0.21006453,0.017813785,0.019627014
38974500,-1.19475,0.6378994,-1.9894669,-1.19032,-0.38402632,1.0309718,2.9520059,-0.2973935,-0.07588919,0.098792285,0.017857846,-0.4118097,0.14716667,0.11887163,0.25299472,0.6075092,0.47205946,0.21267448,0.5452354,0.20893742,0.015828896,0.017323842
39178074,-1.2093545,0.60583997,-1.9852524,-1.1982617,-0.4037629,1.0184621,2.9626057,-0.15321147,0.08170656,0.26672864,0.18570802,-0.2805975,0.11252487,0.08377528,0.22432059,0.605812,0.45994097,0.21420392,0.55300593,0.20313904,0.0138230035,0.015828086
39376839,-1.2085829,0.57049716,-1.9705452,-1.1963065,-0.41741773,1.0062252,2.97998,-0.2575391,-0.013897321,0.17707124,0.09001459,-0.4013024,0.1324985,0.106794894,0.25371718,0.65628916,0.4924583,0.21222511,0.5621892,0.19978626,0.011925945,0.013873445
39575287,-1.2213688,0.5448408,-1.9614233,-1.199676,-0.43040895,1.0044881,2.9991617,-0.09214853,0.13889752,0.29384923,0.1536372,-0.28858525,0.09346032,0.10830343,0.27222627,0.6414501,0.4065915,0.21607143,0.5685897,0.19209148,0.010319027,0.01292838
39773895,-1.2209225,0.5190263,-1.9467503,-1.1966767,-0.44045663,0.99836415,3.0184472,-0.22088471,-0.021066621,0.11226971,-0.0154505335,-0.40073898,0.1711775,0.18830562,0.331102,0.65647256,0.43876892,0.21558653,0.5757712,0.1880577,0.008975246,0.011609368
39972501,-1.2220719,0.49768284,-1.9330233,-1.1940373,-0.4490392,0.99574536,3.038074,-0.1736742,0.0039191954,0.120704494,0.0020450503,-0.34365454,0.21128607,0.23137444,0.35925764,0.6527757,0.44625682,0.21629266,0.58177537,0.18346272,0.007855741,0.010613505
40181187,-1.2152684,0.47539702,-1.915682,-1.1877474,-0.45707044,0.98820364,3.0578656,-0.32192072,-0.15425566,-0.052022114,-0.1873407,-0.5065001,0.22302765,0.25617677,0.38587743,0.6627724,0.43340254,0.21383537,0.5887365,0.18118815,0.0068561835,0.009383857
40374694,-1.218336,0.45882308,-1.9066166,-1.1882344,-0.46740112,0.9820774,3.0722115,-0.19292,-0.024762511,0.06825861,-0.09378968,-0.40631515,0.12808627,0.17781252,0.3185159,0.5957934,0.32588953,0.21409354,0.593713,0.1774716,0.0060815318,0.008640362
40578314,-1.2259533,0.44054022,-1.8982273,-1.1918167,-0.48255536,0.9738754,3.0886497,-0.2075949,-0.04722804,0.03756988,-0.13127741,-0.42667067,0.23213023,0.2878229,0.42720246,0.6941383,0.41348267,0.21529469,0.59923035,0.17236845,0.0052308245,0.007875719
40781828,-1.2186224,0.42805836,-1.8869535,-1.1869619,-0.48762482,0.96538585,3.0997078,-0.31348062,-0.1698987,-0.09373176,-0.24944298,-0.5168812,0.046480298,0.098935366,0.22417283,0.46910337,0.20614064,0.21203871,0.60380435,0.172204,0.004797415,0.0071554603
40980597,-1.2214901,0.4217999,-1.8826996,-1.1873242,-0.49188608,0.96544987,3.1080022,-0.09022154,0.010798141,0.045539767,-0.1196165,-0.2782489,0.074296534,0.14189631,0.2504735,0.41300887,0.15750128,0.21332276,0.6055638,0.16964388,0.0045125326,0.006957036
41179040,-1.2353386,0.41670722,-1.8886105,-1.1976681,-0.5058692,0.95812726,3.1071067,-0.13206843,-0.075989574,-0.07445897,-0.22113438,-0.2769168,0.20726168,0.2737658,0.35316634,0.43243325,0.22458613,0.21551189,0.60674,0.16664457,0.004254545,0.0068490035
41377648,-1.2545915,0.41459325,-1.9024984,-1.213714,-0.52349895,0.9465168,3.0971775,-0.122663215,-0.12037668,-0.15954348,-0.28586513,-0.21551293,0.16839844,0.2343412,0.2795418,0.2563625,0.106093645,0.21779284,0.60682166,0.16437626,0.0041258014,0.0068834093
41576266,-1.270814,0.41434214,-1.9154824,-1.2272426,-0.53714335,0.9377863,3.0871112,-0.08801238,-0.1413396,-0.20897557,-0.27052814,-0.09347229,0.14586377,0.18916017,0.18202657,0.05948925,0.023309052,0.21988593,0.60621405,0.16280866,0.00408714,0.007004203
41774920,-1.2720695,0.41384363,-1.9140053,-1.2261628,-0.53594273,0.94305015,3.091167,0.0011006743,-0.1035985,-0.20748374,-0.23793714,0.053827018,0.16385484,0.201558,0.15789062,-0.06310427,-0.028752267,0.22176982,0.6055194,0.16151394,0.0040671597,0.0071296995
41978434,-1.270296,0.408578,-1.9046625,-1.2204839,-0.5327208,0.95192564,3.1074095,0.0021544397,-0.15970042,-0.2956478,-0.2651629,0.13904907,0.08842254,0.10681695,0.012198091,-0.3134147,-0.16895598,0.22453168,0.6060843,0.1584161,0.0038626892,0.007105279
42177042,-1.277271,0.40031067,-1.8988069,-1.2206211,-0.5363012,0.95847625,3.1250036,-0.017710745,-0.22142234,-0.39067504,-0.3446197,0.16086541,0.10069454,0.11950895,-0.000780046,-0.41175503,-0.21781105,0.22956501,0.60680664,0.15301016,0.0035327165,0.0070854793
42375649,-1.2870017,0.38845655,-1.8925914,-1.2229208,-0.54406124,0.96182686,-3.1376193,0.009356901,-0.22672494,-0.4178319,-0.34426925,0.23336051,0.0943239,0.10587567,-0.039960027,-0.5184574,-0.2625677,0.23510762,0.6083208,0.14653307,0.003105925,0.006932641
42574277,-1.2948588,0.37299183,-1.8842951,-1.2254298,-0.55495393,0.9590967,-3.1152768,0.07348539,-0.19138941,-0.39094183,-0.25444958,0.36810368,0.104272366,0.09031826,-0.09295496,-0.628785,-0.26639828,0.23899165,0.61134773,0.14049412,0.002637456,0.0065290537
42772868,-1.3053776,0.3575184,-1.8772088,-1.2293494,-0.56676966,0.9579186,-3.0924206,0.0537685,-0.230818,-0.44422212,-0.2878223,0.38531616,0.14762837,0.12665471,-0.07311091,-0.65939426,-0.24250242,0.24428625,0.6137149,0.13359581,0.0022041288,0.0061990223
42976436,-1.3382128,0.3414682,-1.8823011,-1.2477177,-0.5912826,0.9577802,-3.0708134,-0.08403267,-0.37959325,-0.59886396,-0.41892955,0.27991524,0.10737766,0.07680008,-0.13627127,-0.75647116,-0.28552243,0.2573755,0.6131271,0.12160847,0.0017198392,0.0061690346
43175073,-1.3464124,0.3233413,-1.8737353,-1.2536906,-0.6095294,0.9450485,-3.0472496,0.13410403,-0.15180364,-0.37047106,-0.19821835,0.48903206,0.073077306,0.04707031,-0.15627861,-0.77743137,-0.30350885,0.25956967,0.61775184,0.11585504,0.0013409723,0.0054824646
43373683,-1.365938,0.31425765,-1.8784541,-1.2647736,-0.6229538,0.945993,-3.037564,-0.039637983,-0.31453192,-0.5256407,-0.35546553,0.31754428,0.23865269,0.20920834,0.012211949,-0.6013789,-0.11692503,0.26806974,0.6160124,0.109228894,0.0011568937,0.0055320757
43577223,-1.3826928,0.2980624,-1.874041,-1.2760134,-0.64561415,0.9364095,-3.011748,0.040593028,-0.21684141,-0.4220393,-0.278583,0.36613098,-0.062348098,-0.081124365,-0.2585632,-0.8460746,-0.40123406,0.27449605,0.6183668,0.101262935,0.0008502422,0.0050238892
43775832,-1.3942088,0.28851676,-1.8733164,-1.2840766,-0.6599374,0.93014574,-2.9986262,0.035619557,-0.19111569,-0.37380022,-0.24183176,0.33560085,0.058695957,0.03922613,-0.118545145,-0.6533272,-0.23278451,0.27876607,0.6192019,0.096561916,0.0007041521,0.0047658468
43979402,-1.4049312,0.28101364,-1.8720566,-1.2905374,-0.67102295,0.92884547,-2.9846492,-0.021760091,-0.2162319,-0.37781507,-0.276657,0.23341534,-0.0016311407,-0.01337336,-0.14410529,-0.6139083,-0.25550207,0.28413242,0.61882764,0.091830246,0.0005913817,0.0046182354
44178011,-1.4196163,0.2771434,-1.8769189,-1.299624,-0.68086404,0.9301909,-2.9786253,-0.13490203,-0.28780103,-0.41546765,-0.33099595,0.07146683,0.012655646,0.0020337105,-0.10228193,-0.47813994,-0.18301696,0.29089764,0.6163014,0.08758606,0.000527508,0.0046874415
44376619,-1.4257469,0.27490655,-1.8787034,-1.3036308,-0.6856461,0.9297282,-2.9757116,-0.044992402,-0.16358897,-0.26489842,-0.20251948,0.11364406,0.03241843,0.026653826,-0.052888155,-0.34876496,-0.12019628,0.2935822,0.6154769,0.08576245,0.0004968949,0.0046813777
44575224,-1.426249,0.27253821,-1.8755933,-1.3034438,-0.6872693,0.93069476,-2.9685605,-0.005630031,-0.09483209,-0.1744683,-0.13915914,0.107987896,-0.0983161,-0.097450376,-0.15324837,-0.37902403,-0.21851838,0.2947873,0.61566675,0.08447903,0.00046678312,0.0046001743
44778797,-1.424857,0.2710228,-1.8709455,-1.3012581,-0.6860961,0.93525624,-2.9604485,-0.011861771,-0.055468038,-0.08507915,-0.025146335,0.067877084,-0.2596569,-0.2751017,-0.3177168,-0.42338154,-0.29746893,0.29614082,0.6154658,0.0833759,0.00044659214,0.0045708204
44977449,-1.4251217,0.27114573,-1.8703228,-1.3007128,-0.68453944,0.9385273,-2.958245,-0.18989764,-0.19943944,-0.19830495,-0.14843567,-0.15147553,-0.18301277,-0.19927816,-0.22201143,-0.2410215,-0.17340054,0.29714373,0.6148351,0.08295544,0.00044604857,0.004619748
45176012,-1.4195412,0.2712478,-1.8660878,-1.296,-0.6797028,0.94101983,-2.9544516,-0.21307828,-0.18407664,-0.14843099,-0.11286953,-0.22300692,-0.0022386014,-0.01850745,-0.017869592,0.061722904,0.059541166,0.29603538,0.6154629,0.08346475,0.00044998524,0.004587037
45374618,-1.4129543,0.26982713,-1.8597115,-1.2908478,-0.6767761,0.9409676,-2.9470677,-0.1566052,-0.09513581,-0.03374532,-0.024121583,-0.21449937,0.1384396,0.12755144,0.15278947,0.31304276,0.2373353,0.29444277,0.6169801,0.08369297,0.00043695085,0.0044473666
45573226,-1.4078311,0.26943344,-1.857055,-1.2876618,-0.6736783,0.9402895,-2.946143,-0.2089851,-0.10662237,-0.0014317632,0.025505215,-0.3015825,-0.18661132,-0.20976356,-0.17087838,0.09810132,-0.017058939,0.2921349,0.61821985,0.08481058,0.00044653137,0.004388129
45781819,-1.4010288,0.26483753,-1.8490326,-1.2841283,-0.6762943,0.93233865,-2.9346428,-0.2141928,-0.08352888,0.040177584,0.02920109,-0.35718676,0.09969455,0.087569416,0.15344602,0.4899101,0.29396662,0.28874177,0.62189204,0.08491099,0.0004070129,0.004048224
45975420,-1.3908455,0.2601754,-1.8417577,-1.2803391,-0.67886174,0.91784674,-2.927939,-0.33402875,-0.17036873,-0.014449507,-0.020672232,-0.51373124,-0.05527848,-0.072010875,0.008739531,0.4329915,0.18991897,0.2814592,0.62758434,0.086934105,0.00038410767,0.0036383045
46178980,-1.3679107,0.25207952,-1.8233474,-1.2688752,-0.67978275,0.8945999,-2.910721,-0.48004633,-0.28850895,-0.10067567,-0.07684201,-0.679473,0.07349306,0.04419154,0.12917519,0.62860525,0.3738953,0.26811415,0.63799894,0.090596296,0.00034021412,0.0029502872
46377788,-1.3708954,0.24452703,-1.8189685,-1.2725458,-0.69173187,0.8832891,-2.8967154,-0.14538924,0.06270778,0.26791924,0.31738394,-0.36106077,-0.025026858,-0.06044662,0.026308417,0.5692231,0.30937356,0.26775947,0.64082915,0.08843294,0.00028431008,0.0026939977
46576201,-1.3617027,0.23752604,-1.8082669,-1.2681448,-0.69572145,0.87062705,-2.8824615,-0.28902352,-0.073476225,0.1464785,0.23583284,-0.5010452,-0.075944364,-0.124228716,-0.04643017,0.52576745,0.28580147,0.26214015,0.64620584,0.089035705,0.00024988854,0.002368343
46779765,-1.3445885,0.22884186,-1.7888519,-1.2582455,-0.6994488,0.8523049,-2.8580809,-0.32550508,-0.13164803,0.07991806,0.2352486,-0.48461893,0.18538815,0.11706293,0.16292977,0.68327236,0.5456534,0.253272,0.6545169,0.09008271,0.00020391669,0.0019243325
46978375,-1.340711,0.22390611,-1.7810882,-1.255078,-0.7008788,0.8505493,-2.8450131,-0.22152096,-0.07683846,0.13180992,0.5122497,-0.21140906,-0.028783202,-0.17411405,-0.22714984,0.1691243,0.37118748,0.25254098,0.65641725,0.089049354,0.00018278306,0.0018096253
47177138,-1.3377995,0.21452539,-1.769951,-1.2546064,-0.7116233,0.83553827,-2.8226466,-0.18167096,-0.07474007,0.14698295,0.7709271,-0.00046835374,0.14844644,-0.084199965,-0.23756921,0.06297976,0.61682326,0.249802,0.66131824,0.08718806,0.00014202388,0.0015496353
47375587,-1.3121517,0.19931531,-1.7414066,-1.2414612,-0.71910715,0.79908377,-2.7876604,-0.3244176,-0.25805086,-0.015157416,0.9348986,0.06657812,0.41487384,0.06981349,-0.20996988,-0.02604866,0.9908357,0.23331426,0.6754222,0.09010754,0.00010177253,0.0010543516
47574200,-1.3300421,0.18207854,-1.7349238,-1.2552273,-0.7499176,0.77665955,-2.748603,-0.3356062,-0.2933379,-0.044067085,1.1206437,0.19287866,0.11848986,-0.29662883,-0.65489596,-0.58580214,0.7804595,0.23938304,0.6787628,0.08093983,5.391359e-05,0.00086040434
47777768,-1.3387023,0.16432327,-1.715565,-1.2632202,-0.7834189,0.7438089,-2.6904938,-0.057269573,-0.040543497,0.16744134,1.3117998,0.46274132,0.19060451,-0.19968104,-0.55599695,-0.5813462,0.8030966,0.24197441,0.68544567,0.071950905,2.1979042e-05,0.00060702465
47976492,-1.3453895,0.15433908,-1.7065423,-1.26803,-0.7998847,0.73232764,-2.6589775,-0.22051337,-0.21788737,-0.06044686,0.96808565,0.23048149,0.11481279,-0.21650583,-0.5333681,-0.63210356,0.6488402,0.24609922,0.68719596,0.0661791,1.2534665e-05,0.0005130423
48174983,-1.3499991,0.1491105,-1.7030643,-1.2701154,-0.8057377,0.73306113,-2.6443827,-0.30888808,-0.3095882,-0.18726563,0.68180525,0.058733314,0.055558383,-0.21501744,-0.4799174,-0.58619297,0.5017637,0.25066358,0.6863352,0.06250555,9.23573e-06,0.00048642082
48373589,-1.3553809,0.14433752,-1.6996177,-1.2750071,-0.81776905,0.72394466,-2.6285264,-0.03432247,-0.03144583,0.06901777,0.7811927,0.251998,0.07433969,-0.14287007,-0.35639614,-0.43360084,0.44239247,0.25267574,0.68731576,0.059564754,6.491936e-06,0.0004373226
48577164,-1.3690745,0.14236946,-1.7069658,-1.2852914,-0.8285999,0.7234079,-2.6274729,-0.1177609,-0.08632669,0.015226528,0.5731076,0.045404166,-0.14029521,-0.30240428,-0.45101762,-0.4190712,0.18054575,0.25908223,0.6839689,0.056495227,5.3678646e-06,0.00044824232
48775853,-1.3660153,0.14020644,-1.7028478,-1.2843838,-0.83224016,0.7143098,-2.622586,-0.1274039,-0.06186478,0.059063166,0.53106445,-0.06603591,0.17457461,0.04446,-0.057902932,0.10465646,0.4874561,0.25568575,0.6872011,0.05670349,4.731268e-06,0.00040495745
48979341,-1.3644041,0.1381333,-1.6983881,-1.2835888,-0.8358434,0.70876396,-2.6150136,-0.077280164,0.02052641,0.15762681,0.54022944,-0.112478584,0.09513956,-0.002800405,-0.05899924,0.22151601,0.39848614,0.25479606,0.688751,0.05607273,4.058213e-06,0.00037618424
49177951,-1.3617827,0.13687915,-1.6941389,-1.2805974,-0.83400756,0.7114929,-2.6087983,-0.12826541,-0.0035216957,0.14292343,0.41876256,-0.259306,-0.14609367,-0.20698708,-0.21508223,0.17294288,0.13150513,0.25560495,0.6886231,0.055398278,3.7641153e-06,0.00036985715
49381521,-1.3711545,0.13486856,-1.7012713,-1.2906196,-0.84756947,0.69492465,-2.612504,-0.13829786,0.016120633,0.17589542,0.34688944,-0.36753714,-0.0950132,-0.120230496,-0.07983333,0.42674184,0.16095531,0.25485107,0.6899298,0.054868214,3.3039596e-06,0.00034759776
49580202,-1.3897451,0.13260038,-1.7171355,-1.3096625,-0.87019396,0.6697877,-2.623969,-0.1237845,0.049388237,0.22178659,0.36212838,-0.40379298,-0.1584996,-0.17068553,-0.10949099,0.46866083,0.09984046,0.25454134,0.6909816,0.054147087,2.85653e-06,0.0003272701
49778735,-1.3925748,0.12929054,-1.7152985,-1.3142174,-0.88250935,0.6501732,-2.6141522,-0.16696468,0.009458048,0.19000405,0.37273613,-0.4402051,0.07617569,0.053266406,0.10491383,0.69105464,0.35656446,0.25243628,0.6940229,0.05325351,2.1665749e-06,0.00028516678
49977342,-1.3794651,0.12553091,-1.6983719,-1.3054166,-0.88453704,0.6323096,-2.5893326,-0.26154983,-0.09838613,0.077401504,0.32879436,-0.49046406,0.3253733,0.28329778,0.3088938,0.8420805,0.62153476,0.24563211,0.7006949,0.053445306,1.5710767e-06,0.00022610105
50175956,-1.3646584,0.12312112,-1.681533,-1.2932123,-0.8784567,0.62893146,-2.5681775,-0.21603057,-0.07394539,0.08507754,0.3763261,-0.39778274,0.13823283,0.084997416,0.08875632,0.5410871,0.42798793,0.24135232,0.70478725,0.053663135,1.3022475e-06,0.0001959713
50374635,-1.3554978,0.121289864,-1.6701636,-1.285507,-0.87521917,0.62682676,-2.5528307,-0.14434223,-0.021434575,0.11952957,0.4140365,-0.2906056,0.10396266,0.047988772,0.040264726,0.4228227,0.37421143,0.2391284,0.70719403,0.05349861,1.1132239e-06,0.00017779513
50583095,-1.346381,0.11984566,-1.6606265,-1.2786852,-0.8723916,0.6215789,-2.54187,-0.21883726,-0.1155112,0.0047816145,0.27779368,-0.33587766,0.16719663,0.114506006,0.101498604,0.41813213,0.40607983,0.23500568,0.71069044,0.05414367,1.0078772e-06,0.00015922067
50776737,-1.3432816,0.118879706,-1.6553986,-1.2754543,-0.87097204,0.62343276,-2.533334,-0.03849505,0.046940386,0.15402128,0.4553076,-0.10900895,-0.0016468763,-0.06561029,-0.09717643,0.14598286,0.2345795,0.23562816,0.71074283,0.053473346,9.0904285e-07,0.00015491736
50975374,-1.330317,0.11801063,-1.6435809,-1.2648082,-0.8627789,0.62363714,-2.5225508,-0.28450134,-0.2048324,-0.108134374,0.14724731,-0.3615084,0.15579748,0.10404444,0.08212924,0.31599277,0.3619026,0.23111032,0.7141644,0.054583088,8.8458546e-07,0.00014127769
51173974,-1.3157344,0.11743872,-1.6294503,-1.2512257,-0.85025674,0.6326781,-2.508684,-0.20439932,-0.12560199,-0.032848854,0.19765218,-0.28938502,-0.00627625,-0.05088103,-0.06599414,0.16849554,0.18598098,0.22913295,0.7157088,0.055022217,8.6625914e-07,0.00013516998
51382491,-1.2967293,0.11667025,-1.6102688,-1.2336155,-0.8350302,0.642728,-2.4888077,-0.1796866,-0.10563101,-0.022131719,0.16381323,-0.27152053,0.16464186,0.13164592,0.12620747,0.3533125,0.3291682,0.22655642,0.7178293,0.055487335,8.199351e-07,0.00012619265
51576132,-1.2814332,0.11611536,-1.5955496,-1.2198334,-0.8234176,0.6489018,-2.4750462,-0.22083768,-0.16456373,-0.09733656,0.08418361,-0.27652425,0.20006084,0.1642015,0.14888322,0.31068647,0.3461914,0.22359516,0.7200439,0.056241814,8.034637e-07,0.000118395874
51779704,-1.2705216,0.11593464,-1.5845973,-1.2093157,-0.8135929,0.65756,-2.4642062,-0.053567372,-0.027250975,0.0070888624,0.13046852,-0.06621386,0.1339879,0.1072315,0.08904958,0.1536429,0.22329998,0.22287248,0.720612,0.05639858,7.9340316e-07,0.00011616636
51978333,-1.2668059,0.11596799,-1.5815595,-1.2058725,-0.81007546,0.6601764,-2.4624767,-0.17983407,-0.18101574,-0.17228979,-0.06432141,-0.13797872,0.14307606,0.113566756,0.08196938,0.04838717,0.20036483,0.22221892,0.7209846,0.056680225,8.0882853e-07,0.00011546854
52176919,-1.2682465,0.11586763,-1.5832231,-1.2077267,-0.8122394,0.657061,-2.4644935,0.085155115,0.053667806,0.027778745,0.061954804,0.16535759,0.13017035,0.11387336,0.08339608,-0.043489218,0.12201285,0.2214636,0.72147703,0.056944594,8.134031e-07,0.00011407285
52380491,-1.2771702,0.11569139,-1.591426,-1.2162054,-0.820887,0.64905286,-2.4714658,-0.076875,-0.1326729,-0.18208984,-0.17008498,0.04845701,0.055784047,0.03941703,-0.00057411194,-0.2118733,0.014770091,0.22235519,0.7209943,0.056534845,7.920085e-07,0.00011485807
52579099,-1.2886994,0.11533286,-1.6022192,-1.2275163,-0.83267796,0.6371948,-2.4809074,-0.017899768,-0.0948151,-0.16575654,-0.18240392,0.14281416,0.11793202,0.10422462,0.058613002,-0.22372806,0.04351771,0.22285406,0.72080034,0.056230195,7.6819833e-07,0.00011463712
52777706,-1.3003014,0.11470046,-1.6120619,-1.2385912,-0.84479904,0.6251809,-2.4874952,-0.03109417,-0.12501982,-0.2133034,-0.2533053,0.15827656,0.07109904,0.059510052,0.009396732,-0.33043027,-0.030111969,0.22407103,0.72032017,0.055494037,7.129274e-07,0.00011412651
52976313,-1.3135678,0.11388323,-1.6215882,-1.2499981,-0.8571258,0.61607337,-2.4904335,-0.14792064,-0.25707576,-0.36164346,-0.42901966,0.06501342,0.03164786,0.02363664,-0.028817177,-0.4194169,-0.0962767,0.228099,0.71815187,0.053631898,6.169114e-07,0.000116656935
53174920,-1.3177207,0.112582035,-1.6228876,-1.2542048,-0.86409974,0.6062811,-2.485688,0.04875018,-0.072679505,-0.18874864,-0.26240778,0.28676432,0.011937022,0.0022205114,-0.056590557,-0.49422783,-0.12818915,0.22849527,0.71858084,0.052811887,5.3187574e-07,0.00011152288
53373532,-1.3223388,0.111131415,-1.6232867,-1.2580944,-0.8710909,0.5982522,-2.4779472,-0.017889336,-0.14625475,-0.27024123,-0.36202562,0.23079503,-0.022921324,-0.030250192,-0.08907306,-0.5511385,-0.1758613,0.23063244,0.7179607,0.051298402,4.3485187e-07,0.00010808262
53582116,-1.3301187,0.1094465,-1.6241581,-1.2638328,-0.8807981,0.5904426,-2.4662151,-0.13140628,-0.26180792,-0.38698387,-0.4739092,0.12585081,-0.16757658,-0.17779997,-0.23988679,-0.7154479,-0.31648538,0.23592557,0.7154239,0.048543405,3.1771654e-07,0.00010682644
53775708,-1.3325859,0.10776459,-1.6210029,-1.2652647,-0.8862522,0.58441615,-2.4522007,-0.052550398,-0.18480016,-0.31357133,-0.41729686,0.20528802,-0.11542383,-0.12259343,-0.18196884,-0.66727567,-0.27010897,0.23923555,0.71409076,0.046570163,2.4020733e-07,0.00010323752
53974315,-1.336282,0.106503986,-1.6199399,-1.2676377,-0.89146173,0.58058214,-2.4423518,-0.09599832,-0.21539892,-0.33144492,-0.42180705,0.14044055,-0.073801994,-0.08222216,-0.13744682,-0.5824743,-0.20780146,0.24302876,0.7120982,0.044770468,1.909283e-07,0.0001024222
54173083,-1.3423024,0.10540189,-1.6212227,-1.2724072,-0.89907444,0.5743754,-2.4347012,-0.11696088,-0.21977374,-0.31953248,-0.39347202,0.089205235,-0.18938789,-0.19820741,-0.2472131,-0.6358352,-0.30020073,0.24681793,0.71004784,0.043032505,1.5113386e-07,0.00010157787
54376495,-1.3464444,0.10495407,-1.6228044,-1.2753813,-0.9029528,0.57317984,-2.4318619,-0.15819441,-0.23195106,-0.30167454,-0.3328573,-0.0023070276,-0.08394468,-0.09635949,-0.1377148,-0.4261601,-0.15024024,0.24987945,0.7080764,0.04194074,1.3466155e-07,0.00010330357
54575102,-1.3397874,0.10484203,-1.6155996,-1.2684772,-0.8962382,0.58045423,-2.4236956,-0.057426535,-0.0988213,-0.1370253,-0.14064088,0.034174293,0.00041794777,-0.009948373,-0.03694415,-0.2037741,-0.029113173,0.25053206,0.7076584,0.041705918,1.3122438e-07,0.00010363416
54778675,-1.3323299,0.10487284,-1.6082045,-1.2609849,-0.88865787,0.5880879,-2.4163907,-0.088572405,-0.09319126,-0.09491677,-0.06204667,-0.06839212,0.028158307,0.018800914,0.0067789555,-0.021598816,0.04228449,0.2505701,0.7076226,0.04170343,1.3152582e-07,0.00010376303
54977426,-1.3227429,0.10484395,-1.5991644,-1.2516578,-0.8790982,0.5969963,-2.4079635,-0.17324512,-0.13339262,-0.08773674,0.021694303,-0.22861949,-0.1468094,-0.16361845,-0.1662538,-0.036583483,-0.06340957,0.24987881,0.7080964,0.04192143,1.344345e-07,0.00010324146
55175891,-1.314684,0.104404494,-1.5909582,-1.2439535,-0.8719997,0.6025153,-2.398971,-0.13354349,-0.05414188,0.035645567,0.23285708,-0.24937728,-0.12062216,-0.14939839,-0.14901763,0.11500621,0.034594297,0.24922316,0.70868564,0.041989654,1.317325e-07,0.00010140084
55374520,-1.304869,0.1036695,-1.5822035,-1.2357967,-0.8649468,0.60353774,-2.390365,-0.27250355,-0.16819248,-0.05522865,0.15219216,-0.44190657,-0.162615,-0.18665689,-0.17211741,0.18999362,0.014395237,0.24561015,0.71150064,0.042793747,1.324884e-07,9.532753e-05
55578069,-1.3035849,0.10241842,-1.5794215,-1.235662,-0.86783874,0.5944991,-2.3832068,-0.15127239,-0.03329268,0.093701966,0.3220186,-0.34559074,-0.0036027431,-0.028870821,-0.010470033,0.39961952,0.19293064,0.24375656,0.7133991,0.042755727,1.166609e-07,8.854454e-05
55776836,-1.2999232,0.101055905,-1.5741426,-1.2330937,-0.86832464,0.5880163,-2.3733552,-0.1554786,-0.02712898,0.11104892,0.36330634,-0.3681488,-0.05191803,-0.07935536,-0.05958593,0.3866421,0.16139227,0.24203011,0.71521467,0.042672828,1.02097125e-07,8.2262275e-05
55975337,-1.2890053,0.09970427,-1.563815,-1.2249237,-0.8631866,0.5819625,-2.361166,-0.32550898,-0.1977033,-0.059454635,0.20260835,-0.53637505,-0.06170392,-0.09076893,-0.07320154,0.3691569,0.15376204,0.2362679,0.7198944,0.043764956,9.637297e-08,7.268866e-05
56173892,-1.2855651,0.09843617,-1.5587641,-1.2224805,-0.86366725,0.5757769,-2.3516896,-0.14996684,-0.025090307,0.10903035,0.36168182,-0.359708,-0.042150497,-0.06852996,-0.049690843,0.38238508,0.16487479,0.23466285,0.72159904,0.043670356,8.4503405e-08,6.765312e-05
56382429,-1.2780743,0.09737429,-1.5510241,-1.216655,-0.86028546,0.57171935,-2.3416047,-0.23191014,-0.11549449,0.006908819,0.21943527,-0.4375224,-0.06409097,-0.08145058,-0.056990504,0.35492462,0.1146152,0.23127936,0.72446024,0.044198178,7.864684e-08,6.2042986e-05
56581139,-1.2732482,0.09653222,-1.5458237,-1.2128782,-0.85825026,0.5688943,-2.3344734,-0.1812088,-0.072877124,0.04147683,0.24792749,-0.37156647,-0.09695876,-0.114613414,-0.093631625,0.2867775,0.07236588,0.229189,0.7262743,0.04447813,7.413516e-08,5.850697e-05
56774679,-1.274656,0.095705576,-1.5473286,-1.2157319,-0.86289865,0.5580204,-2.3345952,-0.22866115,-0.12242927,-0.011420071,0.18164936,-0.41975117,-0.089772224,-0.10400987,-0.080523014,0.2960508,0.07019174,0.2261323,0.728765,0.04504816,7.100013e-08,5.440218e-05
56978256,-1.2762825,0.094880894,-1.5493193,-1.2192392,-0.8685307,0.5443574,-2.3353295,-0.28461343,-0.18445863,-0.08071789,0.09461784,-0.4683002,-0.027813077,-0.0388757,-0.0145487785,0.34267598,0.118463516,0.2220763,0.7319899,0.045884084,6.821052e-08,4.9603994e-05
57176860,-1.2808375,0.094376124,-1.5528038,-1.2238772,-0.8743472,0.5371591,-2.3365245,-0.042357303,0.042950258,0.12797396,0.24588941,-0.21065047,-0.04859054,-0.048936367,-0.01934123,0.29594654,0.058326006,0.22215377,0.7321827,0.045614835,6.359554e-08,4.857703e-05
57375501,-1.279808,0.09387439,-1.5518652,-1.2240268,-0.8759851,0.5302746,-2.3345664,-0.22936597,-0.15518896,-0.07719444,0.069080025,-0.36182842,0.04544592,0.033678174,0.047810793,0.30673826,0.16099155,0.21962245,0.73421496,0.046116848,6.153308e-08,4.5700403e-05
57579039,-1.2761258,0.0935632,-1.5487087,-1.2214329,-0.8743315,0.52748805,-2.3313947,-0.26458466,-0.20651542,-0.14397229,-0.011532992,-0.3630246,0.046274066,0.03256738,0.038995743,0.23481,0.14587629,0.21717605,0.7360669,0.04671357,6.134339e-08,4.345545e-05
57777646,-1.2717888,0.093444355,-1.544554,-1.2174675,-0.8706849,0.5296362,-2.3272398,-0.14304829,-0.10112998,-0.05609116,0.04014641,-0.21424559,-0.01583004,-0.025704026,-0.021134496,0.11956382,0.056315184,0.21633747,0.7367016,0.046918135,6.124702e-08,4.2698954e-05
57976270,-1.2672621,0.09329176,-1.5402815,-1.2135215,-0.8672784,0.53065157,-2.3229475,-0.18122828,-0.14470707,-0.102289304,0.015699387,-0.2319582,0.10410464,0.086333394,0.08111644,0.19070089,0.18528247,0.21503793,0.7376827,0.047237784,6.108756e-08,4.154269e-05
58174900,-1.2631983,0.09322701,-1.536774,-1.2099198,-0.8637418,0.53264946,-2.3201,-0.22415754,-0.18862,-0.1469742,-0.027976722,-0.2722125,-0.036706567,-0.055103302,-0.061285973,0.043555737,0.0445168,0.21392407,0.7384467,0.04758838,6.221519e-08,4.084406e-05
58378435,-1.2574999,0.09301907,-1.5309644,-1.2046602,-0.8591855,0.53513074,-2.3136432,-0.09565824,-0.056055024,-0.0076378137,0.1457199,-0.14215624,0.1095103,0.08331287,0.07077527,0.17950249,0.21131134,0.21301039,0.73919827,0.047751367,6.099857e-08,3.982522e-05
58577041,-1.2506039,0.09293174,-1.5252423,-1.1986103,-0.8530928,0.5386417,-2.3094754,-0.34955543,-0.3094682,-0.258952,-0.08743596,-0.39134067,-0.022726893,-0.053596854,-0.070649266,0.03304386,0.08901322,0.21095333,0.7405553,0.048452567,6.379978e-08,3.8720464e-05
58775648,-1.2450082,0.09267765,-1.5199542,-1.1938357,-0.84910005,0.53926,-2.3040223,-0.17588572,-0.13612153,-0.0839881,0.10746628,-0.20993257,0.14793217,0.111410975,0.08864403,0.18274999,0.27064753,0.2091387,0.7419093,0.0489146,6.3492266e-08,3.7218626e-05
58974257,-1.2457702,0.09253991,-1.5207144,-1.1947408,-0.85018474,0.53756666,-2.3046107,-0.12777635,-0.09222701,-0.043103084,0.15546447,-0.14908299,-0.030491829,-0.07054591,-0.09831214,-0.025260448,0.0941807,0.20883138,0.74215496,0.04897668,6.317419e-08,3.6918664e-05
59172863,-1.2499574,0.092230365,-1.5246458,-1.199609,-0.8561857,0.52822983,-2.3073714,-0.002527617,0.024958357,0.06739181,0.26860288,-0.0029457733,0.22687554,0.18297791,0.14857686,0.18646646,0.34922385,0.20743135,0.7433052,0.049227934,6.1117476e-08,3.545851e-05
59381401,-1.2432189,0.09199297,-1.5187876,-1.1939563,-0.8510861,0.52940375,-2.3022597,-0.21999194,-0.19699317,-0.15547472,0.07779041,-0.19861001,0.2165389,0.16223264,0.11586404,0.12169826,0.35433245,0.20494214,0.7450299,0.049993973,6.256856e-08,3.3884535e-05
59575092,-1.237167,0.091689326,-1.5127312,-1.1884083,-0.8462004,0.5319923,-2.295661,-0.10372618,-0.09628111,-0.065636836,0.1940779,-0.034258686,0.12212217,0.054350734,-0.010787725,-0.081980705,0.26780987,0.20386223,0.74586797,0.05023671,6.1692695e-08,3.295519e-05
59773682,-1.2330799,0.091454364,-1.5080335,-1.1840286,-0.842043,0.5367422,-2.289949,-0.1511727,-0.15862213,-0.14156297,0.10986821,-0.04717952,-0.009176493,-0.080626726,-0.154562,-0.28613853,0.12555051,0.20459454,0.745455,0.049917128,5.9860646e-08,3.314979e-05
59977225,-1.2292686,0.09118295,-1.5033399,-1.17978,-0.838102,0.5415813,-2.283812,-0.14427063,-0.1573364,-0.14483862,0.10968512,-0.025383845,-0.023587465,-0.0980314,-0.1769141,-0.33358395,0.11019403,0.2056893,0.74482584,0.04945135,5.7328137e-08,3.3461798e-05
60175831,-1.2303792,0.09097536,-1.5034378,-1.179863,-0.83785915,0.54523057,-2.2828255,-0.27827215,-0.2922612,-0.27750614,0.010192573,-0.146198,-0.082264066,-0.16598773,-0.25449133,-0.42836452,0.06906074,0.20808218,0.7432134,0.04866949,5.530646e-08,3.4799417e-05
60379403,-1.2321324,0.090626985,-1.503259,-1.180382,-0.83869636,0.54756266,-2.2798347,-0.1802051,-0.20111185,-0.19231983,0.09574801,-0.031299114,-0.1180923,-0.2044015,-0.29794848,-0.50076294,0.029712558,0.21111952,0.7412991,0.047545377,5.066878e-08,3.6062054e-05
60578011,-1.239248,0.09020223,-1.5070153,-1.1850423,-0.8439976,0.5490749,-2.279633,-0.24574688,-0.27352613,-0.2673667,0.057736903,-0.06827003,-0.23096049,-0.32962143,-0.43801677,-0.6847452,-0.06676501,0.21710289,0.7373412,0.045516975,4.3872948e-08,3.8974867e-05
60776618,-1.2454679,0.089861736,-1.5107849,-1.1889853,-0.8474671,0.5526258,-2.2807195,-0.37408096,-0.4169932,-0.4254173,-0.11307491,-0.1650988,-0.09530854,-0.19566512,-0.31123888,-0.61755335,0.053803265,0.22261393,0.7334746,0.04386912,3.9977316e-08,4.2300526e-05
60975225,-1.2604284,0.08894833,-1.5186832,-1.200493,-0.8610228,0.5459943,-2.2766972,-0.0898025,-0.15174274,-0.17981769,0.101150006,0.15439165,-0.4110354,-0.5096587,-0.6302979,-1.0056248,-0.28866407,0.23215067,0.7272611,0.04054265,2.773419e-08,4.5596447e-05
61174026,-1.272291,0.08797972,-1.5253353,-1.2100035,-0.8726558,0.53864664,-2.2747269,-0.14842604,-0.21890938,-0.25349614,0.047333326,0.120093,-0.1730761,-0.27912933,-0.4106031,-0.83524495,-0.044589162,0.23899911,0.72268575,0.038267247,2.0873857e-08,4.77392e-05
61377412,-1.2856233,0.08730643,-1.533977,-1.220414,-0.88395834,0.53466535,-2.2766037,-0.28560346,-0.35956952,-0.4014756,-0.1409969,-0.023152664,-0.15581101,-0.25195462,-0.37486207,-0.8032575,-0.050043464,0.24713166,0.7167975,0.03601907,1.6479252e-08,5.183955e-05
61580978,-1.2925956,0.08685572,-1.538727,-1.2257974,-0.88952446,0.53326833,-2.2784522,-0.2823269,-0.34267145,-0.37298927,-0.11079466,-0.055252016,-0.001192987,-0.09161925,-0.20436019,-0.57473105,0.10981023,0.25149837,0.7135278,0.034919463,1.4780173e-08,5.440453e-05
61779586,-1.2996241,0.08635257,-1.543552,-1.2321093,-0.89707077,0.5264407,-2.2792747,-0.05632329,-0.104203485,-0.12663516,0.10233733,0.1291054,-0.079471946,-0.15616894,-0.2508059,-0.5529468,0.018698573,0.25399464,0.7118319,0.0341186,1.2891962e-08,5.4744276e-05
61978371,-1.3033934,0.08604422,-1.5457767,-1.2351868,-0.90077335,0.5240754,-2.2789369,-0.08681161,-0.11611721,-0.12197472,0.11092634,0.053543545,-0.08454603,-0.15489155,-0.23677742,-0.45821875,0.02286756,0.25618598,0.71025234,0.03350614,1.17814025e-08,5.5511562e-05
62176801,-1.3056014,0.08581996,-1.5466372,-1.2366954,-0.9027042,0.523815,-2.27769,-0.062079057,-0.070279144,-0.05605056,0.19420746,0.031029282,-0.12715358,-0.19356823,-0.2643044,-0.39743173,-0.003104329,0.2583295,0.7086626,0.032951362,1.0933717e-08,5.6481855e-05
62375408,-1.3091698,0.08575395,-1.550231,-1.2401385,-0.9059678,0.5209764,-2.2815163,-0.20418064,-0.19423282,-0.16631925,0.056721836,-0.16403376,-0.038068354,-0.09040451,-0.14062518,-0.18085766,0.07862079,0.25858885,0.7084378,0.03291648,1.0982195e-08,5.6809447e-05
62583946,-1.3124369,0.085565135,-1.5525185,-1.2429056,-0.9090576,0.51917905,-2.2823148,-0.0027576163,0.03395557,0.088522166,0.34489834,-0.018508554,-0.12376964,-0.17424774,-0.21343195,-0.14496595,0.019943714,0.2601443,0.7072732,0.032525048,1.0418604e-08,5.754815e-05
62782712,-1.3153446,0.085285835,-1.5549649,-1.2459209,-0.91267145,0.51463485,-2.2836628,-0.085979596,-0.034997676,0.03292247,0.29748505,-0.13465132,-0.03572607,-0.0826329,-0.11334145,0.017287433,0.117118,0.2601194,0.7073846,0.032439157,1.0031448e-08,5.692177e-05
62976200,-1.3151572,0.084973544,-1.5549159,-1.2462058,-0.91342705,0.511888,-2.2833385,-0.19425395,-0.12975588,-0.049072817,0.22496016,-0.2736591,-0.078893244,-0.122838914,-0.14595443,0.04259038,0.083521426,0.25900558,0.7083316,0.032607216,9.948577e-09,5.567748e-05
63174803,-1.3116217,0.084632546,-1.5507272,-1.2425492,-0.9102709,0.5149197,-2.2778962,-0.091627225,-0.020060599,0.06773943,0.35229397,-0.18552697,-0.1340633,-0.17785782,-0.19843656,0.017828584,0.036248446,0.2595747,0.7079638,0.032406017,9.51897e-09,5.555693e-05
63378375,-1.2969822,0.08404151,-1.5353868,-1.2285533,-0.8978149,0.5237721,-2.2602265,-0.125401,-0.047336802,0.05003279,0.3796461,-0.22258332,0.017538905,-0.03492248,-0.0622133,0.16649145,0.21266341,0.25846046,0.70907533,0.03241091,8.806271e-09,5.330654e-05
63577091,-1.2807224,0.08354133,-1.5180781,-1.2123326,-0.88329935,0.5369031,-2.2411027,-0.06492442,0.01291115,0.10807477,0.41651946,-0.16861336,-0.051765084,-0.098570585,-0.1202811,0.11554468,0.13177544,0.25880286,0.708987,0.032157756,8.098257e-09,5.240796e-05
63775595,-1.2693199,0.083309576,-1.507311,-1.2012668,-0.8720188,0.5473264,-2.2312944,-0.2730518,-0.2027134,-0.115067974,0.18467504,-0.36146897,-0.21353507,-0.26076734,-0.28555036,-0.08031237,-0.0377661,0.25774908,0.70978713,0.03241179,8.37453e-09,5.1901647e-05
63979175,-1.2691056,0.08303011,-1.5067892,-1.2013133,-0.8721324,0.5458294,-2.229243,-0.11884326,-0.060035974,0.014479719,0.27969903,-0.18839079,-0.048128486,-0.09137905,-0.11592746,0.04944706,0.10651958,0.25735486,0.7101908,0.03240334,8.110852e-09,5.1082614e-05
64177770,-1.2738793,0.08287966,-1.5117693,-1.2063624,-0.8779087,0.53892356,-2.2348688,-0.17052676,-0.12707213,-0.07055218,0.14344221,-0.21700701,-0.046618342,-0.08298981,-0.10568941,0.009346962,0.07662243,0.2565856,0.710826,0.032538004,8.127317e-09,5.040815e-05
64376446,-1.2783902,0.08280951,-1.5163656,-1.2110525,-0.8827498,0.53336066,-2.23943,-0.1152694,-0.08534011,-0.046028137,0.10627535,-0.14595075,-0.01047194,-0.036726475,-0.05360806,0.023594856,0.076904535,0.25614095,0.71119785,0.032611128,8.119207e-09,4.999175e-05
64574985,-1.286505,0.08272696,-1.5238427,-1.2190117,-0.89054173,0.52577233,-2.245204,0.11349021,0.13586603,0.16821498,0.3173949,0.10067841,-0.013292551,-0.041790843,-0.06350243,-0.019970655,0.07001591,0.25684103,0.7107083,0.032400433,7.805891e-09,5.00815e-05
64778559,-1.2935039,0.08273011,-1.5307868,-1.2258726,-0.89727515,0.5195714,-2.2522027,-0.10762766,-0.092940986,-0.06866837,0.065750234,-0.10569719,-0.10267961,-0.13049424,-0.1540997,-0.14004266,-0.02954346,0.25717586,0.7104293,0.03234436,7.809385e-09,5.0389222e-05
64977169,-1.2987871,0.08274284,-1.5360725,-1.2310873,-0.9023922,0.51473266,-2.2575836,-0.11500511,-0.1082042,-0.0932924,0.012866721,-0.101582,-0.05394107,-0.07782,-0.10003525,-0.11099213,0.002214551,0.25732845,0.71029717,0.03232369,7.827736e-09,5.0559407e-05
65175803,-1.3015081,0.08274795,-1.5386504,-1.2336679,-0.9049325,0.5126457,-2.2600224,-0.062125653,-0.0584006,-0.04655756,0.055465065,-0.042227462,-0.07997346,-0.10405445,-0.12750393,-0.15099317,-0.026931763,0.25770983,0.7099942,0.03224517,7.780983e-09,5.0822462e-05
65384311,-1.3021536,0.08270939,-1.539137,-1.2343612,-0.90583706,0.5113964,-2.2601,0.059798483,0.063563116,0.07539504,0.1768353,0.07943156,0.030830562,0.0069125295,-0.016356349,-0.039417565,0.08357155,0.2576773,0.7100531,0.032219082,7.675395e-09,5.060328e-05
65577953,-1.3071177,0.082707696,-1.543975,-1.2392435,-0.9107348,0.5067271,-2.264769,-0.028714262,-0.025460228,-0.01493001,0.07647536,-0.010704141,-0.051412225,-0.07300997,-0.09407371,-0.115531445,-0.0039409995,0.25792006,0.7098664,0.032162823,7.624926e-09,5.0732073e-05
65776562,-1.3101778,0.082716964,-1.5467237,-1.2420262,-0.91346896,0.5048835,-2.2671819,-0.009369483,-0.0020090528,0.0134138875,0.11967717,0.0027062278,-0.15818578,-0.18187076,-0.20369548,-0.21215862,-0.10182184,0.25868973,0.70925653,0.032002445,7.522666e-09,5.124567e-05
65975194,-1.3085971,0.08269787,-1.5447537,-1.2401135,-0.91151434,0.50787634,-2.2647882,-0.05903808,-0.049473274,-0.027964521,0.12744087,-0.038374536,-0.13374352,-0.16887021,-0.20168358,-0.21960181,-0.051741898,0.2596199,0.7085205,0.03180771,7.394366e-09,5.185848e-05
66173776,-1.301222,0.08258845,-1.53693,-1.2326281,-0.9043417,0.5150407,-2.2561083,-0.013677344,-0.0013138577,0.02613388,0.2227054,0.011766218,-0.031603694,-0.075908184,-0.11719799,-0.13854659,0.07211417,0.26007912,0.7082079,0.03166115,7.169735e-09,5.18458e-05
66377348,-1.2954932,0.082509324,-1.5305778,-1.2264184,-0.89815146,0.52263993,-2.249004,-0.10453599,-0.09612299,-0.070097744,0.15165511,-0.062214017,-0.12563711,-0.1777826,-0.22845113,-0.27823138,-0.0105291605,0.26145795,0.7071239,0.031365454,6.9557458e-09,5.2694002e-05
66580921,-1.2939115,0.08237766,-1.5279443,-1.2242417,-0.89627033,0.5259616,-2.2448263,-0.041240826,-0.042793974,-0.025880292,0.1930548,0.024834197,-0.14058024,-0.19592452,-0.25323814,-0.3478877,-0.030351162,0.26330754,0.70570606,0.030932823,6.556292e-09,5.3578187e-05
66779528,-1.2960259,0.08223037,-1.5289668,-1.22577,-0.8981445,0.52543956,-2.2442045,-0.05152411,-0.05979111,-0.04933483,0.1644462,0.02943651,-0.12972069,-0.18632883,-0.24722934,-0.37097132,-0.024533331,0.26516792,0.70428103,0.030496566,6.155779e-09,5.4425174e-05
66978136,-1.2988882,0.082085274,-1.5304244,-1.2276618,-0.9002124,0.5260438,-2.2438483,-0.13591273,-0.15143323,-0.14645657,0.07985895,-0.033753388,-0.1676457,-0.23013794,-0.29955292,-0.46215433,-0.058715224,0.26806578,0.70199347,0.029884543,5.7233267e-09,5.6140794e-05
67176743,-1.3205178,0.081835955,-1.5502673,-1.2485081,-0.9218296,0.5058984,-2.2607827,-0.011504427,-0.035582602,-0.04019159,0.16357914,0.1050553,-0.18461847,-0.24471903,-0.31460238,-0.5080984,-0.09015596,0.27076644,0.6999399,0.029236622,5.1222795e-09,5.71157e-05
67375370,-1.3559595,0.08149677,-1.583464,-1.2828999,-0.9571037,0.47278282,-2.2904344,-0.06869899,-0.09951563,-0.10689138,0.13786808,0.07545013,-0.17292404,-0.24565762,-0.33085912,-0.5729212,-0.060289383,0.27435338,0.69716865,0.028419346,4.463116e-09,5.857617e-05
67573960,-1.3788303,0.081087485,-1.603855,-1.3046932,-0.97999066,0.45194042,-2.3067732,-0.066368386,-0.10155474,-0.111784056,0.14823742,0.09205715,-0.16609946,-0.24404165,-0.3361642,-0.60578513,-0.04755768,0.27818418,0.69420236,0.027553504,3.811565e-09,5.99968e-05
67772566,-1.3856633,0.08061115,-1.6088552,-1.3112048,-0.9879104,0.44348863,-2.308097,0.0015084147,-0.03245026,-0.04103607,0.2285589,0.15866992,-0.06269306,-0.1421637,-0.23556042,-0.50441176,0.060628742,0.27997756,0.6929274,0.027035354,3.318507e-09,5.966655e-05
67976138,-1.3912153,0.08035648,-1.6119474,-1.3149116,-0.9917511,0.44503433,-2.3082511,-0.26203826,-0.2981823,-0.3088074,-0.037759017,-0.09957473,-0.18252763,-0.2630777,-0.35836926,-0.63989365,-0.059013486,0.28563648,0.68827504,0.026025016,2.920655e-09,6.348616e-05
68174746,-1.398797,0.07992301,-1.6164818,-1.320975,-0.9989322,0.44128838,-2.3080478,-0.097274765,-0.13481213,-0.1460989,0.13501316,0.07021803,-0.22255248,-0.30560058,-0.4040951,-0.696298,-0.09547266,0.29099515,0.6839578,0.024980977,2.4087126e-09,6.6060464e-05
68383284,-1.400869,0.079492934,-1.6154516,-1.3216399,-1.0009065,0.44230193,-2.30197,-0.0348835,-0.07029545,-0.081192136,0.1845254,0.12214406,-0.2638786,-0.341894,-0.434615,-0.7116612,-0.14433908,0.29623365,0.6797213,0.023976645,1.9621456e-09,6.8366484e-05
68576932,-1.4052885,0.07908256,-1.6179299,-1.3255044,-1.0059916,0.43773088,-2.30083,-0.006594926,-0.035922617,-0.04106468,0.23167574,0.13614905,-0.11575493,-0.19256541,-0.28217003,-0.53390265,0.008296341,0.2988239,0.67768055,0.02342665,1.697744e-09,6.879377e-05
68780498,-1.4255918,0.078891866,-1.6363188,-1.3444327,-1.0250854,0.4226519,-2.3168721,-0.18927515,-0.21332875,-0.21502906,0.043126233,-0.06390919,-0.20227611,-0.27326214,-0.35514265,-0.57650363,-0.0840542,0.303292,0.6739054,0.022730537,1.5261048e-09,7.200266e-05
68979106,-1.474919,0.07854226,-1.6833924,-1.3930371,-1.0749693,0.37387863,-2.359898,0.10330084,0.08292049,0.08363363,0.3316841,0.21633303,-0.23123035,-0.29801595,-0.37441152,-0.57358426,-0.11759943,0.3065772,0.67124736,0.02210253,1.2939794e-09,7.289945e-05
69177715,-1.5689155,0.078105144,-1.7742442,-1.4861075,-1.1699159,0.2802965,-2.444992,0.2711073,0.25328788,0.25647104,0.5089328,0.37824565,-0.3609942,-0.42750892,-0.5028726,-0.69220805,-0.24493152,0.31106523,0.66759884,0.021261958,1.0230975e-09,7.399021e-05
69376321,-1.6705725,0.07794703,-1.874957,-1.587198,-1.2711973,0.180603,-2.5445209,-0.12999114,-0.14080459,-0.13154125,0.12061748,-0.041196525,-0.0991011,-0.1622996,-0.23203793,-0.38774732,0.017969549,0.31308782,0.6658755,0.020961367,9.65447e-10,7.5331154e-05
69574930,-1.7835234,0.07771281,-1.9863156,-1.6995919,-1.3844453,0.06846654,-2.6531823,0.09324905,0.08517009,0.09577143,0.33340937,0.17144752,-0.18935978,-0.24793082,-0.3119703,-0.4481272,-0.07881829,0.31561497,0.6637763,0.020532494,8.59537e-10,7.6253375e-05
69783661,-1.9072669,0.077618375,-2.1086705,-1.8221877,-1.5081003,-0.052147456,-2.7731614,0.028468043,0.027015716,0.04325393,0.27691466,0.088906944,-0.2910028,-0.34575564,-0.40369898,-0.5053961,-0.18117896,0.31923595,0.66066676,0.020018496,7.7538015e-10,7.874025e-05
69977111,-1.9984518,0.07733535,-2.1976674,-1.9126154,-1.5996996,-0.14222223,-2.8581645,0.24695373,0.24592635,0.26402682,0.51844424,0.3109123,-0.25961876,-0.31877163,-0.381268,-0.48904458,-0.1404494,0.32276887,0.6577027,0.019448357,6.5788336e-10,8.0051046e-05
70175717,-2.0718756,0.0772221,-2.2699344,-1.9853733,-1.6727252,-0.21334954,-2.9286945,-0.00027784705,-0.003917277,0.008507401,0.22104046,0.05935031,-0.21105672,-0.2613151,-0.31540102,-0.41968262,-0.112595454,0.32525843,0.65555274,0.01910712,6.0992394e-10,8.172822e-05
70379291,-2.1257815,0.07702921,-2.3220906,-2.03863,-1.7268468,-0.2659757,-2.9777277,0.25674868,0.25398353,0.26633325,0.46779114,0.31129557,-0.29131052,-0.33853242,-0.3891818,-0.48447672,-0.1981315,0.32824436,0.65301466,0.01865792,5.3531785e-10,8.303345e-05
70578027,-2.1492705,0.0769656,-2.3441472,-2.061099,-1.7494353,-0.2853495,-2.9979677,0.004022062,0.0007187426,0.011505097,0.19984958,0.056348205,-0.36228517,-0.40652958,-0.45427692,-0.5471884,-0.27566558,0.3318137,0.6498809,0.018219426,4.916873e-10,8.596676e-05
70776507,-2.145488,0.076825514,-2.3386278,-2.056602,-1.744896,-0.27833146,-2.9908395,0.11357173,0.1101014,0.11968988,0.2945061,0.16281423,-0.36450893,-0.40558094,-0.45008406,-0.538119,-0.28456515,0.33507285,0.6470321,0.017806733,4.4652163e-10,8.8348155e-05
70975115,-2.1339939,0.07683677,-2.3260396,-2.0439992,-1.7319859,-0.26158163,-2.9773674,-0.086746454,-0.08200365,-0.06414175,0.12103501,-0.05551979,-0.40404886,-0.44399634,-0.4847052,-0.5347155,-0.31800446,0.33857253,0.6439002,0.017435167,4.2496828e-10,9.204711e-05
71178684,-2.1207504,0.076867044,-2.3122475,-2.0298119,-1.7171596,-0.2432196,-2.9637294,-0.18002898,-0.15845063,-0.12171748,0.10902022,-0.17956424,-0.34746298,-0.39083466,-0.42975026,-0.41110185,-0.23739271,0.34119788,0.64150953,0.017197084,4.227969e-10,9.556946e-05
71377387,-2.1118846,0.076712385,-2.3016002,-2.019383,-1.7065582,-0.22732854,-2.951408,0.034109473,0.083835065,0.15437862,0.49099267,-0.009531379,-0.35179803,-0.40782127,-0.45099682,-0.3294988,-0.18749794,0.34637415,0.6368712,0.016653407,3.869219e-10,0.000101102094
71575899,-2.104072,0.07637064,-2.2918081,-2.0098546,-1.6968764,-0.21196163,-2.9397678,-0.06002909,0.016098678,0.11910105,0.5649396,-0.14308238,-0.37116334,-0.44106415,-0.4904255,-0.27456135,-0.1522516,0.35210577,0.6317172,0.016069582,3.5007525e-10,0.00010747509
71774507,-2.1045542,0.07561906,-2.2878404,-2.007522,-1.6955043,-0.20216127,-2.9300807,0.11012858,0.21698529,0.355574,0.89739823,-0.025910199,-0.36612436,-0.44515023,-0.49427608,-0.15483835,-0.09813237,0.36281583,0.6221253,0.014941047,2.6344218e-10,0.00011780281
71978079,-2.1085978,0.074221015,-2.2858386,-2.0089328,-1.6997049,-0.19985291,-2.9184,0.098668694,0.2378869,0.41631418,1.0927272,-0.087224364,-0.29734418,-0.3924463,-0.4484844,0.013934553,0.034285188,0.37509382,0.6111579,0.013621556,1.6461502e-10,0.00012680025
72176743,-2.1239872,0.072106965,-2.2918198,-2.0205255,-1.7159997,-0.2067873,-2.9087956,0.2020011,0.37533063,0.5939458,1.3920743,-0.044031978,-0.30416113,-0.40998375,-0.46722114,0.13936743,0.08069053,0.39438745,0.5937199,0.011751739,7.490213e-11,0.00014097117
72375294,-2.12936,0.069562435,-2.2905571,-2.025096,-1.7261952,-0.21809138,-2.893506,-0.06329763,0.13178867,0.37780398,1.2856157,-0.34692562,-0.27667022,-0.39258295,-0.4551782,0.24925068,0.14524943,0.4045747,0.58460945,0.0106751975,3.6371215e-11,0.00014068362
72578896,-2.1430807,0.066490956,-2.295078,-2.0382602,-1.7477909,-0.24250232,-2.8774905,0.07683158,0.28469932,0.5460325,1.5212584,-0.23369825,-0.14551985,-0.2650057,-0.3291303,0.43706682,0.29232305,0.4184289,0.5721123,0.009320443,1.2131507e-11,0.00013834934
72777476,-2.1685894,0.06360022,-2.3103313,-2.0614934,-1.7783643,-0.2687244,-2.8724031,0.15817761,0.36321032,0.623298,1.6527047,-0.14996922,-0.24902582,-0.3722191,-0.4439367,0.3128032,0.18839043,0.43891487,0.55311275,0.007825435,3.6341342e-12,0.00014695986
72976158,-2.1921973,0.060957786,-2.3251908,-2.0834548,-1.8076534,-0.29551214,-2.8680265,0.13559484,0.33454752,0.5878851,1.624073,-0.16971624,-0.22303194,-0.3420269,-0.41354293,0.3408985,0.19389343,0.4569912,0.5361854,0.0066703535,1.1121944e-12,0.00015309377
73174691,-2.1974516,0.05884785,-2.3255296,-2.0894847,-1.8194252,-0.31230682,-2.8554585,-0.04429829,0.13395238,0.36246413,1.3360265,-0.32136393,-0.15213859,-0.2606858,-0.32911837,0.35911912,0.2197783,0.4639721,0.529731,0.006149956,4.7765004e-13,0.00014686766
73373297,-2.2050948,0.057321772,-2.3299422,-2.098495,-1.8332385,-0.33239156,-2.8499935,-0.03451395,0.11895156,0.31208718,1.1016538,-0.28863287,-0.031989336,-0.111691475,-0.1569035,0.47519922,0.25682163,0.4668529,0.52714676,0.0058620945,2.4966422e-13,0.00013834018
73571907,-2.225986,0.056257058,-2.345786,-2.1177392,-1.8552761,-0.34767187,-2.8564441,0.32321143,0.45359677,0.61451924,1.2378439,0.0944252,-0.1125263,-0.16827202,-0.19447505,0.3771236,0.10602099,0.48020998,0.51437235,0.0052690324,1.2608091e-13,0.00014865112
73780504,-2.228118,0.055695094,-2.3461351,-2.1190505,-1.8573192,-0.34679112,-2.8540127,0.08187783,0.19479972,0.3289866,0.7636589,-0.13441098,-0.25881124,-0.2861179,-0.28596985,0.27503204,-0.115605175,0.48555994,0.5092351,0.005051697,9.764476e-14,0.00015326838
73984015,-2.2193007,0.05530664,-2.3359528,-2.109766,-1.8487839,-0.33622614,-2.841455,0.12341064,0.21418095,0.3182071,0.5877704,-0.06284082,-0.12891358,-0.13610983,-0.11964375,0.37484288,-0.045406044,0.48934212,0.50560176,0.0048998506,8.006456e-14,0.00015634247
74177665,-2.2104337,0.055003654,-2.3253033,-2.1001616,-1.8399489,-0.32324976,-2.8278236,0.28671044,0.35719502,0.43506163,0.58250105,0.13245487,0.05464965,0.06034118,0.08561385,0.50369275,0.095211625,0.49461776,0.50051075,0.0047091716,6.434423e-14,0.00016229777
74376298,-2.2005148,0.054826964,-2.3151274,-2.0902674,-1.8303748,-0.31406888,-2.817117,0.039134264,0.10061991,0.16496116,0.21761805,-0.10639769,-0.1418823,-0.12325281,-0.085889876,0.3186276,-0.13542348,0.49509296,0.5000608,0.0046843267,6.079553e-14,0.00016194292
