timestamp,timestamp_sample,control[0],control[1],control[2],control[3],control[4],control[5],control[6],control[7]
361178791,361178544,-0.0268653,0.0193928,0.00329161,0.0,0.0,0.0,0.0,-1.0
361180038,361179789,-0.0235757,0.0187156,0.00440039,0.0,0.0,0.0,0.0,-1.0
361381158,361380911,-0.0311973,0.00487399,-0.0179267,0.0,0.0,0.0,0.0,-1.0
361479241,361478987,-0.0252319,0.0103944,-0.0180018,0.0,0.0,0.0,0.0,-1.0
361581036,361580788,-0.00511278,0.0261271,0.00344563,0.0,0.0,0.0,0.0,-1.0
361682877,361682626,-0.036328,0.016427,-0.00451792,0.0,0.0,0.0,0.0,-1.0
361779725,361779471,-0.0324679,-0.0261447,0.00191746,0.0,0.0,0.0,0.0,-1.0
361881480,361881232,-0.00901276,0.0394782,-4.46925e-05,0.0112362,0.0,0.0,0.0,-1.0
361979738,361979488,0.0128853,-0.0198078,-0.00324943,0.0112362,0.0,0.0,0.0,-1.0
362081359,362081114,0.0211407,0.050202,0.0142021,0.0112362,0.0,0.0,0.0,-1.0
362181934,362181678,-0.0352225,0.0373106,-0.0108453,0.00998776,0.0,0.0,0.0,-1.0
362281243,362280998,-0.0309901,0.0223185,-0.000495504,0.00998776,0.0,0.0,0.0,-1.0
362381807,362381559,-0.0167949,-0.017521,0.00634585,0.00998776,0.0,0.0,0.0,-1.0
362479886,362479640,0.0137398,-0.026602,-0.00704961,0.0112362,0.0,0.0,0.0,-1.0
362581693,362581441,-0.00164776,-0.0269285,0.0120134,0.0461934,0.0,0.0,0.0,-1.0
362679762,362679520,-0.0433034,0.15934,-0.004777,0.216842,0.0,0.0,0.0,-1.0
362781721,362781475,-0.186547,-0.110841,-0.0109389,0.269474,0.0,0.0,0.0,-1.0
362879647,362879400,-0.220614,0.1975,-0.000205899,0.313684,0.0,0.0,0.0,-1.0
362980217,362979965,-0.00466367,0.0385966,0.00470634,0.341053,0.0,0.0,0.0,-1.0
363082023,363081768,-0.13937,0.109536,-0.0032768,0.368421,0.0,0.0,0.0,-1.0
363180126,363179882,-0.0768832,0.0448412,-0.000600641,0.406316,0.0,0.0,0.0,-1.0
363281899,363281652,-0.0339087,0.0400299,-0.00400396,0.4,0.0,0.0,0.0,-1.0
363380011,363379769,0.00208853,-0.0179688,0.000623098,0.398947,0.0,0.0,0.0,-1.0
363481786,363481535,-0.0590929,0.0971936,0.00131623,0.397895,0.0,0.0,0.0,-1.0
363582453,363582210,-0.0147826,0.0829719,-0.00608717,0.398947,0.0,0.0,0.0,-1.0
363680426,363680176,-0.072067,0.0219317,0.00665639,0.508421,0.0,0.0,0.0,-1.0
363782224,363781977,0.0198431,0.00561005,-0.00915473,0.509474,0.0,0.0,0.0,-1.0
363880299,363880056,0.0492104,-0.0163022,-0.0174536,0.5106,0.0,0.0,0.0,-1.0
363982106,363981860,-0.0479679,0.023501,-0.00667158,0.509474,0.0,0.0,0.0,-1.0
364080231,364079983,-0.0856,0.0378098,-0.0243056,0.509474,0.0,0.0,0.0,-1.0
364180750,364180501,-0.101783,-0.00234552,-0.0215757,0.511799,0.0,0.0,0.0,-1.0
364282552,364282306,-0.0277719,-0.00920842,-0.0206552,0.514198,0.0,0.0,0.0,-1.0
364380755,364380504,-0.0296387,0.0490952,-0.024598,0.502105,0.0,0.0,0.0,-1.0
364482440,364482188,-0.0254022,0.00601505,-0.0253079,0.508421,0.0,0.0,0.0,-1.0
364580510,364580266,-0.0370335,0.00954427,-0.027618,0.523794,0.0,0.0,0.0,-1.0
364682326,364682069,0.00354343,-0.00439024,-0.0371231,0.535789,0.0,0.0,0.0,-1.0
364779159,364778908,-0.123449,0.040483,-0.0346554,0.540587,0.0,0.0,0.0,-1.0
364880965,364880710,-0.0260004,-0.0357525,-0.0368072,0.55978,0.0,0.0,0.0,-1.0
364982757,364982514,-0.0367157,-0.022954,-0.0315384,0.569376,0.0,0.0,0.0,-1.0
365080843,365080594,-0.148535,-0.0221624,-0.0195138,0.569376,0.0,0.0,0.0,-1.0
365182683,365182441,-0.00758634,0.0282379,-0.00179704,0.574174,0.0,0.0,0.0,-1.0
365280717,365280475,-0.135848,0.0368696,0.020221,0.580171,0.0,0.0,0.0,-1.0
365381276,365381036,-0.0869939,-0.00387934,0.0279266,0.580171,0.0,0.0,0.0,-1.0
365479545,365479300,-0.0995677,-0.00153322,0.038309,0.580171,0.0,0.0,0.0,-1.0
365581168,365580919,0.0132134,-0.0266281,0.032644,0.577772,0.0,0.0,0.0,-1.0
365682967,365682723,-0.0745702,-0.00450289,0.0383736,0.575373,0.0,0.0,0.0,-1.0
365781049,365780804,-0.0720424,-0.00144649,0.0390165,0.574174,0.0,0.0,0.0,-1.0
365879177,365878929,0.0377263,0.0112538,0.0373658,0.574174,0.0,0.0,0.0,-1.0
365979756,365979507,-0.157481,0.0525645,0.0402535,0.574174,0.0,0.0,0.0,-1.0
366081504,366081248,0.0428854,0.000660414,0.0341616,0.574174,0.0,0.0,0.0,-1.0
366179572,366179326,0.0201485,0.0181488,0.0300632,0.574174,0.0,0.0,0.0,-1.0
366281542,366281288,-0.016072,-0.0199872,0.0126482,0.574174,0.0,0.0,0.0,-1.0
366379454,366379209,0.0879056,-0.00950271,0.011683,0.574174,0.0,0.0,0.0,-1.0
366481267,366481012,0.0242181,0.00318733,0.00458422,0.574174,0.0,0.0,0.0,-1.0
366579348,366579091,0.00791701,-0.0155105,0.00494149,0.574174,0.0,0.0,0.0,-1.0
366679922,366679666,-0.0202961,0.0577086,-0.00238865,0.574174,0.0,0.0,0.0,-1.0
366781698,366781456,-0.0945442,-0.128046,-0.238251,0.574174,0.0,0.0,0.0,-1.0
366879781,366879535,0.0239975,-0.0701673,-0.157468,0.574174,0.0,0.0,0.0,-1.0
366981584,366981338,0.0669985,-0.0382733,-0.127601,0.574174,0.0,0.0,0.0,-1.0
367079820,367079568,-0.105767,-0.0261533,-0.101644,0.572974,0.0,0.0,0.0,-1.0
367180238,367179982,-0.0240325,0.00135464,-0.0765727,0.572974,0.0,0.0,0.0,-1.0
367282028,367281783,-0.0593658,-0.026044,-0.0531577,0.571775,0.0,0.0,0.0,-1.0
367380122,367379869,-0.0187828,-0.0254582,-0.0346391,0.571775,0.0,0.0,0.0,-1.0
367481919,367481665,-0.0437741,0.0120451,-0.0169361,0.571775,0.0,0.0,0.0,-1.0
367579987,367579744,-0.0183415,-0.00193356,-0.00591072,0.572974,0.0,0.0,0.0,-1.0
367681806,367681547,0.050122,-0.0290872,-0.006982,0.574174,0.0,0.0,0.0,-1.0
367779874,367779626,-0.0809363,-0.00212993,0.00524423,0.574174,0.0,0.0,0.0,-1.0
367880511,367880262,0.0169909,-0.0480248,-0.00120521,0.572974,0.0,0.0,0.0,-1.0
367982245,367981993,0.0247132,-0.0536196,0.010522,0.572974,0.0,0.0,0.0,-1.0
368080324,368080073,-0.00410889,-0.0251109,0.0107607,0.574174,0.0,0.0,0.0,-1.0
368182133,368181887,-0.0657449,-0.0120633,0.00776791,0.572974,0.0,0.0,0.0,-1.0
368280202,368279953,0.0149958,-0.0391645,0.00559429,0.572974,0.0,0.0,0.0,-1.0
368380769,368380516,-0.102065,0.00206441,0.00311154,0.572974,0.0,0.0,0.0,-1.0
368482577,368482331,-0.0294766,-0.00497611,0.00213297,0.572974,0.0,0.0,0.0,-1.0
368580647,368580398,0.0342855,-0.0437004,0.00769113,0.578972,0.0,0.0,0.0,-1.0
368682499,368682254,-0.0567465,0.00571337,0.00866078,0.592166,0.0,0.0,0.0,-1.0
368780537,368780283,0.055526,-0.0262681,0.00166154,0.584969,0.0,0.0,0.0,-1.0
368882344,368882085,0.0922946,-0.00828678,0.00572438,0.58377,0.0,0.0,0.0,-1.0
368979414,368979166,-0.159139,0.0171918,0.00735435,0.58377,0.0,0.0,0.0,-1.0
369080971,369080725,-0.112736,0.00888247,0.00822905,0.58377,0.0,0.0,0.0,-1.0
369182774,369182528,-0.0818992,-0.00175951,0.00996099,0.58377,0.0,0.0,0.0,-1.0
369280853,369280608,0.0179159,0.0140831,0.00303827,0.58377,0.0,0.0,0.0,-1.0
369382657,369382411,-0.0249827,0.00379934,0.00536381,0.58377,0.0,0.0,0.0,-1.0
369480811,369480559,-0.0322977,-0.039281,-0.00276846,0.58377,0.0,0.0,0.0,-1.0
369581298,369581056,0.0338041,-0.0803224,0.00121193,0.58377,0.0,0.0,0.0,-1.0
369679383,369679131,0.0185115,-0.0032667,0.00570292,0.622154,0.0,0.0,0.0,-1.0
369781338,369781093,-0.0427718,-0.0129631,0.00625693,0.625753,0.0,0.0,0.0,-1.0
369882988,369882739,0.000986331,-0.0278301,0.00197717,0.625753,0.0,0.0,0.0,-1.0
369981067,369980817,0.000161361,-0.00623613,0.00371432,0.625753,0.0,0.0,0.0,-1.0
370082877,370082620,-0.0767719,0.00176935,0.0076085,0.624553,0.0,0.0,0.0,-1.0
370179709,370179459,-0.0749393,0.00177999,0.00332697,0.623354,0.0,0.0,0.0,-1.0
370281505,370281262,0.00325272,-0.00630111,0.00642266,0.624553,0.0,0.0,0.0,-1.0
370379605,370379347,-0.0817209,0.0534207,0.000928598,0.624553,0.0,0.0,0.0,-1.0
370481389,370481143,0.147073,-0.0472012,0.00357932,0.624553,0.0,0.0,0.0,-1.0
370583332,370583078,0.0319278,-0.0043629,-0.00854732,0.624553,0.0,0.0,0.0,-1.0
370681275,370681026,-0.0491395,-0.000175761,-0.00211034,0.624553,0.0,0.0,0.0,-1.0
370781840,370781590,-0.00461085,-0.00725707,-0.00811684,0.624553,0.0,0.0,0.0,-1.0
370879915,370879667,-0.00642674,-0.00985635,-0.00837329,0.624553,0.0,0.0,0.0,-1.0
370981763,370981521,0.000781706,-0.010826,-0.0108117,0.624553,0.0,0.0,0.0,-1.0
371079801,371079554,0.0301085,-0.0303387,-0.00578483,0.624553,0.0,0.0,0.0,-1.0
371181596,371181353,-0.00826925,-0.0438306,-0.00679442,0.624553,0.0,0.0,0.0,-1.0
371282163,371281915,-0.0499419,0.0048846,-0.00347198,0.624553,0.0,0.0,0.0,-1.0
371380321,371380078,-0.0275607,0.0624399,0.00468135,0.623354,0.0,0.0,0.0,-1.0
371482053,371481801,-0.0206412,-0.0864955,0.010228,0.546585,0.0,0.0,0.0,-1.0
371580125,371579877,0.0257519,-0.0425768,-0.00169273,0.509474,0.0,0.0,0.0,-1.0
371681939,371681680,-0.102999,0.0250658,-0.000744958,0.511799,0.0,0.0,0.0,-1.0
371780008,371779759,-0.0630884,-0.0320308,0.00664991,0.515398,0.0,0.0,0.0,-1.0
371881818,371881563,-0.0779144,0.0130583,0.00646802,0.520196,0.0,0.0,0.0,-1.0
371982415,371982168,-0.169782,0.0301363,0.0096583,0.520196,0.0,0.0,0.0,-1.0
372080455,372080208,-0.0325884,-0.0465577,0.0237571,0.520196,0.0,0.0,0.0,-1.0
372182319,372182074,-0.19344,0.0467126,0.0187166,0.520196,0.0,0.0,0.0,-1.0
372280334,372280086,-0.0175727,-0.0844934,0.0190588,0.520196,0.0,0.0,0.0,-1.0
372382136,372381890,-0.0853645,-0.0305444,0.0141971,0.520196,0.0,0.0,0.0,-1.0
372479207,372478953,-0.0338054,-0.075053,0.0216384,0.520196,0.0,0.0,0.0,-1.0
372580774,372580530,-0.0922874,-0.0348882,0.0249863,0.520196,0.0,0.0,0.0,-1.0
372682581,372682334,0.0949178,-0.0846984,0.0223737,0.520196,0.0,0.0,0.0,-1.0
372780653,372780413,-0.0603561,0.0207847,0.0127461,0.520196,0.0,0.0,0.0,-1.0
372882468,372882218,0.0231966,-0.0855781,0.0149099,0.520196,0.0,0.0,0.0,-1.0
372980623,372980376,-0.0648847,-0.057053,0.104197,0.524994,0.0,0.0,0.0,-1.0
373082385,373082135,0.0181341,-0.0867192,0.0696837,0.535789,0.0,0.0,0.0,-1.0
373179216,373178962,-0.116707,-0.0451581,0.0431698,0.532191,0.0,0.0,0.0,-1.0
373281147,373280901,0.000985717,-0.0681851,-0.0146298,0.560979,0.0,0.0,0.0,-1.0
373379068,373378820,-0.119823,0.0637324,-0.011457,0.606561,0.0,0.0,0.0,-1.0
373480866,373480623,0.0638767,-0.0497572,-0.00953892,0.618556,0.0,0.0,0.0,-1.0
373582679,373582428,-0.0172544,-0.100787,-0.0123363,0.617356,0.0,0.0,0.0,-1.0
373680754,373680505,-0.024066,-0.0159435,-0.00715357,0.624553,0.0,0.0,0.0,-1.0
373781322,373781072,-0.0089062,-0.0786919,-0.0109938,0.624553,0.0,0.0,0.0,-1.0
373879441,373879190,-0.0479101,-0.0203547,-0.00869668,0.677332,0.0,0.0,0.0,-1.0
373981201,373980950,-0.0483377,-0.0291588,-0.0192576,0.664137,0.0,0.0,0.0,-1.0
374083176,374082918,0.00856044,-0.0583339,-0.0118315,0.668935,0.0,0.0,0.0,-1.0
374181076,374180832,-0.0290479,-0.0982446,-0.0107166,0.670135,0.0,0.0,0.0,-1.0
374282884,374282635,-0.0514755,0.0333724,-0.0087317,0.670135,0.0,0.0,0.0,-1.0
374379718,374379473,-0.0920584,-0.0326599,0.00110306,0.670135,0.0,0.0,0.0,-1.0
374481520,374481276,-0.0457344,0.0591688,-0.00146129,0.670135,0.0,0.0,0.0,-1.0
374579611,374579357,-0.0089199,-0.0985233,-0.000562788,0.670135,0.0,0.0,0.0,-1.0
374681414,374681162,-0.080194,-0.0104121,-0.00164095,0.670135,0.0,0.0,0.0,-1.0
374783217,374782965,0.017344,-0.00518775,-0.00551764,0.668935,0.0,0.0,0.0,-1.0
374881386,374881136,-0.0177822,-0.00973139,-0.000493125,0.619755,0.0,0.0,0.0,-1.0
374981864,374981603,-0.021607,-0.0182769,0.00293453,0.611359,0.0,0.0,0.0,-1.0
375079929,375079683,-0.0150112,-0.0308094,0.0108949,0.610159,0.0,0.0,0.0,-1.0
375181735,375181486,0.0122099,-0.0434833,0.0114918,0.60776,0.0,0.0,0.0,-1.0
375281059,375280810,0.00607255,-0.0465572,0.0207701,0.606561,0.0,0.0,0.0,-1.0
375381697,375381451,-0.0545009,-0.0425252,0.0211242,0.606561,0.0,0.0,0.0,-1.0
375482177,375481931,0.0667935,-0.031535,0.021334,0.606561,0.0,0.0,0.0,-1.0
375580258,375580010,0.055418,-0.021582,0.019615,0.587368,0.0,0.0,0.0,-1.0
375682130,375681882,0.0549734,-0.0453769,0.0183952,0.571775,0.0,0.0,0.0,-1.0
375780135,375779892,-0.0215196,0.0243775,0.0213385,0.572974,0.0,0.0,0.0,-1.0
375881950,375881698,0.0179538,-0.0500776,0.0142703,0.571775,0.0,0.0,0.0,-1.0
375980029,375979777,-0.0138683,-0.0160838,0.00152466,0.581371,0.0,0.0,0.0,-1.0
376081883,376081623,0.0220638,-0.00918583,0.00534891,0.618556,0.0,0.0,0.0,-1.0
376182385,376182140,-0.054418,-0.043535,0.010932,0.60776,0.0,0.0,0.0,-1.0
376280461,376280219,0.0333287,-0.040844,0.0014132,0.587368,0.0,0.0,0.0,-1.0
376382271,376382022,-0.0141707,-0.0498235,-0.000918209,0.587368,0.0,0.0,0.0,-1.0
376480364,376480122,-0.0414048,-0.0364709,0.00705152,0.587368,0.0,0.0,0.0,-1.0
376582154,376581907,-0.0820264,-0.00429933,0.000808094,0.588568,0.0,0.0,0.0,-1.0
376680238,376679985,0.00270261,0.00979491,-0.00183803,0.589767,0.0,0.0,0.0,-1.0
376780965,376780716,-0.0828411,-0.0527179,0.00603898,0.589767,0.0,0.0,0.0,-1.0
376878873,376878625,-0.0834422,-0.000331651,-0.00475825,0.589767,0.0,0.0,0.0,-1.0
376980673,376980428,0.00921477,-0.0214647,-0.00684889,0.589767,0.0,0.0,0.0,-1.0
377082481,377082233,-0.108498,0.00804737,-0.00559016,0.574174,0.0,0.0,0.0,-1.0
377180613,377180371,-0.0314184,-0.0887232,0.007188,0.55858,0.0,0.0,0.0,-1.0
377281171,377280922,-0.0346999,-0.0456936,0.0099408,0.55978,0.0,0.0,0.0,-1.0
377379207,377378957,-0.0151754,-0.0433108,0.0171183,0.556181,0.0,0.0,0.0,-1.0
377481041,377480797,-0.0673205,-0.0722248,0.0153788,0.548984,0.0,0.0,0.0,-1.0
377582942,377582696,0.0126492,-0.0671301,0.0203555,0.536989,0.0,0.0,0.0,-1.0
377680880,377680638,-0.056939,-0.0257054,0.00668326,0.538188,0.0,0.0,0.0,-1.0
377782691,377782442,0.0669252,-0.101287,0.0154004,0.538188,0.0,0.0,0.0,-1.0
377880766,377880521,0.0290035,-0.0643786,0.013353,0.550184,0.0,0.0,0.0,-1.0
377981337,377981083,-0.0338691,-0.0615022,0.0213371,0.551383,0.0,0.0,0.0,-1.0
378079406,378079165,-0.0632223,-0.0510422,0.00711775,0.581371,0.0,0.0,0.0,-1.0
378181222,378180965,0.000502856,-0.0951471,0.0157934,0.586169,0.0,0.0,0.0,-1.0
378279298,378279045,-0.028255,-0.0383516,0.0158632,0.586169,0.0,0.0,0.0,-1.0
378381203,378380950,-0.0409759,0.0182654,0.0148036,0.580171,0.0,0.0,0.0,-1.0
378481655,378481410,-0.0122663,-0.0568365,0.0212126,0.580171,0.0,0.0,0.0,-1.0
378579733,378579488,0.124373,-0.0552448,0.0240189,0.580171,0.0,0.0,0.0,-1.0
378681539,378681292,-0.026812,-0.0349221,0.0280656,0.580171,0.0,0.0,0.0,-1.0
378779614,378779370,0.0750792,-0.0786136,0.0296051,0.580171,0.0,0.0,0.0,-1.0
378881422,378881174,0.0130882,-0.0679,0.0381726,0.578972,0.0,0.0,0.0,-1.0
378979542,378979292,0.0294419,-0.0124512,0.0189538,0.580171,0.0,0.0,0.0,-1.0
379081310,379081058,0.0342574,-0.0503734,0.0122958,0.580171,0.0,0.0,0.0,-1.0
379181939,379181692,-0.0401644,-0.0714453,0.0124754,0.580171,0.0,0.0,0.0,-1.0
379279942,379279698,-0.030419,-0.0610116,0.00292748,0.580171,0.0,0.0,0.0,-1.0
379381752,379381504,-0.00474363,-0.0815956,0.0114496,0.580171,0.0,0.0,0.0,-1.0
379479823,379479580,0.0273522,-0.0558008,-0.00558301,0.580171,0.0,0.0,0.0,-1.0
379581632,379581384,-0.0398355,-0.0278659,-0.000509299,0.580171,0.0,0.0,0.0,-1.0
379679714,379679463,0.0245268,-0.0837788,-0.0149554,0.580171,0.0,0.0,0.0,-1.0
379780272,379780025,-0.0210073,-0.0630617,-0.0172742,0.580171,0.0,0.0,0.0,-1.0
379882076,379881829,0.0934011,-0.0512589,-0.008942,0.580171,0.0,0.0,0.0,-1.0
379980202,379979945,-0.0220147,-0.0633071,-0.014546,0.580171,0.0,0.0,0.0,-1.0
380081963,380081713,-0.0868648,-0.0371244,-0.00881794,0.580171,0.0,0.0,0.0,-1.0
380180066,380179823,-0.0160081,-0.0528582,-0.00900412,0.580171,0.0,0.0,0.0,-1.0
380280771,380280525,0.0199579,-0.0573259,-0.0109391,0.580171,0.0,0.0,0.0,-1.0
380382397,380382155,0.0756405,-0.0769545,0.000811598,0.580171,0.0,0.0,0.0,-1.0
380480495,380480251,-0.0436584,-0.0443986,-0.00417595,0.580171,0.0,0.0,0.0,-1.0
380582279,380582038,-0.0393143,-0.0630393,0.00971418,0.580171,0.0,0.0,0.0,-1.0
380680364,380680119,-0.0185019,-0.0491718,0.00463877,0.580171,0.0,0.0,0.0,-1.0
380782170,380781925,-0.0490813,-0.0386758,0.0104267,0.578972,0.0,0.0,0.0,-1.0
380880247,380880000,-0.00893438,-0.068907,0.000409858,0.580171,0.0,0.0,0.0,-1.0
380980812,380980561,-0.0282584,-0.0311206,0.0143499,0.580171,0.0,0.0,0.0,-1.0
381079010,381078768,-0.00337957,-0.0715289,0.00859371,0.580171,0.0,0.0,0.0,-1.0
381180686,381180444,-0.00710953,-0.106735,0.0188357,0.580171,0.0,0.0,0.0,-1.0
381282499,381282248,-0.00225916,-0.0348319,0.010242,0.580171,0.0,0.0,0.0,-1.0
381380569,381380326,0.0307477,-0.0604551,0.0118077,0.580171,0.0,0.0,0.0,-1.0
381482379,381482130,-0.015947,-0.046539,0.0153242,0.580171,0.0,0.0,0.0,-1.0
381579231,381578968,-0.00956995,-0.0635888,0.00836099,0.580171,0.0,0.0,0.0,-1.0
381681022,381680770,-0.0245145,-0.0455316,0.0152101,0.580171,0.0,0.0,0.0,-1.0
381779097,381778849,0.0522153,-0.0508732,0.0114363,0.580171,0.0,0.0,0.0,-1.0
381881066,381880818,0.0409102,-0.096677,0.00524231,0.580171,0.0,0.0,0.0,-1.0
381978981,381978732,0.072348,-0.0887562,0.0013597,0.580171,0.0,0.0,0.0,-1.0
382080782,382080536,-0.15347,-0.0250077,-0.00403332,0.580171,0.0,0.0,0.0,-1.0
382181357,382181116,-0.0566294,-0.0759066,-0.00253343,0.580171,0.0,0.0,0.0,-1.0
382279422,382279177,-0.0487798,-0.0964904,-0.00656517,0.55978,0.0,0.0,0.0,-1.0
382381237,382380980,-0.0481323,-0.0831595,0.0105924,0.554982,0.0,0.0,0.0,-1.0
382483033,382482784,-0.0198155,-0.145294,0.0108237,0.55858,0.0,0.0,0.0,-1.0
382581115,382580865,-0.0335675,-0.0337398,0.0130141,0.588568,0.0,0.0,0.0,-1.0
382679258,382679007,0.0368195,-0.0427476,0.0288623,0.606561,0.0,0.0,0.0,-1.0
382779751,382779503,-0.0138168,-0.0741816,0.0334674,0.611359,0.0,0.0,0.0,-1.0
382881553,382881308,-0.0738082,-0.0617849,0.032129,0.605361,0.0,0.0,0.0,-1.0
382979637,382979386,-0.0366486,-0.050371,0.0324301,0.611359,0.0,0.0,0.0,-1.0
383081453,383081199,-0.00944706,-0.0469996,0.0277941,0.611359,0.0,0.0,0.0,-1.0
383183244,383182993,-0.0348834,-0.0317081,0.0210387,0.611359,0.0,0.0,0.0,-1.0
383281351,383281096,-0.0524442,-0.0438295,0.0161953,0.611359,0.0,0.0,0.0,-1.0
383381882,383381634,0.0623262,-0.0974537,0.0175983,0.611359,0.0,0.0,0.0,-1.0
383480001,383479753,-0.0755424,-0.0102929,0.0231388,0.611359,0.0,0.0,0.0,-1.0
383581766,383581517,0.0229353,-0.0294186,0.0115426,0.611359,0.0,0.0,0.0,-1.0
383679875,383679629,0.0333772,-0.06961,0.0110962,0.611359,0.0,0.0,0.0,-1.0
383781842,383781589,-0.0114384,-0.0684195,0.00274991,0.611359,0.0,0.0,0.0,-1.0
383882215,383881963,0.0596665,-0.0857694,0.0100542,0.611359,0.0,0.0,0.0,-1.0
383980286,383980040,-0.034899,-0.0570216,0.00797343,0.611359,0.0,0.0,0.0,-1.0
384082093,384081843,-0.0276404,-0.0273235,0.00879046,0.611359,0.0,0.0,0.0,-1.0
384180177,384179926,-0.00272413,-0.0379209,-0.00382571,0.611359,0.0,0.0,0.0,-1.0
384282037,384281790,-0.032269,-0.0193533,0.00812679,0.611359,0.0,0.0,0.0,-1.0
384380049,384379805,-0.0962529,-0.0367936,0.00592443,0.611359,0.0,0.0,0.0,-1.0
384480618,384480368,0.136132,-0.041445,0.00418975,0.611359,0.0,0.0,0.0,-1.0
384578837,384578589,-0.245165,-0.0372612,0.0222099,0.611359,0.0,0.0,0.0,-1.0
384680499,384680250,0.0441692,-0.101552,0.00589717,0.611359,0.0,0.0,0.0,-1.0
384782302,384782055,0.0350875,-0.0731105,0.0079886,0.611359,0.0,0.0,0.0,-1.0
384880385,384880136,-0.0587306,-0.0293992,0.00615041,0.611359,0.0,0.0,0.0,-1.0
384982187,384981937,0.0334271,-0.00219914,0.00997427,0.611359,0.0,0.0,0.0,-1.0
385080260,385080014,0.0465287,-0.0391994,0.00615241,0.611359,0.0,0.0,0.0,-1.0
385180820,385180577,0.00417681,-0.0667775,0.00264583,0.611359,0.0,0.0,0.0,-1.0
385282630,385282381,-0.00489666,-0.00956895,-0.00275707,0.611359,0.0,0.0,0.0,-1.0
385380818,385380573,-0.01014,-0.0490672,0.0044339,0.611359,0.0,0.0,0.0,-1.0
385482504,385482263,-0.0281558,-0.0129589,0.00174523,0.611359,0.0,0.0,0.0,-1.0
385580595,385580345,-0.014406,-0.0319545,0.00533578,0.574174,0.0,0.0,0.0,-1.0
385681159,385680917,-0.0577313,-0.021301,0.00244962,0.575373,0.0,0.0,0.0,-1.0
385779231,385778983,-0.00039097,-0.0190102,0.0117569,0.570575,0.0,0.0,0.0,-1.0
385881029,385880786,-0.104627,0.0214788,0.000905868,0.569376,0.0,0.0,0.0,-1.0
385982844,385982593,-0.0379233,-0.0881411,0.00383026,0.580171,0.0,0.0,0.0,-1.0
386080919,386080669,-0.0680675,-0.0116814,0.00485041,0.580171,0.0,0.0,0.0,-1.0
386182815,386182564,-0.0426324,0.00229935,0.00172936,0.581371,0.0,0.0,0.0,-1.0
386280814,386280554,0.000271316,-0.0564798,0.00986411,0.578972,0.0,0.0,0.0,-1.0
386381361,386381113,-0.0169215,0.00148752,0.00728851,0.575373,0.0,0.0,0.0,-1.0
386479450,386479198,-0.00631916,-0.0073952,-0.000179395,0.575373,0.0,0.0,0.0,-1.0
386581246,386580996,-0.019686,-0.072118,0.00657533,0.577772,0.0,0.0,0.0,-1.0
386683048,386682799,-0.0488004,-0.0788069,0.00161847,0.580171,0.0,0.0,0.0,-1.0
386781125,386780878,0.0238613,-0.0422611,-0.00493129,0.580171,0.0,0.0,0.0,-1.0
386881694,386881443,-0.0124153,-0.0879398,0.00912952,0.578972,0.0,0.0,0.0,-1.0
386979813,386979563,-0.0109775,-0.00719601,-0.00772795,0.575373,0.0,0.0,0.0,-1.0
387081576,387081334,0.0302734,-0.0885136,-0.00590705,0.580171,0.0,0.0,0.0,-1.0
387179646,387179400,-0.0974486,-0.0623818,-0.0106689,0.578972,0.0,0.0,0.0,-1.0
387281642,387281400,-0.00222725,-0.0694623,-0.0111037,0.580171,0.0,0.0,0.0,-1.0
387383259,387383009,-0.0446078,-0.0363023,-0.000582987,0.576573,0.0,0.0,0.0,-1.0
387481344,387481088,0.0182745,-0.0721196,0.00228029,0.575373,0.0,0.0,0.0,-1.0
387581904,387581652,-0.0530169,-0.0115082,0.0141192,0.575373,0.0,0.0,0.0,-1.0
387679977,387679729,0.00170947,-0.0526239,0.0112256,0.575373,0.0,0.0,0.0,-1.0
387781895,387781654,-0.0497345,-0.0492215,0.0200353,0.575373,0.0,0.0,0.0,-1.0
387879862,387879613,0.0358693,-0.0796204,0.0150961,0.575373,0.0,0.0,0.0,-1.0
387981717,387981466,-0.0356875,-0.0729802,0.0212996,0.575373,0.0,0.0,0.0,-1.0
388082412,388082164,0.0765068,-0.102968,0.0132231,0.575373,0.0,0.0,0.0,-1.0
388180298,388180056,-0.0184177,-0.030878,0.0173788,0.575373,0.0,0.0,0.0,-1.0
388282110,388281861,-0.0683936,-0.0622318,0.0144933,0.574174,0.0,0.0,0.0,-1.0
388380188,388379938,0.0520446,-0.0723479,0.0182435,0.574174,0.0,0.0,0.0,-1.0
388482039,388481797,-0.00073934,-0.0992963,0.0139433,0.574174,0.0,0.0,0.0,-1.0
388580073,388579822,0.0881832,-0.0618873,0.00733664,0.574174,0.0,0.0,0.0,-1.0
388681877,388681626,-0.0417053,-0.0588171,0.0118729,0.613758,0.0,0.0,0.0,-1.0
388782444,388782187,-0.0875461,-0.0712951,0.00913437,0.614957,0.0,0.0,0.0,-1.0
388880639,388880396,0.0144847,-0.0733535,0.00390057,0.611359,0.0,0.0,0.0,-1.0
388982313,388982070,0.0114044,-0.119515,0.0119006,0.611359,0.0,0.0,0.0,-1.0
389080398,389080148,-0.0463922,-0.0654809,0.00346955,0.605361,0.0,0.0,0.0,-1.0
389182204,389181955,0.00271317,-0.0401602,0.00552839,0.610159,0.0,0.0,0.0,-1.0
389280284,389280035,0.0626591,-0.0360216,0.00791458,0.611359,0.0,0.0,0.0,-1.0
389380891,389380647,0.0213397,-0.0510194,0.00905059,0.612558,0.0,0.0,0.0,-1.0
389482646,389482396,-0.165848,-0.0172264,0.00253281,0.612558,0.0,0.0,0.0,-1.0
389580716,389580475,-0.0301133,-0.0656124,-0.00223784,0.613758,0.0,0.0,0.0,-1.0
389682619,389682375,-0.0113413,-0.042759,0.00135023,0.612558,0.0,0.0,0.0,-1.0
389780610,389780358,0.0311763,-0.038249,0.00375174,0.612558,0.0,0.0,0.0,-1.0
389881178,389880933,0.0155838,-0.0653396,0.0115766,0.612558,0.0,0.0,0.0,-1.0
389979280,389979029,0.00104405,-0.0434925,0.00214861,0.612558,0.0,0.0,0.0,-1.0
390081046,390080804,-0.0612999,-0.0402123,0.00245846,0.612558,0.0,0.0,0.0,-1.0
390182876,390182629,0.00705559,-0.0442591,0.00474855,0.60896,0.0,0.0,0.0,-1.0
390280932,390280685,0.0678009,-0.0460164,0.012806,0.610159,0.0,0.0,0.0,-1.0
390382733,390382489,-0.0667667,-0.0396731,0.0097847,0.60776,0.0,0.0,0.0,-1.0
390480877,390480622,0.00470036,-0.029338,-0.00207294,0.592166,0.0,0.0,0.0,-1.0
390581382,390581131,-0.0571961,-0.0638771,-0.00826384,0.593366,0.0,0.0,0.0,-1.0
390679460,390679209,-4.4546e-05,-0.0622555,-0.00983611,0.592166,0.0,0.0,0.0,-1.0
390781262,390781015,-0.024544,-0.0256192,-0.00575431,0.592166,0.0,0.0,0.0,-1.0
390883065,390882816,-0.0613479,-0.0599137,-0.00401486,0.599364,0.0,0.0,0.0,-1.0
390981187,390980939,-0.0110838,-0.0521584,-0.00265029,0.599364,0.0,0.0,0.0,-1.0
391081712,391081457,0.103131,-0.0367148,-0.0163517,0.599364,0.0,0.0,0.0,-1.0
391179781,391179537,-0.0353573,-0.034081,-0.00883034,0.599364,0.0,0.0,0.0,-1.0
391281692,391281436,-0.0366844,-0.0793644,-0.0148734,0.600563,0.0,0.0,0.0,-1.0
391379668,391379418,0.0520591,-0.0548742,-0.0170044,0.601763,0.0,0.0,0.0,-1.0
391481465,391481223,-0.0134402,-0.0511605,-0.00942446,0.601763,0.0,0.0,0.0,-1.0
391579714,391579466,0.007698,-0.0630079,-0.00852311,0.601763,0.0,0.0,0.0,-1.0
391681354,391681104,-0.0437146,-0.0225859,-0.00533516,0.600563,0.0,0.0,0.0,-1.0
391781925,391781673,0.00863592,-0.0539371,-0.0101899,0.600563,0.0,0.0,0.0,-1.0
391879992,391879746,-0.0961064,-0.029341,-0.0102949,0.600563,0.0,0.0,0.0,-1.0
391981808,391981553,0.0510197,-0.0228006,-0.0152604,0.601763,0.0,0.0,0.0,-1.0
392079873,392079628,-0.0368022,-0.0267582,-0.0108197,0.595765,0.0,0.0,0.0,-1.0
392181683,392181432,0.0317275,-0.0991188,-0.00434886,0.565777,0.0,0.0,0.0,-1.0
392279761,392279512,0.0461218,-0.0680633,-0.0074884,0.572974,0.0,0.0,0.0,-1.0
392380448,392380204,-0.0406045,-0.0684116,-0.00620752,0.574174,0.0,0.0,0.0,-1.0
392482121,392481876,0.0481733,-0.0491685,0.00277241,0.574174,0.0,0.0,0.0,-1.0
392580202,392579955,0.0240266,-0.0477726,-0.00211396,0.574174,0.0,0.0,0.0,-1.0
392682008,392681759,-0.101087,-0.0231897,0.00218725,0.574174,0.0,0.0,0.0,-1.0
392780082,392779838,-0.00394325,-0.0606427,0.00440645,0.574174,0.0,0.0,0.0,-1.0
392880655,392880402,0.016022,-0.0902642,0.000845717,0.574174,0.0,0.0,0.0,-1.0
392982455,392982207,-0.0996745,-0.0323459,0.00708031,0.574174,0.0,0.0,0.0,-1.0
393080525,393080283,-0.0189207,-0.0312311,0.00842497,0.581371,0.0,0.0,0.0,-1.0
393182436,393182185,-0.0326711,-0.0659418,0.00141051,0.578972,0.0,0.0,0.0,-1.0
393280409,393280168,-0.0274192,-0.0312806,0.0057138,0.586169,0.0,0.0,0.0,-1.0
393382227,393381971,-0.0602246,-0.0452936,-0.00327536,0.584969,0.0,0.0,0.0,-1.0
393480294,393480047,-0.0741857,-0.0527829,0.00243904,0.58377,0.0,0.0,0.0,-1.0
393580865,393580614,0.035009,-0.0913508,0.00255049,0.584969,0.0,0.0,0.0,-1.0
393680185,393679931,0.0177426,-0.0412342,0.00965949,0.601763,0.0,0.0,0.0,-1.0
393780738,393780492,-0.0766641,-0.0314355,0.00395548,0.601763,0.0,0.0,0.0,-1.0
393882542,393882296,-0.0217963,-0.0422707,0.00584161,0.602962,0.0,0.0,0.0,-1.0
393980727,393980479,-0.0214892,-0.0829769,0.00792764,0.601763,0.0,0.0,0.0,-1.0
394081188,394080937,-0.0380807,-0.00348921,0.00640596,0.601763,0.0,0.0,0.0,-1.0
394179263,394179016,-0.0132427,-0.0286396,-0.00218339,0.601763,0.0,0.0,0.0,-1.0
394281085,394280833,-0.0440391,-0.0312007,0.000590756,0.601763,0.0,0.0,0.0,-1.0
394379151,394378899,0.00725525,-0.0538299,0.00344039,0.601763,0.0,0.0,0.0,-1.0
394480956,394480702,-0.0470913,-0.00682056,0.00977203,0.600563,0.0,0.0,0.0,-1.0
394582753,394582506,-0.0432792,-0.0401498,0.0076614,0.600563,0.0,0.0,0.0,-1.0
394680833,394680584,-0.0800118,-0.000952738,0.000681712,0.600563,0.0,0.0,0.0,-1.0
394781420,394781172,0.0670955,-0.0705387,-0.00365961,0.600563,0.0,0.0,0.0,-1.0
394879466,394879226,-0.076758,-0.0612482,0.00697222,0.600563,0.0,0.0,0.0,-1.0
394981280,394981030,-0.0692301,0.00804033,-0.00650885,0.600563,0.0,0.0,0.0,-1.0
395079515,395079269,-0.0231668,-0.0635723,0.00501581,0.600563,0.0,0.0,0.0,-1.0
395181161,395180913,0.0117523,-0.00529878,0.00369072,0.600563,0.0,0.0,0.0,-1.0
395281717,395281474,0.0175239,-0.0569898,-0.00519891,0.604162,0.0,0.0,0.0,-1.0
395379799,395379552,-0.0528454,0.00176859,-0.00449234,0.605361,0.0,0.0,0.0,-1.0
395481612,395481357,-0.0679207,-0.0312366,-0.00505714,0.606561,0.0,0.0,0.0,-1.0
395579715,395579473,0.0631724,-0.036879,-0.00559304,0.606561,0.0,0.0,0.0,-1.0
395681485,395681239,0.094197,-0.0544713,-0.000597953,0.602962,0.0,0.0,0.0,-1.0
395779565,395779318,-0.0644948,-0.0472212,-0.00400446,0.604162,0.0,0.0,0.0,-1.0
395880265,395880020,0.0922834,-0.037801,-0.00910477,0.601763,0.0,0.0,0.0,-1.0
395981929,395981683,0.104141,-0.100857,0.00229692,0.601763,0.0,0.0,0.0,-1.0
396080010,396079763,-0.101514,-0.0192009,-0.00179484,0.605361,0.0,0.0,0.0,-1.0
396181815,396181566,-0.0204591,-0.0189003,0.00464081,0.613758,0.0,0.0,0.0,-1.0
396279886,396279645,-0.00483579,-0.0604405,-0.00167065,0.613758,0.0,0.0,0.0,-1.0
396381721,396381476,0.0682552,-0.0453241,0.001155,0.613758,0.0,0.0,0.0,-1.0
396479776,396479528,0.00606103,-0.0395974,0.011983,0.613758,0.0,0.0,0.0,-1.0
396580339,396580090,0.0151246,-0.0622652,0.0100071,0.613758,0.0,0.0,0.0,-1.0
396682243,396681997,-0.0108324,-0.0583222,0.0137857,0.613758,0.0,0.0,0.0,-1.0
396780219,396779972,-0.0816585,0.00362629,0.0180994,0.613758,0.0,0.0,0.0,-1.0
396882027,396881776,-0.00342656,-0.10552,0.0211847,0.613758,0.0,0.0,0.0,-1.0
396980096,396979855,0.0520137,-0.0509297,0.0191211,0.613758,0.0,0.0,0.0,-1.0
397080664,397080417,-0.0255115,-0.0533607,0.0173707,0.613758,0.0,0.0,0.0,-1.0
397182476,397182227,0.0096129,-0.012623,0.0114986,0.613758,0.0,0.0,0.0,-1.0
397280554,397280300,-0.00221511,-0.0488401,0.016455,0.600563,0.0,0.0,0.0,-1.0
397382351,397382104,0.070121,-0.0691446,0.0175772,0.596964,0.0,0.0,0.0,-1.0
397480516,397480267,0.0422753,-0.0256067,0.016678,0.589767,0.0,0.0,0.0,-1.0
397582239,397581986,-0.0352513,-0.0273419,0.012137,0.588568,0.0,0.0,0.0,-1.0
397680319,397680066,0.0960724,-0.0557101,0.00909212,0.588568,0.0,0.0,0.0,-1.0
397780873,397780627,0.0170197,-0.0721201,0.00544519,0.584969,0.0,0.0,0.0,-1.0
397882675,397882431,-0.0178348,-0.00244474,0.000607856,0.58377,0.0,0.0,0.0,-1.0
397980764,397980510,0.0336176,-0.0706187,-0.00545098,0.593366,0.0,0.0,0.0,-1.0
398082555,398082313,-0.0581322,0.0381508,-0.00335134,0.593366,0.0,0.0,0.0,-1.0
398180667,398180423,0.0454487,-0.0582882,-0.00488981,0.594565,0.0,0.0,0.0,-1.0
398281294,398281049,0.0151458,-0.057709,0.0105612,0.594565,0.0,0.0,0.0,-1.0
398379275,398379033,-0.0760318,0.0157119,0.00539455,0.594565,0.0,0.0,0.0,-1.0
398481127,398480882,-0.0673998,0.00317118,0.00754175,0.594565,0.0,0.0,0.0,-1.0
398583070,398582827,-0.014864,0.00530445,0.00394527,0.594565,0.0,0.0,0.0,-1.0
398680970,398680719,-0.048368,-0.0620327,0.015092,0.594565,0.0,0.0,0.0,-1.0
398782772,398782523,-0.104419,-0.0102112,0.0114236,0.594565,0.0,0.0,0.0,-1.0
398880859,398880603,-0.0103251,-0.0462973,0.0028662,0.594565,0.0,0.0,0.0,-1.0
398981412,398981165,0.0466402,-0.0581645,0.0112529,0.594565,0.0,0.0,0.0,-1.0
399079490,399079242,-0.0477153,-0.029212,0.004958,0.594565,0.0,0.0,0.0,-1.0
399181296,399181046,0.0887663,-0.0559408,0.00164653,0.594565,0.0,0.0,0.0,-1.0
399283096,399282850,0.00276073,-0.0596043,0.00592615,0.594565,0.0,0.0,0.0,-1.0
399381325,399381071,0.0115027,-0.0448842,-0.00476058,0.594565,0.0,0.0,0.0,-1.0
399479260,399479008,-0.0359729,-0.0766806,-0.000362214,0.594565,0.0,0.0,0.0,-1.0
399579826,399579574,0.0405981,-0.0371457,-0.00898346,0.594565,0.0,0.0,0.0,-1.0
399681631,399681373,0.00311884,-0.0915817,3.67453e-05,0.594565,0.0,0.0,0.0,-1.0
399779699,399779453,0.0248342,-0.0626364,-0.00884633,0.594565,0.0,0.0,0.0,-1.0
399881550,399881300,-0.0369682,-0.0178508,-0.00240766,0.594565,0.0,0.0,0.0,-1.0
399979583,399979335,0.0560699,-0.0539562,-0.00919124,0.595765,0.0,0.0,0.0,-1.0
400081390,400081139,-0.0141538,-0.0586649,-0.00532269,0.581371,0.0,0.0,0.0,-1.0
400182104,400181860,0.0781408,-0.0780583,-0.00654616,0.562179,0.0,0.0,0.0,-1.0
400280034,400279782,-0.14977,0.0287465,-0.010449,0.563378,0.0,0.0,0.0,-1.0
400381834,400381590,0.0764357,-0.0890092,-0.010736,0.569376,0.0,0.0,0.0,-1.0
400479903,400479662,0.0565141,-0.065569,-0.0154552,0.569376,0.0,0.0,0.0,-1.0
400581719,400581468,-0.0768942,0.0214162,-0.00728115,0.570575,0.0,0.0,0.0,-1.0
400679789,400679545,-0.0819562,-0.0660077,-0.0127643,0.569376,0.0,0.0,0.0,-1.0
400780356,400780107,0.0265347,-0.0497465,-0.00889586,0.569376,0.0,0.0,0.0,-1.0
400882161,400881915,-0.0085641,-0.0286921,-0.0159633,0.569376,0.0,0.0,0.0,-1.0
400980318,400980065,0.0151799,-0.0799293,-0.00406124,0.569376,0.0,0.0,0.0,-1.0
401082039,401081793,-0.0317194,-0.049222,-0.00827996,0.569376,0.0,0.0,0.0,-1.0
401180122,401179875,-0.145136,-0.0164003,-2.88099e-05,0.569376,0.0,0.0,0.0,-1.0
401280677,401280434,-0.0179255,-0.0423761,0.00233651,0.569376,0.0,0.0,0.0,-1.0
401382485,401382238,-0.0935437,-0.0464148,0.00789996,0.569376,0.0,0.0,0.0,-1.0
401480563,401480317,0.0421012,-0.0902932,0.0105027,0.593366,0.0,0.0,0.0,-1.0
401582365,401582121,-0.0725301,-0.0859484,0.00237878,0.602962,0.0,0.0,0.0,-1.0
401680453,401680206,-0.0635253,-0.027102,0.00172089,0.60776,0.0,0.0,0.0,-1.0
401782294,401782051,-0.0537745,-0.0430005,-0.000274902,0.610159,0.0,0.0,0.0,-1.0
401880336,401880084,-0.0479119,-0.0298351,0.00119163,0.613758,0.0,0.0,0.0,-1.0
401980936,401980692,-0.0487337,-0.045747,-0.00677822,0.610159,0.0,0.0,0.0,-1.0
402082902,402082651,-0.0537896,-0.0633468,-0.00915302,0.60776,0.0,0.0,0.0,-1.0
402180778,402180527,-0.0934516,-0.0101024,-0.00698978,0.606561,0.0,0.0,0.0,-1.0
402282572,402282330,-0.0656976,-0.0445875,-0.00746972,0.60776,0.0,0.0,0.0,-1.0
402380669,402380412,0.000659183,-0.102558,-0.000579818,0.60776,0.0,0.0,0.0,-1.0
402481222,402480972,-0.0200402,-0.0485539,-0.0027121,0.60776,0.0,0.0,0.0,-1.0
402579313,402579064,0.0337788,-0.0882728,0.00819772,0.60776,0.0,0.0,0.0,-1.0
402681103,402680855,-0.0485723,-0.0382044,0.00114682,0.60776,0.0,0.0,0.0,-1.0
402782911,402782662,-0.141663,-0.0371692,0.00279689,0.60776,0.0,0.0,0.0,-1.0
402881144,402880895,-0.0329995,-0.0714076,-0.00199444,0.606561,0.0,0.0,0.0,-1.0
402982782,402982540,-0.0443228,-0.0324958,0.00677566,0.606561,0.0,0.0,0.0,-1.0
403080884,403080620,0.0387616,-0.07022,0.0125217,0.606561,0.0,0.0,0.0,-1.0
403181429,403181181,-0.11272,-0.0336652,0.00971197,0.606561,0.0,0.0,0.0,-1.0
403279511,403279261,0.0123323,-0.0573212,0.00296774,0.606561,0.0,0.0,0.0,-1.0
403381307,403381064,-0.0720226,-0.029789,0.000107406,0.606561,0.0,0.0,0.0,-1.0
403483152,403482901,-0.024486,-0.0776208,0.00314955,0.606561,0.0,0.0,0.0,-1.0
403581212,403580955,-0.0738789,-0.00156274,0.000949275,0.606561,0.0,0.0,0.0,-1.0
403681880,403681631,0.0174715,-0.0842816,-0.00479103,0.606561,0.0,0.0,0.0,-1.0
403779834,403779589,-0.0053723,-0.0519641,0.00537164,0.606561,0.0,0.0,0.0,-1.0
403881682,403881441,-0.0674681,-0.0410552,0.00250738,0.606561,0.0,0.0,0.0,-1.0
403979721,403979472,0.0175242,-0.0717888,0.00699929,0.606561,0.0,0.0,0.0,-1.0
404081522,404081275,-0.00397232,-0.0442782,0.000666432,0.606561,0.0,0.0,0.0,-1.0
404183386,404183139,-0.0580155,-0.0169294,-0.00632112,0.606561,0.0,0.0,0.0,-1.0
404280161,404279915,0.0184003,-0.0697368,0.00298129,0.606561,0.0,0.0,0.0,-1.0
404381965,404381718,-0.0673737,-0.0599092,-0.00122243,0.606561,0.0,0.0,0.0,-1.0
404480119,404479873,0.133814,-0.070458,-0.00395472,0.606561,0.0,0.0,0.0,-1.0
404581845,404581601,-0.0144749,-0.0395984,-0.00894595,0.606561,0.0,0.0,0.0,-1.0
404679939,404679686,-0.0578959,-0.0376371,-0.00033944,0.606561,0.0,0.0,0.0,-1.0
404781727,404781484,-0.0985123,-0.0366278,-0.002437,0.606561,0.0,0.0,0.0,-1.0
404879815,404879563,-0.00405594,-0.0742136,-0.00997407,0.606561,0.0,0.0,0.0,-1.0
404980374,404980126,-0.036547,-0.0777855,-0.00382533,0.606561,0.0,0.0,0.0,-1.0
405082176,405081929,0.0154522,-0.0251174,-0.000123821,0.606561,0.0,0.0,0.0,-1.0
405180259,405180008,-0.0624796,-0.0193564,-0.00473936,0.606561,0.0,0.0,0.0,-1.0
405282114,405281863,0.038079,-0.0586584,-0.00374199,0.605361,0.0,0.0,0.0,-1.0
405380139,405379891,-0.0436571,0.0040897,0.0116707,0.613758,0.0,0.0,0.0,-1.0
405480698,405480453,-0.0425401,-0.0138883,0.00796747,0.588568,0.0,0.0,0.0,-1.0
405582513,405582259,0.0958517,-0.0668321,0.00209833,0.587368,0.0,0.0,0.0,-1.0
405680586,405680339,0.0174638,-0.0255265,-0.000666504,0.587368,0.0,0.0,0.0,-1.0
405782383,405782138,-0.034766,-0.097449,0.00492167,0.586169,0.0,0.0,0.0,-1.0
405880466,405880218,-0.0254267,-0.0375553,0.00152989,0.584969,0.0,0.0,0.0,-1.0
405982274,405982023,0.0603653,-0.0296529,0.00877836,0.58377,0.0,0.0,0.0,-1.0
406080378,406080119,0.0698509,-0.0811278,0.000330283,0.578972,0.0,0.0,0.0,-1.0
406180921,406180667,-0.0315756,-0.0113757,0.00286258,0.578972,0.0,0.0,0.0,-1.0
406278997,406278742,-0.0513768,-0.0360156,0.00412383,0.580171,0.0,0.0,0.0,-1.0
406380991,406380748,-0.0798185,-0.0534482,-0.00944495,0.58257,0.0,0.0,0.0,-1.0
406482594,406482348,0.053894,-0.0696341,0.00361875,0.577772,0.0,0.0,0.0,-1.0
406580674,406580427,0.00617387,-0.036079,-7.84126e-05,0.581371,0.0,0.0,0.0,-1.0
406681245,406680990,-0.0520794,-0.051265,-0.0146989,0.581371,0.0,0.0,0.0,-1.0
406779316,406779068,-0.122872,-0.0631831,-0.0096866,0.581371,0.0,0.0,0.0,-1.0
406881125,406880873,0.0135068,-0.0353103,-0.00674117,0.581371,0.0,0.0,0.0,-1.0
406982931,406982676,-0.0783579,-0.067045,-0.00940731,0.581371,0.0,0.0,0.0,-1.0
407081044,407080803,-0.0846764,-0.0682433,-0.00986991,0.581371,0.0,0.0,0.0,-1.0
407181687,407181441,-0.00208367,-0.0683559,-0.00920978,0.581371,0.0,0.0,0.0,-1.0
407280885,407280637,-0.0109983,-0.062079,-0.00448138,0.581371,0.0,0.0,0.0,-1.0
407381450,407381204,0.0177956,-0.055322,-0.00908975,0.581371,0.0,0.0,0.0,-1.0
407479537,407479292,0.00527671,-0.0411865,-0.00188276,0.581371,0.0,0.0,0.0,-1.0
407581338,407581095,-0.00921846,-0.0815514,-0.00490985,0.581371,0.0,0.0,0.0,-1.0
407683136,407682887,0.013792,-0.0684137,0.00429185,0.581371,0.0,0.0,0.0,-1.0
407781214,407780965,0.0814861,-0.043998,0.0024027,0.581371,0.0,0.0,0.0,-1.0
407881773,407881528,-0.0541395,-0.0721328,0.0143431,0.581371,0.0,0.0,0.0,-1.0
407979964,407979720,-0.0120758,-0.0737065,0.0167872,0.581371,0.0,0.0,0.0,-1.0
408081654,408081409,-0.0636736,-0.11887,0.0127202,0.581371,0.0,0.0,0.0,-1.0
408179737,408179488,-0.0690404,-0.0764355,0.0025082,0.581371,0.0,0.0,0.0,-1.0
408281540,408281292,0.0446106,-0.0536383,0.000679164,0.581371,0.0,0.0,0.0,-1.0
408383359,408383096,-0.0143503,-0.0566463,0.0052105,0.581371,0.0,0.0,0.0,-1.0
408480200,408479952,0.00497951,-0.0910899,0.00412723,0.581371,0.0,0.0,0.0,-1.0
408581988,408581737,-0.0747905,-0.0702977,-0.0145617,0.581371,0.0,0.0,0.0,-1.0
408680056,408679816,-0.120156,-0.0407775,-0.0106348,0.581371,0.0,0.0,0.0,-1.0
408781949,408781697,0.0226065,-0.0890132,-0.00838426,0.581371,0.0,0.0,0.0,-1.0
408879951,408879700,0.0176063,-0.111148,-0.0127249,0.581371,0.0,0.0,0.0,-1.0
408981753,408981511,-0.101668,-0.0585311,0.0027435,0.581371,0.0,0.0,0.0,-1.0
409079846,409079587,-0.0612281,-0.142509,-0.00080558,0.581371,0.0,0.0,0.0,-1.0
409180388,409180143,0.0117268,0.00724257,-0.0208625,0.581371,0.0,0.0,0.0,-1.0
409282192,409281947,-0.180123,1.48356e-05,-0.0125182,0.581371,0.0,0.0,0.0,-1.0
409380267,409380026,-0.0262098,-0.0662957,-0.00682903,0.581371,0.0,0.0,0.0,-1.0
409482083,409481832,0.0347012,-0.0202431,0.000743858,0.58257,0.0,0.0,0.0,-1.0
409580243,409579990,0.0511036,-0.13743,0.00471191,0.578972,0.0,0.0,0.0,-1.0
409680721,409680473,-0.12691,-0.0482233,-0.0156866,0.63295,0.0,0.0,0.0,-1.0
409782516,409782274,0.0205076,-0.0786815,0.00325486,0.628152,0.0,0.0,0.0,-1.0
409880754,409880512,-0.0764157,-0.0440441,-0.00261124,0.626952,0.0,0.0,0.0,-1.0
409982410,409982158,-0.0299305,-0.0585078,-0.00368537,0.625753,0.0,0.0,0.0,-1.0
410080542,410080299,-0.018484,-0.0844042,-0.00266408,0.626952,0.0,0.0,0.0,-1.0
410182292,410182042,0.0260684,-0.0702241,-0.00457721,0.629351,0.0,0.0,0.0,-1.0
410280377,410280119,-0.0482285,-0.0602596,-0.00401182,0.629351,0.0,0.0,0.0,-1.0
410380943,410380685,-0.108269,0.0138787,-0.00330008,0.63295,0.0,0.0,0.0,-1.0
410479010,410478761,-0.00653724,-0.0620502,-0.00477093,0.635349,0.0,0.0,0.0,-1.0
410580810,410580563,0.0784013,0.00238826,-0.00356949,0.634149,0.0,0.0,0.0,-1.0
410682757,410682508,-0.0769143,-0.0747325,0.00980745,0.635349,0.0,0.0,0.0,-1.0
410780694,410780454,-0.0300869,0.0141633,0.0157611,0.635349,0.0,0.0,0.0,-1.0
410881260,410881008,-0.0415742,-0.0350856,0.018621,0.635349,0.0,0.0,0.0,-1.0
410979330,410979087,-0.00228429,-0.0432409,0.0202403,0.635349,0.0,0.0,0.0,-1.0
411081135,411080891,0.0099546,-0.0444569,0.0157371,0.635349,0.0,0.0,0.0,-1.0
411182937,411182694,-0.0439457,-0.0244573,0.0271661,0.635349,0.0,0.0,0.0,-1.0
411281019,411280773,-0.0188601,-0.0482076,0.0200153,0.635349,0.0,0.0,0.0,-1.0
411382831,411382577,-0.0473642,-0.0422008,0.0142521,0.635349,0.0,0.0,0.0,-1.0
411479743,411479502,-0.0512784,-0.0617682,0.0137005,0.635349,0.0,0.0,0.0,-1.0
411581474,411581218,-0.0389815,-0.0116028,0.0139097,0.625753,0.0,0.0,0.0,-1.0
411679540,411679297,0.00355193,-0.0256311,0.00713963,0.605361,0.0,0.0,0.0,-1.0
411781346,411781103,-0.10285,-0.0353829,0.0119443,0.605361,0.0,0.0,0.0,-1.0
411879430,411879181,0.0659009,-0.0777992,0.00375661,0.601763,0.0,0.0,0.0,-1.0
411981235,411980983,-0.0262138,0.0120337,0.00617198,0.605361,0.0,0.0,0.0,-1.0
412081790,412081545,-0.0160942,-0.0375936,0.00335078,0.605361,0.0,0.0,0.0,-1.0
412179874,412179625,-0.119251,-0.0246347,0.00774201,0.604162,0.0,0.0,0.0,-1.0
412281748,412281499,-0.145262,0.0103375,0.00121786,0.604162,0.0,0.0,0.0,-1.0
412379753,412379510,0.00211943,-0.0746993,-0.00141109,0.601763,0.0,0.0,0.0,-1.0
412481574,412481323,-0.0347663,-0.123873,0.00237438,0.598164,0.0,0.0,0.0,-1.0
412579643,412579393,0.0773565,-0.063945,0.00187847,0.593366,0.0,0.0,0.0,-1.0
412680208,412679952,-0.0395807,-0.0378452,-0.00173215,0.581371,0.0,0.0,0.0,-1.0
412781998,412781755,0.0763337,-0.0366655,-0.00169404,0.580171,0.0,0.0,0.0,-1.0
412880078,412879835,-0.0312328,-0.0185212,-0.00367033,0.580171,0.0,0.0,0.0,-1.0
412981890,412981639,-0.0231104,-0.0609528,0.00354884,0.581371,0.0,0.0,0.0,-1.0
413080033,413079793,-0.00955446,-0.0512685,0.000879342,0.581371,0.0,0.0,0.0,-1.0
413181772,413181525,0.0322037,-0.0836764,0.00149858,0.581371,0.0,0.0,0.0,-1.0
413279854,413279600,0.0781899,-0.0693255,-0.0034898,0.581371,0.0,0.0,0.0,-1.0
413380584,413380336,-0.113877,-0.000512212,0.00179482,0.581371,0.0,0.0,0.0,-1.0
413482212,413481965,-0.0164365,-0.0520496,-0.00559742,0.581371,0.0,0.0,0.0,-1.0
413580287,413580044,0.0415344,-0.0316769,-0.000159846,0.581371,0.0,0.0,0.0,-1.0
413682101,413681849,0.0265172,-0.0187483,-0.00171323,0.581371,0.0,0.0,0.0,-1.0
413780228,413779982,-0.0570259,-0.0321533,0.00434186,0.581371,0.0,0.0,0.0,-1.0
413880791,413880541,0.0591813,-0.0850079,-0.000868021,0.581371,0.0,0.0,0.0,-1.0
413982535,413982293,-0.0150956,-0.0757143,0.00803857,0.581371,0.0,0.0,0.0,-1.0
414080621,414080372,0.0509475,-0.108161,0.00456737,0.581371,0.0,0.0,0.0,-1.0
414182560,414182317,-0.0955625,-0.0179742,-0.0153255,0.581371,0.0,0.0,0.0,-1.0
414280498,414280255,-0.0424331,-0.0148767,-0.00704574,0.581371,0.0,0.0,0.0,-1.0
414382319,414382059,0.0695952,-0.135463,-0.0107397,0.581371,0.0,0.0,0.0,-1.0
414480387,414480137,0.0970971,-0.113716,-0.0118897,0.581371,0.0,0.0,0.0,-1.0
414580947,414580699,0.0674502,-0.0774792,-0.0135649,0.581371,0.0,0.0,0.0,-1.0
414682762,414682519,-0.0960204,0.0135017,-0.0107939,0.581371,0.0,0.0,0.0,-1.0
414780836,414780582,0.0216209,-0.102802,-0.00710542,0.581371,0.0,0.0,0.0,-1.0
414878917,414878661,0.0383524,-0.040786,-0.00907686,0.581371,0.0,0.0,0.0,-1.0
414980822,414980566,-0.0967649,-0.0231136,-0.0092815,0.581371,0.0,0.0,0.0,-1.0
415081271,415081028,-0.00332351,-0.131753,-0.0157776,0.581371,0.0,0.0,0.0,-1.0
415179354,415179105,-0.017782,-0.09736,-0.0104322,0.581371,0.0,0.0,0.0,-1.0
415281155,415280910,-0.0527623,-0.0853525,0.00201387,0.581371,0.0,0.0,0.0,-1.0
415382959,415382713,0.00725241,-0.0476798,0.00548702,0.581371,0.0,0.0,0.0,-1.0
415481078,415480830,0.0288668,-0.0571311,0.0042938,0.581371,0.0,0.0,0.0,-1.0
415579121,415578871,0.0531644,-0.0303837,0.014063,0.581371,0.0,0.0,0.0,-1.0
415679687,415679436,-0.0985198,-0.0692544,0.00794216,0.581371,0.0,0.0,0.0,-1.0
415781553,415781309,0.0446016,-0.0843551,0.00568285,0.58257,0.0,0.0,0.0,-1.0
415879569,415879316,0.00512302,-0.00765823,0.00204532,0.589767,0.0,0.0,0.0,-1.0
415981373,415981120,0.0126354,-0.0674943,0.00334109,0.589767,0.0,0.0,0.0,-1.0
416083172,416082924,-0.11933,-0.0245319,0.00204759,0.589767,0.0,0.0,0.0,-1.0
416181263,416181005,-0.0116501,-0.0659714,0.00520752,0.598164,0.0,0.0,0.0,-1.0
416280580,416280325,-0.0759825,-0.0669299,0.00259879,0.598164,0.0,0.0,0.0,-1.0
416379890,416379644,0.0493333,-0.0700557,0.000233354,0.601763,0.0,0.0,0.0,-1.0
416481689,416481447,0.00716788,-0.0875487,-0.0030511,0.600563,0.0,0.0,0.0,-1.0
416579808,416579563,-0.11392,0.0135013,0.00405785,0.602962,0.0,0.0,0.0,-1.0
416681575,416681329,-0.0696553,-0.118788,0.0145234,0.604162,0.0,0.0,0.0,-1.0
416783385,416783134,0.013866,0.0423985,0.00478242,0.604162,0.0,0.0,0.0,-1.0
416880398,416880150,0.028783,-0.0826662,0.00312991,0.604162,0.0,0.0,0.0,-1.0
416982018,416981774,0.00646196,-0.0778795,0.00964156,0.604162,0.0,0.0,0.0,-1.0
417080103,417079853,0.0326007,-0.0560777,-0.00370857,0.604162,0.0,0.0,0.0,-1.0
417181900,417181656,0.0387772,-0.0567963,0.00468231,0.605361,0.0,0.0,0.0,-1.0
417279989,417279736,-0.0706982,-0.0288556,-0.000305273,0.604162,0.0,0.0,0.0,-1.0
417381845,417381591,-0.00305253,-0.038513,-0.00896969,0.604162,0.0,0.0,0.0,-1.0
417479885,417479618,-0.0199207,-0.0178577,-0.00385781,0.604162,0.0,0.0,0.0,-1.0
417580433,417580181,-0.111376,-0.0765506,-0.010869,0.604162,0.0,0.0,0.0,-1.0
417682402,417682158,0.0369813,-0.0681259,-0.0145314,0.604162,0.0,0.0,0.0,-1.0
417780321,417780066,-0.0442995,-0.0489232,-0.0146305,0.604162,0.0,0.0,0.0,-1.0
417882118,417881867,0.00830341,-0.069008,-0.00991927,0.604162,0.0,0.0,0.0,-1.0
417980191,417979946,0.0768396,-0.106854,-0.00558035,0.604162,0.0,0.0,0.0,-1.0
418080755,418080512,-0.0318997,-0.038743,-0.00936387,0.604162,0.0,0.0,0.0,-1.0
418182581,418182337,-0.0453955,-0.0515536,-0.00753738,0.604162,0.0,0.0,0.0,-1.0
418280641,418280390,-0.0769959,-0.023996,0.00161726,0.604162,0.0,0.0,0.0,-1.0
418382449,418382200,-0.0343296,-0.0171862,-0.000104194,0.604162,0.0,0.0,0.0,-1.0
418480644,418480394,-0.00608138,-0.0524779,0.00816081,0.604162,0.0,0.0,0.0,-1.0
418582331,418582077,-0.00198744,-0.0369221,0.00902146,0.604162,0.0,0.0,0.0,-1.0
418679166,418678915,0.00186865,-0.0019065,0.0115646,0.604162,0.0,0.0,0.0,-1.0
418780994,418780746,0.0650324,-0.0244933,0.0111605,0.604162,0.0,0.0,0.0,-1.0
418882770,418882523,-0.022685,-0.0704168,0.0112143,0.604162,0.0,0.0,0.0,-1.0
418980848,418980600,-0.114766,-0.0341083,0.00736629,0.604162,0.0,0.0,0.0,-1.0
419082659,419082404,-0.0168369,-0.0695579,0.000676068,0.604162,0.0,0.0,0.0,-1.0
419180739,419180486,-0.0338729,-0.0457331,0.00791051,0.604162,0.0,0.0,0.0,-1.0
419281365,419281121,0.00949965,-0.0464966,-0.00784298,0.604162,0.0,0.0,0.0,-1.0
419379376,419379125,-0.0900723,-0.00275051,0.00417435,0.604162,0.0,0.0,0.0,-1.0
419481226,419480977,-0.145517,-0.0256478,0.00210335,0.604162,0.0,0.0,0.0,-1.0
419583016,419582768,-0.0664698,-0.00454858,-0.00231465,0.604162,0.0,0.0,0.0,-1.0
419681060,419680810,-0.0598102,-0.0167697,-0.00259643,0.604162,0.0,0.0,0.0,-1.0
419782867,419782614,0.0102975,-0.0739943,-0.000456625,0.604162,0.0,0.0,0.0,-1.0
419879698,419879452,-0.0494447,-0.0695331,-0.00464511,0.604162,0.0,0.0,0.0,-1.0
419981500,419981257,-0.0139766,-0.0786215,-0.00150864,0.604162,0.0,0.0,0.0,-1.0
420079620,420079374,-0.0672815,-0.0841821,0.000459254,0.604162,0.0,0.0,0.0,-1.0
420181388,420181137,0.0559646,-0.0858978,-0.00660664,0.604162,0.0,0.0,0.0,-1.0
420283212,420282958,-0.0670206,-0.029731,-0.00993076,0.604162,0.0,0.0,0.0,-1.0
420380209,420379961,0.00611495,-0.116662,-0.0130646,0.604162,0.0,0.0,0.0,-1.0
420481838,420481585,-0.0471888,0.0059137,-0.0182521,0.604162,0.0,0.0,0.0,-1.0
420579912,420579661,0.0517576,-0.119416,-0.00152844,0.604162,0.0,0.0,0.0,-1.0
420681710,420681466,-0.0353463,-0.00464575,-0.0103696,0.604162,0.0,0.0,0.0,-1.0
420779798,420779546,-0.0551451,-0.0411307,-0.00925467,0.604162,0.0,0.0,0.0,-1.0
420881600,420881360,-0.0571543,-0.0427963,-0.0156345,0.604162,0.0,0.0,0.0,-1.0
420982161,420981911,0.037017,-0.083137,-0.00880737,0.604162,0.0,0.0,0.0,-1.0
421080238,421079989,-0.084375,-0.035277,-0.0113554,0.604162,0.0,0.0,0.0,-1.0
421182190,421181946,0.0342328,-0.0613765,-0.00962165,0.604162,0.0,0.0,0.0,-1.0
421280123,421279871,-0.0321833,-0.0480646,0.0126086,0.604162,0.0,0.0,0.0,-1.0
421381918,421381675,-0.033396,-0.0536007,0.00964045,0.604162,0.0,0.0,0.0,-1.0
421480006,421479755,-0.154821,0.0364667,0.00930482,0.604162,0.0,0.0,0.0,-1.0
421581810,421581557,0.0502308,-0.0158849,0.00769767,0.604162,0.0,0.0,0.0,-1.0
421679883,421679637,-0.0684805,-0.0665675,0.00775328,0.604162,0.0,0.0,0.0,-1.0
421780448,421780203,-0.0154015,-0.0380349,0.0047526,0.604162,0.0,0.0,0.0,-1.0
421882256,421882002,0.0770793,-0.0453921,0.00732938,0.604162,0.0,0.0,0.0,-1.0
421980444,421980193,-0.0528637,-0.0245339,-0.00183811,0.604162,0.0,0.0,0.0,-1.0
422082128,422081885,0.054758,-0.0449032,-0.00829858,0.604162,0.0,0.0,0.0,-1.0
422180232,422179975,-0.0174532,-0.0147124,0.00487936,0.604162,0.0,0.0,0.0,-1.0
422280770,422280526,-0.0154459,-0.0254997,0.001213,0.604162,0.0,0.0,0.0,-1.0
422382576,422382330,0.0194729,3.17521e-05,0.00586467,0.604162,0.0,0.0,0.0,-1.0
422480655,422480409,0.0966206,-0.0780171,0.00712297,0.60776,0.0,0.0,0.0,-1.0
422582460,422582212,-0.0345503,-0.0246077,0.00555874,0.587368,0.0,0.0,0.0,-1.0
422680538,422680292,0.0609833,-0.0879168,-0.00136603,0.587368,0.0,0.0,0.0,-1.0
422781188,422780943,0.0308282,-0.0724828,0.0124707,0.589767,0.0,0.0,0.0,-1.0
422879181,422878932,0.0268783,-0.0292317,0.00226733,0.58377,0.0,0.0,0.0,-1.0
422980981,422980736,-0.0410262,-0.0312487,0.00647943,0.580171,0.0,0.0,0.0,-1.0
423082786,423082540,0.0110968,-0.0282333,0.00891687,0.574174,0.0,0.0,0.0,-1.0
423180917,423180671,0.0564361,-0.00818064,6.4694e-06,0.571775,0.0,0.0,0.0,-1.0
423282680,423282422,-0.0110776,-0.0698497,0.00771036,0.571775,0.0,0.0,0.0,-1.0
423380763,423380502,0.0367028,-0.0835586,0.000316713,0.571775,0.0,0.0,0.0,-1.0
423481318,423481064,0.0145335,-0.0485827,0.0076714,0.572974,0.0,0.0,0.0,-1.0
423579494,423579242,0.00562256,-0.00335309,0.00798882,0.569376,0.0,0.0,0.0,-1.0
423681191,423680946,-0.188848,-0.01597,0.00351724,0.569376,0.0,0.0,0.0,-1.0
423782997,423782750,-0.000364031,-0.0484332,-0.00285532,0.571775,0.0,0.0,0.0,-1.0
423881075,423880832,-0.010594,-0.023357,0.00636197,0.571775,0.0,0.0,0.0,-1.0
423981641,423981391,-0.00338775,-0.00907396,0.0123234,0.571775,0.0,0.0,0.0,-1.0
424079711,424079470,-0.0188875,-0.0406683,0.00905748,0.571775,0.0,0.0,0.0,-1.0
424181521,424181274,-0.081971,-0.0503719,0.00422826,0.571775,0.0,0.0,0.0,-1.0
424279604,424279355,0.00933927,-0.071043,0.0053698,0.571775,0.0,0.0,0.0,-1.0
424381512,424381271,-0.140675,-0.011504,0.00318751,0.571775,0.0,0.0,0.0,-1.0
424479485,424479236,0.0627587,-0.0431938,0.00418836,0.571775,0.0,0.0,0.0,-1.0
424581281,424581040,0.0379149,-0.0628652,-0.00623179,0.572974,0.0,0.0,0.0,-1.0
424682055,424681808,-0.0681863,-0.0535782,-0.00559788,0.578972,0.0,0.0,0.0,-1.0
424779926,424779680,-0.0754303,-1.71482e-05,-0.0056708,0.604162,0.0,0.0,0.0,-1.0
424881744,424881493,0.0614734,-0.0494579,-0.0123697,0.605361,0.0,0.0,0.0,-1.0
424979834,424979587,-0.04704,-0.060786,-0.0038841,0.601763,0.0,0.0,0.0,-1.0
425081636,425081391,0.0132853,-0.0696799,-0.00340306,0.602962,0.0,0.0,0.0,-1.0
425182172,425181929,-0.0242548,-0.099755,0.00650079,0.602962,0.0,0.0,0.0,-1.0
425280269,425280011,-0.057959,-0.032657,0.00511972,0.602962,0.0,0.0,0.0,-1.0
425382063,425381814,-0.0898422,-0.0149754,0.00624146,0.604162,0.0,0.0,0.0,-1.0
425480263,425480016,0.0191731,-0.0411809,0.0185907,0.63295,0.0,0.0,0.0,-1.0
425581948,425581694,0.00888693,-0.0781835,0.0189696,0.634149,0.0,0.0,0.0,-1.0
425680022,425679773,0.0419521,-0.0371984,0.0229844,0.638947,0.0,0.0,0.0,-1.0
425781827,425781576,0.00403291,-0.0798854,0.0167061,0.640147,0.0,0.0,0.0,-1.0
425882379,425882138,-0.0455193,-0.0328582,0.00802416,0.634149,0.0,0.0,0.0,-1.0
425980468,425980223,0.0827492,-0.0744402,0.00959326,0.640147,0.0,0.0,0.0,-1.0
426082272,426082021,-0.00329648,-0.0220329,0.0117828,0.640147,0.0,0.0,0.0,-1.0
426180340,426180100,0.0489374,-0.0254788,0.00798917,0.640147,0.0,0.0,0.0,-1.0
426282250,426281994,-0.152303,-0.00778741,0.0124534,0.640147,0.0,0.0,0.0,-1.0
426380236,426379985,-0.0142505,-0.0196845,0.0151631,0.640147,0.0,0.0,0.0,-1.0
426480790,426480545,-0.057048,0.0177953,0.0149465,0.641346,0.0,0.0,0.0,-1.0
426582597,426582349,0.0965814,-0.0923165,0.0205286,0.641346,0.0,0.0,0.0,-1.0
426680676,426680429,-0.0375413,-0.0336793,0.0218483,0.626952,0.0,0.0,0.0,-1.0
426782484,426782231,-0.0447349,-0.00160749,0.0164723,0.575373,0.0,0.0,0.0,-1.0
426880553,426880310,-0.0599031,-0.0506109,0.01456,0.584969,0.0,0.0,0.0,-1.0
426982382,426982116,0.042981,-0.0398722,0.00864544,0.594565,0.0,0.0,0.0,-1.0
427079320,427079072,-0.0355807,-0.00252637,0.0132296,0.590967,0.0,0.0,0.0,-1.0
427181009,427180756,-0.0910118,0.0239397,0.0154218,0.587368,0.0,0.0,0.0,-1.0
427279081,427278834,0.112951,-0.0470918,0.0165195,0.589767,0.0,0.0,0.0,-1.0
427380883,427380640,0.0702189,-0.0762617,0.0149793,0.589767,0.0,0.0,0.0,-1.0
427482692,427482441,0.0135261,-0.0295426,0.00900246,0.589767,0.0,0.0,0.0,-1.0
427580759,427580516,0.0203694,-0.0223695,0.00182238,0.589767,0.0,0.0,0.0,-1.0
427681339,427681083,0.108689,-0.0557596,0.00791819,0.589767,0.0,0.0,0.0,-1.0
427779408,427779162,-0.0411347,-0.0140745,-0.00307273,0.590967,0.0,0.0,0.0,-1.0
427881270,427881012,0.0550299,-0.0319683,-0.00337082,0.592166,0.0,0.0,0.0,-1.0
427979295,427979044,-0.123298,-0.0193315,-0.00345272,0.584969,0.0,0.0,0.0,-1.0
428081092,428080848,-0.000698797,0.0179525,-0.011098,0.581371,0.0,0.0,0.0,-1.0
428181820,428181579,-0.051383,-0.0578114,-0.00769568,0.581371,0.0,0.0,0.0,-1.0
428279737,428279489,0.0267922,-0.0330319,-0.0081419,0.581371,0.0,0.0,0.0,-1.0
428381549,428381297,-0.139201,-0.0111697,-0.0107328,0.584969,0.0,0.0,0.0,-1.0
428479615,428479371,0.0150184,-0.0241962,0.00043091,0.586169,0.0,0.0,0.0,-1.0
428581421,428581176,-0.0836686,-0.00380626,-0.00483834,0.586169,0.0,0.0,0.0,-1.0
428679507,428679260,0.0255926,-0.0671977,0.00606462,0.586169,0.0,0.0,0.0,-1.0
428781319,428781058,0.0122073,0.0228499,0.00440786,0.586169,0.0,0.0,0.0,-1.0
428881867,428881620,-0.084987,-0.0430481,0.004113,0.586169,0.0,0.0,0.0,-1.0
428980120,428979873,-0.076894,-0.0448778,0.00746293,0.587368,0.0,0.0,0.0,-1.0
429081751,429081502,-0.039117,-0.028863,-0.00872418,0.587368,0.0,0.0,0.0,-1.0
429179826,429179581,-0.0187348,-0.0505502,0.00405559,0.587368,0.0,0.0,0.0,-1.0
429281630,429281385,-0.0132621,-0.0244683,0.00221924,0.587368,0.0,0.0,0.0,-1.0
429379716,429379464,0.0155086,-0.030294,0.00104431,0.587368,0.0,0.0,0.0,-1.0
429480274,429480026,-0.153025,-0.00171242,0.00404546,0.586169,0.0,0.0,0.0,-1.0
429582082,429581830,-0.0440608,-0.0331563,0.035917,0.586169,0.0,0.0,0.0,-1.0
429680157,429679910,0.0345605,-0.0352415,0.00286579,0.587368,0.0,0.0,0.0,-1.0
429782066,429781816,0.0287339,-0.0278153,-0.00608109,0.587368,0.0,0.0,0.0,-1.0
429880032,429879791,-0.0671185,-0.0222979,0.0043055,0.587368,0.0,0.0,0.0,-1.0
429981850,429981595,-0.0690759,-0.0184033,0.012745,0.586169,0.0,0.0,0.0,-1.0
430082401,430082157,-0.00738165,-0.030121,-0.00223874,0.586169,0.0,0.0,0.0,-1.0
430180482,430180236,-0.0252256,-0.0283369,0.0105274,0.587368,0.0,0.0,0.0,-1.0
430282294,430282045,-0.0194285,-0.0279375,0.017718,0.587368,0.0,0.0,0.0,-1.0
430380368,430380120,0.0176088,-0.0430367,0.00756948,0.587368,0.0,0.0,0.0,-1.0
430482177,430481923,-0.0624219,-0.0367769,0.0106739,0.587368,0.0,0.0,0.0,-1.0
430580364,430580111,-0.0243174,-0.0125467,0.022902,0.587368,0.0,0.0,0.0,-1.0
430680813,430680563,-0.00932235,-0.0375289,0.0243912,0.587368,0.0,0.0,0.0,-1.0
430782612,430782367,-0.0264708,-0.00476263,0.023067,0.587368,0.0,0.0,0.0,-1.0
430880737,430880488,0.0778054,-0.061557,0.0157001,0.587368,0.0,0.0,0.0,-1.0
430982497,430982250,0.03574,-0.0542932,0.0161837,0.587368,0.0,0.0,0.0,-1.0
431080586,431080329,-0.0385716,-0.0102713,0.00334474,0.587368,0.0,0.0,0.0,-1.0
431182390,431182133,-0.0446433,-0.0173865,-0.00606902,0.587368,0.0,0.0,0.0,-1.0
431279222,431278973,0.000604182,-0.0248922,0.000836201,0.587368,0.0,0.0,0.0,-1.0
431381047,431380799,0.0267699,-0.0452185,-0.00287885,0.587368,0.0,0.0,0.0,-1.0
431482822,431482577,-0.00750728,-0.0020453,-0.00415555,0.587368,0.0,0.0,0.0,-1.0
431580904,431580656,0.0184279,-0.0573271,-0.000687134,0.587368,0.0,0.0,0.0,-1.0
431681649,431681403,0.0186071,-0.0247202,-0.00450773,0.587368,0.0,0.0,0.0,-1.0
431780781,431780539,-0.121298,-0.0106566,-0.0120882,0.587368,0.0,0.0,0.0,-1.0
431881399,431881158,-0.00881276,-0.0610805,-0.0104483,0.587368,0.0,0.0,0.0,-1.0
431979424,431979180,0.017078,-0.0298276,-0.0102197,0.587368,0.0,0.0,0.0,-1.0
432081244,432080986,0.0901254,-0.0654991,-0.0036548,0.587368,0.0,0.0,0.0,-1.0
432183038,432182795,-0.0548858,-0.0250032,-0.00327811,0.587368,0.0,0.0,0.0,-1.0
432281119,432280867,-0.0509063,-0.0235417,-0.00109489,0.586169,0.0,0.0,0.0,-1.0
432379186,432378940,0.00237516,-0.0515699,0.00245243,0.587368,0.0,0.0,0.0,-1.0
432479898,432479649,0.000597335,-0.0510339,-0.0080517,0.587368,0.0,0.0,0.0,-1.0
432581554,432581310,-0.0592256,-0.0379213,-0.00272148,0.587368,0.0,0.0,0.0,-1.0
432679634,432679390,-0.107566,0.0247726,-0.00803195,0.587368,0.0,0.0,0.0,-1.0
432782693,432782438,-0.111541,0.0177389,0.000920242,0.587368,0.0,0.0,0.0,-1.0
432883248,432882997,0.0398587,-0.0973039,-0.0032884,0.587368,0.0,0.0,0.0,-1.0
432981352,432981091,0.0368991,-0.0433411,-0.00217169,0.624553,0.0,0.0,0.0,-1.0
433079418,433079157,-0.0338513,-0.0489212,-0.00219711,0.665337,0.0,0.0,0.0,-1.0
433179969,433179718,-0.00765483,-0.0452508,0.000595042,0.659339,0.0,0.0,0.0,-1.0
433281867,433281627,0.0470429,-0.0561548,-0.00611693,0.660539,0.0,0.0,0.0,-1.0
433379846,433379600,0.0563791,-0.0279711,-0.00798733,0.65574,0.0,0.0,0.0,-1.0
433481655,433481408,0.0220842,-0.0296475,-0.00750496,0.649743,0.0,0.0,0.0,-1.0
433582226,433581972,0.00578464,-0.0776607,-0.0103721,0.649743,0.0,0.0,0.0,-1.0
433680293,433680044,-0.119038,0.0311484,-0.0100494,0.649743,0.0,0.0,0.0,-1.0
433782097,433781851,0.02962,-0.0439911,-0.00352022,0.650942,0.0,0.0,0.0,-1.0
433880176,433879927,0.0234591,-0.0145956,0.000323589,0.650942,0.0,0.0,0.0,-1.0
433981981,433981731,-0.0443987,-0.0408906,-0.00146682,0.650942,0.0,0.0,0.0,-1.0
434080120,434079873,-0.0229903,-0.0211211,-0.00386637,0.650942,0.0,0.0,0.0,-1.0
434181876,434181613,-0.061884,0.0176507,0.00991714,0.650942,0.0,0.0,0.0,-1.0
434282422,434282176,0.0316049,-0.0947996,0.0126497,0.650942,0.0,0.0,0.0,-1.0
434380505,434380255,-0.0628031,-0.0793044,0.00370135,0.628152,0.0,0.0,0.0,-1.0
434482305,434482058,0.0101326,-0.0465136,0.00261305,0.620955,0.0,0.0,0.0,-1.0
434580386,434580137,-0.0472806,0.011762,0.00123066,0.635349,0.0,0.0,0.0,-1.0
434682185,434681940,-0.00101048,0.00298974,0.00472725,0.637748,0.0,0.0,0.0,-1.0
434780269,434780021,-0.0190762,-0.0957408,0.00561838,0.637748,0.0,0.0,0.0,-1.0
434880909,434880665,-0.0402847,0.00309492,0.00503353,0.637748,0.0,0.0,0.0,-1.0
434982630,434982385,-0.0189792,-0.0285044,0.00640391,0.637748,0.0,0.0,0.0,-1.0
435080712,435080465,-0.0852152,-0.0202203,0.00443571,0.637748,0.0,0.0,0.0,-1.0
435182712,435182469,0.00470537,-0.043467,0.00470851,0.634149,0.0,0.0,0.0,-1.0
435280603,435280348,-0.026161,-0.0157001,0.00121997,0.594565,0.0,0.0,0.0,-1.0
435381158,435380910,0.00311217,-0.0148996,0.000886265,0.578972,0.0,0.0,0.0,-1.0
435479250,435478992,-0.0780722,-0.0419321,0.00626161,0.578972,0.0,0.0,0.0,-1.0
435581044,435580803,0.0165283,-0.0267395,-0.00336411,0.572974,0.0,0.0,0.0,-1.0
435679164,435678919,-0.106132,-0.0766084,0.0178237,0.547785,0.0,0.0,0.0,-1.0
435780922,435780675,0.0142115,-0.0363463,0.00643119,0.506316,0.0,0.0,0.0,-1.0
435882722,435882478,0.0844036,-0.0605481,0.00372079,0.506316,0.0,0.0,0.0,-1.0
435979703,435979454,-0.0154585,-0.0383794,0.0112745,0.508421,0.0,0.0,0.0,-1.0
436081365,436081119,0.0704635,-0.0402534,0.00952777,0.515398,0.0,0.0,0.0,-1.0
436179462,436179211,-0.0157817,-0.0357844,0.00485568,0.511799,0.0,0.0,0.0,-1.0
436281290,436281037,-0.096527,-0.0197718,-0.00160327,0.5106,0.0,0.0,0.0,-1.0
436379330,436379083,0.0418679,-0.0834616,-0.00324889,0.5106,0.0,0.0,0.0,-1.0
436481133,436480885,-0.153323,-0.0149805,-0.00459919,0.5106,0.0,0.0,0.0,-1.0
