timestamp,voltage_v,voltage_filtered_v,current_a,current_filtered_a,average_current_a,discharged_mah,remaining,scale,temperature,cell_count,voltage_cell_v[0],voltage_cell_v[1],voltage_cell_v[2],voltage_cell_v[3],voltage_cell_v[4],voltage_cell_v[5],voltage_cell_v[6],voltage_cell_v[7],voltage_cell_v[8],voltage_cell_v[9],max_cell_voltage_delta,capacity,cycle_count,run_time_to_empty,average_time_to_empty,serial_number,state_of_health,max_error,connected,source,priority,id,is_powering_off,warning
361176890,11.6514,11.7274,3.4281,0.208562,0.0,2371.34,1.0,1.0,nan,0,0.0,0.0,0.0,0.0,0.0,0.0,0.0,0.0,0.0,0.0,0.0,0,0,0,0,0,0,0,1,0,0,1,0,0
361186860,11.4327,11.7245,4.3657,0.290075,0.0,2371.35,1.0,1.0,nan,0,0.0,0.0,0.0,0.0,0.0,0.0,0.0,0.0,0.0,0.0,0.0,0,0,0,0,0,0,0,1,0,0,1,0,0
361476924,11.7243,11.6832,3.1644,2.00788,0.0,2371.7,1.0,1.0,nan,0,0.0,0.0,0.0,0.0,0.0,0.0,0.0,0.0,0.0,0.0,0.0,0,0,0,0,0,0,0,1,0,0,1,0,0
361776858,11.6952,11.6631,2.3733,2.18812,0.0,2371.9,1.0,1.0,nan,0,0.0,0.0,0.0,0.0,0.0,0.0,0.0,0.0,0.0,0.0,0.0,0,0,0,0,0,0,0,1,0,0,1,0,0
362076857,11.6806,11.6493,2.5491,2.35432,0.0,2372.12,1.0,1.0,nan,0,0.0,0.0,0.0,0.0,0.0,0.0,0.0,0.0,0.0,0.0,0.0,0,0,0,0,0,0,0,1,0,0,1,0,0
362376886,11.7243,11.6525,2.344,2.39863,0.0,2372.32,1.0,1.0,nan,0,0.0,0.0,0.0,0.0,0.0,0.0,0.0,0.0,0.0,0.0,0.0,0,0,0,0,0,0,0,1,0,0,1,0,0
362676878,11.491,11.6364,7.9403,2.77407,0.0,2372.58,1.0,1.0,nan,0,0.0,0.0,0.0,0.0,0.0,0.0,0.0,0.0,0.0,0.0,0.0,0,0,0,0,0,0,0,1,0,0,1,0,0
362976857,11.3598,11.5321,14.3863,8.61057,0.0,2373.89,1.0,1.0,nan,0,0.0,0.0,0.0,0.0,0.0,0.0,0.0,0.0,0.0,0.0,0.0,0,0,0,0,0,0,0,1,0,0,1,0,0
363276857,11.3452,11.4565,14.9137,11.7858,0.0,2375.18,1.0,1.0,nan,0,0.0,0.0,0.0,0.0,0.0,0.0,0.0,0.0,0.0,0.0,0.0,0,0,0,0,0,0,0,1,0,0,1,0,0
363576857,11.3452,11.3966,15.3532,13.3609,0.0,2376.45,1.0,1.0,nan,0,0.0,0.0,0.0,0.0,0.0,0.0,0.0,0.0,0.0,0.0,0.0,0,0,0,0,0,0,0,1,0,0,1,0,0
363876948,11.0973,11.2973,21.4769,17.2756,0.0,2378.29,1.0,1.0,nan,0,0.0,0.0,0.0,0.0,0.0,0.0,0.0,0.0,0.0,0.0,0.0,0,0,0,0,0,0,0,1,0,0,1,0,0
364176856,11.1556,11.2232,21.682,19.269,0.0,2380.1,1.0,1.0,nan,0,0.0,0.0,0.0,0.0,0.0,0.0,0.0,0.0,0.0,0.0,0.0,0,0,0,0,0,0,0,1,0,0,1,0,0
364476857,11.1265,11.1738,20.5979,20.2448,0.0,2381.89,1.0,1.0,nan,0,0.0,0.0,0.0,0.0,0.0,0.0,0.0,0.0,0.0,0.0,0.0,0,0,0,0,0,0,0,1,0,0,1,0,0
364777564,11.0681,11.1347,23.6451,21.5354,0.0,2383.81,1.0,1.0,nan,0,0.0,0.0,0.0,0.0,0.0,0.0,0.0,0.0,0.0,0.0,0.0,0,0,0,0,0,0,0,1,0,0,1,0,0
365076888,10.9952,11.0843,26.4286,23.3901,0.0,2385.93,1.0,1.0,nan,0,0.0,0.0,0.0,0.0,0.0,0.0,0.0,0.0,0.0,0.0,0.0,0,0,0,0,0,0,0,1,0,0,1,0,0
365376862,10.9661,11.034,27.1318,24.8457,0.0,2388.15,1.0,1.0,nan,0,0.0,0.0,0.0,0.0,0.0,0.0,0.0,0.0,0.0,0.0,0.0,0,0,0,0,0,0,0,1,0,0,1,0,0
365676896,10.9806,10.9921,26.1649,25.6357,0.0,2390.37,1.0,1.0,nan,0,0.0,0.0,0.0,0.0,0.0,0.0,0.0,0.0,0.0,0.0,0.0,0,0,0,0,0,0,0,1,0,0,1,0,0
365976857,10.9515,10.9681,26.0477,25.8909,0.0,2392.55,1.0,1.0,nan,0,0.0,0.0,0.0,0.0,0.0,0.0,0.0,0.0,0.0,0.0,0.0,0,0,0,0,0,0,0,1,0,0,1,0,0
366277271,10.9661,10.948,26.1649,26.0716,0.0,2394.75,1.0,1.0,nan,0,0.0,0.0,0.0,0.0,0.0,0.0,0.0,0.0,0.0,0.0,0.0,0,0,0,0,0,0,0,1,0,0,1,0,0
366576966,10.9369,10.9206,26.2235,26.2301,0.0,2396.95,1.0,1.0,nan,0,0.0,0.0,0.0,0.0,0.0,0.0,0.0,0.0,0.0,0.0,0.0,0,0,0,0,0,0,0,1,0,0,1,0,0
366876881,10.9369,10.8686,29.0656,28.6431,0.0,2399.54,1.0,1.0,nan,0,0.0,0.0,0.0,0.0,0.0,0.0,0.0,0.0,0.0,0.0,0.0,0,0,0,0,0,0,0,1,0,0,1,0,0
367176928,10.9515,10.8589,25.7254,27.9022,0.0,2401.8,1.0,1.0,nan,0,0.0,0.0,0.0,0.0,0.0,0.0,0.0,0.0,0.0,0.0,0.0,0,0,0,0,0,0,0,1,0,0,1,0,0
367476860,10.9369,10.8625,25.8719,26.9532,0.0,2403.95,1.0,1.0,nan,0,0.0,0.0,0.0,0.0,0.0,0.0,0.0,0.0,0.0,0.0,0.0,0,0,0,0,0,0,0,1,0,0,1,0,0
367776994,10.9223,10.8664,26.077,26.5849,0.0,2406.12,1.0,1.0,nan,0,0.0,0.0,0.0,0.0,0.0,0.0,0.0,0.0,0.0,0.0,0.0,0,0,0,0,0,0,0,1,0,0,1,0,0
368076857,10.9515,10.8727,25.6082,26.3977,0.0,2408.3,1.0,1.0,nan,0,0.0,0.0,0.0,0.0,0.0,0.0,0.0,0.0,0.0,0.0,0.0,0,0,0,0,0,0,0,1,0,0,1,0,0
368376858,10.9515,10.8654,26.2528,26.2037,0.0,2410.47,1.0,1.0,nan,0,0.0,0.0,0.0,0.0,0.0,0.0,0.0,0.0,0.0,0.0,0.0,0,0,0,0,0,0,0,1,0,0,1,0,0
368676860,10.8931,10.8712,27.7764,26.2917,0.0,2412.66,1.0,1.0,nan,0,0.0,0.0,0.0,0.0,0.0,0.0,0.0,0.0,0.0,0.0,0.0,0,0,0,0,0,0,0,1,0,0,1,0,0
368977007,10.9369,10.8722,26.7216,26.547,0.0,2414.9,1.0,1.0,nan,0,0.0,0.0,0.0,0.0,0.0,0.0,0.0,0.0,0.0,0.0,0.0,0,0,0,0,0,0,0,1,0,0,1,0,0
369276861,10.8931,10.8595,26.9267,26.6632,0.0,2417.13,1.0,1.0,nan,0,0.0,0.0,0.0,0.0,0.0,0.0,0.0,0.0,0.0,0.0,0.0,0,0,0,0,0,0,0,1,0,0,1,0,0
369576858,10.9077,10.8531,26.8974,26.6759,0.0,2419.35,1.0,1.0,nan,0,0.0,0.0,0.0,0.0,0.0,0.0,0.0,0.0,0.0,0.0,0.0,0,0,0,0,0,0,0,1,0,0,1,0,0
369877283,10.8494,10.8198,29.9153,28.1456,0.0,2421.85,1.0,1.0,nan,0,0.0,0.0,0.0,0.0,0.0,0.0,0.0,0.0,0.0,0.0,0.0,0,0,0,0,0,0,0,1,0,0,1,0,0
370176863,10.8056,10.8022,30.179,28.9445,0.0,2424.34,1.0,1.0,nan,0,0.0,0.0,0.0,0.0,0.0,0.0,0.0,0.0,0.0,0.0,0.0,0,0,0,0,0,0,0,1,0,0,1,0,0
370476857,10.8056,10.7874,30.179,29.486,0.0,2426.85,1.0,1.0,nan,0,0.0,0.0,0.0,0.0,0.0,0.0,0.0,0.0,0.0,0.0,0.0,0,0,0,0,0,0,0,1,0,0,1,0,0
370776930,10.7911,10.7773,29.9446,29.7228,0.0,2429.36,1.0,1.0,nan,0,0.0,0.0,0.0,0.0,0.0,0.0,0.0,0.0,0.0,0.0,0.0,0,0,0,0,0,0,0,1,0,0,1,0,0
371076881,10.7619,10.751,29.8274,29.7848,0.0,2431.84,1.0,1.0,nan,0,0.0,0.0,0.0,0.0,0.0,0.0,0.0,0.0,0.0,0.0,0.0,0,0,0,0,0,0,0,1,0,0,1,0,0
371377060,10.8056,10.7492,30.0032,29.8528,0.0,2434.34,1.0,1.0,nan,0,0.0,0.0,0.0,0.0,0.0,0.0,0.0,0.0,0.0,0.0,0.0,0,0,0,0,0,0,0,1,0,0,1,0,0
371676858,11.0681,10.7999,21.3597,26.5581,0.0,2436.24,1.0,1.0,nan,0,0.0,0.0,0.0,0.0,0.0,0.0,0.0,0.0,0.0,0.0,0.0,0,0,0,0,0,0,0,1,0,0,1,0,0
371976857,11.0681,10.836,22.6196,24.7111,0.0,2438.11,1.0,1.0,nan,0,0.0,0.0,0.0,0.0,0.0,0.0,0.0,0.0,0.0,0.0,0.0,0,0,0,0,0,0,0,1,0,0,1,0,0
372276989,11.0244,10.8702,22.1215,23.5654,0.0,2439.96,1.0,1.0,nan,0,0.0,0.0,0.0,0.0,0.0,0.0,0.0,0.0,0.0,0.0,0.0,0,0,0,0,0,0,0,1,0,0,1,0,0
372576857,11.0244,10.8803,22.1508,23.0572,0.0,2441.82,1.0,1.0,nan,0,0.0,0.0,0.0,0.0,0.0,0.0,0.0,0.0,0.0,0.0,0.0,0,0,0,0,0,0,0,1,0,0,1,0,0
372876909,11.039,10.895,21.8285,22.653,0.0,2443.67,1.0,1.0,nan,0,0.0,0.0,0.0,0.0,0.0,0.0,0.0,0.0,0.0,0.0,0.0,0,0,0,0,0,0,0,1,0,0,1,0,0
373176887,11.0098,10.8953,22.4438,22.9017,0.0,2445.6,1.0,1.0,nan,0,0.0,0.0,0.0,0.0,0.0,0.0,0.0,0.0,0.0,0.0,0.0,0,0,0,0,0,0,0,1,0,0,1,0,0
373476857,10.8056,10.8727,29.8274,25.045,0.0,2447.88,1.0,1.0,nan,0,0.0,0.0,0.0,0.0,0.0,0.0,0.0,0.0,0.0,0.0,0.0,0,0,0,0,0,0,0,1,0,0,1,0,0
373776858,10.8348,10.8325,29.007,26.8874,0.0,2450.31,1.0,1.0,nan,0,0.0,0.0,0.0,0.0,0.0,0.0,0.0,0.0,0.0,0.0,0.0,0,0,0,0,0,0,0,1,0,0,1,0,0
374077029,10.6598,10.7732,32.7281,29.7997,0.0,2453.1,1.0,1.0,nan,0,0.0,0.0,0.0,0.0,0.0,0.0,0.0,0.0,0.0,0.0,0.0,0,0,0,0,0,0,0,1,0,0,1,0,0
374376863,10.6744,10.7358,33.2555,31.3169,0.0,2455.87,1.0,1.0,nan,0,0.0,0.0,0.0,0.0,0.0,0.0,0.0,0.0,0.0,0.0,0.0,0,0,0,0,0,0,0,1,0,0,1,0,0
374676860,10.4994,10.6987,33.6364,32.3194,0.0,2458.66,1.0,1.0,nan,0,0.0,0.0,0.0,0.0,0.0,0.0,0.0,0.0,0.0,0.0,0.0,0,0,0,0,0,0,0,1,0,0,1,0,0
374977314,10.7765,10.6838,27.3662,31.469,0.0,2461.24,1.0,1.0,nan,0,0.0,0.0,0.0,0.0,0.0,0.0,0.0,0.0,0.0,0.0,0.0,0,0,0,0,0,0,0,1,0,0,1,0,0
375276877,10.7182,10.6807,28.4503,30.114,0.0,2463.6,1.0,1.0,nan,0,0.0,0.0,0.0,0.0,0.0,0.0,0.0,0.0,0.0,0.0,0.0,0,0,0,0,0,0,0,1,0,0,1,0,0
375576939,10.7619,10.6734,26.1649,29.3049,0.0,2465.96,1.0,1.0,nan,0,0.0,0.0,0.0,0.0,0.0,0.0,0.0,0.0,0.0,0.0,0.0,0,0,0,0,0,0,0,1,0,0,1,0,0
375876857,10.7619,10.6974,25.6082,27.6965,0.0,2468.1,1.0,1.0,nan,0,0.0,0.0,0.0,0.0,0.0,0.0,0.0,0.0,0.0,0.0,0.0,0,0,0,0,0,0,0,1,0,0,1,0,0
376176888,10.6307,10.6948,28.8898,28.3006,0.0,2470.5,1.0,1.0,nan,0,0.0,0.0,0.0,0.0,0.0,0.0,0.0,0.0,0.0,0.0,0.0,0,0,0,0,0,0,0,1,0,0,1,0,0
376477471,10.6452,10.7022,26.5165,27.5988,0.0,2472.74,1.0,1.0,nan,0,0.0,0.0,0.0,0.0,0.0,0.0,0.0,0.0,0.0,0.0,0.0,0,0,0,0,0,0,0,1,0,0,1,0,0
376776858,10.6452,10.7022,26.9853,27.2876,0.0,2474.97,1.0,1.0,nan,0,0.0,0.0,0.0,0.0,0.0,0.0,0.0,0.0,0.0,0.0,0.0,0,0,0,0,0,0,0,1,0,0,1,0,0
377076895,10.6598,10.7039,26.956,27.2413,0.0,2477.24,1.0,1.0,nan,0,0.0,0.0,0.0,0.0,0.0,0.0,0.0,0.0,0.0,0.0,0.0,0,0,0,0,0,0,0,1,0,0,1,0,0
377376877,10.7473,10.7323,23.5572,25.8681,0.0,2479.26,1.0,1.0,nan,0,0.0,0.0,0.0,0.0,0.0,0.0,0.0,0.0,0.0,0.0,0.0,0,0,0,0,0,0,0,1,0,0,1,0,0
377676857,10.7473,10.7419,23.1763,24.8139,0.0,2481.22,1.0,1.0,nan,0,0.0,0.0,0.0,0.0,0.0,0.0,0.0,0.0,0.0,0.0,0.0,0,0,0,0,0,0,0,1,0,0,1,0,0
377977406,10.7182,10.7465,24.2604,24.3488,0.0,2483.2,1.0,1.0,nan,0,0.0,0.0,0.0,0.0,0.0,0.0,0.0,0.0,0.0,0.0,0.0,0,0,0,0,0,0,0,1,0,0,1,0,0
378276978,10.7036,10.7268,26.2821,25.2453,0.0,2485.39,1.0,1.0,nan,0,0.0,0.0,0.0,0.0,0.0,0.0,0.0,0.0,0.0,0.0,0.0,0,0,0,0,0,0,0,1,0,0,1,0,0
378576857,10.6598,10.7171,26.0477,25.6221,0.0,2487.56,1.0,1.0,nan,0,0.0,0.0,0.0,0.0,0.0,0.0,0.0,0.0,0.0,0.0,0.0,0,0,0,0,0,0,0,1,0,0,1,0,0
378876857,10.7036,10.7125,26.0477,25.9007,0.0,2489.75,1.0,1.0,nan,0,0.0,0.0,0.0,0.0,0.0,0.0,0.0,0.0,0.0,0.0,0.0,0,0,0,0,0,0,0,1,0,0,1,0,0
379176858,10.6598,10.7171,25.6961,25.8989,0.0,2491.91,1.0,1.0,nan,0,0.0,0.0,0.0,0.0,0.0,0.0,0.0,0.0,0.0,0.0,0.0,0,0,0,0,0,0,0,1,0,0,1,0,0
379476881,10.6452,10.7132,25.8426,25.8931,0.0,2494.07,1.0,1.0,nan,0,0.0,0.0,0.0,0.0,0.0,0.0,0.0,0.0,0.0,0.0,0.0,0,0,0,0,0,0,0,1,0,0,1,0,0
379776862,10.7327,10.7233,25.5203,25.8437,0.0,2496.22,1.0,1.0,nan,0,0.0,0.0,0.0,0.0,0.0,0.0,0.0,0.0,0.0,0.0,0.0,0,0,0,0,0,0,0,1,0,0,1,0,0
380076859,10.689,10.7239,25.9598,25.8503,0.0,2498.38,1.0,1.0,nan,0,0.0,0.0,0.0,0.0,0.0,0.0,0.0,0.0,0.0,0.0,0.0,0,0,0,0,0,0,0,1,0,0,1,0,0
380376865,10.689,10.7155,25.9891,25.8138,0.0,2500.52,1.0,1.0,nan,0,0.0,0.0,0.0,0.0,0.0,0.0,0.0,0.0,0.0,0.0,0.0,0,0,0,0,0,0,0,1,0,0,1,0,0
380676858,10.689,10.7057,25.6668,25.882,0.0,2502.68,1.0,1.0,nan,0,0.0,0.0,0.0,0.0,0.0,0.0,0.0,0.0,0.0,0.0,0.0,0,0,0,0,0,0,0,1,0,0,1,0,0
380976956,10.689,10.6974,25.6375,25.8742,0.0,2504.84,1.0,1.0,nan,0,0.0,0.0,0.0,0.0,0.0,0.0,0.0,0.0,0.0,0.0,0.0,0,0,0,0,0,0,0,1,0,0,1,0,0
381276857,10.6161,10.7101,25.9012,25.8429,0.0,2506.99,1.0,1.0,nan,0,0.0,0.0,0.0,0.0,0.0,0.0,0.0,0.0,0.0,0.0,0.0,0,0,0,0,0,0,0,1,0,0,1,0,0
381577712,10.689,10.7071,25.5789,25.8128,0.0,2509.14,1.0,1.0,nan,0,0.0,0.0,0.0,0.0,0.0,0.0,0.0,0.0,0.0,0.0,0.0,0,0,0,0,0,0,0,1,0,0,1,0,0
381876865,10.6452,10.7163,25.5789,25.7947,0.0,2511.29,1.0,1.0,nan,0,0.0,0.0,0.0,0.0,0.0,0.0,0.0,0.0,0.0,0.0,0.0,0,0,0,0,0,0,0,1,0,0,1,0,0
382176858,10.7036,10.7061,25.198,25.8003,0.0,2513.44,1.0,1.0,nan,0,0.0,0.0,0.0,0.0,0.0,0.0,0.0,0.0,0.0,0.0,0.0,0,0,0,0,0,0,0,1,0,0,1,0,0
382476896,10.6744,10.7225,24.1139,24.9716,0.0,2515.44,1.0,1.0,nan,0,0.0,0.0,0.0,0.0,0.0,0.0,0.0,0.0,0.0,0.0,0.0,0,0,0,0,0,0,0,1,0,0,1,0,0
382776858,10.6452,10.7094,28.2159,26.2641,0.0,2517.74,1.0,1.0,nan,0,0.0,0.0,0.0,0.0,0.0,0.0,0.0,0.0,0.0,0.0,0.0,0,0,0,0,0,0,0,1,0,0,1,0,0
383076949,10.6015,10.6953,28.0987,27.1062,0.0,2520.08,1.0,1.0,nan,0,0.0,0.0,0.0,0.0,0.0,0.0,0.0,0.0,0.0,0.0,0.0,0,0,0,0,0,0,0,1,0,0,1,0,0
383377042,10.5723,10.6853,28.5089,27.5704,0.0,2522.43,1.0,1.0,nan,0,0.0,0.0,0.0,0.0,0.0,0.0,0.0,0.0,0.0,0.0,0.0,0,0,0,0,0,0,0,1,0,0,1,0,0
383677003,10.5723,10.6524,28.4796,27.9939,0.0,2524.8,1.0,1.0,nan,0,0.0,0.0,0.0,0.0,0.0,0.0,0.0,0.0,0.0,0.0,0.0,0,0,0,0,0,0,0,1,0,0,1,0,0
383976868,10.5869,10.6392,27.9229,28.1242,0.0,2527.16,1.0,1.0,nan,0,0.0,0.0,0.0,0.0,0.0,0.0,0.0,0.0,0.0,0.0,0.0,0,0,0,0,0,0,0,1,0,0,1,0,0
384276857,10.5577,10.6282,28.0401,28.2129,0.0,2529.52,1.0,1.0,nan,0,0.0,0.0,0.0,0.0,0.0,0.0,0.0,0.0,0.0,0.0,0.0,0,0,0,0,0,0,0,1,0,0,1,0,0
384577239,10.339,10.6231,32.2593,28.5097,0.0,2531.92,1.0,1.0,nan,0,0.0,0.0,0.0,0.0,0.0,0.0,0.0,0.0,0.0,0.0,0.0,0,0,0,0,0,0,0,1,0,0,1,0,0
384877007,10.6015,10.6122,29.007,29.0772,0.0,2534.41,1.0,1.0,nan,0,0.0,0.0,0.0,0.0,0.0,0.0,0.0,0.0,0.0,0.0,0.0,0,0,0,0,0,0,0,1,0,0,1,0,0
385176881,10.5432,10.6158,28.4503,28.7918,0.0,2536.78,1.0,1.0,nan,0,0.0,0.0,0.0,0.0,0.0,0.0,0.0,0.0,0.0,0.0,0.0,0,0,0,0,0,0,0,1,0,0,1,0,0
385476857,10.5286,10.6107,28.1866,28.6135,0.0,2539.15,1.0,1.0,nan,0,0.0,0.0,0.0,0.0,0.0,0.0,0.0,0.0,0.0,0.0,0.0,0,0,0,0,0,0,0,1,0,0,1,0,0
385776949,10.6161,10.6351,26.1356,27.2617,0.0,2541.28,1.0,1.0,nan,0,0.0,0.0,0.0,0.0,0.0,0.0,0.0,0.0,0.0,0.0,0.0,0,0,0,0,0,0,0,1,0,0,1,0,0
386076888,10.6598,10.6463,25.5203,26.6829,0.0,2543.44,1.0,1.0,nan,0,0.0,0.0,0.0,0.0,0.0,0.0,0.0,0.0,0.0,0.0,0.0,0,0,0,0,0,0,0,1,0,0,1,0,0
386376883,10.7036,10.6504,25.4324,26.3296,0.0,2545.6,1.0,1.0,nan,0,0.0,0.0,0.0,0.0,0.0,0.0,0.0,0.0,0.0,0.0,0.0,0,0,0,0,0,0,0,1,0,0,1,0,0
386677887,10.6598,10.6549,25.784,26.0798,0.0,2547.75,1.0,1.0,nan,0,0.0,0.0,0.0,0.0,0.0,0.0,0.0,0.0,0.0,0.0,0.0,0,0,0,0,0,0,0,1,0,0,1,0,0
386976857,10.7036,10.6704,25.4031,26.0897,0.0,2549.92,1.0,1.0,nan,0,0.0,0.0,0.0,0.0,0.0,0.0,0.0,0.0,0.0,0.0,0.0,0,0,0,0,0,0,0,1,0,0,1,0,0
387276922,10.689,10.6812,25.3445,26.0187,0.0,2552.08,1.0,1.0,nan,0,0.0,0.0,0.0,0.0,0.0,0.0,0.0,0.0,0.0,0.0,0.0,0,0,0,0,0,0,0,1,0,0,1,0,0
387576856,10.7327,10.6895,25.4324,25.7529,0.0,2554.2,1.0,1.0,nan,0,0.0,0.0,0.0,0.0,0.0,0.0,0.0,0.0,0.0,0.0,0.0,0,0,0,0,0,0,0,1,0,0,1,0,0
387876877,10.6744,10.6923,25.4324,25.6881,0.0,2556.34,1.0,1.0,nan,0,0.0,0.0,0.0,0.0,0.0,0.0,0.0,0.0,0.0,0.0,0.0,0,0,0,0,0,0,0,1,0,0,1,0,0
388177090,10.7036,10.7012,25.4324,25.5831,0.0,2558.46,1.0,1.0,nan,0,0.0,0.0,0.0,0.0,0.0,0.0,0.0,0.0,0.0,0.0,0.0,0,0,0,0,0,0,0,1,0,0,1,0,0
388476857,10.6598,10.711,24.7292,25.436,0.0,2560.56,1.0,1.0,nan,0,0.0,0.0,0.0,0.0,0.0,0.0,0.0,0.0,0.0,0.0,0.0,0,0,0,0,0,0,0,1,0,0,1,0,0
388776885,10.5723,10.692,29.1535,26.1821,0.0,2562.79,1.0,1.0,nan,0,0.0,0.0,0.0,0.0,0.0,0.0,0.0,0.0,0.0,0.0,0.0,0,0,0,0,0,0,0,1,0,0,1,0,0
389076858,10.6015,10.6711,27.6006,27.0806,0.0,2565.14,1.0,1.0,nan,0,0.0,0.0,0.0,0.0,0.0,0.0,0.0,0.0,0.0,0.0,0.0,0,0,0,0,0,0,0,1,0,0,1,0,0
389376859,10.5869,10.6417,28.3917,27.6353,0.0,2567.5,1.0,1.0,nan,0,0.0,0.0,0.0,0.0,0.0,0.0,0.0,0.0,0.0,0.0,0.0,0,0,0,0,0,0,0,1,0,0,1,0,0
389677520,10.5723,10.6272,28.5382,28.1108,0.0,2569.9,1.0,1.0,nan,0,0.0,0.0,0.0,0.0,0.0,0.0,0.0,0.0,0.0,0.0,0.0,0,0,0,0,0,0,0,1,0,0,1,0,0
389976879,10.5286,10.6213,28.128,28.3421,0.0,2572.28,1.0,1.0,nan,0,0.0,0.0,0.0,0.0,0.0,0.0,0.0,0.0,0.0,0.0,0.0,0,0,0,0,0,0,0,1,0,0,1,0,0
390276857,10.5432,10.6262,28.0401,28.2709,0.0,2574.63,1.0,1.0,nan,0,0.0,0.0,0.0,0.0,0.0,0.0,0.0,0.0,0.0,0.0,0.0,0,0,0,0,0,0,0,1,0,0,1,0,0
390576857,10.6452,10.6258,26.4579,27.8406,0.0,2576.91,1.0,1.0,nan,0,0.0,0.0,0.0,0.0,0.0,0.0,0.0,0.0,0.0,0.0,0.0,0,0,0,0,0,0,0,1,0,0,1,0,0
390876910,10.4994,10.6388,27.6885,27.2913,0.0,2579.13,1.0,1.0,nan,0,0.0,0.0,0.0,0.0,0.0,0.0,0.0,0.0,0.0,0.0,0.0,0,0,0,0,0,0,0,1,0,0,1,0,0
391176863,10.6015,10.6462,26.956,27.3448,0.0,2581.42,1.0,1.0,nan,0,0.0,0.0,0.0,0.0,0.0,0.0,0.0,0.0,0.0,0.0,0.0,0,0,0,0,0,0,0,1,0,0,1,0,0
391476858,10.6307,10.6436,27.3955,27.3604,0.0,2583.7,1.0,1.0,nan,0,0.0,0.0,0.0,0.0,0.0,0.0,0.0,0.0,0.0,0.0,0.0,0,0,0,0,0,0,0,1,0,0,1,0,0
391776857,10.5432,10.6355,27.4248,27.406,0.0,2585.99,1.0,1.0,nan,0,0.0,0.0,0.0,0.0,0.0,0.0,0.0,0.0,0.0,0.0,0.0,0,0,0,0,0,0,0,1,0,0,1,0,0
392076877,10.6015,10.6254,27.3369,27.4171,0.0,2588.27,1.0,1.0,nan,0,0.0,0.0,0.0,0.0,0.0,0.0,0.0,0.0,0.0,0.0,0.0,0,0,0,0,0,0,0,1,0,0,1,0,0
392376894,10.689,10.642,25.2859,26.3953,0.0,2590.37,1.0,1.0,nan,0,0.0,0.0,0.0,0.0,0.0,0.0,0.0,0.0,0.0,0.0,0.0,0,0,0,0,0,0,0,1,0,0,1,0,0
392676860,10.6307,10.6606,25.1394,25.9128,0.0,2592.48,1.0,1.0,nan,0,0.0,0.0,0.0,0.0,0.0,0.0,0.0,0.0,0.0,0.0,0.0,0,0,0,0,0,0,0,1,0,0,1,0,0
392976857,10.6307,10.685,25.1101,25.5387,0.0,2594.57,1.0,1.0,nan,0,0.0,0.0,0.0,0.0,0.0,0.0,0.0,0.0,0.0,0.0,0.0,0,0,0,0,0,0,0,1,0,0,1,0,0
393277095,10.6307,10.6842,26.4286,25.7285,0.0,2596.73,1.0,1.0,nan,0,0.0,0.0,0.0,0.0,0.0,0.0,0.0,0.0,0.0,0.0,0.0,0,0,0,0,0,0,0,1,0,0,1,0,0
393576857,10.6307,10.6874,26.1649,25.9564,0.0,2598.92,1.0,1.0,nan,0,0.0,0.0,0.0,0.0,0.0,0.0,0.0,0.0,0.0,0.0,0.0,0,0,0,0,0,0,0,1,0,0,1,0,0
393876857,10.6015,10.6788,27.6592,26.6833,0.0,2601.21,1.0,1.0,nan,0,0.0,0.0,0.0,0.0,0.0,0.0,0.0,0.0,0.0,0.0,0.0,0,0,0,0,0,0,0,1,0,0,1,0,0
394176924,10.5286,10.6721,27.7764,27.1355,0.0,2603.52,1.0,1.0,nan,0,0.0,0.0,0.0,0.0,0.0,0.0,0.0,0.0,0.0,0.0,0.0,0,0,0,0,0,0,0,1,0,0,1,0,0
394476865,10.514,10.6649,27.5713,27.3445,0.0,2605.82,1.0,1.0,nan,0,0.0,0.0,0.0,0.0,0.0,0.0,0.0,0.0,0.0,0.0,0.0,0,0,0,0,0,0,0,1,0,0,1,0,0
394777228,10.5286,10.6413,28.2159,27.5837,0.0,2608.15,1.0,1.0,nan,0,0.0,0.0,0.0,0.0,0.0,0.0,0.0,0.0,0.0,0.0,0.0,0,0,0,0,0,0,0,1,0,0,1,0,0
395076927,10.5869,10.6315,27.3955,27.6774,0.0,2610.46,1.0,1.0,nan,0,0.0,0.0,0.0,0.0,0.0,0.0,0.0,0.0,0.0,0.0,0.0,0,0,0,0,0,0,0,1,0,0,1,0,0
395376886,10.5869,10.6258,28.0987,27.8648,0.0,2612.8,1.0,1.0,nan,0,0.0,0.0,0.0,0.0,0.0,0.0,0.0,0.0,0.0,0.0,0.0,0,0,0,0,0,0,0,1,0,0,1,0,0
395676858,10.514,10.6327,27.8936,27.9353,0.0,2615.13,1.0,1.0,nan,0,0.0,0.0,0.0,0.0,0.0,0.0,0.0,0.0,0.0,0.0,0.0,0,0,0,0,0,0,0,1,0,0,1,0,0
395976858,10.5577,10.6329,27.835,27.8871,0.0,2617.45,1.0,1.0,nan,0,0.0,0.0,0.0,0.0,0.0,0.0,0.0,0.0,0.0,0.0,0.0,0,0,0,0,0,0,0,1,0,0,1,0,0
396276965,10.5432,10.6344,28.4503,28.1075,0.0,2619.81,1.0,1.0,nan,0,0.0,0.0,0.0,0.0,0.0,0.0,0.0,0.0,0.0,0.0,0.0,0,0,0,0,0,0,0,1,0,0,1,0,0
396576861,10.5432,10.6303,28.7726,28.4011,0.0,2622.21,1.0,1.0,nan,0,0.0,0.0,0.0,0.0,0.0,0.0,0.0,0.0,0.0,0.0,0.0,0,0,0,0,0,0,0,1,0,0,1,0,0
396876857,10.5577,10.6319,28.8898,28.5473,0.0,2624.6,1.0,1.0,nan,0,0.0,0.0,0.0,0.0,0.0,0.0,0.0,0.0,0.0,0.0,0.0,0,0,0,0,0,0,0,1,0,0,1,0,0
397176888,10.5432,10.6318,28.5675,28.6712,0.0,2627.01,1.0,1.0,nan,0,0.0,0.0,0.0,0.0,0.0,0.0,0.0,0.0,0.0,0.0,0.0,0,0,0,0,0,0,0,1,0,0,1,0,0
397476858,10.6015,10.6416,26.4286,28.0769,0.0,2629.29,1.0,1.0,nan,0,0.0,0.0,0.0,0.0,0.0,0.0,0.0,0.0,0.0,0.0,0.0,0,0,0,0,0,0,0,1,0,0,1,0,0
397776866,10.6452,10.6497,26.3993,27.5582,0.0,2631.53,1.0,1.0,nan,0,0.0,0.0,0.0,0.0,0.0,0.0,0.0,0.0,0.0,0.0,0.0,0,0,0,0,0,0,0,1,0,0,1,0,0
398076857,10.6015,10.6609,26.9267,27.226,0.0,2633.76,1.0,1.0,nan,0,0.0,0.0,0.0,0.0,0.0,0.0,0.0,0.0,0.0,0.0,0.0,0,0,0,0,0,0,0,1,0,0,1,0,0
398377670,10.6015,10.6615,26.8974,27.3005,0.0,2636.05,1.0,1.0,nan,0,0.0,0.0,0.0,0.0,0.0,0.0,0.0,0.0,0.0,0.0,0.0,0,0,0,0,0,0,0,1,0,0,1,0,0
398676858,10.5869,10.6684,27.0146,27.1432,0.0,2638.29,1.0,1.0,nan,0,0.0,0.0,0.0,0.0,0.0,0.0,0.0,0.0,0.0,0.0,0.0,0,0,0,0,0,0,0,1,0,0,1,0,0
398976859,10.5723,10.6741,26.8388,27.1273,0.0,2640.55,1.0,1.0,nan,0,0.0,0.0,0.0,0.0,0.0,0.0,0.0,0.0,0.0,0.0,0.0,0,0,0,0,0,0,0,1,0,0,1,0,0
399276950,10.5577,10.6795,26.5458,27.0498,0.0,2642.8,1.0,1.0,nan,0,0.0,0.0,0.0,0.0,0.0,0.0,0.0,0.0,0.0,0.0,0.0,0,0,0,0,0,0,0,1,0,0,1,0,0
399576859,10.5869,10.6829,26.5458,26.9054,0.0,2645.03,1.0,1.0,nan,0,0.0,0.0,0.0,0.0,0.0,0.0,0.0,0.0,0.0,0.0,0.0,0,0,0,0,0,0,0,1,0,0,1,0,0
399876946,10.5286,10.6813,27.4541,26.9344,0.0,2647.27,1.0,1.0,nan,0,0.0,0.0,0.0,0.0,0.0,0.0,0.0,0.0,0.0,0.0,0.0,0,0,0,0,0,0,0,1,0,0,1,0,0
400176862,10.7182,10.6927,23.4107,26.2378,0.0,2649.4,1.0,1.0,nan,0,0.0,0.0,0.0,0.0,0.0,0.0,0.0,0.0,0.0,0.0,0.0,0,0,0,0,0,0,0,1,0,0,1,0,0
400476875,10.6598,10.7055,24.5241,25.6441,0.0,2651.47,1.0,1.0,nan,0,0.0,0.0,0.0,0.0,0.0,0.0,0.0,0.0,0.0,0.0,0.0,0,0,0,0,0,0,0,1,0,0,1,0,0
400776886,10.7036,10.7152,24.9636,25.4074,0.0,2653.57,1.0,1.0,nan,0,0.0,0.0,0.0,0.0,0.0,0.0,0.0,0.0,0.0,0.0,0.0,0,0,0,0,0,0,0,1,0,0,1,0,0
401076863,10.6452,10.7227,25.1394,25.2306,0.0,2655.65,1.0,1.0,nan,0,0.0,0.0,0.0,0.0,0.0,0.0,0.0,0.0,0.0,0.0,0.0,0,0,0,0,0,0,0,1,0,0,1,0,0
401377166,10.6598,10.7292,24.6706,25.155,0.0,2657.74,1.0,1.0,nan,0,0.0,0.0,0.0,0.0,0.0,0.0,0.0,0.0,0.0,0.0,0.0,0,0,0,0,0,0,0,1,0,0,1,0,0
401676858,10.514,10.7146,27.4541,26.1332,0.0,2660.0,1.0,1.0,nan,0,0.0,0.0,0.0,0.0,0.0,0.0,0.0,0.0,0.0,0.0,0.0,0,0,0,0,0,0,0,1,0,0,1,0,0
401976857,10.5869,10.7002,27.7178,27.0611,0.0,2662.35,1.0,1.0,nan,0,0.0,0.0,0.0,0.0,0.0,0.0,0.0,0.0,0.0,0.0,0.0,0,0,0,0,0,0,0,1,0,0,1,0,0
402276857,10.5286,10.6901,27.7764,27.3931,0.0,2664.67,1.0,1.0,nan,0,0.0,0.0,0.0,0.0,0.0,0.0,0.0,0.0,0.0,0.0,0.0,0,0,0,0,0,0,0,1,0,0,1,0,0
402576918,10.5869,10.6854,28.1866,27.6969,0.0,2667.01,1.0,1.0,nan,0,0.0,0.0,0.0,0.0,0.0,0.0,0.0,0.0,0.0,0.0,0.0,0,0,0,0,0,0,0,1,0,0,1,0,0
402877037,10.5432,10.6735,28.0694,27.8877,0.0,2669.35,1.0,1.0,nan,0,0.0,0.0,0.0,0.0,0.0,0.0,0.0,0.0,0.0,0.0,0.0,0,0,0,0,0,0,0,1,0,0,1,0,0
403176857,10.6015,10.669,27.6006,27.9747,0.0,2671.69,1.0,1.0,nan,0,0.0,0.0,0.0,0.0,0.0,0.0,0.0,0.0,0.0,0.0,0.0,0,0,0,0,0,0,0,1,0,0,1,0,0
403477364,10.5577,10.6649,27.7764,27.9076,0.0,2674.01,1.0,1.0,nan,0,0.0,0.0,0.0,0.0,0.0,0.0,0.0,0.0,0.0,0.0,0.0,0,0,0,0,0,0,0,1,0,0,1,0,0
403776858,10.6015,10.6649,27.542,27.9051,0.0,2676.33,1.0,1.0,nan,0,0.0,0.0,0.0,0.0,0.0,0.0,0.0,0.0,0.0,0.0,0.0,0,0,0,0,0,0,0,1,0,0,1,0,0
404076862,10.5577,10.6628,27.4248,27.8114,0.0,2678.64,1.0,1.0,nan,0,0.0,0.0,0.0,0.0,0.0,0.0,0.0,0.0,0.0,0.0,0.0,0,0,0,0,0,0,0,1,0,0,1,0,0
404376860,10.5869,10.6626,27.835,27.8272,0.0,2680.96,1.0,1.0,nan,0,0.0,0.0,0.0,0.0,0.0,0.0,0.0,0.0,0.0,0.0,0.0,0,0,0,0,0,0,0,1,0,0,1,0,0
404676879,10.5286,10.662,27.8643,27.8592,0.0,2683.28,1.0,1.0,nan,0,0.0,0.0,0.0,0.0,0.0,0.0,0.0,0.0,0.0,0.0,0.0,0,0,0,0,0,0,0,1,0,0,1,0,0
404977460,10.5286,10.66,27.3955,27.7961,0.0,2685.6,1.0,1.0,nan,0,0.0,0.0,0.0,0.0,0.0,0.0,0.0,0.0,0.0,0.0,0.0,0,0,0,0,0,0,0,1,0,0,1,0,0
405276912,10.5286,10.6628,27.542,27.7814,0.0,2687.91,1.0,1.0,nan,0,0.0,0.0,0.0,0.0,0.0,0.0,0.0,0.0,0.0,0.0,0.0,0,0,0,0,0,0,0,1,0,0,1,0,0
405576863,10.5723,10.6666,26.663,27.389,0.0,2690.16,1.0,1.0,nan,0,0.0,0.0,0.0,0.0,0.0,0.0,0.0,0.0,0.0,0.0,0.0,0,0,0,0,0,0,0,1,0,0,1,0,0
405876859,10.6161,10.678,25.8426,26.9183,0.0,2692.36,1.0,1.0,nan,0,0.0,0.0,0.0,0.0,0.0,0.0,0.0,0.0,0.0,0.0,0.0,0,0,0,0,0,0,0,1,0,0,1,0,0
406176862,10.6161,10.6882,25.3738,26.437,0.0,2694.51,1.0,1.0,nan,0,0.0,0.0,0.0,0.0,0.0,0.0,0.0,0.0,0.0,0.0,0.0,0,0,0,0,0,0,0,1,0,0,1,0,0
406476917,10.4557,10.6916,25.7254,26.2319,0.0,2696.68,1.0,1.0,nan,0,0.0,0.0,0.0,0.0,0.0,0.0,0.0,0.0,0.0,0.0,0.0,0,0,0,0,0,0,0,1,0,0,1,0,0
406776975,10.8202,10.6999,25.6082,26.0185,0.0,2698.82,1.0,1.0,nan,0,0.0,0.0,0.0,0.0,0.0,0.0,0.0,0.0,0.0,0.0,0.0,0,0,0,0,0,0,0,1,0,0,1,0,0
407076947,10.6744,10.7055,25.4617,25.9042,0.0,2700.97,1.0,1.0,nan,0,0.0,0.0,0.0,0.0,0.0,0.0,0.0,0.0,0.0,0.0,0.0,0,0,0,0,0,0,0,1,0,0,1,0,0
407376857,10.6307,10.71,25.491,25.8245,0.0,2703.12,1.0,1.0,nan,0,0.0,0.0,0.0,0.0,0.0,0.0,0.0,0.0,0.0,0.0,0.0,0,0,0,0,0,0,0,1,0,0,1,0,0
407676979,10.6452,10.7128,25.6668,25.7512,0.0,2705.25,1.0,1.0,nan,0,0.0,0.0,0.0,0.0,0.0,0.0,0.0,0.0,0.0,0.0,0.0,0,0,0,0,0,0,0,1,0,0,1,0,0
407977062,10.6452,10.7121,25.491,25.8,0.0,2707.41,1.0,1.0,nan,0,0.0,0.0,0.0,0.0,0.0,0.0,0.0,0.0,0.0,0.0,0.0,0,0,0,0,0,0,0,1,0,0,1,0,0
408276868,10.6161,10.7097,25.5203,25.7718,0.0,2709.55,1.0,1.0,nan,0,0.0,0.0,0.0,0.0,0.0,0.0,0.0,0.0,0.0,0.0,0.0,0,0,0,0,0,0,0,1,0,0,1,0,0
408576857,10.6598,10.7113,25.5789,25.7586,0.0,2711.69,1.0,1.0,nan,0,0.0,0.0,0.0,0.0,0.0,0.0,0.0,0.0,0.0,0.0,0.0,0,0,0,0,0,0,0,1,0,0,1,0,0
408876908,10.4702,10.7126,25.9305,25.7603,0.0,2713.84,1.0,1.0,nan,0,0.0,0.0,0.0,0.0,0.0,0.0,0.0,0.0,0.0,0.0,0.0,0,0,0,0,0,0,0,1,0,0,1,0,0
409176922,10.5869,10.7116,25.6375,25.8439,0.0,2716.0,1.0,1.0,nan,0,0.0,0.0,0.0,0.0,0.0,0.0,0.0,0.0,0.0,0.0,0.0,0,0,0,0,0,0,0,1,0,0,1,0,0
409476882,10.6161,10.7116,25.2859,25.7834,0.0,2718.15,1.0,1.0,nan,0,0.0,0.0,0.0,0.0,0.0,0.0,0.0,0.0,0.0,0.0,0.0,0,0,0,0,0,0,0,1,0,0,1,0,0
409776887,10.5432,10.6943,29.0949,26.9992,0.0,2720.5,1.0,1.0,nan,0,0.0,0.0,0.0,0.0,0.0,0.0,0.0,0.0,0.0,0.0,0.0,0,0,0,0,0,0,0,1,0,0,1,0,0
410077619,10.5432,10.6742,28.1573,27.8307,0.0,2722.91,1.0,1.0,nan,0,0.0,0.0,0.0,0.0,0.0,0.0,0.0,0.0,0.0,0.0,0.0,0,0,0,0,0,0,0,1,0,0,1,0,0
410376858,10.4848,10.6595,29.9153,28.5975,0.0,2725.37,1.0,1.0,nan,0,0.0,0.0,0.0,0.0,0.0,0.0,0.0,0.0,0.0,0.0,0.0,0,0,0,0,0,0,0,1,0,0,1,0,0
410676858,10.6452,10.6416,30.5013,29.3405,0.0,2727.89,1.0,1.0,nan,0,0.0,0.0,0.0,0.0,0.0,0.0,0.0,0.0,0.0,0.0,0.0,0,0,0,0,0,0,0,1,0,0,1,0,0
410976940,10.4848,10.6288,30.2962,29.7606,0.0,2730.41,1.0,1.0,nan,0,0.0,0.0,0.0,0.0,0.0,0.0,0.0,0.0,0.0,0.0,0.0,0,0,0,0,0,0,0,1,0,0,1,0,0
411276857,10.4411,10.615,30.4427,30.0409,0.0,2732.94,1.0,1.0,nan,0,0.0,0.0,0.0,0.0,0.0,0.0,0.0,0.0,0.0,0.0,0.0,0,0,0,0,0,0,0,1,0,0,1,0,0
411577041,10.514,10.604,29.0656,30.1756,0.0,2735.47,1.0,1.0,nan,0,0.0,0.0,0.0,0.0,0.0,0.0,0.0,0.0,0.0,0.0,0.0,0,0,0,0,0,0,0,1,0,0,1,0,0
411876857,10.5577,10.6163,27.542,29.0746,0.0,2737.78,1.0,1.0,nan,0,0.0,0.0,0.0,0.0,0.0,0.0,0.0,0.0,0.0,0.0,0.0,0,0,0,0,0,0,0,1,0,0,1,0,0
412176857,10.5432,10.6205,27.835,28.5993,0.0,2740.12,1.0,1.0,nan,0,0.0,0.0,0.0,0.0,0.0,0.0,0.0,0.0,0.0,0.0,0.0,0,0,0,0,0,0,0,1,0,0,1,0,0
412476857,10.5723,10.6357,27.2783,28.1578,0.0,2742.42,1.0,1.0,nan,0,0.0,0.0,0.0,0.0,0.0,0.0,0.0,0.0,0.0,0.0,0.0,0,0,0,0,0,0,0,1,0,0,1,0,0
412776857,10.5577,10.6518,25.9598,27.2592,0.0,2744.61,1.0,1.0,nan,0,0.0,0.0,0.0,0.0,0.0,0.0,0.0,0.0,0.0,0.0,0.0,0,0,0,0,0,0,0,1,0,0,1,0,0
413077340,10.8056,10.6706,25.8719,26.6374,0.0,2746.78,1.0,1.0,nan,0,0.0,0.0,0.0,0.0,0.0,0.0,0.0,0.0,0.0,0.0,0.0,0,0,0,0,0,0,0,1,0,0,1,0,0
413377077,10.6161,10.6788,25.6082,26.3141,0.0,2748.93,1.0,1.0,nan,0,0.0,0.0,0.0,0.0,0.0,0.0,0.0,0.0,0.0,0.0,0.0,0,0,0,0,0,0,0,1,0,0,1,0,0
413676858,10.5286,10.6854,26.7802,26.2071,0.0,2751.1,1.0,1.0,nan,0,0.0,0.0,0.0,0.0,0.0,0.0,0.0,0.0,0.0,0.0,0.0,0,0,0,0,0,0,0,1,0,0,1,0,0
413976857,10.5577,10.6936,25.6668,26.1708,0.0,2753.28,1.0,1.0,nan,0,0.0,0.0,0.0,0.0,0.0,0.0,0.0,0.0,0.0,0.0,0.0,0,0,0,0,0,0,0,1,0,0,1,0,0
414276873,10.6015,10.6944,25.6082,26.0803,0.0,2755.45,1.0,1.0,nan,0,0.0,0.0,0.0,0.0,0.0,0.0,0.0,0.0,0.0,0.0,0.0,0,0,0,0,0,0,0,1,0,0,1,0,0
414577044,10.6015,10.7013,25.6668,26.0003,0.0,2757.61,1.0,1.0,nan,0,0.0,0.0,0.0,0.0,0.0,0.0,0.0,0.0,0.0,0.0,0.0,0,0,0,0,0,0,0,1,0,0,1,0,0
414876893,10.6307,10.7039,26.1649,25.8993,0.0,2759.76,1.0,1.0,nan,0,0.0,0.0,0.0,0.0,0.0,0.0,0.0,0.0,0.0,0.0,0.0,0,0,0,0,0,0,0,1,0,0,1,0,0
415177183,10.8056,10.7143,25.9891,25.9808,0.0,2761.94,1.0,1.0,nan,0,0.0,0.0,0.0,0.0,0.0,0.0,0.0,0.0,0.0,0.0,0.0,0,0,0,0,0,0,0,1,0,0,1,0,0
415476897,10.5286,10.7126,26.1649,25.9115,0.0,2764.09,1.0,1.0,nan,0,0.0,0.0,0.0,0.0,0.0,0.0,0.0,0.0,0.0,0.0,0.0,0,0,0,0,0,0,0,1,0,0,1,0,0
415776898,10.6015,10.7195,25.784,25.8611,0.0,2766.24,1.0,1.0,nan,0,0.0,0.0,0.0,0.0,0.0,0.0,0.0,0.0,0.0,0.0,0.0,0,0,0,0,0,0,0,1,0,0,1,0,0
416076881,10.6307,10.7097,26.7802,26.0749,0.0,2768.43,1.0,1.0,nan,0,0.0,0.0,0.0,0.0,0.0,0.0,0.0,0.0,0.0,0.0,0.0,0,0,0,0,0,0,0,1,0,0,1,0,0
416376857,10.6015,10.7084,27.2783,26.4375,0.0,2770.67,1.0,1.0,nan,0,0.0,0.0,0.0,0.0,0.0,0.0,0.0,0.0,0.0,0.0,0.0,0,0,0,0,0,0,0,1,0,0,1,0,0
416677718,10.7911,10.6979,28.2745,27.0413,0.0,2772.99,1.0,1.0,nan,0,0.0,0.0,0.0,0.0,0.0,0.0,0.0,0.0,0.0,0.0,0.0,0,0,0,0,0,0,0,1,0,0,1,0,0
416976857,10.5286,10.6854,27.8936,27.3415,0.0,2775.29,1.0,1.0,nan,0,0.0,0.0,0.0,0.0,0.0,0.0,0.0,0.0,0.0,0.0,0.0,0,0,0,0,0,0,0,1,0,0,1,0,0
417276876,10.5432,10.6706,27.3076,27.4818,0.0,2777.6,1.0,1.0,nan,0,0.0,0.0,0.0,0.0,0.0,0.0,0.0,0.0,0.0,0.0,0.0,0,0,0,0,0,0,0,1,0,0,1,0,0
417576869,10.6161,10.668,27.6006,27.4826,0.0,2779.89,1.0,1.0,nan,0,0.0,0.0,0.0,0.0,0.0,0.0,0.0,0.0,0.0,0.0,0.0,0,0,0,0,0,0,0,1,0,0,1,0,0
417876857,10.7619,10.669,27.4248,27.4236,0.0,2782.17,1.0,1.0,nan,0,0.0,0.0,0.0,0.0,0.0,0.0,0.0,0.0,0.0,0.0,0.0,0,0,0,0,0,0,0,1,0,0,1,0,0
418177427,10.5577,10.6692,27.2783,27.4196,0.0,2784.45,1.0,1.0,nan,0,0.0,0.0,0.0,0.0,0.0,0.0,0.0,0.0,0.0,0.0,0.0,0,0,0,0,0,0,0,1,0,0,1,0,0
418476857,10.7473,10.67,27.4541,27.4662,0.0,2786.74,1.0,1.0,nan,0,0.0,0.0,0.0,0.0,0.0,0.0,0.0,0.0,0.0,0.0,0.0,0,0,0,0,0,0,0,1,0,0,1,0,0
418776887,10.5869,10.6623,27.6299,27.6129,0.0,2789.06,1.0,1.0,nan,0,0.0,0.0,0.0,0.0,0.0,0.0,0.0,0.0,0.0,0.0,0.0,0,0,0,0,0,0,0,1,0,0,1,0,0
419076937,10.5577,10.659,27.4248,27.6197,0.0,2791.36,1.0,1.0,nan,0,0.0,0.0,0.0,0.0,0.0,0.0,0.0,0.0,0.0,0.0,0.0,0,0,0,0,0,0,0,1,0,0,1,0,0
419377000,10.5577,10.6534,27.3076,27.634,0.0,2793.67,1.0,1.0,nan,0,0.0,0.0,0.0,0.0,0.0,0.0,0.0,0.0,0.0,0.0,0.0,0,0,0,0,0,0,0,1,0,0,1,0,0
419677064,10.5577,10.6527,27.2783,27.6557,0.0,2795.98,1.0,1.0,nan,0,0.0,0.0,0.0,0.0,0.0,0.0,0.0,0.0,0.0,0.0,0.0,0,0,0,0,0,0,0,1,0,0,1,0,0
419976857,10.514,10.6514,27.3076,27.5992,0.0,2798.27,1.0,1.0,nan,0,0.0,0.0,0.0,0.0,0.0,0.0,0.0,0.0,0.0,0.0,0.0,0,0,0,0,0,0,0,1,0,0,1,0,0
420276867,10.5286,10.6534,27.1904,27.5231,0.0,2800.56,1.0,1.0,nan,0,0.0,0.0,0.0,0.0,0.0,0.0,0.0,0.0,0.0,0.0,0.0,0,0,0,0,0,0,0,1,0,0,1,0,0
420576876,10.5723,10.6528,27.249,27.5157,0.0,2802.85,1.0,1.0,nan,0,0.0,0.0,0.0,0.0,0.0,0.0,0.0,0.0,0.0,0.0,0.0,0,0,0,0,0,0,0,1,0,0,1,0,0
420876890,10.514,10.6609,27.7764,27.477,0.0,2805.13,1.0,1.0,nan,0,0.0,0.0,0.0,0.0,0.0,0.0,0.0,0.0,0.0,0.0,0.0,0,0,0,0,0,0,0,1,0,0,1,0,0
421177028,10.5577,10.6534,27.8643,27.678,0.0,2807.46,1.0,1.0,nan,0,0.0,0.0,0.0,0.0,0.0,0.0,0.0,0.0,0.0,0.0,0.0,0,0,0,0,0,0,0,1,0,0,1,0,0
421476912,10.4557,10.6565,28.3331,27.7811,0.0,2809.79,1.0,1.0,nan,0,0.0,0.0,0.0,0.0,0.0,0.0,0.0,0.0,0.0,0.0,0.0,0,0,0,0,0,0,0,1,0,0,1,0,0
421777116,10.7473,10.6524,27.5127,27.8619,0.0,2812.12,1.0,1.0,nan,0,0.0,0.0,0.0,0.0,0.0,0.0,0.0,0.0,0.0,0.0,0.0,0,0,0,0,0,0,0,1,0,0,1,0,0
422076857,10.5286,10.6539,27.8936,27.7702,0.0,2814.43,1.0,1.0,nan,0,0.0,0.0,0.0,0.0,0.0,0.0,0.0,0.0,0.0,0.0,0.0,0,0,0,0,0,0,0,1,0,0,1,0,0
422376912,10.5577,10.6523,27.5713,27.7653,0.0,2816.74,1.0,1.0,nan,0,0.0,0.0,0.0,0.0,0.0,0.0,0.0,0.0,0.0,0.0,0.0,0,0,0,0,0,0,0,1,0,0,1,0,0
422676946,10.6015,10.6557,26.5458,27.3202,0.0,2818.98,1.0,1.0,nan,0,0.0,0.0,0.0,0.0,0.0,0.0,0.0,0.0,0.0,0.0,0.0,0,0,0,0,0,0,0,1,0,0,1,0,0
422976857,10.6015,10.6607,25.9891,26.9366,0.0,2821.19,1.0,1.0,nan,0,0.0,0.0,0.0,0.0,0.0,0.0,0.0,0.0,0.0,0.0,0.0,0,0,0,0,0,0,0,1,0,0,1,0,0
423277415,10.5869,10.6719,25.198,26.1501,0.0,2823.3,1.0,1.0,nan,0,0.0,0.0,0.0,0.0,0.0,0.0,0.0,0.0,0.0,0.0,0.0,0,0,0,0,0,0,0,1,0,0,1,0,0
423577101,10.6161,10.6866,24.7878,25.6881,0.0,2825.39,1.0,1.0,nan,0,0.0,0.0,0.0,0.0,0.0,0.0,0.0,0.0,0.0,0.0,0.0,0,0,0,0,0,0,0,1,0,0,1,0,0
423876857,10.6015,10.6836,25.0222,25.5677,0.0,2827.51,1.0,1.0,nan,0,0.0,0.0,0.0,0.0,0.0,0.0,0.0,0.0,0.0,0.0,0.0,0,0,0,0,0,0,0,1,0,0,1,0,0
424176862,10.7765,10.6896,25.0808,25.3606,0.0,2829.6,1.0,1.0,nan,0,0.0,0.0,0.0,0.0,0.0,0.0,0.0,0.0,0.0,0.0,0.0,0,0,0,0,0,0,0,1,0,0,1,0,0
424476857,10.5432,10.698,25.0222,25.3199,0.0,2831.7,1.0,1.0,nan,0,0.0,0.0,0.0,0.0,0.0,0.0,0.0,0.0,0.0,0.0,0.0,0,0,0,0,0,0,0,1,0,0,1,0,0
424776903,10.4702,10.6885,28.9777,25.7213,0.0,2833.87,1.0,1.0,nan,0,0.0,0.0,0.0,0.0,0.0,0.0,0.0,0.0,0.0,0.0,0.0,0,0,0,0,0,0,0,1,0,0,1,0,0
425076858,10.5432,10.6759,27.4248,26.6021,0.0,2836.18,1.0,1.0,nan,0,0.0,0.0,0.0,0.0,0.0,0.0,0.0,0.0,0.0,0.0,0.0,0,0,0,0,0,0,0,1,0,0,1,0,0
425376878,10.5432,10.6673,28.0694,27.0906,0.0,2838.49,1.0,1.0,nan,0,0.0,0.0,0.0,0.0,0.0,0.0,0.0,0.0,0.0,0.0,0.0,0,0,0,0,0,0,0,1,0,0,1,0,0
425676875,10.6307,10.6416,30.6185,28.4482,0.0,2840.99,1.0,1.0,nan,0,0.0,0.0,0.0,0.0,0.0,0.0,0.0,0.0,0.0,0.0,0.0,0,0,0,0,0,0,0,1,0,0,1,0,0
425976860,10.4265,10.6229,30.7943,29.2946,0.0,2843.52,1.0,1.0,nan,0,0.0,0.0,0.0,0.0,0.0,0.0,0.0,0.0,0.0,0.0,0.0,0,0,0,0,0,0,0,1,0,0,1,0,0
426277164,10.6161,10.6134,30.6771,29.8425,0.0,2846.06,1.0,1.0,nan,0,0.0,0.0,0.0,0.0,0.0,0.0,0.0,0.0,0.0,0.0,0.0,0,0,0,0,0,0,0,1,0,0,1,0,0
426576857,10.4411,10.593,31.2924,30.2829,0.0,2848.63,1.0,1.0,nan,0,0.0,0.0,0.0,0.0,0.0,0.0,0.0,0.0,0.0,0.0,0.0,0,0,0,0,0,0,0,1,0,0,1,0,0
426877373,10.5577,10.6183,26.0184,28.7731,0.0,2850.91,1.0,1.0,nan,0,0.0,0.0,0.0,0.0,0.0,0.0,0.0,0.0,0.0,0.0,0.0,0,0,0,0,0,0,0,1,0,0,1,0,0
427176857,10.5869,10.631,26.2821,27.8277,0.0,2853.13,1.0,1.0,nan,0,0.0,0.0,0.0,0.0,0.0,0.0,0.0,0.0,0.0,0.0,0.0,0,0,0,0,0,0,0,1,0,0,1,0,0
427476960,10.514,10.6486,26.3993,27.3482,0.0,2855.36,1.0,1.0,nan,0,0.0,0.0,0.0,0.0,0.0,0.0,0.0,0.0,0.0,0.0,0.0,0,0,0,0,0,0,0,1,0,0,1,0,0
427776984,10.7619,10.6516,26.6337,27.0831,0.0,2857.59,1.0,1.0,nan,0,0.0,0.0,0.0,0.0,0.0,0.0,0.0,0.0,0.0,0.0,0.0,0,0,0,0,0,0,0,1,0,0,1,0,0
428076909,10.5723,10.6532,25.5203,26.8018,0.0,2859.8,1.0,1.0,nan,0,0.0,0.0,0.0,0.0,0.0,0.0,0.0,0.0,0.0,0.0,0.0,0,0,0,0,0,0,0,1,0,0,1,0,0
428377904,10.5577,10.6611,26.7216,26.4629,0.0,2861.97,1.0,1.0,nan,0,0.0,0.0,0.0,0.0,0.0,0.0,0.0,0.0,0.0,0.0,0.0,0,0,0,0,0,0,0,1,0,0,1,0,0
428676895,10.5577,10.6635,26.1063,26.4695,0.0,2864.17,1.0,1.0,nan,0,0.0,0.0,0.0,0.0,0.0,0.0,0.0,0.0,0.0,0.0,0.0,0,0,0,0,0,0,0,1,0,0,1,0,0
428976856,10.5286,10.6682,26.2235,26.3616,0.0,2866.36,1.0,1.0,nan,0,0.0,0.0,0.0,0.0,0.0,0.0,0.0,0.0,0.0,0.0,0.0,0,0,0,0,0,0,0,1,0,0,1,0,0
429276962,10.5286,10.6737,26.1942,26.3858,0.0,2868.56,1.0,1.0,nan,0,0.0,0.0,0.0,0.0,0.0,0.0,0.0,0.0,0.0,0.0,0.0,0,0,0,0,0,0,0,1,0,0,1,0,0
429576882,10.7765,10.6784,25.9598,26.3213,0.0,2870.75,1.0,1.0,nan,0,0.0,0.0,0.0,0.0,0.0,0.0,0.0,0.0,0.0,0.0,0.0,0,0,0,0,0,0,0,1,0,0,1,0,0
429877335,10.5869,10.6856,26.2235,26.2665,0.0,2872.94,1.0,1.0,nan,0,0.0,0.0,0.0,0.0,0.0,0.0,0.0,0.0,0.0,0.0,0.0,0,0,0,0,0,0,0,1,0,0,1,0,0
430176858,10.5286,10.6847,26.37,26.3214,0.0,2875.13,1.0,1.0,nan,0,0.0,0.0,0.0,0.0,0.0,0.0,0.0,0.0,0.0,0.0,0.0,0,0,0,0,0,0,0,1,0,0,1,0,0
430476858,10.5286,10.6743,26.0477,26.438,0.0,2877.35,1.0,1.0,nan,0,0.0,0.0,0.0,0.0,0.0,0.0,0.0,0.0,0.0,0.0,0.0,0,0,0,0,0,0,0,1,0,0,1,0,0
430776858,10.5723,10.6731,26.1942,26.3639,0.0,2879.54,1.0,1.0,nan,0,0.0,0.0,0.0,0.0,0.0,0.0,0.0,0.0,0.0,0.0,0.0,0,0,0,0,0,0,0,1,0,0,1,0,0
431076898,10.7911,10.6718,26.0477,26.3828,0.0,2881.74,1.0,1.0,nan,0,0.0,0.0,0.0,0.0,0.0,0.0,0.0,0.0,0.0,0.0,0.0,0,0,0,0,0,0,0,1,0,0,1,0,0
431376898,10.5577,10.6832,26.3407,26.4438,0.0,2883.95,1.0,1.0,nan,0,0.0,0.0,0.0,0.0,0.0,0.0,0.0,0.0,0.0,0.0,0.0,0,0,0,0,0,0,0,1,0,0,1,0,0
431676865,10.8056,10.6823,26.5751,26.5046,0.0,2886.16,1.0,1.0,nan,0,0.0,0.0,0.0,0.0,0.0,0.0,0.0,0.0,0.0,0.0,0.0,0,0,0,0,0,0,0,1,0,0,1,0,0
431978326,10.7765,10.6904,25.8426,26.3548,0.0,2888.35,1.0,1.0,nan,0,0.0,0.0,0.0,0.0,0.0,0.0,0.0,0.0,0.0,0.0,0.0,0,0,0,0,0,0,0,1,0,0,1,0,0
432276925,10.5577,10.6805,25.8426,26.3323,0.0,2890.53,1.0,1.0,nan,0,0.0,0.0,0.0,0.0,0.0,0.0,0.0,0.0,0.0,0.0,0.0,0,0,0,0,0,0,0,1,0,0,1,0,0
432576858,10.5577,10.6903,25.491,26.1888,0.0,2892.7,1.0,1.0,nan,0,0.0,0.0,0.0,0.0,0.0,0.0,0.0,0.0,0.0,0.0,0.0,0,0,0,0,0,0,0,1,0,0,1,0,0
432876857,10.5286,10.6865,26.4286,26.2214,0.0,2894.89,1.0,1.0,nan,0,0.0,0.0,0.0,0.0,0.0,0.0,0.0,0.0,0.0,0.0,0.0,0,0,0,0,0,0,0,1,0,0,1,0,0
433176942,10.3682,10.6462,31.7319,28.6206,0.0,2897.48,1.0,1.0,nan,0,0.0,0.0,0.0,0.0,0.0,0.0,0.0,0.0,0.0,0.0,0.0,0,0,0,0,0,0,0,1,0,0,1,0,0
433477096,10.3973,10.6212,30.9408,29.7899,0.0,2900.1,1.0,1.0,nan,0,0.0,0.0,0.0,0.0,0.0,0.0,0.0,0.0,0.0,0.0,0.0,0,0,0,0,0,0,0,1,0,0,1,0,0
433776910,10.4411,10.594,31.644,30.5156,0.0,2902.71,1.0,1.0,nan,0,0.0,0.0,0.0,0.0,0.0,0.0,0.0,0.0,0.0,0.0,0.0,0,0,0,0,0,0,0,1,0,0,1,0,0
434076959,10.4557,10.5758,31.351,30.9555,0.0,2905.34,1.0,1.0,nan,0,0.0,0.0,0.0,0.0,0.0,0.0,0.0,0.0,0.0,0.0,0.0,0,0,0,0,0,0,0,1,0,0,1,0,0
434376857,10.4848,10.5574,30.5892,31.1889,0.0,2907.96,1.0,1.0,nan,0,0.0,0.0,0.0,0.0,0.0,0.0,0.0,0.0,0.0,0.0,0.0,0,0,0,0,0,0,0,1,0,0,1,0,0
434676860,10.3973,10.5739,30.6185,30.4493,0.0,2910.41,1.0,1.0,nan,0,0.0,0.0,0.0,0.0,0.0,0.0,0.0,0.0,0.0,0.0,0.0,0,0,0,0,0,0,0,1,0,0,1,0,0
434977212,10.4411,10.5656,30.3255,30.4475,0.0,2912.95,1.0,1.0,nan,0,0.0,0.0,0.0,0.0,0.0,0.0,0.0,0.0,0.0,0.0,0.0,0,0,0,0,0,0,0,1,0,0,1,0,0
435277008,10.7765,10.5755,26.2821,29.8956,0.0,2915.4,1.0,1.0,nan,0,0.0,0.0,0.0,0.0,0.0,0.0,0.0,0.0,0.0,0.0,0.0,0,0,0,0,0,0,0,1,0,0,1,0,0
435576859,10.7036,10.6134,26.1649,27.8447,0.0,2917.51,1.0,1.0,nan,0,0.0,0.0,0.0,0.0,0.0,0.0,0.0,0.0,0.0,0.0,0.0,0,0,0,0,0,0,0,1,0,0,1,0,0
435876859,10.7473,10.6578,19.8068,25.1362,0.0,2919.35,1.0,1.0,nan,0,0.0,0.0,0.0,0.0,0.0,0.0,0.0,0.0,0.0,0.0,0.0,0,0,0,0,0,0,0,1,0,0,1,0,0
436176879,10.7619,10.6997,20.217,23.4585,0.0,2921.13,1.0,1.0,nan,0,0.0,0.0,0.0,0.0,0.0,0.0,0.0,0.0,0.0,0.0,0.0,0,0,0,0,0,0,0,1,0,0,1,0,0
436476858,10.7182,10.725,21.5941,22.5134,0.0,2922.91,1.0,1.0,nan,0,0.0,0.0,0.0,0.0,0.0,0.0,0.0,0.0,0.0,0.0,0.0,0,0,0,0,0,0,0,1,0,0,1,0,0
436776857,10.7473,10.7497,21.2425,21.8178,0.0,2924.66,1.0,1.0,nan,0,0.0,0.0,0.0,0.0,0.0,0.0,0.0,0.0,0.0,0.0,0.0,0,0,0,0,0,0,0,1,0,0,1,0,0
437076860,10.7327,10.7752,19.8654,21.3176,0.0,2926.39,1.0,1.0,nan,0,0.0,0.0,0.0,0.0,0.0,0.0,0.0,0.0,0.0,0.0,0.0,0,0,0,0,0,0,0,1,0,0,1,0,0
437376877,10.7182,10.7671,28.714,23.22,0.0,2928.46,1.0,1.0,nan,0,0.0,0.0,0.0,0.0,0.0,0.0,0.0,0.0,0.0,0.0,0.0,0,0,0,0,0,0,0,1,0,0,1,0,0
437676868,10.4411,10.7151,30.179,26.2151,0.0,2930.95,1.0,1.0,nan,0,0.0,0.0,0.0,0.0,0.0,0.0,0.0,0.0,0.0,0.0,0.0,0,0,0,0,0,0,0,1,0,0,1,0,0
437976860,10.6598,10.6827,29.8274,27.9029,0.0,2933.44,1.0,1.0,nan,0,0.0,0.0,0.0,0.0,0.0,0.0,0.0,0.0,0.0,0.0,0.0,0,0,0,0,0,0,0,1,0,0,1,0,0
438276873,10.4265,10.6489,30.6771,29.1622,0.0,2936.0,1.0,1.0,nan,0,0.0,0.0,0.0,0.0,0.0,0.0,0.0,0.0,0.0,0.0,0.0,0,0,0,0,0,0,0,1,0,0,1,0,0
438577735,10.4265,10.6285,30.8822,29.8664,0.0,2938.57,1.0,1.0,nan,0,0.0,0.0,0.0,0.0,0.0,0.0,0.0,0.0,0.0,0.0,0.0,0,0,0,0,0,0,0,1,0,0,1,0,0
438876869,10.6161,10.6074,30.8529,30.3136,0.0,2941.14,1.0,1.0,nan,0,0.0,0.0,0.0,0.0,0.0,0.0,0.0,0.0,0.0,0.0,0.0,0,0,0,0,0,0,0,1,0,0,1,0,0
439176891,10.3973,10.5842,30.7943,30.5667,0.0,2943.71,1.0,1.0,nan,0,0.0,0.0,0.0,0.0,0.0,0.0,0.0,0.0,0.0,0.0,0.0,0,0,0,0,0,0,0,1,0,0,1,0,0
439476857,10.3682,10.5701,30.7357,30.6776,0.0,2946.27,1.0,1.0,nan,0,0.0,0.0,0.0,0.0,0.0,0.0,0.0,0.0,0.0,0.0,0.0,0,0,0,0,0,0,0,1,0,0,1,0,0
439776853,10.3973,10.5588,30.9115,30.7631,0.0,2948.85,1.0,1.0,nan,0,0.0,0.0,0.0,0.0,0.0,0.0,0.0,0.0,0.0,0.0,0.0,0,0,0,0,0,0,0,1,0,0,1,0,0
440077016,10.5432,10.5712,26.3993,30.0497,0.0,2951.31,1.0,1.0,nan,0,0.0,0.0,0.0,0.0,0.0,0.0,0.0,0.0,0.0,0.0,0.0,0,0,0,0,0,0,0,1,0,0,1,0,0
440376879,10.4994,10.5933,28.2452,28.9491,0.0,2953.6,1.0,1.0,nan,0,0.0,0.0,0.0,0.0,0.0,0.0,0.0,0.0,0.0,0.0,0.0,0,0,0,0,0,0,0,1,0,0,1,0,0
440676857,10.689,10.5928,28.0987,28.5825,0.0,2955.95,1.0,1.0,nan,0,0.0,0.0,0.0,0.0,0.0,0.0,0.0,0.0,0.0,0.0,0.0,0,0,0,0,0,0,0,1,0,0,1,0,0
440976860,10.4702,10.6063,28.0694,28.515,0.0,2958.31,1.0,1.0,nan,0,0.0,0.0,0.0,0.0,0.0,0.0,0.0,0.0,0.0,0.0,0.0,0,0,0,0,0,0,0,1,0,0,1,0,0
441276866,10.5723,10.6242,24.7585,27.5542,0.0,2960.53,1.0,1.0,nan,0,0.0,0.0,0.0,0.0,0.0,0.0,0.0,0.0,0.0,0.0,0.0,0,0,0,0,0,0,0,1,0,0,1,0,0
441577106,10.6015,10.6431,25.1101,26.2905,0.0,2962.59,1.0,1.0,nan,0,0.0,0.0,0.0,0.0,0.0,0.0,0.0,0.0,0.0,0.0,0.0,0,0,0,0,0,0,0,1,0,0,1,0,0
441876948,10.6161,10.6549,26.1942,25.8907,0.0,2964.7,1.0,1.0,nan,0,0.0,0.0,0.0,0.0,0.0,0.0,0.0,0.0,0.0,0.0,0.0,0,0,0,0,0,0,0,1,0,0,1,0,0
442176857,10.5723,10.661,24.9343,25.5359,0.0,2966.8,1.0,1.0,nan,0,0.0,0.0,0.0,0.0,0.0,0.0,0.0,0.0,0.0,0.0,0.0,0,0,0,0,0,0,0,1,0,0,1,0,0
442476974,10.5723,10.6753,25.1394,25.2705,0.0,2968.87,1.0,1.0,nan,0,0.0,0.0,0.0,0.0,0.0,0.0,0.0,0.0,0.0,0.0,0.0,0,0,0,0,0,0,0,1,0,0,1,0,0
442776979,10.7765,10.6778,24.7878,25.1739,0.0,2970.97,1.0,1.0,nan,0,0.0,0.0,0.0,0.0,0.0,0.0,0.0,0.0,0.0,0.0,0.0,0,0,0,0,0,0,0,1,0,0,1,0,0
443076888,10.5723,10.6904,25.5496,25.1988,0.0,2973.07,1.0,1.0,nan,0,0.0,0.0,0.0,0.0,0.0,0.0,0.0,0.0,0.0,0.0,0.0,0,0,0,0,0,0,0,1,0,0,1,0,0
443376857,10.5577,10.6897,25.198,25.2409,0.0,2975.17,1.0,1.0,nan,0,0.0,0.0,0.0,0.0,0.0,0.0,0.0,0.0,0.0,0.0,0.0,0,0,0,0,0,0,0,1,0,0,1,0,0
443677278,10.5869,10.7029,24.3776,25.1198,0.0,2977.25,1.0,1.0,nan,0,0.0,0.0,0.0,0.0,0.0,0.0,0.0,0.0,0.0,0.0,0.0,0,0,0,0,0,0,0,1,0,0,1,0,0
443976857,10.5869,10.7103,24.9929,25.044,0.0,2979.33,1.0,1.0,nan,0,0.0,0.0,0.0,0.0,0.0,0.0,0.0,0.0,0.0,0.0,0.0,0,0,0,0,0,0,0,1,0,0,1,0,0
444276935,10.5869,10.7151,24.8464,24.8882,0.0,2981.39,1.0,1.0,nan,0,0.0,0.0,0.0,0.0,0.0,0.0,0.0,0.0,0.0,0.0,0.0,0,0,0,0,0,0,0,1,0,0,1,0,0
444576920,10.5869,10.7186,24.5534,24.7526,0.0,2983.43,1.0,1.0,nan,0,0.0,0.0,0.0,0.0,0.0,0.0,0.0,0.0,0.0,0.0,0.0,0,0,0,0,0,0,0,1,0,0,1,0,0
444876858,10.4994,10.7003,26.8681,25.143,0.0,2985.55,1.0,1.0,nan,0,0.0,0.0,0.0,0.0,0.0,0.0,0.0,0.0,0.0,0.0,0.0,0,0,0,0,0,0,0,1,0,0,1,0,0
445177149,10.7182,10.6812,28.0694,26.3435,0.0,2987.87,1.0,1.0,nan,0,0.0,0.0,0.0,0.0,0.0,0.0,0.0,0.0,0.0,0.0,0.0,0,0,0,0,0,0,0,1,0,0,1,0,0
445476879,10.4702,10.6582,28.3917,27.0712,0.0,2990.2,1.0,1.0,nan,0,0.0,0.0,0.0,0.0,0.0,0.0,0.0,0.0,0.0,0.0,0.0,0,0,0,0,0,0,0,1,0,0,1,0,0
445776857,10.6598,10.6562,28.5382,27.6369,0.0,2992.56,1.0,1.0,nan,0,0.0,0.0,0.0,0.0,0.0,0.0,0.0,0.0,0.0,0.0,0.0,0,0,0,0,0,0,0,1,0,0,1,0,0
446076894,10.4265,10.6306,30.5599,28.5888,0.0,2995.02,1.0,1.0,nan,0,0.0,0.0,0.0,0.0,0.0,0.0,0.0,0.0,0.0,0.0,0.0,0,0,0,0,0,0,0,1,0,0,1,0,0
446376857,10.4119,10.6158,30.765,29.2676,0.0,2997.53,1.0,1.0,nan,0,0.0,0.0,0.0,0.0,0.0,0.0,0.0,0.0,0.0,0.0,0.0,0,0,0,0,0,0,0,1,0,0,1,0,0
446677470,10.4411,10.598,30.3841,29.7529,0.0,3000.06,1.0,1.0,nan,0,0.0,0.0,0.0,0.0,0.0,0.0,0.0,0.0,0.0,0.0,0.0,0,0,0,0,0,0,0,1,0,0,1,0,0
446976988,10.4994,10.6011,26.5751,29.0633,0.0,3002.43,1.0,1.0,nan,0,0.0,0.0,0.0,0.0,0.0,0.0,0.0,0.0,0.0,0.0,0.0,0,0,0,0,0,0,0,1,0,0,1,0,0
447276857,10.5432,10.6169,24.1432,27.8694,0.0,3004.65,1.0,1.0,nan,0,0.0,0.0,0.0,0.0,0.0,0.0,0.0,0.0,0.0,0.0,0.0,0,0,0,0,0,0,0,1,0,0,1,0,0
447576913,10.5577,10.6308,26.0477,26.677,0.0,3006.74,1.0,1.0,nan,0,0.0,0.0,0.0,0.0,0.0,0.0,0.0,0.0,0.0,0.0,0.0,0,0,0,0,0,0,0,1,0,0,1,0,0
447876978,10.514,10.6176,26.8681,26.8006,0.0,3008.98,1.0,1.0,nan,0,0.0,0.0,0.0,0.0,0.0,0.0,0.0,0.0,0.0,0.0,0.0,0,0,0,0,0,0,0,1,0,0,1,0,0
448177165,10.7327,10.6248,27.8057,26.8027,0.0,3011.21,1.0,1.0,nan,0,0.0,0.0,0.0,0.0,0.0,0.0,0.0,0.0,0.0,0.0,0.0,0,0,0,0,0,0,0,1,0,0,1,0,0
448476881,10.7619,10.6344,26.7216,26.905,0.0,3013.46,1.0,1.0,nan,0,0.0,0.0,0.0,0.0,0.0,0.0,0.0,0.0,0.0,0.0,0.0,0,0,0,0,0,0,0,1,0,0,1,0,0
448776875,10.514,10.624,26.8974,26.8191,0.0,3015.69,1.0,1.0,nan,0,0.0,0.0,0.0,0.0,0.0,0.0,0.0,0.0,0.0,0.0,0.0,0,0,0,0,0,0,0,1,0,0,1,0,0
449076857,10.689,10.6244,26.6337,26.7966,0.0,3017.92,1.0,1.0,nan,0,0.0,0.0,0.0,0.0,0.0,0.0,0.0,0.0,0.0,0.0,0.0,0,0,0,0,0,0,0,1,0,0,1,0,0
449376859,10.5577,10.6163,26.7802,26.6847,0.0,3020.14,1.0,1.0,nan,0,0.0,0.0,0.0,0.0,0.0,0.0,0.0,0.0,0.0,0.0,0.0,0,0,0,0,0,0,0,1,0,0,1,0,0
449676978,10.4702,10.6147,27.1611,26.5609,0.0,3022.34,1.0,1.0,nan,0,0.0,0.0,0.0,0.0,0.0,0.0,0.0,0.0,0.0,0.0,0.0,0,0,0,0,0,0,0,1,0,0,1,0,0
449976857,10.7473,10.6024,26.8388,26.6381,0.0,3024.56,1.0,1.0,nan,0,0.0,0.0,0.0,0.0,0.0,0.0,0.0,0.0,0.0,0.0,0.0,0,0,0,0,0,0,0,1,0,0,1,0,0
450277314,10.5286,10.5885,26.7509,26.6513,0.0,3026.79,1.0,1.0,nan,0,0.0,0.0,0.0,0.0,0.0,0.0,0.0,0.0,0.0,0.0,0.0,0,0,0,0,0,0,0,1,0,0,1,0,0
450576859,10.4994,10.5777,26.6044,26.6954,0.0,3029.02,1.0,1.0,nan,0,0.0,0.0,0.0,0.0,0.0,0.0,0.0,0.0,0.0,0.0,0.0,0,0,0,0,0,0,0,1,0,0,1,0,0
450876873,10.5432,10.5686,26.6044,26.655,0.0,3031.23,1.0,1.0,nan,0,0.0,0.0,0.0,0.0,0.0,0.0,0.0,0.0,0.0,0.0,0.0,0,0,0,0,0,0,0,1,0,0,1,0,0
451176949,10.7327,10.5658,26.7509,26.6631,0.0,3033.46,1.0,1.0,nan,0,0.0,0.0,0.0,0.0,0.0,0.0,0.0,0.0,0.0,0.0,0.0,0,0,0,0,0,0,0,1,0,0,1,0,0
451476858,10.4994,10.5699,26.4286,26.647,0.0,3035.68,1.0,1.0,nan,0,0.0,0.0,0.0,0.0,0.0,0.0,0.0,0.0,0.0,0.0,0.0,0,0,0,0,0,0,0,1,0,0,1,0,0
451776923,10.5432,10.5558,26.8974,26.6973,0.0,3037.9,1.0,1.0,nan,0,0.0,0.0,0.0,0.0,0.0,0.0,0.0,0.0,0.0,0.0,0.0,0,0,0,0,0,0,0,1,0,0,1,0,0
452076858,10.4702,10.5589,27.0732,26.6921,0.0,3040.13,1.0,1.0,nan,0,0.0,0.0,0.0,0.0,0.0,0.0,0.0,0.0,0.0,0.0,0.0,0,0,0,0,0,0,0,1,0,0,1,0,0
452376857,10.4557,10.5607,29.0363,26.8287,0.0,3042.38,1.0,1.0,nan,0,0.0,0.0,0.0,0.0,0.0,0.0,0.0,0.0,0.0,0.0,0.0,0,0,0,0,0,0,0,1,0,0,1,0,0
452677035,10.3828,10.5198,30.7064,28.5166,0.0,3044.94,1.0,1.0,nan,0,0.0,0.0,0.0,0.0,0.0,0.0,0.0,0.0,0.0,0.0,0.0,0,0,0,0,0,0,0,1,0,0,1,0,0
452976873,10.3682,10.4856,30.9408,29.8195,0.0,3047.56,1.0,1.0,nan,0,0.0,0.0,0.0,0.0,0.0,0.0,0.0,0.0,0.0,0.0,0.0,0,0,0,0,0,0,0,1,0,0,1,0,0
453277311,10.3682,10.457,31.4096,30.4318,0.0,3050.16,1.0,1.0,nan,0,0.0,0.0,0.0,0.0,0.0,0.0,0.0,0.0,0.0,0.0,0.0,0,0,0,0,0,0,0,1,0,0,1,0,0
453576857,10.3536,10.451,31.4096,30.8523,0.0,3052.77,1.0,1.0,nan,0,0.0,0.0,0.0,0.0,0.0,0.0,0.0,0.0,0.0,0.0,0.0,0,0,0,0,0,0,0,1,0,0,1,0,0
453876857,10.7473,10.4464,26.1649,30.1665,0.0,3055.25,1.0,1.0,nan,0,0.0,0.0,0.0,0.0,0.0,0.0,0.0,0.0,0.0,0.0,0.0,0,0,0,0,0,0,0,1,0,0,1,0,0
454176871,10.514,10.4793,27.9522,28.5383,0.0,3057.45,1.0,1.0,nan,0,0.0,0.0,0.0,0.0,0.0,0.0,0.0,0.0,0.0,0.0,0.0,0,0,0,0,0,0,0,1,0,0,1,0,0
454476859,10.6744,10.487,27.6592,28.2349,0.0,3059.77,1.0,1.0,nan,0,0.0,0.0,0.0,0.0,0.0,0.0,0.0,0.0,0.0,0.0,0.0,0,0,0,0,0,0,0,1,0,0,1,0,0
454776859,10.689,10.4986,27.9522,28.0176,0.0,3062.08,1.0,1.0,nan,0,0.0,0.0,0.0,0.0,0.0,0.0,0.0,0.0,0.0,0.0,0.0,0,0,0,0,0,0,0,1,0,0,1,0,0
455076886,10.689,10.5146,26.8095,27.3802,0.0,3064.3,1.0,1.0,nan,0,0.0,0.0,0.0,0.0,0.0,0.0,0.0,0.0,0.0,0.0,0.0,0,0,0,0,0,0,0,1,0,0,1,0,0
455377888,10.7327,10.5276,26.4286,27.0491,0.0,3066.53,1.0,1.0,nan,0,0.0,0.0,0.0,0.0,0.0,0.0,0.0,0.0,0.0,0.0,0.0,0,0,0,0,0,0,0,1,0,0,1,0,0
455676857,10.4994,10.5352,26.6044,26.8031,0.0,3068.74,1.0,1.0,nan,0,0.0,0.0,0.0,0.0,0.0,0.0,0.0,0.0,0.0,0.0,0.0,0,0,0,0,0,0,0,1,0,0,1,0,0
455976904,10.514,10.5346,26.7509,26.6395,0.0,3070.94,1.0,1.0,nan,0,0.0,0.0,0.0,0.0,0.0,0.0,0.0,0.0,0.0,0.0,0.0,0,0,0,0,0,0,0,1,0,0,1,0,0
456276859,10.4848,10.5281,26.956,26.6063,0.0,3073.15,1.0,1.0,nan,0,0.0,0.0,0.0,0.0,0.0,0.0,0.0,0.0,0.0,0.0,0.0,0,0,0,0,0,0,0,1,0,0,1,0,0
456576857,10.3973,10.534,27.4541,26.6034,0.0,3075.36,1.0,1.0,nan,0,0.0,0.0,0.0,0.0,0.0,0.0,0.0,0.0,0.0,0.0,0.0,0,0,0,0,0,0,0,1,0,0,1,0,0
456877638,10.5286,10.5445,26.956,26.6809,0.0,3077.6,1.0,1.0,nan,0,0.0,0.0,0.0,0.0,0.0,0.0,0.0,0.0,0.0,0.0,0.0,0,0,0,0,0,0,0,1,0,0,1,0,0
457176875,10.5432,10.5363,27.0732,26.6959,0.0,3079.82,1.0,1.0,nan,0,0.0,0.0,0.0,0.0,0.0,0.0,0.0,0.0,0.0,0.0,0.0,0,0,0,0,0,0,0,1,0,0,1,0,0
457476857,10.514,10.5427,26.4872,26.5472,0.0,3082.02,1.0,1.0,nan,0,0.0,0.0,0.0,0.0,0.0,0.0,0.0,0.0,0.0,0.0,0.0,0,0,0,0,0,0,0,1,0,0,1,0,0
457776990,10.7619,10.5456,26.6923,26.588,0.0,3084.24,1.0,1.0,nan,0,0.0,0.0,0.0,0.0,0.0,0.0,0.0,0.0,0.0,0.0,0.0,0,0,0,0,0,0,0,1,0,0,1,0,0
458076857,10.4411,10.5522,26.7802,26.4828,0.0,3086.43,1.0,1.0,nan,0,0.0,0.0,0.0,0.0,0.0,0.0,0.0,0.0,0.0,0.0,0.0,0,0,0,0,0,0,0,1,0,0,1,0,0
458377399,10.7036,10.5488,26.5751,26.5181,0.0,3088.65,1.0,1.0,nan,0,0.0,0.0,0.0,0.0,0.0,0.0,0.0,0.0,0.0,0.0,0.0,0,0,0,0,0,0,0,1,0,0,1,0,0
458676961,10.5286,10.541,26.37,26.4032,0.0,3090.84,1.0,1.0,nan,0,0.0,0.0,0.0,0.0,0.0,0.0,0.0,0.0,0.0,0.0,0.0,0,0,0,0,0,0,0,1,0,0,1,0,0
458976857,10.689,10.546,26.7802,26.3205,0.0,3093.02,1.0,1.0,nan,0,0.0,0.0,0.0,0.0,0.0,0.0,0.0,0.0,0.0,0.0,0.0,0,0,0,0,0,0,0,1,0,0,1,0,0
459276910,10.4848,10.5543,26.7216,26.3976,0.0,3095.23,1.0,1.0,nan,0,0.0,0.0,0.0,0.0,0.0,0.0,0.0,0.0,0.0,0.0,0.0,0,0,0,0,0,0,0,1,0,0,1,0,0
459576989,10.7182,10.5498,27.1318,26.921,0.0,3097.53,1.0,1.0,nan,0,0.0,0.0,0.0,0.0,0.0,0.0,0.0,0.0,0.0,0.0,0.0,0,0,0,0,0,0,0,1,0,0,1,0,0
459877165,10.4119,10.5393,28.0987,27.1701,0.0,3099.82,1.0,1.0,nan,0,0.0,0.0,0.0,0.0,0.0,0.0,0.0,0.0,0.0,0.0,0.0,0,0,0,0,0,0,0,1,0,0,1,0,0
460176857,10.7036,10.5333,27.7178,27.4036,0.0,3102.12,1.0,1.0,nan,0,0.0,0.0,0.0,0.0,0.0,0.0,0.0,0.0,0.0,0.0,0.0,0,0,0,0,0,0,0,1,0,0,1,0,0
460476858,10.4702,10.5274,28.2159,27.5657,0.0,3104.43,1.0,1.0,nan,0,0.0,0.0,0.0,0.0,0.0,0.0,0.0,0.0,0.0,0.0,0.0,0,0,0,0,0,0,0,1,0,0,1,0,0
460776857,10.4702,10.5366,27.9522,27.5838,0.0,3106.73,1.0,1.0,nan,0,0.0,0.0,0.0,0.0,0.0,0.0,0.0,0.0,0.0,0.0,0.0,0,0,0,0,0,0,0,1,0,0,1,0,0
461077033,10.689,10.5361,27.6006,27.6653,0.0,3109.05,1.0,1.0,nan,0,0.0,0.0,0.0,0.0,0.0,0.0,0.0,0.0,0.0,0.0,0.0,0,0,0,0,0,0,0,1,0,0,1,0,0
461376879,10.4702,10.5239,27.835,27.7698,0.0,3111.37,1.0,1.0,nan,0,0.0,0.0,0.0,0.0,0.0,0.0,0.0,0.0,0.0,0.0,0.0,0,0,0,0,0,0,0,1,0,0,1,0,0
461676857,10.7182,10.5162,28.0108,27.7628,0.0,3113.68,1.0,1.0,nan,0,0.0,0.0,0.0,0.0,0.0,0.0,0.0,0.0,0.0,0.0,0.0,0,0,0,0,0,0,0,1,0,0,1,0,0
461977740,10.4702,10.5049,27.9815,27.821,0.0,3116.02,1.0,1.0,nan,0,0.0,0.0,0.0,0.0,0.0,0.0,0.0,0.0,0.0,0.0,0.0,0,0,0,0,0,0,0,1,0,0,1,0,0
462276890,10.689,10.5103,27.7764,27.8789,0.0,3118.34,1.0,1.0,nan,0,0.0,0.0,0.0,0.0,0.0,0.0,0.0,0.0,0.0,0.0,0.0,0,0,0,0,0,0,0,1,0,0,1,0,0
462576859,10.514,10.5139,27.249,27.8312,0.0,3120.66,1.0,1.0,nan,0,0.0,0.0,0.0,0.0,0.0,0.0,0.0,0.0,0.0,0.0,0.0,0,0,0,0,0,0,0,1,0,0,1,0,0
462876951,10.7473,10.529,25.198,26.7425,0.0,3122.78,1.0,1.0,nan,0,0.0,0.0,0.0,0.0,0.0,0.0,0.0,0.0,0.0,0.0,0.0,0,0,0,0,0,0,0,1,0,0,1,0,0
463176857,10.7182,10.5449,26.1649,26.4084,0.0,3124.95,1.0,1.0,nan,0,0.0,0.0,0.0,0.0,0.0,0.0,0.0,0.0,0.0,0.0,0.0,0,0,0,0,0,0,0,1,0,0,1,0,0
463477013,10.6598,10.558,25.9305,26.1968,0.0,3127.11,1.0,1.0,nan,0,0.0,0.0,0.0,0.0,0.0,0.0,0.0,0.0,0.0,0.0,0.0,0,0,0,0,0,0,0,1,0,0,1,0,0
463777040,10.5577,10.5551,25.9305,26.1224,0.0,3129.28,1.0,1.0,nan,0,0.0,0.0,0.0,0.0,0.0,0.0,0.0,0.0,0.0,0.0,0.0,0,0,0,0,0,0,0,1,0,0,1,0,0
464076857,10.4702,10.553,25.9891,26.0931,0.0,3131.45,1.0,1.0,nan,0,0.0,0.0,0.0,0.0,0.0,0.0,0.0,0.0,0.0,0.0,0.0,0,0,0,0,0,0,0,1,0,0,1,0,0
464376857,10.7182,10.5474,25.7547,26.0037,0.0,3133.61,1.0,1.0,nan,0,0.0,0.0,0.0,0.0,0.0,0.0,0.0,0.0,0.0,0.0,0.0,0,0,0,0,0,0,0,1,0,0,1,0,0
464676857,10.5432,10.5638,25.9012,25.92,0.0,3135.76,1.0,1.0,nan,0,0.0,0.0,0.0,0.0,0.0,0.0,0.0,0.0,0.0,0.0,0.0,0,0,0,0,0,0,0,1,0,0,1,0,0
464977223,10.7473,10.564,26.077,25.971,0.0,3137.93,1.0,1.0,nan,0,0.0,0.0,0.0,0.0,0.0,0.0,0.0,0.0,0.0,0.0,0.0,0,0,0,0,0,0,0,1,0,0,1,0,0
465276859,10.7036,10.5695,28.1866,26.1609,0.0,3140.12,1.0,1.0,nan,0,0.0,0.0,0.0,0.0,0.0,0.0,0.0,0.0,0.0,0.0,0.0,0,0,0,0,0,0,0,1,0,0,1,0,0
465576872,10.6744,10.5447,28.5968,27.1274,0.0,3142.47,1.0,1.0,nan,0,0.0,0.0,0.0,0.0,0.0,0.0,0.0,0.0,0.0,0.0,0.0,0,0,0,0,0,0,0,1,0,0,1,0,0
465876877,10.5869,10.5374,28.1866,27.6365,0.0,3144.82,1.0,1.0,nan,0,0.0,0.0,0.0,0.0,0.0,0.0,0.0,0.0,0.0,0.0,0.0,0,0,0,0,0,0,0,1,0,0,1,0,0
466176857,10.6307,10.5334,28.2745,28.0512,0.0,3147.2,1.0,1.0,nan,0,0.0,0.0,0.0,0.0,0.0,0.0,0.0,0.0,0.0,0.0,0.0,0,0,0,0,0,0,0,1,0,0,1,0,0
466476858,10.6452,10.5287,28.6847,28.253,0.0,3149.58,1.0,1.0,nan,0,0.0,0.0,0.0,0.0,0.0,0.0,0.0,0.0,0.0,0.0,0.0,0,0,0,0,0,0,0,1,0,0,1,0,0
466776858,10.4702,10.5191,28.9191,28.4531,0.0,3151.97,1.0,1.0,nan,0,0.0,0.0,0.0,0.0,0.0,0.0,0.0,0.0,0.0,0.0,0.0,0,0,0,0,0,0,0,1,0,0,1,0,0
467077383,10.4994,10.5157,25.9598,27.4937,0.0,3154.18,1.0,1.0,nan,0,0.0,0.0,0.0,0.0,0.0,0.0,0.0,0.0,0.0,0.0,0.0,0,0,0,0,0,0,0,1,0,0,1,0,0
467376914,10.4557,10.5126,26.4286,27.047,0.0,3156.38,1.0,1.0,nan,0,0.0,0.0,0.0,0.0,0.0,0.0,0.0,0.0,0.0,0.0,0.0,0,0,0,0,0,0,0,1,0,0,1,0,0
467676930,10.4702,10.5207,26.4286,26.8081,0.0,3158.59,1.0,1.0,nan,0,0.0,0.0,0.0,0.0,0.0,0.0,0.0,0.0,0.0,0.0,0.0,0,0,0,0,0,0,0,1,0,0,1,0,0
467976857,10.6161,10.54,26.6337,26.5214,0.0,3160.77,1.0,1.0,nan,0,0.0,0.0,0.0,0.0,0.0,0.0,0.0,0.0,0.0,0.0,0.0,0,0,0,0,0,0,0,1,0,0,1,0,0
468276858,10.5432,10.5319,26.1649,26.5291,0.0,3162.98,1.0,1.0,nan,0,0.0,0.0,0.0,0.0,0.0,0.0,0.0,0.0,0.0,0.0,0.0,0,0,0,0,0,0,0,1,0,0,1,0,0
468577104,10.6744,10.5644,21.682,25.3199,0.0,3165.0,1.0,1.0,nan,0,0.0,0.0,0.0,0.0,0.0,0.0,0.0,0.0,0.0,0.0,0.0,0,0,0,0,0,0,0,1,0,0,1,0,0
468876857,10.7765,10.5817,25.9598,24.6715,0.0,3166.97,1.0,1.0,nan,0,0.0,0.0,0.0,0.0,0.0,0.0,0.0,0.0,0.0,0.0,0.0,0,0,0,0,0,0,0,1,0,0,1,0,0
469176857,10.6015,10.5894,24.6999,24.6371,0.0,3169.02,1.0,1.0,nan,0,0.0,0.0,0.0,0.0,0.0,0.0,0.0,0.0,0.0,0.0,0.0,0,0,0,0,0,0,0,1,0,0,1,0,0
469476860,10.7619,10.5949,24.9343,24.5714,0.0,3171.06,1.0,1.0,nan,0,0.0,0.0,0.0,0.0,0.0,0.0,0.0,0.0,0.0,0.0,0.0,0,0,0,0,0,0,0,1,0,0,1,0,0
469776903,10.6161,10.5963,24.9929,24.643,0.0,3173.12,1.0,1.0,nan,0,0.0,0.0,0.0,0.0,0.0,0.0,0.0,0.0,0.0,0.0,0.0,0,0,0,0,0,0,0,1,0,0,1,0,0
470076858,10.6161,10.5911,29.1242,25.1584,0.0,3175.25,1.0,1.0,nan,0,0.0,0.0,0.0,0.0,0.0,0.0,0.0,0.0,0.0,0.0,0.0,0,0,0,0,0,0,0,1,0,0,1,0,0
470376893,10.6452,10.5775,29.0949,26.4921,0.0,3177.6,1.0,1.0,nan,0,0.0,0.0,0.0,0.0,0.0,0.0,0.0,0.0,0.0,0.0,0.0,0,0,0,0,0,0,0,1,0,0,1,0,0
470676866,10.6452,10.5672,28.8605,27.3954,0.0,3179.98,1.0,1.0,nan,0,0.0,0.0,0.0,0.0,0.0,0.0,0.0,0.0,0.0,0.0,0.0,0,0,0,0,0,0,0,1,0,0,1,0,0
470976975,10.5723,10.5539,29.1242,28.0097,0.0,3182.38,1.0,1.0,nan,0,0.0,0.0,0.0,0.0,0.0,0.0,0.0,0.0,0.0,0.0,0.0,0,0,0,0,0,0,0,1,0,0,1,0,0
471276920,10.6452,10.5484,28.5089,28.3293,0.0,3184.77,1.0,1.0,nan,0,0.0,0.0,0.0,0.0,0.0,0.0,0.0,0.0,0.0,0.0,0.0,0,0,0,0,0,0,0,1,0,0,1,0,0
471576860,10.5723,10.5411,29.3586,28.5872,0.0,3187.18,1.0,1.0,nan,0,0.0,0.0,0.0,0.0,0.0,0.0,0.0,0.0,0.0,0.0,0.0,0,0,0,0,0,0,0,1,0,0,1,0,0
471876952,10.6015,10.5325,28.6554,28.7009,0.0,3189.58,1.0,1.0,nan,0,0.0,0.0,0.0,0.0,0.0,0.0,0.0,0.0,0.0,0.0,0.0,0,0,0,0,0,0,0,1,0,0,1,0,0
472176857,10.6161,10.531,28.8312,28.7421,0.0,3191.98,1.0,1.0,nan,0,0.0,0.0,0.0,0.0,0.0,0.0,0.0,0.0,0.0,0.0,0.0,0,0,0,0,0,0,0,1,0,0,1,0,0
472477016,10.6161,10.5285,28.8605,28.8283,0.0,3194.4,1.0,1.0,nan,0,0.0,0.0,0.0,0.0,0.0,0.0,0.0,0.0,0.0,0.0,0.0,0,0,0,0,0,0,0,1,0,0,1,0,0
472776858,10.6161,10.5266,29.4172,28.8652,0.0,3196.8,1.0,1.0,nan,0,0.0,0.0,0.0,0.0,0.0,0.0,0.0,0.0,0.0,0.0,0.0,0,0,0,0,0,0,0,1,0,0,1,0,0
473076857,10.6161,10.5152,29.0363,28.9338,0.0,3199.22,1.0,1.0,nan,0,0.0,0.0,0.0,0.0,0.0,0.0,0.0,0.0,0.0,0.0,0.0,0,0,0,0,0,0,0,1,0,0,1,0,0
473376926,10.6452,10.5154,28.5968,28.9133,0.0,3201.63,1.0,1.0,nan,0,0.0,0.0,0.0,0.0,0.0,0.0,0.0,0.0,0.0,0.0,0.0,0,0,0,0,0,0,0,1,0,0,1,0,0
473677527,10.6307,10.5136,28.9777,28.8615,0.0,3204.03,1.0,1.0,nan,0,0.0,0.0,0.0,0.0,0.0,0.0,0.0,0.0,0.0,0.0,0.0,0,0,0,0,0,0,0,1,0,0,1,0,0
473976902,10.7182,10.5187,27.2783,28.7307,0.0,3206.41,1.0,1.0,nan,0,0.0,0.0,0.0,0.0,0.0,0.0,0.0,0.0,0.0,0.0,0.0,0,0,0,0,0,0,0,1,0,0,1,0,0
474276859,10.7619,10.5454,24.8757,27.1521,0.0,3208.52,1.0,1.0,nan,0,0.0,0.0,0.0,0.0,0.0,0.0,0.0,0.0,0.0,0.0,0.0,0,0,0,0,0,0,0,1,0,0,1,0,0
474576910,10.7619,10.5646,25.0222,26.453,0.0,3210.65,1.0,1.0,nan,0,0.0,0.0,0.0,0.0,0.0,0.0,0.0,0.0,0.0,0.0,0.0,0,0,0,0,0,0,0,1,0,0,1,0,0
474876858,10.7182,10.5817,25.1687,26.0223,0.0,3212.77,1.0,1.0,nan,0,0.0,0.0,0.0,0.0,0.0,0.0,0.0,0.0,0.0,0.0,0.0,0,0,0,0,0,0,0,1,0,0,1,0,0
475177267,10.6598,10.5915,25.7547,25.7827,0.0,3214.9,1.0,1.0,nan,0,0.0,0.0,0.0,0.0,0.0,0.0,0.0,0.0,0.0,0.0,0.0,0,0,0,0,0,0,0,1,0,0,1,0,0
475476955,10.7036,10.5967,25.3445,25.6982,0.0,3217.03,1.0,1.0,nan,0,0.0,0.0,0.0,0.0,0.0,0.0,0.0,0.0,0.0,0.0,0.0,0,0,0,0,0,0,0,1,0,0,1,0,0
475776857,10.7327,10.6067,25.0808,25.525,0.0,3219.14,1.0,1.0,nan,0,0.0,0.0,0.0,0.0,0.0,0.0,0.0,0.0,0.0,0.0,0.0,0,0,0,0,0,0,0,1,0,0,1,0,0
476076920,10.7327,10.6093,26.4872,25.6062,0.0,3221.28,1.0,1.0,nan,0,0.0,0.0,0.0,0.0,0.0,0.0,0.0,0.0,0.0,0.0,0.0,0,0,0,0,0,0,0,1,0,0,1,0,0
476376858,10.6452,10.5951,28.2159,26.5755,0.0,3223.58,1.0,1.0,nan,0,0.0,0.0,0.0,0.0,0.0,0.0,0.0,0.0,0.0,0.0,0.0,0,0,0,0,0,0,0,1,0,0,1,0,0
476677058,10.5869,10.5817,28.2452,27.1263,0.0,3225.9,1.0,1.0,nan,0,0.0,0.0,0.0,0.0,0.0,0.0,0.0,0.0,0.0,0.0,0.0,0,0,0,0,0,0,0,1,0,0,1,0,0
476976858,10.6307,10.575,28.0987,27.4619,0.0,3228.22,1.0,1.0,nan,0,0.0,0.0,0.0,0.0,0.0,0.0,0.0,0.0,0.0,0.0,0.0,0,0,0,0,0,0,0,1,0,0,1,0,0
477276857,10.689,10.5696,28.5382,27.6418,0.0,3230.54,1.0,1.0,nan,0,0.0,0.0,0.0,0.0,0.0,0.0,0.0,0.0,0.0,0.0,0.0,0,0,0,0,0,0,0,1,0,0,1,0,0
477576895,10.6598,10.5624,28.1866,27.7673,0.0,3232.87,1.0,1.0,nan,0,0.0,0.0,0.0,0.0,0.0,0.0,0.0,0.0,0.0,0.0,0.0,0,0,0,0,0,0,0,1,0,0,1,0,0
477876859,10.7036,10.5735,26.1649,26.8817,0.0,3235.03,1.0,1.0,nan,0,0.0,0.0,0.0,0.0,0.0,0.0,0.0,0.0,0.0,0.0,0.0,0,0,0,0,0,0,0,1,0,0,1,0,0
478176955,10.7473,10.5743,26.37,26.7535,0.0,3237.24,1.0,1.0,nan,0,0.0,0.0,0.0,0.0,0.0,0.0,0.0,0.0,0.0,0.0,0.0,0,0,0,0,0,0,0,1,0,0,1,0,0
478476857,10.6744,10.5727,26.7802,26.7573,0.0,3239.47,1.0,1.0,nan,0,0.0,0.0,0.0,0.0,0.0,0.0,0.0,0.0,0.0,0.0,0.0,0,0,0,0,0,0,0,1,0,0,1,0,0
478776857,10.7036,10.5762,26.8974,26.7424,0.0,3241.7,1.0,1.0,nan,0,0.0,0.0,0.0,0.0,0.0,0.0,0.0,0.0,0.0,0.0,0.0,0,0,0,0,0,0,0,1,0,0,1,0,0
479076857,10.7327,10.5777,26.6923,26.715,0.0,3243.93,1.0,1.0,nan,0,0.0,0.0,0.0,0.0,0.0,0.0,0.0,0.0,0.0,0.0,0.0,0,0,0,0,0,0,0,1,0,0,1,0,0
479376860,10.6452,10.5792,26.7802,26.6433,0.0,3246.14,1.0,1.0,nan,0,0.0,0.0,0.0,0.0,0.0,0.0,0.0,0.0,0.0,0.0,0.0,0,0,0,0,0,0,0,1,0,0,1,0,0
479676996,10.7036,10.5841,26.1063,26.6834,0.0,3248.37,1.0,1.0,nan,0,0.0,0.0,0.0,0.0,0.0,0.0,0.0,0.0,0.0,0.0,0.0,0,0,0,0,0,0,0,1,0,0,1,0,0
479976860,10.7182,10.5814,26.6044,26.7043,0.0,3250.59,1.0,1.0,nan,0,0.0,0.0,0.0,0.0,0.0,0.0,0.0,0.0,0.0,0.0,0.0,0,0,0,0,0,0,0,1,0,0,1,0,0
480277423,10.689,10.5767,26.8095,26.7589,0.0,3252.83,1.0,1.0,nan,0,0.0,0.0,0.0,0.0,0.0,0.0,0.0,0.0,0.0,0.0,0.0,0,0,0,0,0,0,0,1,0,0,1,0,0
480576859,10.6598,10.5766,26.7216,26.7622,0.0,3255.06,1.0,1.0,nan,0,0.0,0.0,0.0,0.0,0.0,0.0,0.0,0.0,0.0,0.0,0.0,0,0,0,0,0,0,0,1,0,0,1,0,0
480876857,10.689,10.5787,26.9853,26.7882,0.0,3257.29,1.0,1.0,nan,0,0.0,0.0,0.0,0.0,0.0,0.0,0.0,0.0,0.0,0.0,0.0,0,0,0,0,0,0,0,1,0,0,1,0,0
481176868,10.7036,10.582,26.663,26.746,0.0,3259.52,1.0,1.0,nan,0,0.0,0.0,0.0,0.0,0.0,0.0,0.0,0.0,0.0,0.0,0.0,0,0,0,0,0,0,0,1,0,0,1,0,0
481476866,10.689,10.5786,27.1611,26.7898,0.0,3261.75,1.0,1.0,nan,0,0.0,0.0,0.0,0.0,0.0,0.0,0.0,0.0,0.0,0.0,0.0,0,0,0,0,0,0,0,1,0,0,1,0,0
481776857,10.7036,10.581,27.2197,26.7209,0.0,3263.97,1.0,1.0,nan,0,0.0,0.0,0.0,0.0,0.0,0.0,0.0,0.0,0.0,0.0,0.0,0,0,0,0,0,0,0,1,0,0,1,0,0
482076900,10.689,10.585,27.0439,26.7064,0.0,3266.19,1.0,1.0,nan,0,0.0,0.0,0.0,0.0,0.0,0.0,0.0,0.0,0.0,0.0,0.0,0,0,0,0,0,0,0,1,0,0,1,0,0
482376879,10.6598,10.5835,26.3407,26.6738,0.0,3268.41,1.0,1.0,nan,0,0.0,0.0,0.0,0.0,0.0,0.0,0.0,0.0,0.0,0.0,0.0,0,0,0,0,0,0,0,1,0,0,1,0,0
482676859,10.6744,10.5813,27.0439,26.6569,0.0,3270.63,1.0,1.0,nan,0,0.0,0.0,0.0,0.0,0.0,0.0,0.0,0.0,0.0,0.0,0.0,0,0,0,0,0,0,0,1,0,0,1,0,0
482976938,10.6744,10.5735,27.9229,26.9863,0.0,3272.91,1.0,1.0,nan,0,0.0,0.0,0.0,0.0,0.0,0.0,0.0,0.0,0.0,0.0,0.0,0,0,0,0,0,0,0,1,0,0,1,0,0
483276927,10.6307,10.5624,28.0694,27.4125,0.0,3275.24,1.0,1.0,nan,0,0.0,0.0,0.0,0.0,0.0,0.0,0.0,0.0,0.0,0.0,0.0,0,0,0,0,0,0,0,1,0,0,1,0,0
483576857,10.6452,10.558,28.4796,27.7574,0.0,3277.58,1.0,1.0,nan,0,0.0,0.0,0.0,0.0,0.0,0.0,0.0,0.0,0.0,0.0,0.0,0,0,0,0,0,0,0,1,0,0,1,0,0
483876876,10.6161,10.5492,28.5968,28.068,0.0,3279.95,1.0,1.0,nan,0,0.0,0.0,0.0,0.0,0.0,0.0,0.0,0.0,0.0,0.0,0.0,0,0,0,0,0,0,0,1,0,0,1,0,0
484176857,10.6598,10.5418,28.4796,28.2304,0.0,3282.32,1.0,1.0,nan,0,0.0,0.0,0.0,0.0,0.0,0.0,0.0,0.0,0.0,0.0,0.0,0,0,0,0,0,0,0,1,0,0,1,0,0
484476938,10.6307,10.5369,28.2452,28.2531,0.0,3284.68,1.0,1.0,nan,0,0.0,0.0,0.0,0.0,0.0,0.0,0.0,0.0,0.0,0.0,0.0,0,0,0,0,0,0,0,1,0,0,1,0,0
484776862,10.6161,10.5385,28.3038,28.2831,0.0,3287.04,1.0,1.0,nan,0,0.0,0.0,0.0,0.0,0.0,0.0,0.0,0.0,0.0,0.0,0.0,0,0,0,0,0,0,0,1,0,0,1,0,0
485076857,10.6598,10.541,27.2783,28.0015,0.0,3289.35,1.0,1.0,nan,0,0.0,0.0,0.0,0.0,0.0,0.0,0.0,0.0,0.0,0.0,0.0,0,0,0,0,0,0,0,1,0,0,1,0,0
485377696,10.6598,10.545,27.2783,27.8054,0.0,3291.65,1.0,1.0,nan,0,0.0,0.0,0.0,0.0,0.0,0.0,0.0,0.0,0.0,0.0,0.0,0,0,0,0,0,0,0,1,0,0,1,0,0
485676883,10.6307,10.5428,27.7471,27.8084,0.0,3293.96,1.0,1.0,nan,0,0.0,0.0,0.0,0.0,0.0,0.0,0.0,0.0,0.0,0.0,0.0,0,0,0,0,0,0,0,1,0,0,1,0,0
485976858,10.6744,10.5463,27.0439,27.5902,0.0,3296.24,1.0,1.0,nan,0,0.0,0.0,0.0,0.0,0.0,0.0,0.0,0.0,0.0,0.0,0.0,0,0,0,0,0,0,0,1,0,0,1,0,0
486276865,10.689,10.5582,25.6961,26.8967,0.0,3298.42,1.0,1.0,nan,0,0.0,0.0,0.0,0.0,0.0,0.0,0.0,0.0,0.0,0.0,0.0,0,0,0,0,0,0,0,1,0,0,1,0,0
486576876,10.689,10.5673,25.8719,26.5388,0.0,3300.6,1.0,1.0,nan,0,0.0,0.0,0.0,0.0,0.0,0.0,0.0,0.0,0.0,0.0,0.0,0,0,0,0,0,0,0,1,0,0,1,0,0
486876933,10.6744,10.5788,25.9012,26.2393,0.0,3302.76,1.0,1.0,nan,0,0.0,0.0,0.0,0.0,0.0,0.0,0.0,0.0,0.0,0.0,0.0,0,0,0,0,0,0,0,1,0,0,1,0,0
487176995,10.689,10.5786,26.6337,26.3025,0.0,3304.95,1.0,1.0,nan,0,0.0,0.0,0.0,0.0,0.0,0.0,0.0,0.0,0.0,0.0,0.0,0,0,0,0,0,0,0,1,0,0,1,0,0
487476857,10.689,10.5875,26.8095,26.335,0.0,3307.15,1.0,1.0,nan,0,0.0,0.0,0.0,0.0,0.0,0.0,0.0,0.0,0.0,0.0,0.0,0,0,0,0,0,0,0,1,0,0,1,0,0
487776857,10.7036,10.5854,26.3114,26.3812,0.0,3309.35,1.0,1.0,nan,0,0.0,0.0,0.0,0.0,0.0,0.0,0.0,0.0,0.0,0.0,0.0,0,0,0,0,0,0,0,1,0,0,1,0,0
488076857,10.689,10.5912,26.7216,26.3873,0.0,3311.55,1.0,1.0,nan,0,0.0,0.0,0.0,0.0,0.0,0.0,0.0,0.0,0.0,0.0,0.0,0,0,0,0,0,0,0,1,0,0,1,0,0
488376857,10.6307,10.5944,26.0477,26.4582,0.0,3313.76,1.0,1.0,nan,0,0.0,0.0,0.0,0.0,0.0,0.0,0.0,0.0,0.0,0.0,0.0,0,0,0,0,0,0,0,1,0,0,1,0,0
488676875,10.689,10.5921,26.8681,26.4648,0.0,3315.97,1.0,1.0,nan,0,0.0,0.0,0.0,0.0,0.0,0.0,0.0,0.0,0.0,0.0,0.0,0,0,0,0,0,0,0,1,0,0,1,0,0
488976872,10.6598,10.5876,27.0732,26.6345,0.0,3318.2,1.0,1.0,nan,0,0.0,0.0,0.0,0.0,0.0,0.0,0.0,0.0,0.0,0.0,0.0,0,0,0,0,0,0,0,1,0,0,1,0,0
489276858,10.689,10.5834,27.0146,26.6459,0.0,3320.43,1.0,1.0,nan,0,0.0,0.0,0.0,0.0,0.0,0.0,0.0,0.0,0.0,0.0,0.0,0,0,0,0,0,0,0,1,0,0,1,0,0
