timestamp,x,y,z,r,flaps,aux1,aux2,aux3,aux4,aux5,aux6,mode_switch,return_switch,rattitude_switch,posctl_switch,loiter_switch,acro_switch,offboard_switch,kill_switch,arm_switch,transition_switch,gear_switch,mode_slot,data_source,stab_switch,man_switch
361174231,0.0216867,0.0250784,0.0,1.0,0.0,0.0,0.0,0.0,0.0,0.0,0.0,0,0,0,0,3,0,0,3,0,0,0,4,1,0,0
361196730,0.0216867,0.0250784,0.0,1.0,0.0,0.0,0.0,0.0,0.0,0.0,0.0,0,0,0,0,3,0,0,3,0,0,0,4,1,0,0
361375341,0.0216867,0.0250784,0.0,1.0,0.0,0.0,0.0,0.0,0.0,0.0,0.0,0,0,0,0,3,0,0,3,0,0,0,4,1,0,0
361576268,0.0216867,0.0250784,0.0,1.0,0.0,0.0,0.0,0.0,0.0,0.0,0.0,0,0,0,0,3,0,0,3,0,0,0,4,1,0,0
361778142,0.0216867,0.0282132,0.0,0.629808,0.0,0.0,0.0,0.0,0.0,0.0,0.0,0,0,0,0,3,0,0,3,0,0,0,4,1,0,0
361978837,0.00722892,0.0940439,0.00979192,0.0,0.0,0.0,0.0,0.0,0.0,0.0,0.0,0,0,0,0,3,0,0,3,0,0,0,4,1,0,0
362157555,0.0,0.0344828,0.00979192,0.0,0.0,0.0,0.0,0.0,0.0,0.0,0.0,0,0,0,0,3,0,0,3,0,0,0,4,1,0,0
362380830,0.0216867,0.0250784,0.0110159,0.0,0.0,0.0,0.0,0.0,0.0,0.0,0.0,0,0,0,0,3,0,0,3,0,0,0,4,1,0,0
362579384,0.0216867,0.0250784,0.0465116,0.0,0.0,0.0,0.0,0.0,0.0,0.0,0.0,0,0,0,0,3,0,0,3,0,0,0,4,1,0,0
362780975,0.00481928,0.0250784,0.259486,0.0,0.0,0.0,0.0,0.0,0.0,0.0,0.0,0,0,0,0,3,0,0,3,0,0,0,4,1,0,0
362959446,0.0192771,0.0250784,0.30355,0.0,0.0,0.0,0.0,0.0,0.0,0.0,0.0,0,0,0,0,3,0,0,3,0,0,0,4,1,0,0
363180291,0.0192771,0.0250784,0.379437,0.0,0.0,0.0,0.0,0.0,0.0,0.0,0.0,0,0,0,0,3,0,0,3,0,0,0,4,1,0,0
363359074,0.0,0.0282132,0.370869,0.0,0.0,0.0,0.0,0.0,0.0,0.0,0.0,0,0,0,0,3,0,0,3,0,0,0,4,1,0,0
363582673,-0.0552885,0.0282132,0.376989,0.0,0.0,0.0,0.0,0.0,0.0,0.0,0.0,0,0,0,0,3,0,0,3,0,0,0,4,1,0,0
363761478,0.0216867,0.0250784,0.499388,0.0,0.0,0.0,0.0,0.0,0.0,0.0,0.0,0,0,0,0,3,0,0,3,0,0,0,4,1,0,0
363963089,0.0216867,0.0250784,0.499388,0.0,0.0,0.0,0.0,0.0,0.0,0.0,0.0,0,0,0,0,3,0,0,3,0,0,0,4,1,0,0
364163508,0.0216867,0.0250784,0.501836,0.0,0.0,0.0,0.0,0.0,0.0,0.0,0.0,0,0,0,0,3,0,0,3,0,0,0,4,1,0,0
364364883,0.0216867,0.0250784,0.49082,0.0,0.0,0.0,0.0,0.0,0.0,0.0,0.0,0,0,0,0,3,0,0,3,0,0,0,4,1,0,0
364563437,0.0216867,0.0250784,0.514076,0.0,0.0,0.0,0.0,0.0,0.0,0.0,0.0,0,0,0,0,3,0,0,3,0,0,0,4,1,0,0
364762298,0.0216867,0.0250784,0.531212,0.0,0.0,0.0,0.0,0.0,0.0,0.0,0.0,0,0,0,0,3,0,0,3,0,0,0,4,1,0,0
364963111,0.0216867,0.0250784,0.560588,0.0,0.0,0.0,0.0,0.0,0.0,0.0,0.0,0,0,0,0,3,0,0,3,0,0,0,4,1,0,0
365165141,0.0216867,0.0250784,0.565483,0.0,0.0,0.0,0.0,0.0,0.0,0.0,0.0,0,0,0,0,3,0,0,3,0,0,0,4,1,0,0
365365856,0.0216867,0.0250784,0.571603,0.0,0.0,0.0,0.0,0.0,0.0,0.0,0.0,0,0,0,0,3,0,0,3,0,0,0,4,1,0,0
365566920,0.0216867,0.031348,0.569155,0.0,0.0,0.0,0.0,0.0,0.0,0.0,0.0,0,0,0,0,3,0,0,3,0,0,0,4,1,0,0
365767548,0.212048,0.0532915,0.565483,0.0,0.0,0.0,0.0,0.0,0.0,0.0,0.0,0,0,0,0,3,0,0,3,0,0,0,4,1,0,0
365969571,0.248193,0.0658307,0.565483,0.0,0.0,0.0,0.0,0.0,0.0,0.0,0.0,0,0,0,0,3,0,0,3,0,0,0,4,1,0,0
366169896,0.250602,0.0877743,0.565483,0.0,0.0,0.0,0.0,0.0,0.0,0.0,0.0,0,0,0,0,3,0,0,3,0,0,0,4,1,0,0
366366301,0.257831,0.119122,0.565483,0.0,0.0,0.0,0.0,0.0,0.0,0.0,0.0,0,0,0,0,3,0,0,3,0,0,0,4,1,0,0
366567058,0.26747,0.178683,0.565483,0.0,0.0,0.0,0.0,0.0,0.0,0.0,0.0,0,0,0,0,3,0,0,3,0,0,0,4,1,0,0
366765847,0.125301,0.0595611,0.565483,0.0,0.0,0.0,0.0,0.0,0.0,0.0,0.0,0,0,0,0,3,0,0,3,0,0,0,4,1,0,0
366964497,0.0216867,0.0250784,0.565483,0.0,0.0,0.0,0.0,0.0,0.0,0.0,0.0,0,0,0,0,3,0,0,3,0,0,0,4,1,0,0
367165824,0.0216867,0.0250784,0.564259,0.0,0.0,0.0,0.0,0.0,0.0,0.0,0.0,0,0,0,0,3,0,0,3,0,0,0,4,1,0,0
367366834,0.0216867,0.0250784,0.563035,0.0,0.0,0.0,0.0,0.0,0.0,0.0,0.0,0,0,0,0,3,0,0,3,0,0,0,4,1,0,0
367568503,0.0216867,0.0940439,0.564259,0.0,0.0,0.0,0.0,0.0,0.0,0.0,0.0,0,0,0,0,3,0,0,3,0,0,0,4,1,0,0
367768930,0.0216867,0.175549,0.565483,0.0,0.0,0.0,0.0,0.0,0.0,0.0,0.0,0,0,0,0,3,0,0,3,0,0,0,4,1,0,0
367970940,0.0216867,0.200627,0.564259,0.0,0.0,0.0,0.0,0.0,0.0,0.0,0.0,0,0,0,0,3,0,0,3,0,0,0,4,1,0,0
368171367,0.0216867,0.0658307,0.564259,0.0,0.0,0.0,0.0,0.0,0.0,0.0,0.0,0,0,0,0,3,0,0,3,0,0,0,4,1,0,0
368369720,0.0216867,0.0250784,0.564259,0.0,0.0,0.0,0.0,0.0,0.0,0.0,0.0,0,0,0,0,3,0,0,3,0,0,0,4,1,0,0
368571004,0.0216867,0.0282132,0.571603,0.0,0.0,0.0,0.0,0.0,0.0,0.0,0.0,0,0,0,0,3,0,0,3,0,0,0,4,1,0,0
368770445,0.0216867,0.0344828,0.576499,0.0,0.0,0.0,0.0,0.0,0.0,0.0,0.0,0,0,0,0,3,0,0,3,0,0,0,4,1,0,0
368970964,0.0240964,0.184953,0.575275,0.0,0.0,0.0,0.0,0.0,0.0,0.0,0.0,0,0,0,0,3,0,0,3,0,0,0,4,1,0,0
369171926,0.0216867,0.269592,0.575275,0.0,0.0,0.0,0.0,0.0,0.0,0.0,0.0,0,0,0,0,3,0,0,3,0,0,0,4,1,0,0
369372919,0.0216867,0.238245,0.575275,0.0,0.0,0.0,0.0,0.0,0.0,0.0,0.0,0,0,0,0,3,0,0,3,0,0,0,4,1,0,0
369574364,0.0216867,0.0250784,0.580171,0.0,0.0,0.0,0.0,0.0,0.0,0.0,0.0,0,0,0,0,3,0,0,3,0,0,0,4,1,0,0
369775287,0.0216867,0.0250784,0.618115,0.0,0.0,0.0,0.0,0.0,0.0,0.0,0.0,0,0,0,0,3,0,0,3,0,0,0,4,1,0,0
369976512,0.0216867,0.0282132,0.616891,0.0,0.0,0.0,0.0,0.0,0.0,0.0,0.0,0,0,0,0,3,0,0,3,0,0,0,4,1,0,0
370177409,0.0578313,0.0282132,0.615667,0.0,0.0,0.0,0.0,0.0,0.0,0.0,0.0,0,0,0,0,3,0,0,3,0,0,0,4,1,0,0
370356178,0.13012,-0.0640244,0.616891,0.0,0.0,0.0,0.0,0.0,0.0,0.0,0.0,0,0,0,0,3,0,0,3,0,0,0,4,1,0,0
370577986,0.187952,-0.0304878,0.616891,0.0,0.0,0.0,0.0,0.0,0.0,0.0,0.0,0,0,0,0,3,0,0,3,0,0,0,4,1,0,0
370775983,0.26988,0.0,0.616891,0.0,0.0,0.0,0.0,0.0,0.0,0.0,0.0,0,0,0,0,3,0,0,3,0,0,0,4,1,0,0
370975199,0.308434,0.0219436,0.616891,0.0,0.0,0.0,0.0,0.0,0.0,0.0,0.0,0,0,0,0,3,0,0,3,0,0,0,4,1,0,0
371170561,0.320482,0.031348,0.616891,0.0,0.0,0.0,0.0,0.0,0.0,0.0,0.0,0,0,0,0,3,0,0,3,0,0,0,4,1,0,0
371369326,0.13253,0.0282132,0.615667,0.0,0.0,0.0,0.0,0.0,0.0,0.0,0.0,0,0,0,0,3,0,0,3,0,0,0,4,1,0,0
371571173,0.0216867,0.0282132,0.499388,0.0,0.0,0.0,0.0,0.0,0.0,0.0,0.0,0,0,0,0,3,0,0,3,0,0,0,4,1,0,0
371771803,0.115663,0.0971787,0.505508,0.0,0.0,0.0,0.0,0.0,0.0,0.0,0.0,0,0,0,0,3,0,0,3,0,0,0,4,1,0,0
371972953,0.204819,0.263323,0.510404,0.0,0.0,0.0,0.0,0.0,0.0,0.0,0.0,0,0,0,0,3,0,0,3,0,0,0,4,1,0,0
372173763,0.0216867,0.031348,0.510404,0.0,0.0,0.0,0.0,0.0,0.0,0.0,0.0,0,0,0,0,3,0,0,3,0,0,0,4,1,0,0
372375100,0.0192771,0.0250784,0.510404,0.0,0.0,0.0,0.0,0.0,0.0,0.0,0.0,0,0,0,0,3,0,0,3,0,0,0,4,1,0,0
372573863,0.0650602,0.0532915,0.510404,0.0,0.0,0.0,0.0,0.0,0.0,0.0,0.0,0,0,0,0,3,0,0,3,0,0,0,4,1,0,0
372774617,0.0216867,0.0219436,0.510404,0.0,0.0,0.0,0.0,0.0,0.0,0.0,0.0,0,0,0,0,3,0,0,3,0,0,0,4,1,0,0
372975984,0.0192771,0.0250784,0.522644,0.192308,0.0,0.0,0.0,0.0,0.0,0.0,0.0,0,0,0,0,3,0,0,3,0,0,0,4,1,0,0
373175804,0.113253,0.103448,0.536108,0.0240385,0.0,0.0,0.0,0.0,0.0,0.0,0.0,0,0,0,0,3,0,0,3,0,0,0,4,1,0,0
373373282,0.190361,0.188088,0.597307,0.0,0.0,0.0,0.0,0.0,0.0,0.0,0.0,0,0,0,0,3,0,0,3,0,0,0,4,1,0,0
373573690,0.0192771,0.0250784,0.609547,0.0,0.0,0.0,0.0,0.0,0.0,0.0,0.0,0,0,0,0,3,0,0,3,0,0,0,4,1,0,0
373775540,0.0216867,0.0250784,0.648715,0.0,0.0,0.0,0.0,0.0,0.0,0.0,0.0,0,0,0,0,3,0,0,3,0,0,0,4,1,0,0
373976416,0.0192771,0.0250784,0.660955,0.0,0.0,0.0,0.0,0.0,0.0,0.0,0.0,0,0,0,0,3,0,0,3,0,0,0,4,1,0,0
374179266,0.187952,0.0344828,0.663403,0.0,0.0,0.0,0.0,0.0,0.0,0.0,0.0,0,0,0,0,3,0,0,3,0,0,0,4,1,0,0
374376821,0.2,0.0344828,0.663403,0.0,0.0,0.0,0.0,0.0,0.0,0.0,0.0,0,0,0,0,3,0,0,3,0,0,0,4,1,0,0
374573646,0.0192771,0.0250784,0.664627,0.0,0.0,0.0,0.0,0.0,0.0,0.0,0.0,0,0,0,0,3,0,0,3,0,0,0,4,1,0,0
374774964,0.0819277,0.031348,0.663403,0.0,0.0,0.0,0.0,0.0,0.0,0.0,0.0,0,0,0,0,3,0,0,3,0,0,0,4,1,0,0
374975282,0.122892,0.031348,0.604651,0.0,0.0,0.0,0.0,0.0,0.0,0.0,0.0,0,0,0,0,3,0,0,3,0,0,0,4,1,0,0
375169952,0.163855,0.0344828,0.599755,0.0,0.0,0.0,0.0,0.0,0.0,0.0,0.0,0,0,0,0,3,0,0,3,0,0,0,4,1,0,0
375372082,0.178313,0.0344828,0.598531,0.0,0.0,0.0,0.0,0.0,0.0,0.0,0.0,0,0,0,0,3,0,0,3,0,0,0,4,1,0,0
375573160,0.212048,0.0344828,0.567931,0.0,0.0,0.0,0.0,0.0,0.0,0.0,0.0,0,0,0,0,3,0,0,3,0,0,0,4,1,0,0
375772591,0.142169,0.0282132,0.564259,0.0,0.0,0.0,0.0,0.0,0.0,0.0,0.0,0,0,0,0,3,0,0,3,0,0,0,4,1,0,0
375973025,0.086747,0.031348,0.581395,0.0,0.0,0.0,0.0,0.0,0.0,0.0,0.0,0,0,0,0,3,0,0,3,0,0,0,4,1,0,0
376171309,0.0192771,0.0250784,0.599755,0.0,0.0,0.0,0.0,0.0,0.0,0.0,0.0,0,0,0,0,3,0,0,3,0,0,0,4,1,0,0
376372716,0.0192771,0.0250784,0.578947,0.0,0.0,0.0,0.0,0.0,0.0,0.0,0.0,0,0,0,0,3,0,0,3,0,0,0,4,1,0,0
376573694,0.0192771,0.0250784,0.580171,0.0,0.0,0.0,0.0,0.0,0.0,0.0,0.0,0,0,0,0,3,0,0,3,0,0,0,4,1,0,0
376775115,0.0240964,0.169279,0.581395,0.0,0.0,0.0,0.0,0.0,0.0,0.0,0.0,0,0,0,0,3,0,0,3,0,0,0,4,1,0,0
376975981,0.0216867,0.0532915,0.581395,0.0,0.0,0.0,0.0,0.0,0.0,0.0,0.0,0,0,0,0,3,0,0,3,0,0,0,4,1,0,0
377177796,0.0216867,0.0250784,0.553244,0.0,0.0,0.0,0.0,0.0,0.0,0.0,0.0,0,0,0,0,3,0,0,3,0,0,0,4,1,0,0
377376594,0.0192771,0.0250784,0.541004,0.0,0.0,0.0,0.0,0.0,0.0,0.0,0.0,0,0,0,0,3,0,0,3,0,0,0,4,1,0,0
377576971,0.0216867,0.0282132,0.529988,0.0,0.0,0.0,0.0,0.0,0.0,0.0,0.0,0,0,0,0,3,0,0,3,0,0,0,4,1,0,0
377778823,0.0216867,0.0282132,0.528764,0.0,0.0,0.0,0.0,0.0,0.0,0.0,0.0,0,0,0,0,3,0,0,3,0,0,0,4,1,0,0
377978994,0.0216867,0.031348,0.541004,0.0,0.0,0.0,0.0,0.0,0.0,0.0,0.0,0,0,0,0,3,0,0,3,0,0,0,4,1,0,0
378177634,0.060241,0.0438871,0.575275,0.0,0.0,0.0,0.0,0.0,0.0,0.0,0.0,0,0,0,0,3,0,0,3,0,0,0,4,1,0,0
378379813,0.151807,0.131661,0.571603,0.0,0.0,0.0,0.0,0.0,0.0,0.0,0.0,0,0,0,0,3,0,0,3,0,0,0,4,1,0,0
378579931,0.178313,0.122257,0.571603,0.0,0.0,0.0,0.0,0.0,0.0,0.0,0.0,0,0,0,0,3,0,0,3,0,0,0,4,1,0,0
378759187,0.146988,0.0783699,0.571603,0.0,0.0,0.0,0.0,0.0,0.0,0.0,0.0,0,0,0,0,3,0,0,3,0,0,0,4,1,0,0
378960713,0.163855,0.103448,0.571603,0.0,0.0,0.0,0.0,0.0,0.0,0.0,0.0,0,0,0,0,3,0,0,3,0,0,0,4,1,0,0
379161127,0.183133,0.122257,0.571603,0.0,0.0,0.0,0.0,0.0,0.0,0.0,0.0,0,0,0,0,3,0,0,3,0,0,0,4,1,0,0
379359598,0.185542,0.0971787,0.571603,0.0,0.0,0.0,0.0,0.0,0.0,0.0,0.0,0,0,0,0,3,0,0,3,0,0,0,4,1,0,0
379561688,0.163855,0.0846395,0.571603,0.0,0.0,0.0,0.0,0.0,0.0,0.0,0.0,0,0,0,0,3,0,0,3,0,0,0,4,1,0,0
379760008,0.13494,0.0376176,0.571603,0.0,0.0,0.0,0.0,0.0,0.0,0.0,0.0,0,0,0,0,3,0,0,3,0,0,0,4,1,0,0
379980427,0.139759,0.0344828,0.571603,0.0,0.0,0.0,0.0,0.0,0.0,0.0,0.0,0,0,0,0,3,0,0,3,0,0,0,4,1,0,0
380177249,0.151807,0.0407524,0.571603,0.0,0.0,0.0,0.0,0.0,0.0,0.0,0.0,0,0,0,0,3,0,0,3,0,0,0,4,1,0,0
380375924,0.166265,0.0470219,0.571603,0.0,0.0,0.0,0.0,0.0,0.0,0.0,0.0,0,0,0,0,3,0,0,3,0,0,0,4,1,0,0
380574099,0.166265,0.0532915,0.571603,0.0,0.0,0.0,0.0,0.0,0.0,0.0,0.0,0,0,0,0,3,0,0,3,0,0,0,4,1,0,0
380774908,0.163855,0.0501567,0.571603,0.0,0.0,0.0,0.0,0.0,0.0,0.0,0.0,0,0,0,0,3,0,0,3,0,0,0,4,1,0,0
380973645,0.154217,0.0626959,0.571603,0.0,0.0,0.0,0.0,0.0,0.0,0.0,0.0,0,0,0,0,3,0,0,3,0,0,0,4,1,0,0
381175550,0.2,0.159875,0.571603,0.0,0.0,0.0,0.0,0.0,0.0,0.0,0.0,0,0,0,0,3,0,0,3,0,0,0,4,1,0,0
381375949,0.192771,0.137931,0.571603,0.0,0.0,0.0,0.0,0.0,0.0,0.0,0.0,0,0,0,0,3,0,0,3,0,0,0,4,1,0,0
381577778,0.106024,0.0752351,0.571603,0.0,0.0,0.0,0.0,0.0,0.0,0.0,0.0,0,0,0,0,3,0,0,3,0,0,0,4,1,0,0
381775853,0.13012,0.0626959,0.571603,0.0,0.0,0.0,0.0,0.0,0.0,0.0,0.0,0,0,0,0,3,0,0,3,0,0,0,4,1,0,0
381974669,0.0192771,0.0219436,0.571603,0.0,0.0,0.0,0.0,0.0,0.0,0.0,0.0,0,0,0,0,3,0,0,3,0,0,0,4,1,0,0
382175561,0.0192771,0.0250784,0.571603,0.0,0.0,0.0,0.0,0.0,0.0,0.0,0.0,0,0,0,0,3,0,0,3,0,0,0,4,1,0,0
382376725,0.0216867,0.0250784,0.544676,0.0,0.0,0.0,0.0,0.0,0.0,0.0,0.0,0,0,0,0,3,0,0,3,0,0,0,4,1,0,0
382577639,0.0192771,0.0250784,0.591187,0.0,0.0,0.0,0.0,0.0,0.0,0.0,0.0,0,0,0,0,3,0,0,3,0,0,0,4,1,0,0
382779009,0.0192771,0.0250784,0.603427,0.0,0.0,0.0,0.0,0.0,0.0,0.0,0.0,0,0,0,0,3,0,0,3,0,0,0,4,1,0,0
382977498,0.0192771,0.0250784,0.603427,0.0,0.0,0.0,0.0,0.0,0.0,0.0,0.0,0,0,0,0,3,0,0,3,0,0,0,4,1,0,0
383178404,0.0216867,0.031348,0.603427,0.0,0.0,0.0,0.0,0.0,0.0,0.0,0.0,0,0,0,0,3,0,0,3,0,0,0,4,1,0,0
383377153,0.0891566,0.194357,0.603427,0.0,0.0,0.0,0.0,0.0,0.0,0.0,0.0,0,0,0,0,3,0,0,3,0,0,0,4,1,0,0
383575934,0.0192771,0.031348,0.603427,0.0,0.0,0.0,0.0,0.0,0.0,0.0,0.0,0,0,0,0,3,0,0,3,0,0,0,4,1,0,0
383774518,0.0192771,0.0250784,0.603427,0.0,0.0,0.0,0.0,0.0,0.0,0.0,0.0,0,0,0,0,3,0,0,3,0,0,0,4,1,0,0
383973038,0.0216867,0.031348,0.603427,0.0,0.0,0.0,0.0,0.0,0.0,0.0,0.0,0,0,0,0,3,0,0,3,0,0,0,4,1,0,0
384174423,0.146988,0.0344828,0.603427,0.0,0.0,0.0,0.0,0.0,0.0,0.0,0.0,0,0,0,0,3,0,0,3,0,0,0,4,1,0,0
384375469,0.0192771,0.0250784,0.603427,0.0,0.0,0.0,0.0,0.0,0.0,0.0,0.0,0,0,0,0,3,0,0,3,0,0,0,4,1,0,0
384577275,0.0216867,0.294671,0.603427,0.0,0.0,0.0,0.0,0.0,0.0,0.0,0.0,0,0,0,0,3,0,0,3,0,0,0,4,1,0,0
384777524,0.0192771,0.0250784,0.603427,0.0,0.0,0.0,0.0,0.0,0.0,0.0,0.0,0,0,0,0,3,0,0,3,0,0,0,4,1,0,0
384976230,0.0192771,0.0250784,0.603427,0.0,0.0,0.0,0.0,0.0,0.0,0.0,0.0,0,0,0,0,3,0,0,3,0,0,0,4,1,0,0
385174977,0.0457831,0.0282132,0.603427,0.0,0.0,0.0,0.0,0.0,0.0,0.0,0.0,0,0,0,0,3,0,0,3,0,0,0,4,1,0,0
385376282,0.0216867,0.0219436,0.603427,0.0,0.0,0.0,0.0,0.0,0.0,0.0,0.0,0,0,0,0,3,0,0,3,0,0,0,4,1,0,0
385574855,0.0216867,0.0282132,0.566707,0.0,0.0,0.0,0.0,0.0,0.0,0.0,0.0,0,0,0,0,3,0,0,3,0,0,0,4,1,0,0
385775699,0.0216867,0.031348,0.559364,0.0,0.0,0.0,0.0,0.0,0.0,0.0,0.0,0,0,0,0,3,0,0,3,0,0,0,4,1,0,0
385974484,0.0506024,0.0344828,0.571603,0.0,0.0,0.0,0.0,0.0,0.0,0.0,0.0,0,0,0,0,3,0,0,3,0,0,0,4,1,0,0
386175660,0.240964,0.0564263,0.572827,0.0,0.0,0.0,0.0,0.0,0.0,0.0,0.0,0,0,0,0,3,0,0,3,0,0,0,4,1,0,0
386376577,0.262651,0.0344828,0.566707,0.0,0.0,0.0,0.0,0.0,0.0,0.0,0.0,0,0,0,0,3,0,0,3,0,0,0,4,1,0,0
386575293,0.209639,0.031348,0.570379,0.0,0.0,0.0,0.0,0.0,0.0,0.0,0.0,0,0,0,0,3,0,0,3,0,0,0,4,1,0,0
386773972,0.20241,0.0344828,0.571603,0.0,0.0,0.0,0.0,0.0,0.0,0.0,0.0,0,0,0,0,3,0,0,3,0,0,0,4,1,0,0
386975229,0.2,0.0344828,0.566707,0.0,0.0,0.0,0.0,0.0,0.0,0.0,0.0,0,0,0,0,3,0,0,3,0,0,0,4,1,0,0
387176078,0.13012,0.031348,0.571603,0.0,0.0,0.0,0.0,0.0,0.0,0.0,0.0,0,0,0,0,3,0,0,3,0,0,0,4,1,0,0
387374786,0.053012,0.0282132,0.567931,0.0,0.0,0.0,0.0,0.0,0.0,0.0,0.0,0,0,0,0,3,0,0,3,0,0,0,4,1,0,0
387573359,0.0192771,0.0250784,0.566707,0.0,0.0,0.0,0.0,0.0,0.0,0.0,0.0,0,0,0,0,3,0,0,3,0,0,0,4,1,0,0
387774771,0.0192771,0.0250784,0.566707,0.0,0.0,0.0,0.0,0.0,0.0,0.0,0.0,0,0,0,0,3,0,0,3,0,0,0,4,1,0,0
387975704,0.0554217,0.0344828,0.566707,0.0,0.0,0.0,0.0,0.0,0.0,0.0,0.0,0,0,0,0,3,0,0,3,0,0,0,4,1,0,0
388177126,0.146988,0.144201,0.566707,0.0,0.0,0.0,0.0,0.0,0.0,0.0,0.0,0,0,0,0,3,0,0,3,0,0,0,4,1,0,0
388377836,0.13494,0.106583,0.565483,0.0,0.0,0.0,0.0,0.0,0.0,0.0,0.0,0,0,0,0,3,0,0,3,0,0,0,4,1,0,0
388579882,0.13012,0.0344828,0.565483,0.0,0.0,0.0,0.0,0.0,0.0,0.0,0.0,0,0,0,0,3,0,0,3,0,0,0,4,1,0,0
388758657,0.106024,0.031348,0.607099,0.0,0.0,0.0,0.0,0.0,0.0,0.0,0.0,0,0,0,0,3,0,0,3,0,0,0,4,1,0,0
388973847,0.13494,0.0344828,0.603427,0.0,0.0,0.0,0.0,0.0,0.0,0.0,0.0,0,0,0,0,3,0,0,3,0,0,0,4,1,0,0
389175305,0.178313,0.0532915,0.602203,0.0,0.0,0.0,0.0,0.0,0.0,0.0,0.0,0,0,0,0,3,0,0,3,0,0,0,4,1,0,0
389376310,0.233735,0.141066,0.604651,0.0,0.0,0.0,0.0,0.0,0.0,0.0,0.0,0,0,0,0,3,0,0,3,0,0,0,4,1,0,0
389574651,0.231325,0.172414,0.605875,0.0,0.0,0.0,0.0,0.0,0.0,0.0,0.0,0,0,0,0,3,0,0,3,0,0,0,4,1,0,0
389773301,0.231325,0.184953,0.604651,0.0,0.0,0.0,0.0,0.0,0.0,0.0,0.0,0,0,0,0,3,0,0,3,0,0,0,4,1,0,0
389972163,0.226506,0.137931,0.605875,0.0,0.0,0.0,0.0,0.0,0.0,0.0,0.0,0,0,0,0,3,0,0,3,0,0,0,4,1,0,0
390173306,0.243373,0.147335,0.602203,0.0,0.0,0.0,0.0,0.0,0.0,0.0,0.0,0,0,0,0,3,0,0,3,0,0,0,4,1,0,0
390374251,0.255422,0.112853,0.599755,0.0,0.0,0.0,0.0,0.0,0.0,0.0,0.0,0,0,0,0,3,0,0,3,0,0,0,4,1,0,0
390575620,0.231325,0.0438871,0.583843,0.0,0.0,0.0,0.0,0.0,0.0,0.0,0.0,0,0,0,0,3,0,0,3,0,0,0,4,1,0,0
390776632,0.103614,0.0282132,0.583843,0.0,0.0,0.0,0.0,0.0,0.0,0.0,0.0,0,0,0,0,3,0,0,3,0,0,0,4,1,0,0
390975145,0.0216867,0.0250784,0.591187,0.0,0.0,0.0,0.0,0.0,0.0,0.0,0.0,0,0,0,0,3,0,0,3,0,0,0,4,1,0,0
391176477,0.0216867,0.0250784,0.592411,0.0,0.0,0.0,0.0,0.0,0.0,0.0,0.0,0,0,0,0,3,0,0,3,0,0,0,4,1,0,0
391377636,0.0216867,0.031348,0.593635,0.0,0.0,0.0,0.0,0.0,0.0,0.0,0.0,0,0,0,0,3,0,0,3,0,0,0,4,1,0,0
391576157,0.0216867,0.15674,0.592411,0.0,0.0,0.0,0.0,0.0,0.0,0.0,0.0,0,0,0,0,3,0,0,3,0,0,0,4,1,0,0
391777296,-0.00721154,0.125392,0.592411,0.0,0.0,0.0,0.0,0.0,0.0,0.0,0.0,0,0,0,0,3,0,0,3,0,0,0,4,1,0,0
391978235,0.0216867,0.0250784,0.593635,0.0,0.0,0.0,0.0,0.0,0.0,0.0,0.0,0,0,0,0,3,0,0,3,0,0,0,4,1,0,0
392176817,0.0216867,0.0282132,0.560588,0.0,0.0,0.0,0.0,0.0,0.0,0.0,0.0,0,0,0,0,3,0,0,3,0,0,0,4,1,0,0
392375629,0.0216867,0.0250784,0.565483,0.0,0.0,0.0,0.0,0.0,0.0,0.0,0.0,0,0,0,0,3,0,0,3,0,0,0,4,1,0,0
392574294,0.0216867,0.0250784,0.565483,0.0,0.0,0.0,0.0,0.0,0.0,0.0,0.0,0,0,0,0,3,0,0,3,0,0,0,4,1,0,0
392772789,0.0216867,0.0250784,0.565483,0.0,0.0,0.0,0.0,0.0,0.0,0.0,0.0,0,0,0,0,3,0,0,3,0,0,0,4,1,0,0
392974292,0.0216867,0.0282132,0.565483,0.0,0.0,0.0,0.0,0.0,0.0,0.0,0.0,0,0,0,0,3,0,0,3,0,0,0,4,1,0,0
393175117,0.0216867,0.031348,0.569155,0.0,0.0,0.0,0.0,0.0,0.0,0.0,0.0,0,0,0,0,3,0,0,3,0,0,0,4,1,0,0
393376494,0.0240964,0.0407524,0.577723,0.0,0.0,0.0,0.0,0.0,0.0,0.0,0.0,0,0,0,0,3,0,0,3,0,0,0,4,1,0,0
393577226,0.0216867,0.0250784,0.576499,0.0,0.0,0.0,0.0,0.0,0.0,0.0,0.0,0,0,0,0,3,0,0,3,0,0,0,4,1,0,0
393776069,0.0216867,0.0282132,0.593635,0.0,0.0,0.0,0.0,0.0,0.0,0.0,0.0,0,0,0,0,3,0,0,3,0,0,0,4,1,0,0
393977677,0.195181,0.213166,0.593635,0.0,0.0,0.0,0.0,0.0,0.0,0.0,0.0,0,0,0,0,3,0,0,3,0,0,0,4,1,0,0
394178250,0.20241,0.294671,0.593635,0.0,0.0,0.0,0.0,0.0,0.0,0.0,0.0,0,0,0,0,3,0,0,3,0,0,0,4,1,0,0
394356962,0.19759,0.272727,0.593635,0.0,0.0,0.0,0.0,0.0,0.0,0.0,0.0,0,0,0,0,3,0,0,3,0,0,0,4,1,0,0
394578652,0.142169,0.206897,0.592411,0.0,0.0,0.0,0.0,0.0,0.0,0.0,0.0,0,0,0,0,3,0,0,3,0,0,0,4,1,0,0
394779114,0.0192771,0.0250784,0.593635,0.0,0.0,0.0,0.0,0.0,0.0,0.0,0.0,0,0,0,0,3,0,0,3,0,0,0,4,1,0,0
394977898,0.0192771,0.0250784,0.592411,0.0,0.0,0.0,0.0,0.0,0.0,0.0,0.0,0,0,0,0,3,0,0,3,0,0,0,4,1,0,0
395179568,0.0216867,0.031348,0.593635,0.0,0.0,0.0,0.0,0.0,0.0,0.0,0.0,0,0,0,0,3,0,0,3,0,0,0,4,1,0,0
395379983,0.178313,0.0501567,0.597307,0.0,0.0,0.0,0.0,0.0,0.0,0.0,0.0,0,0,0,0,3,0,0,3,0,0,0,4,1,0,0
395558842,0.159036,0.0344828,0.598531,0.0,0.0,0.0,0.0,0.0,0.0,0.0,0.0,0,0,0,0,3,0,0,3,0,0,0,4,1,0,0
395760189,0.13012,0.0344828,0.596083,0.0,0.0,0.0,0.0,0.0,0.0,0.0,0.0,0,0,0,0,3,0,0,3,0,0,0,4,1,0,0
395961170,0.149398,0.0344828,0.593635,0.0,0.0,0.0,0.0,0.0,0.0,0.0,0.0,0,0,0,0,3,0,0,3,0,0,0,4,1,0,0
396159806,0.142169,0.031348,0.605875,0.0,0.0,0.0,0.0,0.0,0.0,0.0,0.0,0,0,0,0,3,0,0,3,0,0,0,4,1,0,0
396360985,0.0987952,0.031348,0.605875,0.0,0.0,0.0,0.0,0.0,0.0,0.0,0.0,0,0,0,0,3,0,0,3,0,0,0,4,1,0,0
396561913,0.120482,0.0344828,0.605875,0.0,0.0,0.0,0.0,0.0,0.0,0.0,0.0,0,0,0,0,3,0,0,3,0,0,0,4,1,0,0
396764289,0.086747,0.031348,0.605875,0.0,0.0,0.0,0.0,0.0,0.0,0.0,0.0,0,0,0,0,3,0,0,3,0,0,0,4,1,0,0
396971262,0.0192771,0.0250784,0.605875,0.0,0.0,0.0,0.0,0.0,0.0,0.0,0.0,0,0,0,0,3,0,0,3,0,0,0,4,1,0,0
397165382,0.0216867,0.0250784,0.605875,0.0,0.0,0.0,0.0,0.0,0.0,0.0,0.0,0,0,0,0,3,0,0,3,0,0,0,4,1,0,0
397366407,0.0216867,0.0282132,0.588739,0.0,0.0,0.0,0.0,0.0,0.0,0.0,0.0,0,0,0,0,3,0,0,3,0,0,0,4,1,0,0
397565103,0.0216867,0.0250784,0.580171,0.0,0.0,0.0,0.0,0.0,0.0,0.0,0.0,0,0,0,0,3,0,0,3,0,0,0,4,1,0,0
397767179,0.0216867,0.031348,0.576499,0.0,0.0,0.0,0.0,0.0,0.0,0.0,0.0,0,0,0,0,3,0,0,3,0,0,0,4,1,0,0
397967314,0.171084,0.169279,0.585067,0.0,0.0,0.0,0.0,0.0,0.0,0.0,0.0,0,0,0,0,3,0,0,3,0,0,0,4,1,0,0
398165930,0.171084,0.15047,0.586291,0.0,0.0,0.0,0.0,0.0,0.0,0.0,0.0,0,0,0,0,3,0,0,3,0,0,0,4,1,0,0
398364804,0.151807,0.0971787,0.586291,0.0,0.0,0.0,0.0,0.0,0.0,0.0,0.0,0,0,0,0,3,0,0,3,0,0,0,4,1,0,0
398566511,0.149398,0.0909091,0.586291,0.0,0.0,0.0,0.0,0.0,0.0,0.0,0.0,0,0,0,0,3,0,0,3,0,0,0,4,1,0,0
398766984,0.142169,0.0971787,0.586291,0.0,0.0,0.0,0.0,0.0,0.0,0.0,0.0,0,0,0,0,3,0,0,3,0,0,0,4,1,0,0
398968805,0.149398,0.137931,0.586291,0.0,0.0,0.0,0.0,0.0,0.0,0.0,0.0,0,0,0,0,3,0,0,3,0,0,0,4,1,0,0
399169137,0.13012,0.112853,0.586291,0.0,0.0,0.0,0.0,0.0,0.0,0.0,0.0,0,0,0,0,3,0,0,3,0,0,0,4,1,0,0
399370593,0.0987952,0.0438871,0.586291,0.0,0.0,0.0,0.0,0.0,0.0,0.0,0.0,0,0,0,0,3,0,0,3,0,0,0,4,1,0,0
399569625,0.0457831,0.031348,0.586291,0.0,0.0,0.0,0.0,0.0,0.0,0.0,0.0,0,0,0,0,3,0,0,3,0,0,0,4,1,0,0
399770059,0.0192771,0.0250784,0.586291,0.0,0.0,0.0,0.0,0.0,0.0,0.0,0.0,0,0,0,0,3,0,0,3,0,0,0,4,1,0,0
399971810,0.0216867,0.031348,0.578947,0.0,0.0,0.0,0.0,0.0,0.0,0.0,0.0,0,0,0,0,3,0,0,3,0,0,0,4,1,0,0
400172311,0.110843,0.106583,0.553244,0.0,0.0,0.0,0.0,0.0,0.0,0.0,0.0,0,0,0,0,3,0,0,3,0,0,0,4,1,0,0
400373498,0.0939759,0.131661,0.560588,0.0,0.0,0.0,0.0,0.0,0.0,0.0,0.0,0,0,0,0,3,0,0,3,0,0,0,4,1,0,0
400574421,0.101205,0.159875,0.561812,0.0,0.0,0.0,0.0,0.0,0.0,0.0,0.0,0,0,0,0,3,0,0,3,0,0,0,4,1,0,0
400773052,0.106024,0.134796,0.560588,0.0,0.0,0.0,0.0,0.0,0.0,0.0,0.0,0,0,0,0,3,0,0,3,0,0,0,4,1,0,0
400974559,0.122892,0.131661,0.560588,0.0,0.0,0.0,0.0,0.0,0.0,0.0,0.0,0,0,0,0,3,0,0,3,0,0,0,4,1,0,0
401173013,0.13253,0.122257,0.560588,0.0,0.0,0.0,0.0,0.0,0.0,0.0,0.0,0,0,0,0,3,0,0,3,0,0,0,4,1,0,0
401373924,0.127711,0.0909091,0.560588,0.0,0.0,0.0,0.0,0.0,0.0,0.0,0.0,0,0,0,0,3,0,0,3,0,0,0,4,1,0,0
401572639,0.0192771,0.0250784,0.594859,0.0,0.0,0.0,0.0,0.0,0.0,0.0,0.0,0,0,0,0,3,0,0,3,0,0,0,4,1,0,0
401771309,0.0192771,0.0250784,0.602203,0.0,0.0,0.0,0.0,0.0,0.0,0.0,0.0,0,0,0,0,3,0,0,3,0,0,0,4,1,0,0
401969935,0.026506,0.031348,0.602203,0.0,0.0,0.0,0.0,0.0,0.0,0.0,0.0,0,0,0,0,3,0,0,3,0,0,0,4,1,0,0
402171346,0.163855,0.0752351,0.598531,0.0,0.0,0.0,0.0,0.0,0.0,0.0,0.0,0,0,0,0,3,0,0,3,0,0,0,4,1,0,0
402372158,0.163855,0.0971787,0.599755,0.0,0.0,0.0,0.0,0.0,0.0,0.0,0.0,0,0,0,0,3,0,0,3,0,0,0,4,1,0,0
402573514,0.26506,0.197492,0.599755,0.0,0.0,0.0,0.0,0.0,0.0,0.0,0.0,0,0,0,0,3,0,0,3,0,0,0,4,1,0,0
402772119,0.277108,0.181818,0.599755,0.0,0.0,0.0,0.0,0.0,0.0,0.0,0.0,0,0,0,0,3,0,0,3,0,0,0,4,1,0,0
402973036,0.226506,0.0846395,0.598531,0.0,0.0,0.0,0.0,0.0,0.0,0.0,0.0,0,0,0,0,3,0,0,3,0,0,0,4,1,0,0
403171896,0.20241,0.0344828,0.598531,0.0,0.0,0.0,0.0,0.0,0.0,0.0,0.0,0,0,0,0,3,0,0,3,0,0,0,4,1,0,0
403373050,0.053012,0.0282132,0.598531,0.0,0.0,0.0,0.0,0.0,0.0,0.0,0.0,0,0,0,0,3,0,0,3,0,0,0,4,1,0,0
403574003,0.0192771,0.0250784,0.598531,0.0,0.0,0.0,0.0,0.0,0.0,0.0,0.0,0,0,0,0,3,0,0,3,0,0,0,4,1,0,0
403775437,0.0192771,0.0250784,0.598531,0.0,0.0,0.0,0.0,0.0,0.0,0.0,0.0,0,0,0,0,3,0,0,3,0,0,0,4,1,0,0
403976316,0.0216867,0.031348,0.598531,0.0,0.0,0.0,0.0,0.0,0.0,0.0,0.0,0,0,0,0,3,0,0,3,0,0,0,4,1,0,0
404174798,0.0216867,0.0250784,0.598531,0.0,0.0,0.0,0.0,0.0,0.0,0.0,0.0,0,0,0,0,3,0,0,3,0,0,0,4,1,0,0
404373400,0.0216867,0.031348,0.598531,0.0,0.0,0.0,0.0,0.0,0.0,0.0,0.0,0,0,0,0,3,0,0,3,0,0,0,4,1,0,0
404574799,0.236145,0.206897,0.598531,0.0,0.0,0.0,0.0,0.0,0.0,0.0,0.0,0,0,0,0,3,0,0,3,0,0,0,4,1,0,0
404775904,0.274699,0.231975,0.598531,0.0,0.0,0.0,0.0,0.0,0.0,0.0,0.0,0,0,0,0,3,0,0,3,0,0,0,4,1,0,0
404977495,0.262651,0.200627,0.598531,0.0,0.0,0.0,0.0,0.0,0.0,0.0,0.0,0,0,0,0,3,0,0,3,0,0,0,4,1,0,0
405176113,0.207229,0.103448,0.598531,0.0,0.0,0.0,0.0,0.0,0.0,0.0,0.0,0,0,0,0,3,0,0,3,0,0,0,4,1,0,0
405374534,0.127711,0.031348,0.585067,0.0,0.0,0.0,0.0,0.0,0.0,0.0,0.0,0,0,0,0,3,0,0,3,0,0,0,4,1,0,0
405573134,0.0216867,0.0250784,0.578947,0.0,0.0,0.0,0.0,0.0,0.0,0.0,0.0,0,0,0,0,3,0,0,3,0,0,0,4,1,0,0
405773948,0.0626506,0.0344828,0.577723,0.0,0.0,0.0,0.0,0.0,0.0,0.0,0.0,0,0,0,0,3,0,0,3,0,0,0,4,1,0,0
405975229,0.120482,0.0344828,0.575275,0.0,0.0,0.0,0.0,0.0,0.0,0.0,0.0,0,0,0,0,3,0,0,3,0,0,0,4,1,0,0
406154023,0.108434,0.031348,0.570379,0.0,0.0,0.0,0.0,0.0,0.0,0.0,0.0,0,0,0,0,3,0,0,3,0,0,0,4,1,0,0
406374915,0.0216867,0.031348,0.572827,0.0,0.0,0.0,0.0,0.0,0.0,0.0,0.0,0,0,0,0,3,0,0,3,0,0,0,4,1,0,0
406575989,0.0216867,0.031348,0.572827,0.0,0.0,0.0,0.0,0.0,0.0,0.0,0.0,0,0,0,0,3,0,0,3,0,0,0,4,1,0,0
406777010,0.0192771,0.0250784,0.572827,0.0,0.0,0.0,0.0,0.0,0.0,0.0,0.0,0,0,0,0,3,0,0,3,0,0,0,4,1,0,0
406973434,0.0192771,0.0250784,0.572827,0.0,0.0,0.0,0.0,0.0,0.0,0.0,0.0,0,0,0,0,3,0,0,3,0,0,0,4,1,0,0
407174580,0.0939759,0.153605,0.572827,0.0,0.0,0.0,0.0,0.0,0.0,0.0,0.0,0,0,0,0,3,0,0,3,0,0,0,4,1,0,0
407373098,0.166265,0.0940439,0.572827,0.0,0.0,0.0,0.0,0.0,0.0,0.0,0.0,0,0,0,0,3,0,0,3,0,0,0,4,1,0,0
407574551,0.101205,0.031348,0.572827,0.0,0.0,0.0,0.0,0.0,0.0,0.0,0.0,0,0,0,0,3,0,0,3,0,0,0,4,1,0,0
407775365,0.0674699,0.0282132,0.572827,0.0,0.0,0.0,0.0,0.0,0.0,0.0,0.0,0,0,0,0,3,0,0,3,0,0,0,4,1,0,0
407977098,0.0216867,0.031348,0.572827,0.0,0.0,0.0,0.0,0.0,0.0,0.0,0.0,0,0,0,0,3,0,0,3,0,0,0,4,1,0,0
408177394,0.231325,0.106583,0.572827,0.0,0.0,0.0,0.0,0.0,0.0,0.0,0.0,0,0,0,0,3,0,0,3,0,0,0,4,1,0,0
408376236,0.243373,0.0877743,0.572827,0.0,0.0,0.0,0.0,0.0,0.0,0.0,0.0,0,0,0,0,3,0,0,3,0,0,0,4,1,0,0
408574839,0.166265,0.0407524,0.572827,0.0,0.0,0.0,0.0,0.0,0.0,0.0,0.0,0,0,0,0,3,0,0,3,0,0,0,4,1,0,0
408776105,0.0746988,0.031348,0.572827,0.0,0.0,0.0,0.0,0.0,0.0,0.0,0.0,0,0,0,0,3,0,0,3,0,0,0,4,1,0,0
408977178,0.0192771,0.0250784,0.572827,0.0,0.0,0.0,0.0,0.0,0.0,0.0,0.0,0,0,0,0,3,0,0,3,0,0,0,4,1,0,0
409178372,0.286747,0.244514,0.572827,0.0,0.0,0.0,0.0,0.0,0.0,0.0,0.0,0,0,0,0,3,0,0,3,0,0,0,4,1,0,0
409377077,0.238554,0.147335,0.572827,0.0,0.0,0.0,0.0,0.0,0.0,0.0,0.0,0,0,0,0,3,0,0,3,0,0,0,4,1,0,0
409578033,0.0216867,0.0219436,0.572827,0.0,0.0,0.0,0.0,0.0,0.0,0.0,0.0,0,0,0,0,3,0,0,3,0,0,0,4,1,0,0
409776644,0.0216867,0.0250784,0.620563,0.0,0.0,0.0,0.0,0.0,0.0,0.0,0.0,0,0,0,0,3,0,0,3,0,0,0,4,1,0,0
409975330,0.0216867,0.0250784,0.614443,0.0,0.0,0.0,0.0,0.0,0.0,0.0,0.0,0,0,0,0,3,0,0,3,0,0,0,4,1,0,0
410173724,0.0216867,0.0250784,0.621787,0.0,0.0,0.0,0.0,0.0,0.0,0.0,0.0,0,0,0,0,3,0,0,3,0,0,0,4,1,0,0
410375125,0.0216867,0.031348,0.625459,0.00721154,0.0,0.0,0.0,0.0,0.0,0.0,0.0,0,0,0,0,3,0,0,3,0,0,0,4,1,0,0
410573702,0.0939759,0.0815047,0.626683,0.0,0.0,0.0,0.0,0.0,0.0,0.0,0.0,0,0,0,0,3,0,0,3,0,0,0,4,1,0,0
410774743,0.159036,0.147335,0.627907,0.0,0.0,0.0,0.0,0.0,0.0,0.0,0.0,0,0,0,0,3,0,0,3,0,0,0,4,1,0,0
410973494,0.166265,0.144201,0.627907,0.0,0.0,0.0,0.0,0.0,0.0,0.0,0.0,0,0,0,0,3,0,0,3,0,0,0,4,1,0,0
411175355,0.0650602,0.0282132,0.627907,0.0,0.0,0.0,0.0,0.0,0.0,0.0,0.0,0,0,0,0,3,0,0,3,0,0,0,4,1,0,0
411375764,0.0192771,0.0250784,0.627907,0.0,0.0,0.0,0.0,0.0,0.0,0.0,0.0,0,0,0,0,3,0,0,3,0,0,0,4,1,0,0
411577076,0.0506024,0.0344828,0.609547,0.0,0.0,0.0,0.0,0.0,0.0,0.0,0.0,0,0,0,0,3,0,0,3,0,0,0,4,1,0,0
411777763,0.0819277,0.0344828,0.594859,0.0,0.0,0.0,0.0,0.0,0.0,0.0,0.0,0,0,0,0,3,0,0,3,0,0,0,4,1,0,0
411979093,0.161446,0.0971787,0.597307,0.0,0.0,0.0,0.0,0.0,0.0,0.0,0.0,0,0,0,0,3,0,0,3,0,0,0,4,1,0,0
412180149,0.207229,0.144201,0.596083,0.0,0.0,0.0,0.0,0.0,0.0,0.0,0.0,0,0,0,0,3,0,0,3,0,0,0,4,1,0,0
412358864,0.13012,0.0344828,0.593635,0.0,0.0,0.0,0.0,0.0,0.0,0.0,0.0,0,0,0,0,3,0,0,3,0,0,0,4,1,0,0
412560814,0.0192771,0.0250784,0.585067,0.0,0.0,0.0,0.0,0.0,0.0,0.0,0.0,0,0,0,0,3,0,0,3,0,0,0,4,1,0,0
412761145,0.0216867,0.0282132,0.571603,0.0,0.0,0.0,0.0,0.0,0.0,0.0,0.0,0,0,0,0,3,0,0,3,0,0,0,4,1,0,0
412962679,0.0216867,0.0250784,0.572827,0.0,0.0,0.0,0.0,0.0,0.0,0.0,0.0,0,0,0,0,3,0,0,3,0,0,0,4,1,0,0
413163830,0.0216867,0.0344828,0.572827,0.0,0.0,0.0,0.0,0.0,0.0,0.0,0.0,0,0,0,0,3,0,0,3,0,0,0,4,1,0,0
413362097,0.108434,0.137931,0.572827,0.0,0.0,0.0,0.0,0.0,0.0,0.0,0.0,0,0,0,0,3,0,0,3,0,0,0,4,1,0,0
413563256,0.151807,0.178683,0.572827,0.0,0.0,0.0,0.0,0.0,0.0,0.0,0.0,0,0,0,0,3,0,0,3,0,0,0,4,1,0,0
413761862,0.0674699,0.0783699,0.572827,0.0,0.0,0.0,0.0,0.0,0.0,0.0,0.0,0,0,0,0,3,0,0,3,0,0,0,4,1,0,0
413962879,0.0216867,0.0219436,0.572827,0.0,0.0,0.0,0.0,0.0,0.0,0.0,0.0,0,0,0,0,3,0,0,3,0,0,0,4,1,0,0
414161551,0.0216867,0.0250784,0.572827,0.0,0.0,0.0,0.0,0.0,0.0,0.0,0.0,0,0,0,0,3,0,0,3,0,0,0,4,1,0,0
414370238,0.142169,0.0532915,0.572827,0.0,0.0,0.0,0.0,0.0,0.0,0.0,0.0,0,0,0,0,3,0,0,3,0,0,0,4,1,0,0
414561625,0.255422,0.131661,0.572827,0.0,0.0,0.0,0.0,0.0,0.0,0.0,0.0,0,0,0,0,3,0,0,3,0,0,0,4,1,0,0
414762322,0.221687,0.144201,0.572827,0.0,0.0,0.0,0.0,0.0,0.0,0.0,0.0,0,0,0,0,3,0,0,3,0,0,0,4,1,0,0
414963822,0.0409639,0.0282132,0.572827,0.0,0.0,0.0,0.0,0.0,0.0,0.0,0.0,0,0,0,0,3,0,0,3,0,0,0,4,1,0,0
415163089,0.026506,0.0344828,0.572827,0.0,0.0,0.0,0.0,0.0,0.0,0.0,0.0,0,0,0,0,3,0,0,3,0,0,0,4,1,0,0
415363496,0.192771,0.147335,0.572827,0.0,0.0,0.0,0.0,0.0,0.0,0.0,0.0,0,0,0,0,3,0,0,3,0,0,0,4,1,0,0
415564677,0.0626506,0.031348,0.572827,0.0,0.0,0.0,0.0,0.0,0.0,0.0,0.0,0,0,0,0,3,0,0,3,0,0,0,4,1,0,0
415763248,0.0192771,0.0250784,0.574051,0.0,0.0,0.0,0.0,0.0,0.0,0.0,0.0,0,0,0,0,3,0,0,3,0,0,0,4,1,0,0
415961885,0.0192771,0.0250784,0.581395,0.0,0.0,0.0,0.0,0.0,0.0,0.0,0.0,0,0,0,0,3,0,0,3,0,0,0,4,1,0,0
416161167,0.0192771,0.0250784,0.589963,0.0,0.0,0.0,0.0,0.0,0.0,0.0,0.0,0,0,0,0,3,0,0,3,0,0,0,4,1,0,0
416361572,0.0240964,0.031348,0.593635,0.00240385,0.0,0.0,0.0,0.0,0.0,0.0,0.0,0,0,0,0,3,0,0,3,0,0,0,4,1,0,0
416562741,0.195181,0.278997,0.594859,0.0,0.0,0.0,0.0,0.0,0.0,0.0,0.0,0,0,0,0,3,0,0,3,0,0,0,4,1,0,0
416763891,0.226506,0.266458,0.596083,0.0,0.0,0.0,0.0,0.0,0.0,0.0,0.0,0,0,0,0,3,0,0,3,0,0,0,4,1,0,0
416965535,0.2,0.247649,0.596083,0.0,0.0,0.0,0.0,0.0,0.0,0.0,0.0,0,0,0,0,3,0,0,3,0,0,0,4,1,0,0
417165890,0.190361,0.206897,0.597307,0.0,0.0,0.0,0.0,0.0,0.0,0.0,0.0,0,0,0,0,3,0,0,3,0,0,0,4,1,0,0
417368059,0.120482,0.0344828,0.596083,0.0,0.0,0.0,0.0,0.0,0.0,0.0,0.0,0,0,0,0,3,0,0,3,0,0,0,4,1,0,0
417568279,0.0192771,0.0250784,0.596083,0.0,0.0,0.0,0.0,0.0,0.0,0.0,0.0,0,0,0,0,3,0,0,3,0,0,0,4,1,0,0
417767020,0.0216867,0.031348,0.596083,0.0,0.0,0.0,0.0,0.0,0.0,0.0,0.0,0,0,0,0,3,0,0,3,0,0,0,4,1,0,0
417965537,0.115663,0.0501567,0.596083,0.0,0.0,0.0,0.0,0.0,0.0,0.0,0.0,0,0,0,0,3,0,0,3,0,0,0,4,1,0,0
418167210,0.171084,0.0971787,0.596083,0.0,0.0,0.0,0.0,0.0,0.0,0.0,0.0,0,0,0,0,3,0,0,3,0,0,0,4,1,0,0
418367700,0.178313,0.0752351,0.596083,0.0,0.0,0.0,0.0,0.0,0.0,0.0,0.0,0,0,0,0,3,0,0,3,0,0,0,4,1,0,0
418566411,0.209639,0.0470219,0.596083,0.0,0.0,0.0,0.0,0.0,0.0,0.0,0.0,0,0,0,0,3,0,0,3,0,0,0,4,1,0,0
418768275,0.0313253,0.0282132,0.596083,0.0,0.0,0.0,0.0,0.0,0.0,0.0,0.0,0,0,0,0,3,0,0,3,0,0,0,4,1,0,0
418968691,0.0192771,0.0250784,0.596083,0.0,0.0,0.0,0.0,0.0,0.0,0.0,0.0,0,0,0,0,3,0,0,3,0,0,0,4,1,0,0
419170373,0.122892,0.0971787,0.596083,0.0,0.0,0.0,0.0,0.0,0.0,0.0,0.0,0,0,0,0,3,0,0,3,0,0,0,4,1,0,0
419370959,0.190361,0.200627,0.596083,0.0,0.0,0.0,0.0,0.0,0.0,0.0,0.0,0,0,0,0,3,0,0,3,0,0,0,4,1,0,0
419572332,0.161446,0.137931,0.596083,0.0,0.0,0.0,0.0,0.0,0.0,0.0,0.0,0,0,0,0,3,0,0,3,0,0,0,4,1,0,0
419773056,0.159036,0.0721003,0.596083,0.0,0.0,0.0,0.0,0.0,0.0,0.0,0.0,0,0,0,0,3,0,0,3,0,0,0,4,1,0,0
419971760,0.0216867,0.0250784,0.596083,0.0,0.0,0.0,0.0,0.0,0.0,0.0,0.0,0,0,0,0,3,0,0,3,0,0,0,4,1,0,0
420173123,0.0216867,0.0250784,0.596083,0.0,0.0,0.0,0.0,0.0,0.0,0.0,0.0,0,0,0,0,3,0,0,3,0,0,0,4,1,0,0
420374340,0.0650602,0.031348,0.596083,0.0,0.0,0.0,0.0,0.0,0.0,0.0,0.0,0,0,0,0,3,0,0,3,0,0,0,4,1,0,0
420575398,0.0192771,0.0250784,0.596083,0.0,0.0,0.0,0.0,0.0,0.0,0.0,0.0,0,0,0,0,3,0,0,3,0,0,0,4,1,0,0
420774014,0.0192771,0.0250784,0.596083,0.0,0.0,0.0,0.0,0.0,0.0,0.0,0.0,0,0,0,0,3,0,0,3,0,0,0,4,1,0,0
420975008,0.224096,0.175549,0.596083,0.0,0.0,0.0,0.0,0.0,0.0,0.0,0.0,0,0,0,0,3,0,0,3,0,0,0,4,1,0,0
421173618,0.20241,0.219436,0.596083,0.0,0.0,0.0,0.0,0.0,0.0,0.0,0.0,0,0,0,0,3,0,0,3,0,0,0,4,1,0,0
421374834,0.248193,0.206897,0.596083,0.0,0.0,0.0,0.0,0.0,0.0,0.0,0.0,0,0,0,0,3,0,0,3,0,0,0,4,1,0,0
421575823,0.0216867,0.0250784,0.596083,0.0,0.0,0.0,0.0,0.0,0.0,0.0,0.0,0,0,0,0,3,0,0,3,0,0,0,4,1,0,0
421774554,0.0216867,0.031348,0.596083,0.0,0.0,0.0,0.0,0.0,0.0,0.0,0.0,0,0,0,0,3,0,0,3,0,0,0,4,1,0,0
421973216,0.0216867,0.031348,0.596083,0.0,0.0,0.0,0.0,0.0,0.0,0.0,0.0,0,0,0,0,3,0,0,3,0,0,0,4,1,0,0
422174549,0.0216867,0.0282132,0.596083,0.0,0.0,0.0,0.0,0.0,0.0,0.0,0.0,0,0,0,0,3,0,0,3,0,0,0,4,1,0,0
422372965,0.0216867,0.0250784,0.596083,0.0,0.0,0.0,0.0,0.0,0.0,0.0,0.0,0,0,0,0,3,0,0,3,0,0,0,4,1,0,0
422574054,0.0313253,0.031348,0.578947,0.0,0.0,0.0,0.0,0.0,0.0,0.0,0.0,0,0,0,0,3,0,0,3,0,0,0,4,1,0,0
422772649,0.13012,0.0344828,0.581395,0.0,0.0,0.0,0.0,0.0,0.0,0.0,0.0,0,0,0,0,3,0,0,3,0,0,0,4,1,0,0
422968959,0.178313,0.0344828,0.571603,0.0,0.0,0.0,0.0,0.0,0.0,0.0,0.0,0,0,0,0,3,0,0,3,0,0,0,4,1,0,0
423169930,0.0698795,0.031348,0.563035,0.0,0.0,0.0,0.0,0.0,0.0,0.0,0.0,0,0,0,0,3,0,0,3,0,0,0,4,1,0,0
423371326,0.0506024,0.031348,0.563035,0.0,0.0,0.0,0.0,0.0,0.0,0.0,0.0,0,0,0,0,3,0,0,3,0,0,0,4,1,0,0
423579824,0.0313253,0.0282132,0.559364,0.0,0.0,0.0,0.0,0.0,0.0,0.0,0.0,0,0,0,0,3,0,0,3,0,0,0,4,1,0,0
423773374,0.026506,0.0344828,0.563035,0.0,0.0,0.0,0.0,0.0,0.0,0.0,0.0,0,0,0,0,3,0,0,3,0,0,0,4,1,0,0
423974487,0.163855,0.163009,0.563035,0.0,0.0,0.0,0.0,0.0,0.0,0.0,0.0,0,0,0,0,3,0,0,3,0,0,0,4,1,0,0
424172995,0.175904,0.210031,0.563035,0.0,0.0,0.0,0.0,0.0,0.0,0.0,0.0,0,0,0,0,3,0,0,3,0,0,0,4,1,0,0
424374429,0.110843,0.0940439,0.563035,0.0,0.0,0.0,0.0,0.0,0.0,0.0,0.0,0,0,0,0,3,0,0,3,0,0,0,4,1,0,0
424575329,0.0216867,0.0250784,0.563035,0.0,0.0,0.0,0.0,0.0,0.0,0.0,0.0,0,0,0,0,3,0,0,3,0,0,0,4,1,0,0
424776696,0.0216867,0.0250784,0.597307,0.0,0.0,0.0,0.0,0.0,0.0,0.0,0.0,0,0,0,0,3,0,0,3,0,0,0,4,1,0,0
424977486,0.0216867,0.0282132,0.589963,0.0,0.0,0.0,0.0,0.0,0.0,0.0,0.0,0,0,0,0,3,0,0,3,0,0,0,4,1,0,0
425179523,0.281928,0.200627,0.594859,0.0,0.0,0.0,0.0,0.0,0.0,0.0,0.0,0,0,0,0,3,0,0,3,0,0,0,4,1,0,0
425379760,0.207229,0.109718,0.594859,0.0,0.0,0.0,0.0,0.0,0.0,0.0,0.0,0,0,0,0,3,0,0,3,0,0,0,4,1,0,0
425581120,0.0216867,0.0250784,0.626683,0.0,0.0,0.0,0.0,0.0,0.0,0.0,0.0,0,0,0,0,3,0,0,3,0,0,0,4,1,0,0
425760069,0.0216867,0.0250784,0.632803,0.0,0.0,0.0,0.0,0.0,0.0,0.0,0.0,0,0,0,0,3,0,0,3,0,0,0,4,1,0,0
425960838,0.086747,0.166144,0.632803,0.0,0.0,0.0,0.0,0.0,0.0,0.0,0.0,0,0,0,0,3,0,0,3,0,0,0,4,1,0,0
426162006,0.2,0.294671,0.632803,0.0,0.0,0.0,0.0,0.0,0.0,0.0,0.0,0,0,0,0,3,0,0,3,0,0,0,4,1,0,0
426360803,0.212048,0.238245,0.632803,0.0,0.0,0.0,0.0,0.0,0.0,0.0,0.0,0,0,0,0,3,0,0,3,0,0,0,4,1,0,0
426581494,0.0192771,0.0250784,0.634027,0.0,0.0,0.0,0.0,0.0,0.0,0.0,0.0,0,0,0,0,3,0,0,3,0,0,0,4,1,0,0
426780293,0.0216867,0.031348,0.571603,0.0,0.0,0.0,0.0,0.0,0.0,0.0,0.0,0,0,0,0,3,0,0,3,0,0,0,4,1,0,0
426958913,0.060241,0.0344828,0.586291,0.0,0.0,0.0,0.0,0.0,0.0,0.0,0.0,0,0,0,0,3,0,0,3,0,0,0,4,1,0,0
427160931,0.110843,0.031348,0.578947,0.0,0.0,0.0,0.0,0.0,0.0,0.0,0.0,0,0,0,0,3,0,0,3,0,0,0,4,1,0,0
427361582,0.0192771,0.0250784,0.581395,0.0,0.0,0.0,0.0,0.0,0.0,0.0,0.0,0,0,0,0,3,0,0,3,0,0,0,4,1,0,0
427563448,0.0216867,0.0250784,0.581395,0.0,0.0,0.0,0.0,0.0,0.0,0.0,0.0,0,0,0,0,3,0,0,3,0,0,0,4,1,0,0
427763485,0.0216867,0.0282132,0.582619,0.0,0.0,0.0,0.0,0.0,0.0,0.0,0.0,0,0,0,0,3,0,0,3,0,0,0,4,1,0,0
427964943,0.0216867,0.031348,0.576499,0.0,0.0,0.0,0.0,0.0,0.0,0.0,0.0,0,0,0,0,3,0,0,3,0,0,0,4,1,0,0
428163549,0.0216867,0.031348,0.572827,0.0,0.0,0.0,0.0,0.0,0.0,0.0,0.0,0,0,0,0,3,0,0,3,0,0,0,4,1,0,0
428364417,0.0457831,0.0376176,0.576499,0.0,0.0,0.0,0.0,0.0,0.0,0.0,0.0,0,0,0,0,3,0,0,3,0,0,0,4,1,0,0
428560712,0.106024,0.112853,0.577723,0.0,0.0,0.0,0.0,0.0,0.0,0.0,0.0,0,0,0,0,3,0,0,3,0,0,0,4,1,0,0
428761815,0.0481928,0.031348,0.577723,0.0,0.0,0.0,0.0,0.0,0.0,0.0,0.0,0,0,0,0,3,0,0,3,0,0,0,4,1,0,0
428962907,0.0216867,0.0250784,0.578947,0.0,0.0,0.0,0.0,0.0,0.0,0.0,0.0,0,0,0,0,3,0,0,3,0,0,0,4,1,0,0
429161657,0.0216867,0.0250784,0.578947,0.0,0.0,0.0,0.0,0.0,0.0,0.0,0.0,0,0,0,0,3,0,0,3,0,0,0,4,1,0,0
429360363,0.0216867,0.0250784,0.578947,0.0,0.0,0.0,0.0,0.0,0.0,0.0,0.0,0,0,0,0,3,0,0,3,0,0,0,4,1,0,0
429561146,0.0216867,0.0250784,0.577723,0.0841346,0.0,0.0,0.0,0.0,0.0,0.0,0.0,0,0,0,0,3,0,0,3,0,0,0,4,1,0,0
429762486,0.0192771,0.0250784,0.578947,0.0,0.0,0.0,0.0,0.0,0.0,0.0,0.0,0,0,0,0,3,0,0,3,0,0,0,4,1,0,0
429961142,0.0216867,0.0250784,0.577723,0.0384615,0.0,0.0,0.0,0.0,0.0,0.0,0.0,0,0,0,0,3,0,0,3,0,0,0,4,1,0,0
430159882,0.026506,0.031348,0.578947,0.0,0.0,0.0,0.0,0.0,0.0,0.0,0.0,0,0,0,0,3,0,0,3,0,0,0,4,1,0,0
430358800,0.180723,0.178683,0.578947,0.0,0.0,0.0,0.0,0.0,0.0,0.0,0.0,0,0,0,0,3,0,0,3,0,0,0,4,1,0,0
430559266,0.248193,0.238245,0.578947,0.0,0.0,0.0,0.0,0.0,0.0,0.0,0.0,0,0,0,0,3,0,0,3,0,0,0,4,1,0,0
430782769,0.236145,0.222571,0.578947,0.0,0.0,0.0,0.0,0.0,0.0,0.0,0.0,0,0,0,0,3,0,0,3,0,0,0,4,1,0,0
430961746,0.190361,0.184953,0.578947,0.0,0.0,0.0,0.0,0.0,0.0,0.0,0.0,0,0,0,0,3,0,0,3,0,0,0,4,1,0,0
431163045,0.106024,0.0282132,0.578947,0.0,0.0,0.0,0.0,0.0,0.0,0.0,0.0,0,0,0,0,3,0,0,3,0,0,0,4,1,0,0
431363866,0.0216867,0.0250784,0.578947,0.0,0.0,0.0,0.0,0.0,0.0,0.0,0.0,0,0,0,0,3,0,0,3,0,0,0,4,1,0,0
431565712,0.110843,0.203762,0.578947,0.0,0.0,0.0,0.0,0.0,0.0,0.0,0.0,0,0,0,0,3,0,0,3,0,0,0,4,1,0,0
431772851,0.154217,0.244514,0.578947,0.0,0.0,0.0,0.0,0.0,0.0,0.0,0.0,0,0,0,0,3,0,0,3,0,0,0,4,1,0,0
431968054,0.0939759,0.112853,0.578947,0.0,0.0,0.0,0.0,0.0,0.0,0.0,0.0,0,0,0,0,3,0,0,3,0,0,0,4,1,0,0
432168567,0.0192771,0.0250784,0.578947,0.0,0.0,0.0,0.0,0.0,0.0,0.0,0.0,0,0,0,0,3,0,0,3,0,0,0,4,1,0,0
432370232,0.0192771,0.0282132,0.577723,0.0,0.0,0.0,0.0,0.0,0.0,0.0,0.0,0,0,0,0,3,0,0,3,0,0,0,4,1,0,0
432570632,0.238554,0.219436,0.578947,0.0,0.0,0.0,0.0,0.0,0.0,0.0,0.0,0,0,0,0,3,0,0,3,0,0,0,4,1,0,0
432772370,0.0939759,0.0438871,0.578947,0.0,0.0,0.0,0.0,0.0,0.0,0.0,0.0,0,0,0,0,3,0,0,3,0,0,0,4,1,0,0
432972800,0.0216867,0.0250784,0.616891,0.0,0.0,0.0,0.0,0.0,0.0,0.0,0.0,0,0,0,0,3,0,0,3,0,0,0,4,1,0,0
433174336,0.0240964,0.031348,0.653611,0.0,0.0,0.0,0.0,0.0,0.0,0.0,0.0,0,0,0,0,3,0,0,3,0,0,0,4,1,0,0
433375258,0.0289157,0.031348,0.637699,0.0,0.0,0.0,0.0,0.0,0.0,0.0,0.0,0,0,0,0,3,0,0,3,0,0,0,4,1,0,0
433576524,0.19759,0.0438871,0.642595,0.0,0.0,0.0,0.0,0.0,0.0,0.0,0.0,0,0,0,0,3,0,0,3,0,0,0,4,1,0,0
433777237,0.262651,0.0344828,0.643819,0.0,0.0,0.0,0.0,0.0,0.0,0.0,0.0,0,0,0,0,3,0,0,3,0,0,0,4,1,0,0
433975918,0.253012,0.031348,0.643819,0.0,0.0,0.0,0.0,0.0,0.0,0.0,0.0,0,0,0,0,3,0,0,3,0,0,0,4,1,0,0
434177792,0.0216867,0.0250784,0.643819,0.0,0.0,0.0,0.0,0.0,0.0,0.0,0.0,0,0,0,0,3,0,0,3,0,0,0,4,1,0,0
434378431,0.0987952,0.0344828,0.620563,0.0,0.0,0.0,0.0,0.0,0.0,0.0,0.0,0,0,0,0,3,0,0,3,0,0,0,4,1,0,0
434579534,0.142169,0.0815047,0.630355,0.0,0.0,0.0,0.0,0.0,0.0,0.0,0.0,0,0,0,0,3,0,0,3,0,0,0,4,1,0,0
434778623,0.0216867,0.0250784,0.630355,0.0,0.0,0.0,0.0,0.0,0.0,0.0,0.0,0,0,0,0,3,0,0,3,0,0,0,4,1,0,0
434977248,0.0192771,0.0250784,0.630355,0.0,0.0,0.0,0.0,0.0,0.0,0.0,0.0,0,0,0,0,3,0,0,3,0,0,0,4,1,0,0
435176120,0.0216867,0.031348,0.611995,0.0,0.0,0.0,0.0,0.0,0.0,0.0,0.0,0,0,0,0,3,0,0,3,0,0,0,4,1,0,0
435376398,0.0650602,0.0344828,0.569155,0.0,0.0,0.0,0.0,0.0,0.0,0.0,0.0,0,0,0,0,3,0,0,3,0,0,0,4,1,0,0
435575001,0.0433735,0.0282132,0.554468,0.0,0.0,0.0,0.0,0.0,0.0,0.0,0.0,0,0,0,0,3,0,0,3,0,0,0,4,1,0,0
435773728,0.0216867,0.0250784,0.498164,0.0,0.0,0.0,0.0,0.0,0.0,0.0,0.0,0,0,0,0,3,0,0,3,0,0,0,4,1,0,0
435975615,0.0216867,0.0250784,0.498164,0.0,0.0,0.0,0.0,0.0,0.0,0.0,0.0,0,0,0,0,3,0,0,3,0,0,0,4,1,0,0
436175931,0.0216867,0.297806,0.501836,0.0,0.0,0.0,0.0,0.0,0.0,0.0,0.0,0,0,0,0,3,0,0,3,0,0,0,4,1,0,0
436377381,0.0240964,0.269592,0.500612,0.0,0.0,0.0,0.0,0.0,0.0,0.0,0.0,0,0,0,0,3,0,0,3,0,0,0,4,1,0,0
436578128,0.0216867,0.0250784,0.500612,0.0,0.0,0.0,0.0,0.0,0.0,0.0,0.0,0,0,0,0,3,0,0,3,0,0,0,4,1,0,0
436776957,0.163855,0.191223,0.500612,0.0,0.0,0.0,0.0,0.0,0.0,0.0,0.0,0,0,0,0,3,0,0,3,0,0,0,4,1,0,0
436975594,0.236145,0.30721,0.499388,0.0,0.0,0.0,0.0,0.0,0.0,0.0,0.0,0,0,0,0,3,0,0,3,0,0,0,4,1,0,0
437177452,0.0216867,0.0219436,0.499388,0.0,0.0,0.0,0.0,0.0,0.0,0.0,0.0,0,0,0,0,3,0,0,3,0,0,0,4,1,0,0
437377755,0.0216867,0.0219436,0.608323,0.0,0.0,0.0,0.0,0.0,0.0,0.0,0.0,0,0,0,0,3,0,0,3,0,0,0,4,1,0,0
437579584,0.0216867,0.0250784,0.627907,0.0,0.0,0.0,0.0,0.0,0.0,0.0,0.0,0,0,0,0,3,0,0,3,0,0,0,4,1,0,0
437779977,0.0216867,0.0250784,0.626683,0.0,0.0,0.0,0.0,0.0,0.0,0.0,0.0,0,0,0,0,3,0,0,3,0,0,0,4,1,0,0
437981389,0.0674699,0.0376176,0.627907,0.0,0.0,0.0,0.0,0.0,0.0,0.0,0.0,0,0,0,0,3,0,0,3,0,0,0,4,1,0,0
438179889,0.2,0.163009,0.638923,0.0,0.0,0.0,0.0,0.0,0.0,0.0,0.0,0,0,0,0,3,0,0,3,0,0,0,4,1,0,0
438380868,0.125301,0.0344828,0.636475,0.0,0.0,0.0,0.0,0.0,0.0,0.0,0.0,0,0,0,0,3,0,0,3,0,0,0,4,1,0,0
438579565,0.127711,0.0438871,0.636475,0.0,0.0,0.0,0.0,0.0,0.0,0.0,0.0,0,0,0,0,3,0,0,3,0,0,0,4,1,0,0
438778200,0.159036,0.112853,0.636475,0.0,0.0,0.0,0.0,0.0,0.0,0.0,0.0,0,0,0,0,3,0,0,3,0,0,0,4,1,0,0
438979961,0.187952,0.181818,0.636475,0.0,0.0,0.0,0.0,0.0,0.0,0.0,0.0,0,0,0,0,3,0,0,3,0,0,0,4,1,0,0
439180440,0.178313,0.203762,0.636475,0.0,0.0,0.0,0.0,0.0,0.0,0.0,0.0,0,0,0,0,3,0,0,3,0,0,0,4,1,0,0
439381638,0.154217,0.213166,0.636475,0.0,0.0,0.0,0.0,0.0,0.0,0.0,0.0,0,0,0,0,3,0,0,3,0,0,0,4,1,0,0
439577668,0.13012,0.210031,0.636475,0.0,0.0,0.0,0.0,0.0,0.0,0.0,0.0,0,0,0,0,3,0,0,3,0,0,0,4,1,0,0
439776380,0.0698795,0.0282132,0.636475,0.0,0.0,0.0,0.0,0.0,0.0,0.0,0.0,0,0,0,0,3,0,0,3,0,0,0,4,1,0,0
439978114,0.0216867,0.0250784,0.599755,0.0,0.0,0.0,0.0,0.0,0.0,0.0,0.0,0,0,0,0,3,0,0,3,0,0,0,4,1,0,0
440176242,0.0216867,0.0250784,0.593635,0.0,0.0,0.0,0.0,0.0,0.0,0.0,0.0,0,0,0,0,3,0,0,3,0,0,0,4,1,0,0
440374871,0.0240964,0.103448,0.602203,0.0,0.0,0.0,0.0,0.0,0.0,0.0,0.0,0,0,0,0,3,0,0,3,0,0,0,4,1,0,0
440575787,0.0216867,0.22884,0.599755,0.0,0.0,0.0,0.0,0.0,0.0,0.0,0.0,0,0,0,0,3,0,0,3,0,0,0,4,1,0,0
440777795,0.0216867,0.119122,0.600979,0.0,0.0,0.0,0.0,0.0,0.0,0.0,0.0,0,0,0,0,3,0,0,3,0,0,0,4,1,0,0
440953258,0.0192771,0.0250784,0.600979,0.0,0.0,0.0,0.0,0.0,0.0,0.0,0.0,0,0,0,0,3,0,0,3,0,0,0,4,1,0,0
441174897,0.0554217,0.0344828,0.574051,0.0,0.0,0.0,0.0,0.0,0.0,0.0,0.0,0,0,0,0,3,0,0,3,0,0,0,4,1,0,0
441375472,0.0337349,0.031348,0.559364,0.0,0.0,0.0,0.0,0.0,0.0,0.0,0.0,0,0,0,0,3,0,0,3,0,0,0,4,1,0,0
441577237,0.0216867,0.031348,0.561812,0.0,0.0,0.0,0.0,0.0,0.0,0.0,0.0,0,0,0,0,3,0,0,3,0,0,0,4,1,0,0
441777577,0.13012,0.184953,0.565483,0.0,0.0,0.0,0.0,0.0,0.0,0.0,0.0,0,0,0,0,3,0,0,3,0,0,0,4,1,0,0
441979370,0.0795181,0.109718,0.563035,0.0,0.0,0.0,0.0,0.0,0.0,0.0,0.0,0,0,0,0,3,0,0,3,0,0,0,4,1,0,0
442180060,0.0192771,0.0250784,0.561812,0.0,0.0,0.0,0.0,0.0,0.0,0.0,0.0,0,0,0,0,3,0,0,3,0,0,0,4,1,0,0
442378559,0.0192771,0.0282132,0.561812,0.0,0.0,0.0,0.0,0.0,0.0,0.0,0.0,0,0,0,0,3,0,0,3,0,0,0,4,1,0,0
442577102,0.156627,0.0626959,0.563035,0.0,0.0,0.0,0.0,0.0,0.0,0.0,0.0,0,0,0,0,3,0,0,3,0,0,0,4,1,0,0
442778422,0.163855,0.15047,0.563035,0.0,0.0,0.0,0.0,0.0,0.0,0.0,0.0,0,0,0,0,3,0,0,3,0,0,0,4,1,0,0
442979494,0.178313,0.159875,0.563035,0.0,0.0,0.0,0.0,0.0,0.0,0.0,0.0,0,0,0,0,3,0,0,3,0,0,0,4,1,0,0
443158084,0.168675,0.122257,0.563035,0.0,0.0,0.0,0.0,0.0,0.0,0.0,0.0,0,0,0,0,3,0,0,3,0,0,0,4,1,0,0
443359962,0.159036,0.100313,0.563035,0.0,0.0,0.0,0.0,0.0,0.0,0.0,0.0,0,0,0,0,3,0,0,3,0,0,0,4,1,0,0
443580443,0.120482,0.0344828,0.563035,0.0,0.0,0.0,0.0,0.0,0.0,0.0,0.0,0,0,0,0,3,0,0,3,0,0,0,4,1,0,0
443778971,0.0795181,0.031348,0.563035,0.0,0.0,0.0,0.0,0.0,0.0,0.0,0.0,0,0,0,0,3,0,0,3,0,0,0,4,1,0,0
443977496,0.0674699,0.031348,0.563035,0.0,0.0,0.0,0.0,0.0,0.0,0.0,0.0,0,0,0,0,3,0,0,3,0,0,0,4,1,0,0
444176236,0.171084,0.031348,0.563035,0.0,0.0,0.0,0.0,0.0,0.0,0.0,0.0,0,0,0,0,3,0,0,3,0,0,0,4,1,0,0
444375049,0.2,0.0282132,0.563035,0.0,0.0,0.0,0.0,0.0,0.0,0.0,0.0,0,0,0,0,3,0,0,3,0,0,0,4,1,0,0
444573511,0.120482,0.031348,0.563035,0.0,0.0,0.0,0.0,0.0,0.0,0.0,0.0,0,0,0,0,3,0,0,3,0,0,0,4,1,0,0
444772275,0.0216867,0.0250784,0.588739,0.0,0.0,0.0,0.0,0.0,0.0,0.0,0.0,0,0,0,0,3,0,0,3,0,0,0,4,1,0,0
444973377,0.0216867,0.0250784,0.608323,0.0,0.0,0.0,0.0,0.0,0.0,0.0,0.0,0,0,0,0,3,0,0,3,0,0,0,4,1,0,0
445172778,0.0385542,0.0344828,0.605875,0.0,0.0,0.0,0.0,0.0,0.0,0.0,0.0,0,0,0,0,3,0,0,3,0,0,0,4,1,0,0
445373047,0.187952,0.119122,0.607099,0.0,0.0,0.0,0.0,0.0,0.0,0.0,0.0,0,0,0,0,3,0,0,3,0,0,0,4,1,0,0
445574420,0.207229,0.159875,0.608323,0.0,0.0,0.0,0.0,0.0,0.0,0.0,0.0,0,0,0,0,3,0,0,3,0,0,0,4,1,0,0
445775304,0.0578313,0.0282132,0.608323,0.0,0.0,0.0,0.0,0.0,0.0,0.0,0.0,0,0,0,0,3,0,0,3,0,0,0,4,1,0,0
445973990,0.0216867,0.0250784,0.635251,0.0,0.0,0.0,0.0,0.0,0.0,0.0,0.0,0,0,0,0,3,0,0,3,0,0,0,4,1,0,0
446175306,0.0361446,0.0564263,0.627907,0.0,0.0,0.0,0.0,0.0,0.0,0.0,0.0,0,0,0,0,3,0,0,3,0,0,0,4,1,0,0
446376150,0.0987952,0.250784,0.634027,0.0,0.0,0.0,0.0,0.0,0.0,0.0,0.0,0,0,0,0,3,0,0,3,0,0,0,4,1,0,0
446574752,0.106024,0.22884,0.634027,0.0,0.0,0.0,0.0,0.0,0.0,0.0,0.0,0,0,0,0,3,0,0,3,0,0,0,4,1,0,0
446773406,0.0192771,0.0626959,0.630355,0.0,0.0,0.0,0.0,0.0,0.0,0.0,0.0,0,0,0,0,3,0,0,3,0,0,0,4,1,0,0
446972052,0.0192771,0.0250784,0.591187,0.0,0.0,0.0,0.0,0.0,0.0,0.0,0.0,0,0,0,0,3,0,0,3,0,0,0,4,1,0,0
447173396,0.0192771,0.0282132,0.582619,0.0,0.0,0.0,0.0,0.0,0.0,0.0,0.0,0,0,0,0,3,0,0,3,0,0,0,4,1,0,0
447374310,0.0216867,0.0250784,0.559364,0.0,0.0,0.0,0.0,0.0,0.0,0.0,0.0,0,0,0,0,3,0,0,3,0,0,0,4,1,0,0
447572902,0.0192771,0.0250784,0.571603,0.0,0.0,0.0,0.0,0.0,0.0,0.0,0.0,0,0,0,0,3,0,0,3,0,0,0,4,1,0,0
447774926,0.0192771,0.0250784,0.589963,0.0,0.0,0.0,0.0,0.0,0.0,0.0,0.0,0,0,0,0,3,0,0,3,0,0,0,4,1,0,0
447975288,0.0192771,0.0250784,0.585067,0.0,0.0,0.0,0.0,0.0,0.0,0.0,0.0,0,0,0,0,3,0,0,3,0,0,0,4,1,0,0
448177206,0.13494,0.0721003,0.587515,0.0,0.0,0.0,0.0,0.0,0.0,0.0,0.0,0,0,0,0,3,0,0,3,0,0,0,4,1,0,0
448377385,0.212048,0.219436,0.587515,0.0,0.0,0.0,0.0,0.0,0.0,0.0,0.0,0,0,0,0,3,0,0,3,0,0,0,4,1,0,0
448579540,0.257831,0.238245,0.587515,0.0,0.0,0.0,0.0,0.0,0.0,0.0,0.0,0,0,0,0,3,0,0,3,0,0,0,4,1,0,0
448779696,0.228916,0.188088,0.587515,0.0,0.0,0.0,0.0,0.0,0.0,0.0,0.0,0,0,0,0,3,0,0,3,0,0,0,4,1,0,0
448981658,0.0771084,0.0282132,0.587515,0.0,0.0,0.0,0.0,0.0,0.0,0.0,0.0,0,0,0,0,3,0,0,3,0,0,0,4,1,0,0
449167339,0.0192771,0.0250784,0.587515,0.0,0.0,0.0,0.0,0.0,0.0,0.0,0.0,0,0,0,0,3,0,0,3,0,0,0,4,1,0,0
449360719,0.0216867,0.031348,0.587515,0.0,0.0,0.0,0.0,0.0,0.0,0.0,0.0,0,0,0,0,3,0,0,3,0,0,0,4,1,0,0
449559323,0.139759,0.0344828,0.587515,0.0,0.0,0.0,0.0,0.0,0.0,0.0,0.0,0,0,0,0,3,0,0,3,0,0,0,4,1,0,0
449760684,0.173494,0.0344828,0.587515,0.0,0.0,0.0,0.0,0.0,0.0,0.0,0.0,0,0,0,0,3,0,0,3,0,0,0,4,1,0,0
449961684,0.154217,0.031348,0.587515,0.0,0.0,0.0,0.0,0.0,0.0,0.0,0.0,0,0,0,0,3,0,0,3,0,0,0,4,1,0,0
450162842,0.0746988,0.0282132,0.587515,0.0,0.0,0.0,0.0,0.0,0.0,0.0,0.0,0,0,0,0,3,0,0,3,0,0,0,4,1,0,0
450363908,0.0192771,0.0250784,0.587515,0.0,0.0,0.0,0.0,0.0,0.0,0.0,0.0,0,0,0,0,3,0,0,3,0,0,0,4,1,0,0
450565291,0.0216867,0.031348,0.587515,0.0,0.0,0.0,0.0,0.0,0.0,0.0,0.0,0,0,0,0,3,0,0,3,0,0,0,4,1,0,0
450766277,0.156627,0.0501567,0.587515,0.0,0.0,0.0,0.0,0.0,0.0,0.0,0.0,0,0,0,0,3,0,0,3,0,0,0,4,1,0,0
450967760,0.207229,0.0407524,0.587515,0.0,0.0,0.0,0.0,0.0,0.0,0.0,0.0,0,0,0,0,3,0,0,3,0,0,0,4,1,0,0
451166178,0.122892,0.0282132,0.587515,0.0,0.0,0.0,0.0,0.0,0.0,0.0,0.0,0,0,0,0,3,0,0,3,0,0,0,4,1,0,0
451362010,0.190361,0.0564263,0.587515,0.0,0.0,0.0,0.0,0.0,0.0,0.0,0.0,0,0,0,0,3,0,0,3,0,0,0,4,1,0,0
451563458,0.274699,0.206897,0.587515,0.0,0.0,0.0,0.0,0.0,0.0,0.0,0.0,0,0,0,0,3,0,0,3,0,0,0,4,1,0,0
451762673,0.274699,0.197492,0.587515,0.0,0.0,0.0,0.0,0.0,0.0,0.0,0.0,0,0,0,0,3,0,0,3,0,0,0,4,1,0,0
451961184,0.175904,0.0438871,0.587515,0.0,0.0,0.0,0.0,0.0,0.0,0.0,0.0,0,0,0,0,3,0,0,3,0,0,0,4,1,0,0
452161726,0.0216867,0.0250784,0.587515,0.0,0.0,0.0,0.0,0.0,0.0,0.0,0.0,0,0,0,0,3,0,0,3,0,0,0,4,1,0,0
452362903,0.0216867,0.0250784,0.627907,0.0,0.0,0.0,0.0,0.0,0.0,0.0,0.0,0,0,0,0,3,0,0,3,0,0,0,4,1,0,0
452563756,0.0216867,0.0250784,0.632803,0.0,0.0,0.0,0.0,0.0,0.0,0.0,0.0,0,0,0,0,3,0,0,3,0,0,0,4,1,0,0
452765056,0.0216867,0.0250784,0.651163,0.0,0.0,0.0,0.0,0.0,0.0,0.0,0.0,0,0,0,0,3,0,0,3,0,0,0,4,1,0,0
452963801,0.0240964,0.0344828,0.642595,0.0,0.0,0.0,0.0,0.0,0.0,0.0,0.0,0,0,0,0,3,0,0,3,0,0,0,4,1,0,0
453164677,0.127711,0.163009,0.642595,0.0,0.0,0.0,0.0,0.0,0.0,0.0,0.0,0,0,0,0,3,0,0,3,0,0,0,4,1,0,0
453363352,0.026506,0.0282132,0.643819,0.0,0.0,0.0,0.0,0.0,0.0,0.0,0.0,0,0,0,0,3,0,0,3,0,0,0,4,1,0,0
453561973,0.0192771,0.0250784,0.643819,0.0,0.0,0.0,0.0,0.0,0.0,0.0,0.0,0,0,0,0,3,0,0,3,0,0,0,4,1,0,0
453760663,0.0939759,0.0344828,0.615667,0.0,0.0,0.0,0.0,0.0,0.0,0.0,0.0,0,0,0,0,3,0,0,3,0,0,0,4,1,0,0
453961884,0.13012,0.0344828,0.580171,0.0,0.0,0.0,0.0,0.0,0.0,0.0,0.0,0,0,0,0,3,0,0,3,0,0,0,4,1,0,0
454162848,0.0795181,0.0344828,0.594859,0.0,0.0,0.0,0.0,0.0,0.0,0.0,0.0,0,0,0,0,3,0,0,3,0,0,0,4,1,0,0
454364229,0.183133,0.263323,0.596083,0.0,0.0,0.0,0.0,0.0,0.0,0.0,0.0,0,0,0,0,3,0,0,3,0,0,0,4,1,0,0
454565048,0.149398,0.175549,0.596083,0.0,0.0,0.0,0.0,0.0,0.0,0.0,0.0,0,0,0,0,3,0,0,3,0,0,0,4,1,0,0
454766507,0.0216867,0.0250784,0.597307,0.0,0.0,0.0,0.0,0.0,0.0,0.0,0.0,0,0,0,0,3,0,0,3,0,0,0,4,1,0,0
454967376,0.0216867,0.0250784,0.585067,0.0,0.0,0.0,0.0,0.0,0.0,0.0,0.0,0,0,0,0,3,0,0,3,0,0,0,4,1,0,0
455163696,0.0216867,0.0250784,0.583843,0.0,0.0,0.0,0.0,0.0,0.0,0.0,0.0,0,0,0,0,3,0,0,3,0,0,0,4,1,0,0
455362665,0.0216867,0.031348,0.583843,0.0,0.0,0.0,0.0,0.0,0.0,0.0,0.0,0,0,0,0,3,0,0,3,0,0,0,4,1,0,0
455563327,0.026506,0.159875,0.583843,0.0,0.0,0.0,0.0,0.0,0.0,0.0,0.0,0,0,0,0,3,0,0,3,0,0,0,4,1,0,0
455760279,0.0216867,0.0250784,0.583843,0.0,0.0,0.0,0.0,0.0,0.0,0.0,0.0,0,0,0,0,3,0,0,3,0,0,0,4,1,0,0
455960556,0.0216867,0.0250784,0.583843,0.0,0.0,0.0,0.0,0.0,0.0,0.0,0.0,0,0,0,0,3,0,0,3,0,0,0,4,1,0,0
456162015,0.0216867,0.0250784,0.583843,0.0,0.0,0.0,0.0,0.0,0.0,0.0,0.0,0,0,0,0,3,0,0,3,0,0,0,4,1,0,0
456362845,0.0216867,0.0250784,0.583843,0.0,0.0,0.0,0.0,0.0,0.0,0.0,0.0,0,0,0,0,3,0,0,3,0,0,0,4,1,0,0
456564034,0.118072,0.203762,0.583843,0.0,0.0,0.0,0.0,0.0,0.0,0.0,0.0,0,0,0,0,3,0,0,3,0,0,0,4,1,0,0
456765022,0.159036,0.30721,0.583843,0.0,0.0,0.0,0.0,0.0,0.0,0.0,0.0,0,0,0,0,3,0,0,3,0,0,0,4,1,0,0
456963812,0.0216867,0.0407524,0.583843,0.0,0.0,0.0,0.0,0.0,0.0,0.0,0.0,0,0,0,0,3,0,0,3,0,0,0,4,1,0,0
457162364,0.0192771,0.0250784,0.583843,0.0,0.0,0.0,0.0,0.0,0.0,0.0,0.0,0,0,0,0,3,0,0,3,0,0,0,4,1,0,0
457363899,0.0216867,0.0344828,0.583843,0.0,0.0,0.0,0.0,0.0,0.0,0.0,0.0,0,0,0,0,3,0,0,3,0,0,0,4,1,0,0
457564515,0.115663,0.169279,0.583843,0.0,0.0,0.0,0.0,0.0,0.0,0.0,0.0,0,0,0,0,3,0,0,3,0,0,0,4,1,0,0
457766580,0.086747,0.103448,0.583843,0.0,0.0,0.0,0.0,0.0,0.0,0.0,0.0,0,0,0,0,3,0,0,3,0,0,0,4,1,0,0
457964637,0.0385542,0.0407524,0.583843,0.0,0.0,0.0,0.0,0.0,0.0,0.0,0.0,0,0,0,0,3,0,0,3,0,0,0,4,1,0,0
458165488,0.219277,0.0971787,0.583843,0.0,0.0,0.0,0.0,0.0,0.0,0.0,0.0,0,0,0,0,3,0,0,3,0,0,0,4,1,0,0
458372533,0.0987952,0.0344828,0.583843,0.0,0.0,0.0,0.0,0.0,0.0,0.0,0.0,0,0,0,0,3,0,0,3,0,0,0,4,1,0,0
458566002,0.226506,0.0376176,0.583843,0.0,0.0,0.0,0.0,0.0,0.0,0.0,0.0,0,0,0,0,3,0,0,3,0,0,0,4,1,0,0
458766466,0.260241,0.0344828,0.583843,0.0,0.0,0.0,0.0,0.0,0.0,0.0,0.0,0,0,0,0,3,0,0,3,0,0,0,4,1,0,0
458968176,0.250602,0.031348,0.583843,0.0,0.0,0.0,0.0,0.0,0.0,0.0,0.0,0,0,0,0,3,0,0,3,0,0,0,4,1,0,0
459168665,0.0216867,0.0250784,0.582619,0.0,0.0,0.0,0.0,0.0,0.0,0.0,0.0,0,0,0,0,3,0,0,3,0,0,0,4,1,0,0
459370043,0.0216867,0.0250784,0.602203,0.0,0.0,0.0,0.0,0.0,0.0,0.0,0.0,0,0,0,0,3,0,0,3,0,0,0,4,1,0,0
459571021,0.0626506,0.0344828,0.597307,0.0,0.0,0.0,0.0,0.0,0.0,0.0,0.0,0,0,0,0,3,0,0,3,0,0,0,4,1,0,0
459772313,0.163855,0.203762,0.602203,0.0,0.0,0.0,0.0,0.0,0.0,0.0,0.0,0,0,0,0,3,0,0,3,0,0,0,4,1,0,0
459971567,0.166265,0.194357,0.602203,0.0,0.0,0.0,0.0,0.0,0.0,0.0,0.0,0,0,0,0,3,0,0,3,0,0,0,4,1,0,0
460171797,0.154217,0.197492,0.603427,0.0,0.0,0.0,0.0,0.0,0.0,0.0,0.0,0,0,0,0,3,0,0,3,0,0,0,4,1,0,0
460373730,0.108434,0.172414,0.603427,0.0,0.0,0.0,0.0,0.0,0.0,0.0,0.0,0,0,0,0,3,0,0,3,0,0,0,4,1,0,0
460574233,0.142169,0.184953,0.602203,0.0,0.0,0.0,0.0,0.0,0.0,0.0,0.0,0,0,0,0,3,0,0,3,0,0,0,4,1,0,0
460775421,0.0578313,0.125392,0.603427,0.0,0.0,0.0,0.0,0.0,0.0,0.0,0.0,0,0,0,0,3,0,0,3,0,0,0,4,1,0,0
460976248,0.0698795,0.109718,0.602203,0.0,0.0,0.0,0.0,0.0,0.0,0.0,0.0,0,0,0,0,3,0,0,3,0,0,0,4,1,0,0
461178053,0.0457831,0.0595611,0.602203,0.0,0.0,0.0,0.0,0.0,0.0,0.0,0.0,0,0,0,0,3,0,0,3,0,0,0,4,1,0,0
461378699,0.0192771,0.0250784,0.603427,0.0,0.0,0.0,0.0,0.0,0.0,0.0,0.0,0,0,0,0,3,0,0,3,0,0,0,4,1,0,0
461577134,0.0192771,0.0250784,0.602203,0.0,0.0,0.0,0.0,0.0,0.0,0.0,0.0,0,0,0,0,3,0,0,3,0,0,0,4,1,0,0
461775742,0.26988,0.125392,0.602203,0.0,0.0,0.0,0.0,0.0,0.0,0.0,0.0,0,0,0,0,3,0,0,3,0,0,0,4,1,0,0
461974402,0.243373,0.0658307,0.602203,0.0,0.0,0.0,0.0,0.0,0.0,0.0,0.0,0,0,0,0,3,0,0,3,0,0,0,4,1,0,0
462172984,0.243373,0.0783699,0.602203,0.0,0.0,0.0,0.0,0.0,0.0,0.0,0.0,0,0,0,0,3,0,0,3,0,0,0,4,1,0,0
462371848,0.228916,0.0752351,0.602203,0.0,0.0,0.0,0.0,0.0,0.0,0.0,0.0,0,0,0,0,3,0,0,3,0,0,0,4,1,0,0
462570305,0.195181,0.0344828,0.597307,0.0,0.0,0.0,0.0,0.0,0.0,0.0,0.0,0,0,0,0,3,0,0,3,0,0,0,4,1,0,0
462771598,0.139759,0.031348,0.570379,0.0,0.0,0.0,0.0,0.0,0.0,0.0,0.0,0,0,0,0,3,0,0,3,0,0,0,4,1,0,0
462972559,0.0216867,0.0250784,0.578947,0.0,0.0,0.0,0.0,0.0,0.0,0.0,0.0,0,0,0,0,3,0,0,3,0,0,0,4,1,0,0
463173979,0.026506,0.0564263,0.578947,0.0,0.0,0.0,0.0,0.0,0.0,0.0,0.0,0,0,0,0,3,0,0,3,0,0,0,4,1,0,0
463374922,0.122892,0.263323,0.578947,0.0,0.0,0.0,0.0,0.0,0.0,0.0,0.0,0,0,0,0,3,0,0,3,0,0,0,4,1,0,0
463576118,0.122892,0.275862,0.578947,0.0,0.0,0.0,0.0,0.0,0.0,0.0,0.0,0,0,0,0,3,0,0,3,0,0,0,4,1,0,0
463777074,0.156627,0.285266,0.578947,0.0,0.0,0.0,0.0,0.0,0.0,0.0,0.0,0,0,0,0,3,0,0,3,0,0,0,4,1,0,0
463978967,0.0192771,0.0595611,0.578947,0.0,0.0,0.0,0.0,0.0,0.0,0.0,0.0,0,0,0,0,3,0,0,3,0,0,0,4,1,0,0
464179332,0.0192771,0.0250784,0.578947,0.0,0.0,0.0,0.0,0.0,0.0,0.0,0.0,0,0,0,0,3,0,0,3,0,0,0,4,1,0,0
464377972,0.0192771,0.0250784,0.578947,0.0,0.0,0.0,0.0,0.0,0.0,0.0,0.0,0,0,0,0,3,0,0,3,0,0,0,4,1,0,0
464579777,0.0216867,0.031348,0.578947,0.0,0.0,0.0,0.0,0.0,0.0,0.0,0.0,0,0,0,0,3,0,0,3,0,0,0,4,1,0,0
464778564,0.221687,0.0407524,0.578947,0.0,0.0,0.0,0.0,0.0,0.0,0.0,0.0,0,0,0,0,3,0,0,3,0,0,0,4,1,0,0
464978933,0.0192771,0.0282132,0.577723,0.0,0.0,0.0,0.0,0.0,0.0,0.0,0.0,0,0,0,0,3,0,0,3,0,0,0,4,1,0,0
465177618,0.0216867,0.0250784,0.593635,0.0,0.0,0.0,0.0,0.0,0.0,0.0,0.0,0,0,0,0,3,0,0,3,0,0,0,4,1,0,0
465376121,0.0216867,0.031348,0.603427,0.0,0.0,0.0,0.0,0.0,0.0,0.0,0.0,0,0,0,0,3,0,0,3,0,0,0,4,1,0,0
465578306,0.086747,0.0407524,0.611995,0.0,0.0,0.0,0.0,0.0,0.0,0.0,0.0,0,0,0,0,3,0,0,3,0,0,0,4,1,0,0
465776829,0.166265,0.191223,0.611995,0.0,0.0,0.0,0.0,0.0,0.0,0.0,0.0,0,0,0,0,3,0,0,3,0,0,0,4,1,0,0
465976994,0.144578,0.137931,0.611995,0.0,0.0,0.0,0.0,0.0,0.0,0.0,0.0,0,0,0,0,3,0,0,3,0,0,0,4,1,0,0
466175649,0.115663,0.159875,0.611995,0.0,0.0,0.0,0.0,0.0,0.0,0.0,0.0,0,0,0,0,3,0,0,3,0,0,0,4,1,0,0
466374449,0.0698795,0.15047,0.611995,0.0,0.0,0.0,0.0,0.0,0.0,0.0,0.0,0,0,0,0,3,0,0,3,0,0,0,4,1,0,0
466575640,0.110843,0.159875,0.611995,0.0,0.0,0.0,0.0,0.0,0.0,0.0,0.0,0,0,0,0,3,0,0,3,0,0,0,4,1,0,0
466776567,0.0192771,0.0250784,0.611995,0.0,0.0,0.0,0.0,0.0,0.0,0.0,0.0,0,0,0,0,3,0,0,3,0,0,0,4,1,0,0
466977963,0.0216867,0.0250784,0.575275,0.0,0.0,0.0,0.0,0.0,0.0,0.0,0.0,0,0,0,0,3,0,0,3,0,0,0,4,1,0,0
467178903,0.0289157,0.0344828,0.582619,0.0,0.0,0.0,0.0,0.0,0.0,0.0,0.0,0,0,0,0,3,0,0,3,0,0,0,4,1,0,0
467377520,0.142169,0.166144,0.583843,0.0,0.0,0.0,0.0,0.0,0.0,0.0,0.0,0,0,0,0,3,0,0,3,0,0,0,4,1,0,0
467556328,0.127711,0.191223,0.583843,0.0,0.0,0.0,0.0,0.0,0.0,0.0,0.0,0,0,0,0,3,0,0,3,0,0,0,4,1,0,0
467779685,0.139759,0.141066,0.583843,0.0,0.0,0.0,0.0,0.0,0.0,0.0,0.0,0,0,0,0,3,0,0,3,0,0,0,4,1,0,0
467958567,0.110843,0.119122,0.583843,0.0,0.0,0.0,0.0,0.0,0.0,0.0,0.0,0,0,0,0,3,0,0,3,0,0,0,4,1,0,0
468179939,0.0192771,0.0282132,0.583843,0.0,0.0,0.0,0.0,0.0,0.0,0.0,0.0,0,0,0,0,3,0,0,3,0,0,0,4,1,0,0
468358652,0.0192771,0.0250784,0.581395,0.0,0.0,0.0,0.0,0.0,0.0,0.0,0.0,0,0,0,0,3,0,0,3,0,0,0,4,1,0,0
468582324,0.0216867,0.031348,0.534884,0.0,0.0,0.0,0.0,0.0,0.0,0.0,0.0,0,0,0,0,3,0,0,3,0,0,0,4,1,0,0
468761061,0.0216867,0.0344828,0.5459,0.0,0.0,0.0,0.0,0.0,0.0,0.0,0.0,0,0,0,0,3,0,0,3,0,0,0,4,1,0,0
468961700,0.0626506,0.0501567,0.559364,0.0,0.0,0.0,0.0,0.0,0.0,0.0,0.0,0,0,0,0,3,0,0,3,0,0,0,4,1,0,0
469160224,0.0843373,0.0940439,0.559364,0.0,0.0,0.0,0.0,0.0,0.0,0.0,0.0,0,0,0,0,3,0,0,3,0,0,0,4,1,0,0
469359102,0.108434,0.119122,0.559364,0.0,0.0,0.0,0.0,0.0,0.0,0.0,0.0,0,0,0,0,3,0,0,3,0,0,0,4,1,0,0
469560204,0.224096,0.216301,0.559364,0.0,0.0,0.0,0.0,0.0,0.0,0.0,0.0,0,0,0,0,3,0,0,3,0,0,0,4,1,0,0
469761154,0.156627,0.112853,0.559364,0.0,0.0,0.0,0.0,0.0,0.0,0.0,0.0,0,0,0,0,3,0,0,3,0,0,0,4,1,0,0
469963233,0.0192771,0.0250784,0.565483,0.0,0.0,0.0,0.0,0.0,0.0,0.0,0.0,0,0,0,0,3,0,0,3,0,0,0,4,1,0,0
470163740,0.0216867,0.031348,0.603427,0.0,0.0,0.0,0.0,0.0,0.0,0.0,0.0,0,0,0,0,3,0,0,3,0,0,0,4,1,0,0
470364762,0.0216867,0.031348,0.613219,0.0,0.0,0.0,0.0,0.0,0.0,0.0,0.0,0,0,0,0,3,0,0,3,0,0,0,4,1,0,0
470565695,0.0216867,0.0282132,0.611995,0.0,0.0,0.0,0.0,0.0,0.0,0.0,0.0,0,0,0,0,3,0,0,3,0,0,0,4,1,0,0
470767702,0.183133,0.222571,0.611995,0.0,0.0,0.0,0.0,0.0,0.0,0.0,0.0,0,0,0,0,3,0,0,3,0,0,0,4,1,0,0
470968264,0.2,0.213166,0.613219,0.0,0.0,0.0,0.0,0.0,0.0,0.0,0.0,0,0,0,0,3,0,0,3,0,0,0,4,1,0,0
471169140,0.192771,0.22884,0.614443,0.0,0.0,0.0,0.0,0.0,0.0,0.0,0.0,0,0,0,0,3,0,0,3,0,0,0,4,1,0,0
471370125,0.260241,0.241379,0.613219,0.0,0.0,0.0,0.0,0.0,0.0,0.0,0.0,0,0,0,0,3,0,0,3,0,0,0,4,1,0,0
471568813,0.233735,0.194357,0.613219,0.0,0.0,0.0,0.0,0.0,0.0,0.0,0.0,0,0,0,0,3,0,0,3,0,0,0,4,1,0,0
471770295,0.163855,0.106583,0.613219,0.0,0.0,0.0,0.0,0.0,0.0,0.0,0.0,0,0,0,0,3,0,0,3,0,0,0,4,1,0,0
471971096,0.139759,0.0344828,0.613219,0.0,0.0,0.0,0.0,0.0,0.0,0.0,0.0,0,0,0,0,3,0,0,3,0,0,0,4,1,0,0
472169678,0.0915663,0.0282132,0.614443,0.0,0.0,0.0,0.0,0.0,0.0,0.0,0.0,0,0,0,0,3,0,0,3,0,0,0,4,1,0,0
472371567,0.0192771,0.0250784,0.614443,0.0,0.0,0.0,0.0,0.0,0.0,0.0,0.0,0,0,0,0,3,0,0,3,0,0,0,4,1,0,0
472572306,0.0192771,0.0282132,0.614443,0.0,0.0,0.0,0.0,0.0,0.0,0.0,0.0,0,0,0,0,3,0,0,3,0,0,0,4,1,0,0
472773174,0.0337349,0.0,0.613219,0.0,0.0,0.0,0.0,0.0,0.0,0.0,0.0,0,0,0,0,3,0,0,3,0,0,0,4,1,0,0
472974206,0.0795181,0.0,0.614443,0.0,0.0,0.0,0.0,0.0,0.0,0.0,0.0,0,0,0,0,3,0,0,3,0,0,0,4,1,0,0
473175603,0.0192771,0.0250784,0.614443,0.0,0.0,0.0,0.0,0.0,0.0,0.0,0.0,0,0,0,0,3,0,0,3,0,0,0,4,1,0,0
473376731,0.0192771,0.0250784,0.614443,0.0,0.0,0.0,0.0,0.0,0.0,0.0,0.0,0,0,0,0,3,0,0,3,0,0,0,4,1,0,0
473575097,0.0457831,0.0344828,0.614443,0.0,0.0,0.0,0.0,0.0,0.0,0.0,0.0,0,0,0,0,3,0,0,3,0,0,0,4,1,0,0
473773655,0.13253,0.0626959,0.613219,0.0,0.0,0.0,0.0,0.0,0.0,0.0,0.0,0,0,0,0,3,0,0,3,0,0,0,4,1,0,0
473972370,0.159036,0.0376176,0.591187,0.0,0.0,0.0,0.0,0.0,0.0,0.0,0.0,0,0,0,0,3,0,0,3,0,0,0,4,1,0,0
474173680,0.2,0.0407524,0.569155,0.0,0.0,0.0,0.0,0.0,0.0,0.0,0.0,0,0,0,0,3,0,0,3,0,0,0,4,1,0,0
474374603,0.185542,0.0407524,0.572827,0.0,0.0,0.0,0.0,0.0,0.0,0.0,0.0,0,0,0,0,3,0,0,3,0,0,0,4,1,0,0
474576026,0.243373,0.0846395,0.566707,0.0,0.0,0.0,0.0,0.0,0.0,0.0,0.0,0,0,0,0,3,0,0,3,0,0,0,4,1,0,0
474774693,0.0192771,0.0250784,0.566707,0.0,0.0,0.0,0.0,0.0,0.0,0.0,0.0,0,0,0,0,3,0,0,3,0,0,0,4,1,0,0
474973294,0.101205,0.112853,0.571603,0.0,0.0,0.0,0.0,0.0,0.0,0.0,0.0,0,0,0,0,3,0,0,3,0,0,0,4,1,0,0
475171995,0.180723,0.210031,0.571603,0.0,0.0,0.0,0.0,0.0,0.0,0.0,0.0,0,0,0,0,3,0,0,3,0,0,0,4,1,0,0
475372871,0.149398,0.222571,0.571603,0.0,0.0,0.0,0.0,0.0,0.0,0.0,0.0,0,0,0,0,3,0,0,3,0,0,0,4,1,0,0
475574296,0.159036,0.310345,0.571603,0.0,0.0,0.0,0.0,0.0,0.0,0.0,0.0,0,0,0,0,3,0,0,3,0,0,0,4,1,0,0
475752929,0.163855,0.354232,0.571603,0.0,0.0,0.0,0.0,0.0,0.0,0.0,0.0,0,0,0,0,3,0,0,3,0,0,0,4,1,0,0
475976469,0.0192771,0.0250784,0.572827,0.0,0.0,0.0,0.0,0.0,0.0,0.0,0.0,0,0,0,0,3,0,0,3,0,0,0,4,1,0,0
476177338,0.0192771,0.0250784,0.603427,0.0,0.0,0.0,0.0,0.0,0.0,0.0,0.0,0,0,0,0,3,0,0,3,0,0,0,4,1,0,0
476376005,0.0216867,0.0250784,0.609547,0.0,0.0,0.0,0.0,0.0,0.0,0.0,0.0,0,0,0,0,3,0,0,3,0,0,0,4,1,0,0
476574509,0.0337349,0.0815047,0.603427,0.0,0.0,0.0,0.0,0.0,0.0,0.0,0.0,0,0,0,0,3,0,0,3,0,0,0,4,1,0,0
476770866,0.122892,0.269592,0.608323,0.0,0.0,0.0,0.0,0.0,0.0,0.0,0.0,0,0,0,0,3,0,0,3,0,0,0,4,1,0,0
476971897,0.115663,0.260188,0.608323,0.0,0.0,0.0,0.0,0.0,0.0,0.0,0.0,0,0,0,0,3,0,0,3,0,0,0,4,1,0,0
477173176,0.0192771,0.100313,0.608323,0.0,0.0,0.0,0.0,0.0,0.0,0.0,0.0,0,0,0,0,3,0,0,3,0,0,0,4,1,0,0
477374240,0.0216867,0.0250784,0.608323,0.0,0.0,0.0,0.0,0.0,0.0,0.0,0.0,0,0,0,0,3,0,0,3,0,0,0,4,1,0,0
477572813,0.026506,0.031348,0.608323,0.0,0.0,0.0,0.0,0.0,0.0,0.0,0.0,0,0,0,0,3,0,0,3,0,0,0,4,1,0,0
477771449,0.0457831,0.0344828,0.577723,0.0,0.0,0.0,0.0,0.0,0.0,0.0,0.0,0,0,0,0,3,0,0,3,0,0,0,4,1,0,0
477972701,0.0578313,0.0344828,0.587515,0.0,0.0,0.0,0.0,0.0,0.0,0.0,0.0,0,0,0,0,3,0,0,3,0,0,0,4,1,0,0
478171318,0.183133,0.0909091,0.587515,0.0,0.0,0.0,0.0,0.0,0.0,0.0,0.0,0,0,0,0,3,0,0,3,0,0,0,4,1,0,0
478372273,0.163855,0.122257,0.587515,0.0,0.0,0.0,0.0,0.0,0.0,0.0,0.0,0,0,0,0,3,0,0,3,0,0,0,4,1,0,0
478570863,0.175904,0.153605,0.587515,0.0,0.0,0.0,0.0,0.0,0.0,0.0,0.0,0,0,0,0,3,0,0,3,0,0,0,4,1,0,0
478772443,0.159036,0.144201,0.587515,0.0,0.0,0.0,0.0,0.0,0.0,0.0,0.0,0,0,0,0,3,0,0,3,0,0,0,4,1,0,0
478973205,0.122892,0.0909091,0.587515,0.0,0.0,0.0,0.0,0.0,0.0,0.0,0.0,0,0,0,0,3,0,0,3,0,0,0,4,1,0,0
