timestamp,timestamp_sample,device_id,x,y,z,temperature,error_count,is_external
361174073,361173180,396825,0.111636,0.798158,0.279314,nan,0,0
361185251,361184388,396825,0.117849,0.591647,-0.354166,nan,0,0
362179773,362178925,396825,0.0867852,0.415066,0.333612,nan,0,0
363175269,363174390,396825,0.207934,0.747278,0.288363,nan,0,0
364181086,364180256,396825,0.217254,0.247463,0.252164,nan,0,0
365175379,365174548,396825,0.248317,0.678442,0.191833,nan,0,0
366171254,366170426,396825,0.2887,0.678442,0.188816,nan,0,0
367176856,367175999,396825,0.304232,0.229506,0.27328,nan,0,0
368182424,368181564,396825,0.238998,0.265421,0.243115,nan,0,0
369178021,369177161,396825,0.257637,0.343236,0.523656,nan,0,0
370172490,370171660,396825,0.276275,0.64552,0.17675,nan,0,0
371178188,371177358,396825,0.347722,0.205563,0.264231,nan,0,0
372173916,372173085,396825,0.25453,0.304329,0.324562,nan,0,0
373179528,373178697,396825,0.226573,0.259435,0.303446,nan,0,0
374175119,374174283,396825,0.36636,0.181619,0.261214,nan,0,0
375180792,375179921,396825,0.33219,0.217534,0.264231,nan,0,0
376175125,376174294,396825,0.313552,0.205563,0.270264,nan,0,0
377170779,377169951,396825,0.270062,0.250456,0.29138,nan,0,0
378176529,378175700,396825,0.291807,0.325279,0.635269,nan,0,0
379182159,379181329,396825,0.313552,0.397109,-0.287802,nan,0,0
380177693,380176817,396825,0.322871,0.235492,0.288363,nan,0,0
381172401,381171478,396825,0.316658,0.38813,0.789114,nan,0,0
382177915,382177069,396825,0.282488,0.238485,0.294396,nan,0,0
383173721,383172867,396825,0.301126,0.600626,0.384894,nan,0,0
384179180,384178301,396825,0.322871,0.220527,0.27328,nan,0,0
385173671,385172841,396825,0.325977,0.208556,0.30043,nan,0,0
386180404,386179574,396825,0.338403,0.301336,0.0470376,nan,0,0
387174902,387174072,396825,0.325977,0.241478,0.29138,nan,0,0
388180600,388179766,396825,0.291807,0.355208,-0.115857,nan,0,0
389176342,389175437,396825,0.329084,0.217534,0.28233,nan,0,0
390181883,390181055,396825,0.363254,0.567704,-0.167139,nan,0,0
391176446,391175599,396825,0.307339,0.22352,0.294396,nan,0,0
392172055,392171189,396825,0.291807,0.588654,0.496507,nan,0,0
393177675,393176844,396825,0.279381,0.232499,0.28233,nan,0,0
394173219,394172389,396825,0.325977,0.36718,0.602087,nan,0,0
395179073,395178164,396825,0.313552,0.22352,0.200883,nan,0,0
396173413,396172556,396825,0.335296,0.211548,0.252164,nan,0,0
397180092,397179262,396825,0.310445,0.447988,-0.520078,nan,0,0
398174726,398173895,396825,0.322871,0.24447,0.264231,nan,0,0
399180403,399179566,396825,0.329084,0.555732,-0.215404,nan,0,0
400175947,400174997,396825,0.279381,0.241478,0.294396,nan,0,0
401170505,401169677,396825,0.301126,0.693406,0.1677,nan,0,0
402176086,402175256,396825,0.310445,0.226513,0.267247,nan,0,0
403171818,403170982,396825,0.341509,0.477917,0.840396,nan,0,0
404177378,404176546,396825,0.29802,0.220527,0.270264,nan,0,0
405171952,405171118,396825,0.353935,0.265421,0.237082,nan,0,0
406178751,406177913,396825,0.310445,0.450981,-0.486895,nan,0,0
407173111,407172257,396825,0.304232,0.259435,0.336628,nan,0,0
408178932,408178095,396825,0.304232,0.45996,-0.465779,nan,0,0
409174502,409173669,396825,0.291807,0.232499,0.276297,nan,0,0
410180141,410179259,396825,0.310445,0.642527,0.19485,nan,0,0
411174634,411173801,396825,0.338403,0.229506,0.234065,nan,0,0
412170243,412169412,396825,0.335296,0.229506,0.270264,nan,0,0
413175913,413175078,396825,0.291807,0.226513,0.276297,nan,0,0
414182279,414181451,396825,0.307339,0.624569,0.221999,nan,0,0
415177384,415176476,396825,0.29802,0.418059,-0.339083,nan,0,0
416171723,416170828,396825,0.276275,0.22352,0.270264,nan,0,0
417178451,417177621,396825,0.335296,0.59464,-0.0977577,nan,0,0
418172825,418171996,396825,0.325977,0.235492,0.276297,nan,0,0
419178576,419177749,396825,0.325977,0.609605,0.143568,nan,0,0
420174011,420173142,396825,0.301126,0.220527,0.276297,nan,0,0
421179894,421179066,396825,0.357041,0.678442,0.1858,nan,0,0
422174369,422173539,396825,0.322871,0.220527,0.258198,nan,0,0
423181387,423180460,396825,0.316658,0.64552,0.206916,nan,0,0
424175542,424174711,396825,0.313552,0.397109,-0.127923,nan,0,0
425181345,425180503,396825,0.316658,0.633548,0.1858,nan,0,0
426176902,426176031,396825,0.341509,0.567704,-0.242553,nan,0,0
427171444,427170587,396825,0.307339,0.229506,0.27328,nan,0,0
428176891,428176039,396825,0.307339,0.555732,-0.115857,nan,0,0
429172556,429171700,396825,0.285594,0.238485,0.28233,nan,0,0
430178304,430177475,396825,0.29802,0.648513,0.188816,nan,0,0
431172776,431171922,396825,0.338403,0.256442,0.237082,nan,0,0
432179671,432178841,396825,0.325977,0.639534,0.215966,nan,0,0
433174113,433173275,396825,0.357041,0.292357,-0.0555258,nan,0,0
434180752,434179911,396825,0.40985,0.597633,0.17675,nan,0,0
435175354,435174442,396825,0.319764,0.477917,-0.417514,nan,0,0
436169758,436168928,396825,0.248317,0.289364,0.321546,nan,0,0
437176462,437175632,396825,0.313552,0.705378,0.209932,nan,0,0
438182266,438181431,396825,0.388105,0.633548,0.1858,nan,0,0
439176855,439176020,396825,0.372573,0.636541,0.179767,nan,0,0
440172392,440171563,396825,0.325977,0.220527,0.28233,nan,0,0
441178084,441177256,396825,0.294913,0.651505,0.19485,nan,0,0
442172669,442171793,396825,0.29802,0.277392,0.17675,nan,0,0
443179263,443178424,396825,0.344615,0.672456,0.218982,nan,0,0
444173869,444173040,396825,0.310445,0.45996,-0.45673,nan,0,0
445179435,445178605,396825,0.319764,0.606612,0.1858,nan,0,0
446174934,446174062,396825,0.335296,0.627562,0.179767,nan,0,0
447180908,447180075,396825,0.310445,0.618583,0.203899,nan,0,0
448175026,448174177,396825,0.325977,0.639534,0.212949,nan,0,0
449182144,449181313,396825,0.29802,0.495874,0.7137,nan,0,0
450176618,450175751,396825,0.335296,0.639534,0.212949,nan,0,0
451182251,451181380,396825,0.329084,0.424045,0.936926,nan,0,0
452177762,452176934,396825,0.322871,0.639534,0.206916,nan,0,0
453183253,453182370,396825,0.344615,0.609605,0.1677,nan,0,0
454177754,454176924,396825,0.338403,0.627562,0.197866,nan,0,0
455173526,455172696,396825,0.319764,0.630555,0.134518,nan,0,0
456179133,456178304,396825,0.307339,0.627562,0.203899,nan,0,0
457174363,457173534,396825,0.325977,0.624569,0.246131,nan,0,0
458180384,458179554,396825,0.33219,0.648513,0.1858,nan,0,0
459174950,459174115,396825,0.347722,0.639534,0.206916,nan,0,0
460181771,460180938,396825,0.33219,0.259435,0.228032,nan,0,0
461176278,461175449,396825,0.33219,0.663477,0.170717,nan,0,0
462181855,462180960,396825,0.363254,0.232499,0.264231,nan,0,0
463177520,463176685,396825,0.301126,0.648513,0.197866,nan,0,0
464171997,464171166,396825,0.307339,0.55274,-0.115857,nan,0,0
465177684,465176795,396825,0.310445,0.226513,0.279314,nan,0,0
466173387,466172504,396825,0.357041,0.669463,0.19485,nan,0,0
467179126,467178294,396825,0.307339,0.624569,0.191833,nan,0,0
468173394,468172564,396825,0.319764,0.651505,0.182783,nan,0,0
469180319,469179462,396825,0.313552,0.651505,0.19485,nan,0,0
470174648,470173818,396825,0.307339,0.226513,0.270264,nan,0,0
471180427,471179596,396825,0.353935,0.286371,0.321546,nan,0,0
472176245,472175361,396825,0.338403,0.630555,0.188816,nan,0,0
473181636,473180796,396825,0.319764,0.471931,0.671468,nan,0,0
474176257,474175425,396825,0.353935,0.642527,0.215966,nan,0,0
475171763,475170933,396825,0.329084,0.669463,0.215966,nan,0,0
476177445,476176577,396825,0.322871,0.633548,0.188816,nan,0,0
477173016,477172184,396825,0.341509,0.675449,0.161667,nan,0,0
478178625,478177772,396825,0.335296,0.630555,0.191833,nan,0,0
479173072,479172215,396825,0.313552,0.654498,0.1858,nan,0,0
480179787,480178956,396825,0.347722,0.45996,0.813247,nan,0,0
481174288,481173453,396825,0.310445,0.621576,0.218982,nan,0,0
482180178,482179348,396825,0.335296,0.603619,0.294396,nan,0,0
483175754,483174918,396825,0.325977,0.636541,0.1677,nan,0,0
484181405,484180576,396825,0.322871,0.495874,0.740849,nan,0,0
485175701,485174872,396825,0.319764,0.226513,0.264231,nan,0,0
486171592,486170728,396825,0.341509,0.579676,0.544772,nan,0,0
487177223,487176386,396825,0.307339,0.406087,0.912793,nan,0,0
488183660,488182794,396825,0.301126,0.24447,0.255181,nan,0,0
489179783,489178927,396825,0.319764,0.444995,0.876594,nan,0,0
490175408,490174570,396825,0.357041,0.250456,0.276297,nan,0,0
491181024,491180195,396825,0.307339,0.226513,0.246131,nan,0,0
492176640,492175811,396825,0.350828,0.636541,0.161667,nan,0,0
493171141,493170313,396825,0.353935,0.636541,0.188816,nan,0,0
494176788,494175919,396825,0.294913,0.636541,0.158651,nan,0,0
495183623,495182793,396825,0.360147,0.229506,0.267247,nan,0,0
496178125,496177293,396825,0.353935,0.241478,0.237082,nan,0,0
497173303,497172474,396825,0.329084,0.603619,0.203899,nan,0,0
498179371,498178522,396825,0.294913,0.322286,0.602087,nan,0,0
499173658,499172797,396825,0.33219,0.654498,0.200883,nan,0,0
500180505,500179674,396825,0.183083,0.220527,0.288363,nan,0,0
501175107,501174215,396825,0.148913,0.103804,0.240098,nan,0,0
502180724,502179894,396825,0.130275,0.187605,0.197866,nan,0,0
503176376,503175547,396825,0.127168,0.534782,0.161667,nan,0,0
504182225,504181342,396825,-0.0157257,0.0858465,0.234065,nan,0,0
505176557,505175651,396825,-0.00951291,0.13074,0.206916,nan,0,0
506172017,506171184,396825,0.0308702,0.456967,0.143568,nan,0,0
507177884,507177052,396825,0.0588277,0.232499,0.903744,nan,0,0
508172333,508171467,396825,0.0122318,0.3163,0.894694,nan,0,0
509179064,509178133,396825,-0.00330013,0.15169,0.421092,nan,0,0
510173663,510172835,396825,0.0339765,0.0439459,0.212949,nan,0,0
511179207,511178373,396825,-0.0188321,0.0828536,0.231048,nan,0,0
512174890,512173996,396825,-0.00640651,0.172641,0.59907,nan,0,0
513180395,513179565,396825,0.0308702,-0.00693351,0.152618,nan,0,0
514175099,514174256,396825,0.0122318,0.385137,0.131502,nan,0,0
515181767,515180937,396825,-0.0250449,0.0229955,0.173734,nan,0,0
516176095,516175266,396825,0.00291265,0.0259884,0.234065,nan,0,0
517171438,517170607,396825,-0.00640651,0.442002,0.134518,nan,0,0
518177584,518176740,396825,0.0122318,-0.021898,0.197866,nan,0,0
519183184,519182325,396825,0.0184446,0.15169,-0.471812,nan,0,0
520178695,520177852,396825,-0.00330013,-0.0308767,0.17675,nan,0,0
521173395,521172565,396825,-0.0592151,0.337251,0.466341,nan,0,0
522178950,522178117,396825,-0.049896,-0.0338697,0.212949,nan,0,0
523174595,523173647,396825,0.0339765,0.15169,0.179767,nan,0,0
524180086,524179256,396825,0.0184446,-0.255345,0.17675,nan,0,0
525174693,525173863,396825,0.242105,-0.0518271,0.556838,nan,0,0
526181528,526180692,396825,0.120955,-0.228408,-0.106807,nan,0,0
527176029,527175189,396825,0.18619,-0.246366,0.611136,nan,0,0
528170430,528169600,396825,0.198615,-0.00693351,0.173734,nan,0,0
529177346,529176513,396825,0.155126,-0.360096,0.258198,nan,0,0
530182918,530182088,396825,0.183083,-0.0308767,-0.146023,nan,0,0
531177424,531176586,396825,0.17687,-0.351118,0.270264,nan,0,0
532173004,532172143,396825,0.235892,0.0170097,0.179767,nan,0,0
533178707,533177832,396825,0.179977,-0.375061,0.240098,nan,0,0
534173133,534172301,396825,0.173764,-0.0248909,0.276297,nan,0,0
535179967,535179139,396825,0.232785,-0.31221,0.182783,nan,0,0
536174289,536173455,396825,0.164445,-0.360096,0.261214,nan,0,0
537180243,537179411,396825,0.235892,-0.285274,-0.161106,nan,0,0
538175614,538174782,396825,0.251424,-0.378054,0.261214,nan,0,0
539181421,539180588,396825,0.251424,-0.0727774,-0.170155,nan,0,0
540176857,540175956,396825,0.207934,-0.378054,0.267247,nan,0,0
541171387,541170556,396825,0.207934,-0.324181,0.297413,nan,0,0
542177233,542176404,396825,0.22036,-0.407983,0.225015,nan,0,0
543172854,543171999,396825,0.232785,-0.372068,0.231048,nan,0,0
544178398,544177568,396825,0.257637,-0.363089,0.243115,nan,0,0
545172729,545171900,396825,0.25453,-0.231401,0.876594,nan,0,0
546179701,546178872,396825,0.294913,-0.171543,-0.465779,nan,0,0
547174188,547173310,396825,0.207934,-0.363089,0.285347,nan,0,0
548179708,548178855,396825,0.245211,-0.174536,-0.517061,nan,0,0
549175327,549174494,396825,0.257637,-0.410976,0.237082,nan,0,0
550181116,550180279,396825,0.245211,0.0170097,0.1858,nan,0,0
551175501,551174670,396825,0.235892,-0.348125,0.312496,nan,0,0
552171096,552170262,396825,0.25453,0.0140168,0.261214,nan,0,0
553176769,553175938,396825,0.238998,-0.387032,0.258198,nan,0,0
554182489,554181624,396825,0.245211,0.0259884,0.173734,nan,0,0
555178031,555177162,396825,0.245211,-0.264323,-0.194288,nan,0,0
556172630,556171775,396825,0.245211,-0.419954,0.234065,nan,0,0
557178248,557177419,396825,0.279381,-0.174536,-0.514044,nan,0,0
558173888,558173046,396825,0.235892,-0.387032,0.27328,nan,0,0
559179601,559178768,396825,0.226573,0.0229955,0.164684,nan,0,0
560174768,560173936,396825,0.242105,-0.390025,0.27328,nan,0,0
561180883,561179987,396825,0.201722,0.0469388,0.191833,nan,0,0
562175220,562174390,396825,0.33219,-0.449883,0.243115,nan,0,0
563170734,563169901,396825,0.329084,-0.410976,0.270264,nan,0,0
564176694,564175860,396825,0.232785,-0.243373,-0.100774,nan,0,0
565182182,565181330,396825,0.266956,-0.0278838,0.140551,nan,0,0
566177957,566177128,396825,0.238998,-0.0667916,-0.143006,nan,0,0
567172436,567171601,396825,0.285594,-0.375061,0.267247,nan,0,0
568177799,568176968,396825,0.270062,-0.0608058,-0.127923,nan,0,0
569173553,569172581,396825,0.276275,-0.384039,0.276297,nan,0,0
570179176,570178348,396825,0.313552,-0.0248909,0.17675,nan,0,0
571173710,571172880,396825,0.25453,-0.401997,0.252164,nan,0,0
572180561,572179700,396825,0.2887,0.0319742,0.200883,nan,0,0
573174828,573173975,396825,0.263849,-0.378054,0.158651,nan,0,0
574180682,574179817,396825,0.263849,0.0648962,0.212949,nan,0,0
575176372,575175517,396825,0.270062,-0.0697845,-0.24557,nan,0,0
576170699,576169867,396825,0.242105,-0.387032,0.252164,nan,0,0
577176422,577175572,396825,0.273169,-0.0937277,-0.158089,nan,0,0
578172097,578171266,396825,0.273169,-0.419954,0.215966,nan,0,0
579177736,579176907,396825,0.238998,0.0289813,0.17675,nan,0,0
580172867,580172012,396825,0.257637,-0.387032,0.270264,nan,0,0
581179011,581178139,396825,0.251424,0.0439459,0.212949,nan,0,0
582173483,582172654,396825,0.251424,-0.393018,0.225015,nan,0,0
583180269,583179363,396825,0.226573,0.0349671,0.17675,nan,0,0
584174682,584173852,396825,0.238998,-0.180522,-0.511028,nan,0,0
585180173,585179340,396825,0.257637,0.008031,0.188816,nan,0,0
586175835,586174960,396825,0.25453,0.0110239,0.164684,nan,0,0
587181547,587180712,396825,0.285594,0.0439459,0.218982,nan,0,0
588176088,588175259,396825,0.223466,0.0110239,0.170717,nan,0,0
589183007,589182165,396825,0.248317,-0.00992642,0.158651,nan,0,0
590177388,590176461,396825,0.260743,-0.00693351,0.152618,nan,0,0
591171790,591170952,396825,0.294913,-0.413969,0.255181,nan,0,0
592178789,592177961,396825,0.235892,0.00204519,0.179767,nan,0,0
593173214,593172337,396825,0.251424,-0.159572,-0.441647,nan,0,0
594178693,594177862,396825,0.229679,0.0200026,0.1858,nan,0,0
595174492,595173661,396825,0.263849,-0.0338697,0.0711702,nan,0,0
596180338,596179505,396825,0.282488,-0.00693351,0.191833,nan,0,0
597174604,597173748,396825,0.270062,0.0200026,0.218982,nan,0,0
598181243,598180409,396825,0.291807,-0.0817561,0.466341,nan,0,0
599175750,599174921,396825,0.242105,-0.213444,0.870561,nan,0,0
600182496,600181645,396825,0.294913,-0.00992642,0.158651,nan,0,0
601177149,601176319,396825,0.270062,-0.234394,0.855479,nan,0,0
602171569,602170735,396825,0.304232,-0.222423,-0.12189,nan,0,0
603178299,603177441,396825,0.310445,-0.000947702,0.152618,nan,0,0
604172934,604172084,396825,0.307339,-0.0637987,-0.118874,nan,0,0
605179178,605178314,396825,0.33219,0.0229955,0.191833,nan,0,0
606175284,606174454,396825,0.310445,-0.000947702,0.203899,nan,0,0
607181139,607180257,396825,0.257637,-0.00693351,0.149601,nan,0,0
608175585,608174756,396825,0.294913,0.0200026,0.212949,nan,0,0
609171278,609170413,396825,0.282488,-0.183515,-0.541194,nan,0,0
610176796,610175964,396825,0.282488,-0.00394061,0.1858,nan,0,0
611171180,611170307,396825,0.273169,-0.186508,-0.501978,nan,0,0
612178145,612177282,396825,0.260743,-0.00693351,0.155634,nan,0,0
613172606,613171776,396825,0.238998,0.0200026,0.161667,nan,0,0
614178222,614177391,396825,0.25453,-0.0189051,0.143568,nan,0,0
615173686,615172855,396825,0.2887,0.0469388,0.206916,nan,0,0
616179570,616178733,396825,0.266956,0.0050381,0.182783,nan,0,0
617174029,617173159,396825,0.251424,0.0200026,0.212949,nan,0,0
618180694,618179861,396825,0.285594,-0.315203,0.532705,nan,0,0
619175264,619174427,396825,0.291807,0.0200026,0.191833,nan,0,0
620181638,620180808,396825,0.291807,-0.0757703,0.472374,nan,0,0
621176607,621175668,396825,0.316658,0.00204519,0.203899,nan,0,0
622170887,622170003,396825,0.263849,0.00204519,0.101336,nan,0,0
623177788,623176928,396825,0.257637,-0.00394061,0.17675,nan,0,0
624172377,624171530,396825,0.242105,0.0110239,0.225015,nan,0,0
625177904,625177064,396825,0.310445,-0.00394061,0.146584,nan,0,0
626173474,626172610,396825,0.304232,-0.0248909,0.1677,nan,0,0
627179168,627178314,396825,0.248317,-0.138621,0.731799,nan,0,0
628173793,628172943,396825,0.263849,0.0589104,0.240098,nan,0,0
629180405,629179573,396825,0.270062,-0.369075,0.27328,nan,0,0
630175056,630174200,396825,0.310445,0.0140168,0.182783,nan,0,0
631180625,631179790,396825,0.251424,-0.0907348,0.665435,nan,0,0
632176308,632175408,396825,0.260743,-0.00693351,0.1858,nan,0,0
633171143,633170274,396825,0.313552,0.0110239,0.131502,nan,0,0
634177793,634176939,396825,0.310445,0.0289813,0.17675,nan,0,0
635173337,635172503,396825,0.25453,-0.0129193,0.170717,nan,0,0
636178802,636177965,396825,0.260743,-0.387032,0.267247,nan,0,0
637173259,637172427,396825,0.322871,-0.0159122,0.164684,nan,0,0
638180254,638179424,396825,0.33219,-0.228408,0.918826,nan,0,0
639174698,639173865,396825,0.350828,-0.00394061,0.161667,nan,0,0
640180293,640179431,396825,0.263849,-0.372068,0.28233,nan,0,0
641175875,641175038,396825,0.270062,0.040953,0.188816,nan,0,0
642181616,642180787,396825,0.316658,-0.366082,0.261214,nan,0,0
643177188,643176256,396825,0.316658,-0.0129193,0.17675,nan,0,0
644171786,644170927,396825,0.338403,-0.327174,0.60812,nan,0,0
645177394,645176557,396825,0.313552,-0.0308767,0.164684,nan,0,0
646172676,646171844,396825,0.245211,0.0110239,0.1858,nan,0,0
647178634,647177778,396825,0.2887,-0.180522,0.764981,nan,0,0
648172944,648172114,396825,0.291807,0.03796,0.200883,nan,0,0
649179585,649178755,396825,0.291807,-0.390025,0.264231,nan,0,0
650174304,650173456,396825,0.282488,-0.42594,0.255181,nan,0,0
651179983,651179153,396825,0.291807,-0.375061,0.285347,nan,0,0
652175537,652174705,396825,0.245211,0.0200026,0.17675,nan,0,0
653170221,653169316,396825,0.509254,0.0948252,0.243115,nan,0,0
654175855,654175025,396825,0.596233,-0.288267,0.294396,nan,0,0
655182628,655181795,396825,0.503041,-0.270309,0.306463,nan,0,0
656176889,656176057,396825,0.649042,0.0738749,0.577954,nan,0,0
657171540,657170696,396825,0.636616,0.20257,0.240098,nan,0,0
658178412,658177573,396825,0.586914,-0.183515,0.324562,nan,0,0
659172884,659172054,396825,0.593127,-0.114678,0.342662,nan,0,0
660178485,660177621,396825,0.549637,-0.174536,0.321546,nan,0,0
661173980,661173143,396825,0.605552,0.232499,0.252164,nan,0,0
662179947,662179049,396825,0.59002,-0.228408,0.288363,nan,0,0
663175246,663174415,396825,0.596233,0.172641,0.225015,nan,0,0
664181025,664180171,396825,0.614871,-0.216437,0.294396,nan,0,0
665175511,665174682,396825,0.537212,0.0798607,0.297413,nan,0,0
666182358,666181462,396825,0.503041,0.139719,0.122452,nan,0,0
667176850,667176018,396825,0.509254,0.247463,0.698617,nan,0,0
668171235,668170403,396825,0.496829,0.513832,0.237082,nan,0,0
669177976,669177121,396825,0.558956,0.0978181,0.297413,nan,0,0
670183772,670182940,396825,0.543424,0.48091,-0.13094,nan,0,0
671178147,671177256,396825,0.568276,0.0738749,0.279314,nan,0,0
672173817,672172983,396825,0.369467,0.424045,0.997257,nan,0,0
673179435,673178605,396825,0.391211,0.214541,0.333612,nan,0,0
674174005,674173161,396825,0.540318,0.124754,0.264231,nan,0,0
675180622,675179759,396825,0.428488,0.205563,0.303446,nan,0,0
676175263,676174434,396825,0.437807,0.193591,0.309479,nan,0,0
677169712,677168878,396825,0.40985,0.166655,0.258198,nan,0,0
678176504,678175602,396825,0.440914,0.3163,0.532705,nan,0,0
679182122,679181257,396825,0.29802,0.519818,-0.414498,nan,0,0
680176979,680176117,396825,0.375679,0.178627,0.246131,nan,0,0
681172453,681171593,396825,0.279381,0.696399,0.285347,nan,0,0
682177883,682177042,396825,0.347722,0.190598,0.231048,nan,0,0
683173110,683172259,396825,0.338403,0.534782,0.514606,nan,0,0
684179246,684178396,396825,0.310445,0.226513,0.29138,nan,0,0
685173620,685172717,396825,0.313552,0.319293,0.611136,nan,0,0
686180373,686179531,396825,0.33219,0.403094,-0.378299,nan,0,0
687175158,687174278,396825,0.291807,0.241478,0.270264,nan,0,0
688180587,688179752,396825,0.229679,0.546754,-0.541194,nan,0,0
689176218,689175388,396825,0.105424,0.385137,0.393943,nan,0,0
690182121,690181260,396825,0.10853,0.837066,0.324562,nan,0,0
691176396,691175565,396825,0.102317,0.385137,0.39696,nan,0,0
692172001,692171137,396825,0.114743,0.675449,0.620186,nan,0,0
693177856,693177022,396825,0.111636,0.373165,0.399976,nan,0,0
