timestamp,timestamp_sample,accel_device_id,gyro_device_id,delta_angle[0],delta_angle[1],delta_angle[2],delta_velocity[0],delta_velocity[1],delta_velocity[2],delta_angle_dt,delta_velocity_dt,delta_velocity_clipping
361179347,361179232,4259850,4325386,7.84059e-05,-8.79576e-05,-0.000236079,0.000910253,-0.000263286,-0.0478777,4988,4927,0
361184451,361184217,4259850,4325386,-7.69872e-05,-3.1646e-05,-0.000263512,-0.00170698,-0.0017928,-0.0575249,4985,5908,0
361683072,361682958,4259850,4325386,0.000191646,-5.02787e-05,7.52219e-05,0.00365955,0.000907302,-0.0479064,4987,4926,0
362182104,362181971,4259850,4325386,0.000273227,-0.000137904,-0.000462008,-0.000829872,-0.00198922,-0.0460431,5258,5000,0
362680606,362680495,4259850,4325386,0.000282109,-0.00162333,-0.000507488,0.00705621,0.000262416,-0.0462661,4994,4990,0
363179453,363179342,4259850,4325386,0.00121788,-0.00101947,-0.000523032,0.00268767,-0.00900143,-0.0458312,4976,4960,0
363678121,363677975,4259850,4325386,0.000691807,-0.000640159,-0.000355159,0.0118788,-0.000266837,-0.0399803,4967,4917,0
364181792,364181646,4259850,4325386,0.0013152,-1.90466e-05,-0.00105317,-0.000239404,-0.00952072,-0.0440985,4991,4929,0
364680492,364680383,4259850,4325386,-0.0024992,0.000829099,0.000999529,-0.00332429,0.00685528,-0.0518821,4985,4968,0
365179240,365179125,4259850,4325386,-0.000240698,-0.00081854,-0.000947994,-0.00125109,-0.00156804,-0.0502256,4987,4979,0
365683175,365683046,4259850,4325386,0.000530725,-0.00129769,-0.000818382,0.00729605,0.00835139,-0.0425701,5011,4907,0
366176711,366176602,4259850,4325386,0.000804374,-0.000258647,-0.000503868,-0.00302214,-0.0121899,-0.0501258,4986,4938,0
366680065,366679947,4259850,4325386,0.000855191,-0.000930646,-0.000536638,-0.00214098,-0.0137665,-0.0471679,4977,4927,0
367178684,367178570,4259850,4325386,-0.000240746,0.000743923,-0.000191474,0.000768679,0.00678048,-0.0472979,4988,4996,0
367682414,367682300,4259850,4325386,0.000597335,-8.6124e-05,-0.000135073,0.00531568,0.0205074,-0.0428897,4989,4942,0
368181336,368181164,4259850,4325386,-0.000760095,-0.000233123,-1.08353e-05,0.00424636,0.00483708,-0.0459564,4965,4969,0
368680186,368680034,4259850,4325386,0.000285162,-0.000455233,-0.000288621,0.00340233,0.00530025,-0.0468009,4982,4927,0
369178839,369178666,4259850,4325386,-0.000212076,-0.000251348,0.00076851,0.00180159,0.0186448,-0.045944,4985,4926,0
369682010,369681894,4259850,4325386,-0.00383656,6.46894e-05,0.000840289,-0.00236632,0.0050905,-0.0560114,4965,4927,0
370179149,370179031,4259850,4325386,0.000883542,-4.21217e-05,9.8341e-05,0.00919099,0.000397266,-0.0432637,5029,4920,0
370678345,370678227,4259850,4325386,0.00221092,-0.0012445,-0.000294671,0.00272521,0.00687783,-0.0445349,4988,4966,0
371182068,371181955,4259850,4325386,0.000137874,0.000226426,0.000607106,0.00635478,0.000321589,-0.0414849,4988,4752,0
371681079,371680919,4259850,4325386,0.00112816,-0.000475781,0.000252407,0.00748754,0.00706088,-0.0318025,4972,4933,0
372179700,372179571,4259850,4325386,-0.00167519,0.000764508,0.000237511,0.00796759,0.0193466,-0.0301712,4986,4926,0
372683317,372683161,4259850,4325386,-0.00150861,-0.000850182,0.000923989,-0.00325287,0.0176203,-0.0478308,4984,4939,0
373177027,373176915,4259850,4325386,0.00244411,-0.000568139,0.00137615,0.0114162,0.00220764,-0.0358573,4989,4971,0
373680938,373680782,4259850,4325386,-0.000344386,0.000511309,0.000241641,-0.00699185,-0.00715862,-0.0587832,4970,4943,0
374179507,374179385,4259850,4325386,-0.000428699,-0.00104827,-7.25285e-05,-0.00981406,0.00964008,-0.0650611,4989,4916,0
374678238,374678122,4259850,4325386,-0.0012618,0.0010857,0.0010517,0.000866597,0.00972627,-0.0528002,4990,4973,0
375182116,375181958,4259850,4325386,-0.00111597,-0.000293795,0.000490491,-0.0011927,0.0239583,-0.0511096,4973,4971,0
375681059,375680901,4259850,4325386,-0.00190744,0.000512214,0.000328417,-0.01342,0.00850434,-0.064807,5264,6039,0
376179512,376179333,4259850,4325386,-0.000281618,0.00197203,0.000317501,-0.00919286,0.00596976,-0.0678741,4994,5959,0
376678180,376678066,4259850,4325386,0.00066327,-0.000326499,0.000314574,-0.00346874,0.00440914,-0.0482307,4988,4933,0
377176467,377176307,4259850,4325386,-0.000262521,-4.92193e-05,-0.000371479,7.39521e-05,0.00292699,-0.0416542,4987,4965,0
377680155,377680035,4259850,4325386,-0.00114655,0.000333301,0.000911153,-0.00142876,0.0327506,-0.0407195,4986,4924,0
378179103,378178957,4259850,4325386,0.000325382,-0.000285235,-0.000616388,-0.00587352,0.00219225,-0.0536479,4998,4925,0
378677644,378677517,4259850,4325386,-0.000471106,6.28066e-05,-0.000223523,-0.0060885,-0.0227189,-0.0540315,4989,4924,0
379181400,379181264,4259850,4325386,0.00121342,-5.92111e-05,-5.62589e-05,-0.00144183,-0.00856918,-0.0473526,5009,4896,0
379680665,379679982,4259850,4325386,-0.0018963,0.00076157,0.000796254,-0.00921084,0.00914469,-0.0519221,4981,4951,0
380179013,380178826,4259850,4325386,-0.000119219,-0.000395393,0.000255828,-0.00271271,0.00922235,-0.0458955,4965,4965,0
380677615,380677462,4259850,4325386,0.00124698,-0.00028199,-0.000511087,-0.00463839,-0.0072909,-0.0480216,4989,4926,0
381181306,381181184,4259850,4325386,0.000497708,-8.22929e-05,-0.000268922,-0.00826153,-0.0168323,-0.0518262,4977,4866,0
381680167,381680050,4259850,4325386,0.000625484,-0.000101331,-0.00124707,-0.000778549,-0.0123832,-0.0486283,4927,4963,0
382179819,382179094,4259850,4325386,0.00071739,8.94879e-05,0.000107383,-0.00737498,0.00826498,-0.0504208,4856,4971,0
382682508,382682394,4259850,4325386,0.000314279,0.000147365,0.000239126,-0.00419211,0.0140815,-0.0538741,4987,4926,0
383181586,383181136,4259850,4325386,-0.00189052,7.14594e-05,0.00115971,0.0043247,0.0116644,-0.0512736,4989,4977,0
383680040,383679903,4259850,4325386,-0.00254053,0.00126733,0.000449772,0.00195047,0.0119814,-0.0456445,4942,4669,0
384178748,384178613,4259850,4325386,-0.000610966,-0.00141103,0.00132333,-0.00622808,0.016833,-0.0535445,4987,4995,0
384677463,384677353,4259850,4325386,-0.00456174,0.000104268,0.000119863,-0.00474719,-0.0261434,-0.0505871,4987,4927,0
385181213,385181092,4259850,4325386,-0.000370997,0.00024163,0.000843508,0.00379343,0.0280396,-0.0474829,4957,4958,0
385680309,385680129,4259850,4325386,-0.00025687,0.000254248,-0.000184662,0.00510599,0.0172001,-0.0390397,4950,4929,0
386178700,386178560,4259850,4325386,-0.000813235,-0.00232465,0.000308614,-0.0071202,-0.000898436,-0.0515159,4987,4986,0
386682442,386682332,4259850,4325386,0.000380592,0.00109284,0.000184348,-0.0023772,0.00273727,-0.0469942,5028,4912,0
387176157,387176045,4259850,4325386,-0.00111862,0.0018056,0.000954663,-0.0108516,0.0281703,-0.0548977,4991,4926,0
387680189,387680001,4259850,4325386,-0.000788952,0.000675013,0.000875234,-0.00250364,0.00467442,-0.0468526,4951,4943,0
388178628,388178507,4259850,4325386,0.00181633,-0.00177297,-0.000368183,0.00644635,-0.0140593,-0.0373087,4987,5010,0
388677367,388677252,4259850,4325386,-0.000707205,-7.71156e-05,0.000621504,0.00476801,-0.00485795,-0.0366163,4992,4927,0
389181358,389181245,4259850,4325386,0.000343104,-0.00100232,-0.000210827,0.00545949,-0.0138777,-0.0450539,5024,4906,0
389680006,389679879,4259850,4325386,0.00179921,0.000379318,0.000328533,-0.000302506,0.000909831,-0.0511497,4992,4964,0
390183557,390183444,4259850,4325386,-0.000323008,-0.000365457,-0.000506415,0.00141714,-0.0163541,-0.0452346,4971,4927,0
390677799,390677689,4259850,4325386,-0.00121407,0.000489996,0.000976096,-0.00614024,0.024224,-0.0519028,4938,4924,0
391181815,391181589,4259850,4325386,0.000544885,0.000418044,-0.000323383,-0.00521099,-0.000880864,-0.048826,4983,4970,0
391680337,391680166,4259850,4325386,0.0019731,-0.000377604,-0.00110541,0.00327166,-0.0274604,-0.0424249,4934,4922,0
392179029,392178900,4259850,4325386,7.38245e-06,-0.000717408,-0.000966734,-0.00768207,-0.0179562,-0.0558511,4973,4925,0
392682439,392682239,4259850,4325386,0.00117538,-0.000322684,-0.000576058,-0.00373898,-0.0110691,-0.0432542,4976,4975,0
393181477,393181369,4259850,4325386,-0.000508332,0.000188125,0.000176908,-0.00131395,0.00852445,-0.0440935,4978,4932,0
393680384,393680220,4259850,4325386,-0.000809584,8.51821e-05,3.05791e-06,-0.00966784,-0.00895292,-0.0524168,4968,4990,0
394178967,394178848,4259850,4325386,0.000997758,-0.000169421,0.00140733,0.00198311,0.0146791,-0.043714,4988,4987,0
394678153,394677660,4259850,4325386,-0.00322094,0.00110035,0.000760972,-0.00911841,0.0136835,-0.0542539,4989,4924,0
395181447,395181320,4259850,4325386,-0.000264351,-0.000457174,-0.000961651,-0.00741765,-0.0221574,-0.0580934,4992,4956,0
395680446,395680280,4259850,4325386,-0.0013136,0.000376125,-0.00020266,-0.0128421,-0.0210091,-0.0575026,4973,4926,0
396178919,396178794,4259850,4325386,0.000359567,-0.000172924,0.00010791,0.00253414,-0.00967273,-0.0451231,4988,4979,0
396682636,396682521,4259850,4325386,-0.000305639,-0.000320899,0.000101485,-0.00525713,-0.0212253,-0.0524949,4987,4987,0
397181048,397180916,4259850,4325386,-0.000680707,0.000430639,0.000657499,-0.00837661,-9.09136e-05,-0.0507408,5002,4928,0
397679646,397679503,4259850,4325386,-0.00152151,0.000440549,0.000617979,-0.0178413,-0.00734008,-0.061629,4988,4961,0
398178353,398178244,4259850,4325386,-0.00148825,-8.94666e-05,0.000633726,-0.0129395,-0.0149968,-0.061739,4988,4992,0
398677109,398676982,4259850,4325386,0.000323443,0.000300155,-0.000188371,0.0063209,0.019902,-0.040896,4986,4932,0
399180873,399180712,4259850,4325386,-0.00226532,0.000871706,0.000950833,-0.00694505,0.00405528,-0.0630924,4990,5649,0
399679298,399679169,4259850,4325386,0.000781391,0.00150616,-0.000728229,-0.01034,0.000907338,-0.0521561,4949,4922,0
400182844,400182727,4259850,4325386,-0.000618354,-0.000911983,-0.00011745,-0.00587237,0.00455747,-0.0527045,5036,4922,0
400682529,400682416,4259850,4325386,0.00111009,-0.000191113,-0.000544148,-0.00264745,-0.0206941,-0.0467898,4988,4973,0
401176587,401176416,4259850,4325386,-0.000797658,0.000674581,0.000968024,0.00930859,0.0161781,-0.0554013,5232,6198,0
401680029,401679896,4259850,4325386,0.000543373,-0.000356858,-0.000896817,0.00159707,-0.0135992,-0.0496037,4981,4987,0
402179325,402179182,4259850,4325386,0.0016732,-0.00321654,-0.000178859,0.00130129,0.00896675,-0.0423264,4983,4989,0
402678333,402677926,4259850,4325386,0.000740195,-0.00155538,-0.000187897,0.0023788,0.0131666,-0.0556551,4991,5911,0
403181771,403181660,4259850,4325386,0.000675936,0.000238974,-0.00101976,-0.00277444,0.00568618,-0.0472537,4974,4927,0
403680845,403680657,4259850,4325386,-0.00129703,0.000742613,0.00103235,-0.00198846,0.0104615,-0.048558,4991,4926,0
404179418,404179283,4259850,4325386,-0.000877552,0.00045195,0.001008,-0.0115241,0.0218689,-0.058819,4980,4926,0
404678063,404677871,4259850,4325386,0.00319656,-0.00202817,-0.000624256,1.65802e-05,-0.00153655,-0.0478464,4988,4953,0
405176740,405176622,4259850,4325386,-0.00168702,0.000937888,0.000764581,-0.00571485,0.0216569,-0.0532787,4971,4967,0
405680729,405680614,4259850,4325386,-0.000387565,0.000128721,0.000873006,-0.000521284,0.0213511,-0.0402271,5265,4924,0
406179379,406179079,4259850,4325386,0.00081814,-0.000647934,-0.000298347,-0.000160407,-0.00507003,-0.0511555,4990,5803,0
406677928,406677817,4259850,4325386,-0.00176093,0.00133221,0.00154621,-0.0102775,0.0207808,-0.0538835,4970,4934,0
407181901,407181712,4259850,4325386,0.00123729,-0.000907116,-9.36525e-05,-0.00571298,0.00801218,-0.0558046,4983,4984,0
407680859,407680732,4259850,4325386,-0.000343292,0.000383444,-0.000674974,-0.00793942,0.00455589,-0.0486213,4969,4967,0
408178219,408178022,4259850,4325386,0.00230814,-0.00234716,-0.000571867,0.0143761,-0.000146278,-0.0351806,5000,4925,0
408677372,408677218,4259850,4325386,-0.00180155,0.00141605,0.00101928,0.00175652,0.0320715,-0.0459283,4985,4930,0
409181052,409180945,4259850,4325386,0.003116,-0.00455379,0.000648845,0.00775953,0.0213892,-0.0411226,4987,4957,0
409680558,409680239,4259850,4325386,0.00209562,0.000663718,-0.00144214,0.00720323,-0.020824,-0.0486345,4995,4985,0
410179099,410178982,4259850,4325386,0.000717597,-0.000266288,-0.000173891,0.00798995,-0.0282609,-0.0399958,4996,4968,0
410683021,410682842,4259850,4325386,0.00227263,-0.000608833,-0.000749458,0.00221901,-0.00445897,-0.0467412,5000,4992,0
411181593,411181440,4259850,4325386,0.000222547,0.00032202,-0.00115594,-0.00169531,-0.0103329,-0.0472149,4983,4923,0
411680463,411680322,4259850,4325386,0.000256326,-0.00101189,0.000187478,0.00633756,0.0110682,-0.0417924,4937,4921,0
412179075,412178920,4259850,4325386,0.00264398,-0.000928666,-0.000875398,0.00559141,-0.00105749,-0.0421757,4988,4972,0
412677914,412677793,4259850,4325386,-9.15407e-05,0.000488128,0.000577928,0.00183095,0.00421266,-0.0429181,4956,4954,0
413181506,413181387,4259850,4325386,-0.000969354,0.000593701,0.000566578,-0.00752491,0.0088143,-0.0536135,4988,4926,0
413680240,413680127,4259850,4325386,0.00158308,-0.00155635,-0.000319761,-0.0156157,-0.00963985,-0.0607811,4987,4925,0
414179059,414178868,4259850,4325386,-0.00198179,0.000498955,0.00151722,-0.0109294,0.0220863,-0.0545329,4987,4938,0
414682929,414682793,4259850,4325386,0.00260897,-0.00162806,-0.000681314,0.0034491,-0.0121743,-0.0415733,4982,4988,0
415176576,415176395,4259850,4325386,-0.000355565,-0.000309601,5.10716e-05,-0.0129424,-0.00450586,-0.0558299,5001,5009,0
415680253,415680076,4259850,4325386,-6.74113e-05,0.00192228,-0.00153556,0.00770392,-0.0163656,-0.0401532,4989,4921,0
416178953,416178841,4259850,4325386,0.00196749,-0.000185044,-0.000630739,-0.00123961,-0.0114655,-0.0468956,4962,4963,0
416677697,416677559,4259850,4325386,0.000986606,3.63167e-06,0.000455063,0.000606482,0.0210652,-0.0455121,4992,4928,0
417181054,417180943,4259850,4325386,-0.000970757,0.000600702,0.000503897,-0.012525,-0.00824701,-0.0567096,4968,4965,0
417679768,417679639,4259850,4325386,0.000860123,0.000501927,-6.9041e-06,-0.00672914,-0.0134439,-0.0466186,4991,4926,0
418183329,418183206,4259850,4325386,0.00119464,-0.00103742,0.000323122,-0.000342287,0.00121175,-0.0489631,4990,4967,0
418677076,418676956,4259850,4325386,0.0018578,-0.000564668,-0.000904572,-0.00214496,-0.0231987,-0.0432133,4987,4655,0
419180886,419180770,4259850,4325386,0.00176768,-0.00134575,-0.00131187,0.00205921,-0.0236632,-0.0461672,4982,4928,0
419679545,419679424,4259850,4325386,0.000186309,-0.000312419,-1.09154e-05,-0.00648272,0.00309811,-0.0527644,4987,4744,0
420178546,420178167,4259850,4325386,0.000434148,2.26032e-06,-0.000338863,-0.00825653,-0.0204898,-0.055518,4982,4933,0
420682090,420681982,4259850,4325386,0.000915044,-0.000656581,-0.000401698,0.00230194,-0.00879911,-0.0376312,4968,4969,0
421181188,421180971,4259850,4325386,-0.0014201,0.000112525,0.00119296,-0.00837193,0.0173625,-0.0596393,4977,5912,0
421679499,421679371,4259850,4325386,-0.000172317,0.00322679,0.000141899,0.00140864,0.0109626,-0.0401353,4987,4927,0
422178294,422178111,4259850,4325386,0.00160083,-0.000476741,-0.000619458,0.0110913,-0.0167626,-0.0486617,4987,5852,0
422677547,422677432,4259850,4325386,-0.000118211,-0.000434832,-4.98158e-05,-0.0127312,-0.0254157,-0.0596795,4998,4988,0
423181462,423181323,4259850,4325386,-0.00114045,0.000836512,0.000421751,0.00338167,0.00681415,-0.0400234,5000,4695,0
423680115,423679987,4259850,4325386,0.00151362,0.000888889,8.14962e-06,0.011336,0.0202039,-0.0311547,4972,4928,0
424178711,424178605,4259850,4325386,1.18053e-05,-0.000388395,0.000275191,0.000323894,0.00478947,-0.044479,4987,4926,0
424682446,424682334,4259850,4325386,0.000293514,0.00035961,-0.000265531,-0.00763828,0.0163921,-0.0461886,4986,4511,0
425181211,425181095,4259850,4325386,0.0029059,-0.00284064,-0.000748621,-0.00977076,0.00199992,-0.0586948,5009,4892,0
425680191,425680047,4259850,4325386,-0.000775763,-4.64292e-05,-0.000336052,-0.0125136,-0.0268909,-0.0635075,4967,4987,0
426178133,426178022,4259850,4325386,0.000525468,-0.00169948,0.000718267,-0.00265727,-0.00345881,-0.0542961,5002,4891,0
426677129,426676977,4259850,4325386,-0.000277898,0.00134221,0.000316562,0.00758454,0.00617923,-0.0423792,4968,4965,0
427180705,427180475,4259850,4325386,0.00119916,-0.00158857,-0.00030906,0.00116114,0.00320146,-0.0405069,4987,4929,0
427679346,427679220,4259850,4325386,7.95597e-05,-0.000253887,-0.000988702,-0.0108808,-0.0299852,-0.0541543,4989,4959,0
428183327,428183111,4259850,4325386,0.000303638,0.000744819,-0.000145983,-0.00387774,-0.0111997,-0.0603955,5007,5913,0
428681902,428681734,4259850,4325386,-0.00114703,0.000543368,0.000380011,-0.00464782,0.00320514,-0.0598357,4992,5925,0
429180559,429180426,4259850,4325386,-0.000110782,0.000429284,-0.000319971,-0.0113313,0.00660511,-0.059504,4991,4970,0
429679297,429679175,4259850,4325386,-0.00100734,3.87233e-05,0.000860941,-0.00481326,-0.00460748,-0.0492041,4998,4878,0
430177543,430177403,4259850,4325386,0.00145286,-1.53051e-06,-0.000409107,0.00135975,-0.00318327,-0.0447975,4987,4987,0
430681875,430681156,4259850,4325386,0.000106782,-0.000495037,-0.000649465,-0.00732118,-0.00814577,-0.0510601,4997,4998,0
431180237,431180121,4259850,4325386,-0.00273664,0.00135728,0.00101598,-0.0120239,0.0166759,-0.0588652,4967,4926,0
431678765,431678612,4259850,4325386,0.00426251,-0.00273818,-0.00167947,-0.00451269,-0.0301946,-0.0451754,4987,4981,0
432182449,432182339,4259850,4325386,-0.000803094,0.00114995,-0.00112772,-0.00171806,0.00395013,-0.0470684,4974,4865,0
432676219,432676092,4259850,4325386,-0.000211291,-0.00272923,0.00112923,-0.0157851,0.00781507,-0.0537055,4987,4978,0
433180151,433179998,4259850,4325386,0.000371619,2.84783e-05,-0.00109474,-0.00650381,-0.0109941,-0.0605423,4965,4955,0
433678671,433678561,4259850,4325386,0.00116673,-0.00317032,-0.000167791,0.00531336,0.0161623,-0.0463021,4987,4986,0
434182450,434182338,4259850,4325386,0.000473265,0.00236533,-0.00169218,-0.00732441,-0.0222497,-0.0544084,5035,4912,0
434681328,434681142,4259850,4325386,-0.000249936,0.000485846,-0.000371447,-0.00973511,-0.00486203,-0.0484934,4922,4924,0
435179903,435179770,4259850,4325386,0.00118459,-0.000424486,-0.000498747,9.34417e-06,-0.00130439,-0.0480423,4781,5214,0
435678642,435678508,4259850,4325386,0.00234484,0.00196945,-0.00140195,0.00243427,-0.0111318,-0.0357096,4988,4996,0
436177365,436177248,4259850,4325386,0.00378729,-1.03071e-06,0.000488186,-0.00252762,0.0148553,-0.0404919,4988,4978,0
436676188,436676076,4259850,4325386,-0.000148923,0.00101918,-0.000540307,0.00278732,0.00743696,-0.0373206,4947,4972,0
437179828,437179715,4259850,4325386,-0.00426827,0.00282119,0.000411416,-0.00374927,0.00596105,-0.0425161,4987,4976,0
437679316,437678478,4259850,4325386,0.00178685,-0.000148303,-0.000301903,0.0108319,-0.00744831,-0.0520161,5009,4901,0
438182482,438182229,4259850,4325386,0.00219319,-0.00246512,0.000675609,0.00654924,-0.0087716,-0.0587567,4980,5912,0
438681502,438681359,4259850,4325386,0.000136263,0.000626737,0.000546049,0.00994994,0.00106345,-0.0453105,5041,4927,0
439180420,439180279,4259850,4325386,-0.000862614,0.0001972,0.000236613,-0.0044384,0.0101812,-0.0620694,4992,4998,0
439684060,439683889,4259850,4325386,-0.00134834,0.000546721,0.000404907,-0.00220054,0.0112394,-0.05155,4938,4943,0
440177901,440177749,4259850,4325386,-0.000909848,0.000334687,0.000376449,-0.00410717,-0.0163051,-0.0538433,4997,4964,0
440681522,440681372,4259850,4325386,0.00047274,0.00090326,-0.000509249,-0.0033716,0.00203963,-0.0463632,4990,4958,0
441180410,441180267,4259850,4325386,-0.00149146,-6.78627e-05,0.000304393,-0.00498726,-0.0179821,-0.05299,4954,4925,0
441678969,441678854,4259850,4325386,-0.000717548,-1.68037e-05,9.64878e-05,-0.00132886,0.00998799,-0.0438666,4992,4929,0
442182689,442182577,4259850,4325386,-0.00176122,0.000912913,-9.0146e-05,0.000469008,0.00199522,-0.0436048,4984,4993,0
442681436,442681319,4259850,4325386,0.000507565,-0.00212049,0.00030416,-0.00453863,0.00713585,-0.0511068,4988,4926,0
443179729,443179578,4259850,4325386,-0.000444617,-0.000110571,0.000389526,0.00828542,-0.000306607,-0.0394714,5007,4888,0
443678411,443678299,4259850,4325386,0.000530061,9.25798e-06,-0.000173075,0.00622127,0.016258,-0.0382223,4985,4948,0
444177381,444177267,4259850,4325386,0.000291077,-0.000837441,-0.000462246,-0.0119245,-0.035042,-0.0447332,4972,4926,0
444680878,444680766,4259850,4325386,-0.000604354,0.00332123,0.000897815,-0.00772753,0.0226627,-0.0529168,4985,4967,0
445179368,445179163,4259850,4325386,0.00129646,-0.000277831,-0.000798937,-0.00430688,-0.00658024,-0.0608117,4945,6001,0
445678606,445678428,4259850,4325386,-0.000337835,-0.000293084,-0.000676637,-0.00542203,-0.00289033,-0.0501099,4984,4928,0
446177595,446177486,4259850,4325386,-0.00031748,0.000398522,0.000460904,-0.00623159,0.0241527,-0.0567821,4986,4977,0
446681589,446681441,4259850,4325386,-0.00172115,0.000470656,0.000596295,-0.0101548,-0.00125372,-0.0575346,4973,4972,0
447180099,447179953,4259850,4325386,6.67037e-05,-0.000246172,-0.000829959,-0.00634028,-0.0014864,-0.0508253,4987,4986,0
447678878,447678766,4259850,4325386,0.000589571,-0.000320889,-0.000611642,0.00228271,-0.0179547,-0.0442838,4985,4926,0
448177568,448177436,4259850,4325386,0.000103998,-0.00101817,0.000248896,0.00559987,0.0277447,-0.043281,4983,4930,0
448681285,448681161,4259850,4325386,-0.00125793,0.000588852,0.000324244,-0.00821257,0.0022847,-0.0496542,4987,4922,0
449180172,449179907,4259850,4325386,0.000469797,0.00107741,-0.000144605,-0.00147199,-0.0079761,-0.0447727,4990,4923,0
449683634,449683455,4259850,4325386,-0.00132527,-0.000220218,0.000638748,-0.00148113,0.0212518,-0.0483753,5004,4993,0
450177230,450177042,4259850,4325386,0.00012928,0.00117053,7.17324e-05,0.00222307,-0.0124504,-0.0384723,5000,4982,0
450680719,450680610,4259850,4325386,0.00226421,-3.54475e-05,-0.00054356,0.00995104,-0.0163156,-0.0352293,4981,4921,0
451180803,451180606,4259850,4325386,0.000298492,0.000318925,-0.000478429,-0.00703162,0.00621892,-0.0454613,4966,4970,0
451679297,451679140,4259850,4325386,0.000555264,-0.000984162,0.000458795,-0.00992727,-0.00180117,-0.0543899,4989,4966,0
452177991,452177878,4259850,4325386,-0.00120163,0.0028235,0.000452872,0.0058731,0.0193894,-0.0437818,4986,4929,0
452681932,452681777,4259850,4325386,0.00112486,-0.000356183,-0.000988532,0.00103394,-0.0225023,-0.0475938,4910,4907,0
453180575,453180458,4259850,4325386,0.00292128,-0.00203267,-0.000660725,0.00754238,-0.00947819,-0.0408355,4964,4772,0
453679586,453679087,4259850,4325386,-0.000127982,0.000446848,-0.000608024,-0.006781,-0.0272071,-0.0643189,4990,5787,0
454177949,454177825,4259850,4325386,0.000292397,0.00146531,-0.000296988,0.000816688,-0.0123904,-0.0434699,4987,4926,0
454676831,454676685,4259850,4325386,-0.0038253,0.0010992,0.00064973,-0.00151291,0.00406922,-0.0442829,4964,4927,0
455180001,455179859,4259850,4325386,-0.00112347,0.0002127,2.18766e-05,-0.0127646,0.00459533,-0.0562791,4983,4984,0
455678719,455678587,4259850,4325386,0.000475604,0.000592598,0.000349002,-0.00738541,1.50729e-05,-0.0474045,4971,4926,0
456182326,456182214,4259850,4325386,-0.000685646,-0.000125037,0.000296566,0.00295954,0.0209059,-0.0428823,4952,4918,0
456681085,456680953,4259850,4325386,0.00620187,-0.00249184,-0.00066257,0.00510595,-0.0196662,-0.0356133,4987,4924,0
457179352,457179212,4259850,4325386,-0.00198962,0.000318942,0.00109779,-0.00272805,0.0212325,-0.0498708,4951,4949,0
457677599,457677482,4259850,4325386,-9.95033e-05,-0.000924448,-0.000102212,-0.0103736,-0.0179927,-0.0594652,4982,4976,0
458180822,458180707,4259850,4325386,-1.75102e-05,-0.00261497,8.48068e-05,-0.0036757,-0.00947488,-0.0546735,4987,4952,0
458679551,458679408,4259850,4325386,-1.29705e-05,-0.00165291,0.000314168,0.00517379,-0.0021057,-0.0430734,4988,4933,0
459178546,459178396,4259850,4325386,-0.000319558,0.00416018,7.96684e-05,0.00126879,-0.00241652,-0.0438659,4966,4927,0
459681990,459681873,4259850,4325386,-0.000221209,-0.0014892,-0.000564924,-0.008989,-0.00633235,-0.0517431,4981,4953,0
460180830,460180628,4259850,4325386,0.00102969,-0.000252763,-4.99851e-05,-0.00496122,-0.00453405,-0.0663273,4999,5920,0
460679482,460679372,4259850,4325386,-0.00012812,0.000416971,0.000502371,-0.00680063,0.00158252,-0.0481355,4960,4998,0
461178010,461177646,4259850,4325386,-0.000908668,0.000330164,0.000682558,-0.00504529,-0.0195234,-0.0552424,4990,4926,0
461681525,461681414,4259850,4325386,0.00167944,-0.000249854,-0.000677904,0.00288846,-0.00621795,-0.0410706,5031,4919,0
462180539,462180356,4259850,4325386,-0.00107523,1.29125e-05,-0.00111776,-0.0154505,-0.0174765,-0.0587746,4959,4926,0
462678969,462678853,4259850,4325386,-0.00113191,0.000685388,-0.00086077,-0.00831074,-0.0119099,-0.0499488,4990,4970,0
463182706,463182596,4259850,4325386,0.000179913,0.000665476,0.000542509,0.0036153,0.00554993,-0.0374214,5005,4894,0
463681535,463681421,4259850,4325386,-0.000614592,-0.000424835,0.00134285,-0.0104868,-0.00818266,-0.0594347,5002,4930,0
464180285,464180060,4259850,4325386,-0.000376935,0.000170218,0.000349495,0.00274998,0.00652133,-0.057283,4988,5856,0
464678425,464678279,4259850,4325386,0.000593827,-0.00063344,0.000138646,-0.00079512,0.0110052,-0.0452457,4971,4923,0
465181768,465181591,4259850,4325386,0.00077744,-0.000314727,-0.000417879,-9.68436e-05,0.00456182,-0.0556181,4994,5909,0
465680372,465680222,4259850,4325386,0.000260681,-0.00191533,6.63079e-05,-0.00644292,0.0124415,-0.0542245,4987,4924,0
466179091,466178964,4259850,4325386,0.000413316,0.000108204,-0.00108405,-0.00911406,-0.00561968,-0.0601375,4990,4939,0
466682852,466682689,4259850,4325386,-0.00108771,0.00157586,0.000113906,-0.0155641,0.00834633,-0.0566597,4988,4940,0
467182353,467181432,4259850,4325386,-0.00104536,0.000809072,0.000213748,-0.0144431,0.00697474,-0.0550729,4983,5001,0
467680399,467680255,4259850,4325386,0.000417763,-0.00025492,-0.000203373,-0.00263266,0.00841848,-0.0448351,4980,4955,0
468179020,468178911,4259850,4325386,-0.0032512,0.00119689,0.00113307,0.00997976,0.0236657,-0.0372722,4986,4866,0
468677781,468677671,4259850,4325386,0.00202381,-0.000293387,-0.000603021,-0.00180723,-0.0049984,-0.0394546,4935,4741,0
469181667,469181555,4259850,4325386,0.00119897,-0.000877562,-0.000740363,-1.37576e-05,-0.0135366,-0.0422078,4986,4967,0
469680490,469680364,4259850,4325386,0.000614496,-0.00138196,0.000236324,-0.00446246,-0.00466385,-0.0524121,4960,4967,0
470178968,470178858,4259850,4325386,-0.00142758,0.000526762,5.72735e-05,-0.00238922,0.00506316,-0.0430643,4988,4926,0
470682745,470682586,4259850,4325386,0.00121652,-0.000525332,-0.000715567,0.00870157,-0.00946154,-0.0392944,4986,4934,0
471176504,471176378,4259850,4325386,0.00121295,0.000110475,-0.000121598,0.00566593,-0.0145638,-0.0413399,5013,4901,0
471680209,471680077,4259850,4325386,-0.00127626,0.000491515,0.000685693,0.0058643,0.0142166,-0.0445825,4998,4987,0
472178919,472178806,4259850,4325386,-0.00090674,0.000616169,0.000456702,0.00383217,0.0118953,-0.0436393,4988,4928,0
472677755,472677626,4259850,4325386,7.33184e-05,-0.000531989,0.00014983,0.00646574,0.0115619,-0.0413962,4989,4924,0
473181503,473181370,4259850,4325386,0.00138574,0.00151861,4.63835e-05,-0.0058369,-0.005779,-0.0521924,4985,4937,0
473680123,473680014,4259850,4325386,-0.000738863,-0.00108938,0.000550342,0.00391019,0.00581075,-0.0471542,4987,4975,0
474183861,474183747,4259850,4325386,-0.000335267,0.000158976,0.000386744,-0.00440565,0.0094697,-0.0498007,4988,4929,0
474677604,474677494,4259850,4325386,-0.000338651,3.51479e-06,-0.00065692,-0.00697985,-0.022645,-0.0494549,4987,4932,0
475176658,475176457,4259850,4325386,0.00148687,-0.00218983,0.000466609,0.00160834,0.0185528,-0.0391053,4967,4925,0
475679663,475679465,4259850,4325386,0.00432211,-0.000896854,-0.00122769,-0.00235833,-0.00322551,-0.0478189,4987,5913,0
476178851,476178702,4259850,4325386,-0.00203656,0.000619911,0.000878845,-0.0100934,0.00975822,-0.0525806,4991,4968,0
476682810,476682620,4259850,4325386,0.00175891,-0.000574954,-0.00108916,-0.0080301,0.0131098,-0.0579592,4974,4973,0
477181321,477181190,4259850,4325386,-0.00197662,0.000466178,0.000644233,-0.00380071,-0.000184804,-0.0529647,5007,4898,0
477680031,477679915,4259850,4325386,0.00078934,-0.000279359,-0.000567202,-0.00209675,0.0157699,-0.0478032,4989,4982,0
478178835,478178657,4259850,4325386,0.00155296,-0.0021055,-0.000264711,-0.00934981,0.00275358,-0.0556729,4994,5915,0
478677700,478677555,4259850,4325386,-0.000329229,0.000491842,-0.000575462,-0.00775199,-0.00208482,-0.0438299,4955,4688,0
479180476,479180321,4259850,4325386,-0.00104518,0.00131572,-0.000106633,-0.000476295,0.000992952,-0.0448931,4968,4970,0
479678619,479678507,4259850,4325386,0.000342004,4.80979e-06,0.000551483,0.00314413,-0.00878513,-0.048193,4995,4924,0
480182441,480182228,4259850,4325386,-0.00096938,-0.000469141,-0.00071221,-0.00627222,-0.0174156,-0.0614301,4967,6003,0
480681007,480680883,4259850,4325386,0.000124484,0.00355389,-0.00036675,-0.000138837,-0.0157079,-0.0479439,4990,4976,0
481179728,481179618,4259850,4325386,-0.000110072,-0.00185738,-0.000732453,-0.00133519,0.00255661,-0.0508329,4988,4925,0
481683023,481682900,4259850,4325386,-0.000127043,-0.000366176,-3.90477e-05,-0.000980156,0.017189,-0.0449644,4977,4982,0
482176680,482176552,4259850,4325386,0.000697875,0.000590561,-0.00048222,0.0019724,-0.0126101,-0.0407292,4988,4926,0
482681189,482680309,4259850,4325386,-0.0014248,0.000913469,-0.000475468,-0.0212914,-0.0110513,-0.0610968,5015,4907,0
483178176,483178027,4259850,4325386,-0.00111387,0.000175988,0.00111771,-0.00426321,0.0188511,-0.0517498,4966,4964,0
483682201,483682061,4259850,4325386,0.00236641,-0.00145883,-0.000658286,0.00275427,0.0123243,-0.0535237,5298,5654,0
484181154,484180502,4259850,4325386,-0.00173798,0.00118585,-0.00113272,-0.00361195,-0.00668349,-0.0494899,5000,4931,0
484679403,484679230,4259850,4325386,0.000371019,-0.000110584,-0.000450867,0.00436776,-0.00315437,-0.0501957,4987,5913,0
485178276,485178095,4259850,4325386,0.000484959,-0.000796553,-0.000483988,-8.46759e-05,0.00458402,-0.0448566,4969,4972,0
485676825,485676711,4259850,4325386,0.00225627,-0.000420584,-0.00121731,-0.000809818,-0.0203623,-0.0456386,4985,4984,0
486180632,486180480,4259850,4325386,-0.00139176,0.000503303,-0.000484172,0.00102748,-0.0126973,-0.0400683,4992,4947,0
486679320,486679180,4259850,4325386,-2.97066e-05,-0.000120936,-0.00076462,-0.0107455,-0.0232272,-0.0520824,4925,4913,0
487178240,487178107,4259850,4325386,3.69052e-06,-0.00062019,-0.00029583,-0.00415344,-0.022466,-0.0447711,4965,4926,0
487681691,487681213,4259850,4325386,0.000955013,-0.000871491,-0.000715095,0.00177283,-0.0143302,-0.0418916,5046,4916,0
488180498,488180388,4259850,4325386,0.00164872,0.00015337,0.000938851,-0.00138958,0.0272665,-0.0494893,4988,4927,0
488679253,488679128,4259850,4325386,-0.000259204,0.000330983,0.000192791,0.00549759,0.00490306,-0.0411482,4986,4965,0
489177998,489177868,4259850,4325386,0.00231876,-0.00364022,-0.000520267,-0.0076181,-0.00319894,-0.051092,4989,4926,0
489676719,489676609,4259850,4325386,-0.000618008,-0.000194122,-0.000338852,-0.0109945,-0.00037796,-0.051697,4988,4923,0
490180556,490180444,4259850,4325386,0.000386716,7.12683e-05,-0.000643717,0.00302865,0.00115644,-0.0404813,4976,4927,0
490679295,490679160,4259850,4325386,0.00145265,0.000360929,-0.000340252,-0.000246604,-0.0130782,-0.0438139,4962,4925,0
491182715,491182159,4259850,4325386,0.00361552,-0.000892124,-0.000632787,-0.00369828,-0.0061333,-0.0515159,4959,4965,0
491680750,491680594,4259850,4325386,-0.00224917,0.000520147,0.000103193,-0.00785379,0.00600898,-0.0611676,4988,4929,0
492179440,492179334,4259850,4325386,0.00145308,-0.000338949,0.000228312,-0.0156778,0.0084875,-0.0570923,4981,4926,0
492678200,492678078,4259850,4325386,0.00111435,-0.000262766,-0.000760818,-0.0025336,-0.0125125,-0.0461919,4989,4931,0
493177181,493177068,4259850,4325386,-0.00212578,0.000258957,0.000804911,-0.00999534,0.0103354,-0.0546371,5238,4927,0
493680872,493680545,4259850,4325386,-0.000882476,0.00203503,0.000938038,-0.0030541,-0.00586575,-0.0479252,4991,4981,0
494179881,494179766,4259850,4325386,-0.000849164,-0.000139557,-0.000414212,-0.0136782,-0.0127542,-0.0574935,5020,4909,0
494683574,494683464,4259850,4325386,0.000710422,-0.00051266,-0.000541754,-0.00624103,-0.0214135,-0.0487044,4985,4937,0
495182427,495182246,4259850,4325386,-0.00247748,0.0007236,0.000459649,-0.0058815,0.0142038,-0.0525499,4972,4970,0
495681405,495681197,4259850,4325386,0.00039526,-0.000144946,0.000569942,0.0117213,0.00303428,-0.0504512,4964,5912,0
496179919,496179772,4259850,4325386,-0.00250304,0.00108051,0.000736969,-0.00828364,0.0125311,-0.0553412,4982,4927,0
496678603,496678427,4259850,4325386,-7.94358e-05,0.000882396,0.000464451,0.0112422,0.0132503,-0.0504438,4993,5970,0
497177337,497177223,4259850,4325386,0.00241858,-0.00128368,0.000167432,0.00380745,0.0197494,-0.050569,4964,4923,0
497681026,497680889,4259850,4325386,-0.0013998,0.000761654,0.000162649,0.00310475,0.00304531,-0.0445401,4986,4925,0
498180105,498179294,4259850,4325386,-0.0014254,0.000606833,0.00106442,0.00410592,0.0193123,-0.0400432,4961,4920,0
498683486,498683308,4259850,4325386,-0.000180057,-1.44371e-05,-0.000173038,-0.000226043,0.0128613,-0.0441649,5001,4995,0
499176810,499176660,4259850,4325386,-0.00235876,-0.000275706,0.00142642,-0.0173761,-0.00103852,-0.0580629,4983,4958,0
499680542,499680431,4259850,4325386,-0.000478057,0.000580521,-0.000384803,-0.00334496,-0.00900649,-0.0465552,5029,4909,0
500179359,500179232,4259850,4325386,-0.000162264,-0.000459148,-0.00620256,0.000214181,0.00439114,-0.0520542,4962,4953,0
500678785,500677870,4259850,4325386,-1.52882e-05,-0.00117756,-0.000742004,-0.0117207,-0.0124308,-0.0484251,4990,4928,0
501176717,501176607,4259850,4325386,-0.00188604,0.00252004,0.000721187,-0.000646977,0.00703971,-0.0541059,4987,4925,0
501680553,501680345,4259850,4325386,0.00214339,-0.00034735,3.52051e-05,0.00691273,-0.00379113,-0.038333,4951,3933,0
502179514,502179378,4259850,4325386,0.0011683,-0.000446205,-0.000316719,0.00513287,0.000267021,-0.0419037,4990,4927,0
502678136,502678016,4259850,4325386,0.00114436,-0.000489249,-0.000762094,-0.00422621,-0.0132201,-0.0456288,4998,4701,0
503176686,503176555,4259850,4325386,0.000764852,0.000163619,0.000192733,0.00972867,0.0164494,-0.0337996,4987,4925,0
503679171,503678986,4259850,4325386,0.00119828,-0.000563851,-0.0042725,-0.00791353,-0.0128197,-0.0507608,4965,4961,0
504177586,504177479,4259850,4325386,0.00636092,-0.00080696,-0.00141126,0.00968771,-0.00230043,-0.038874,4987,4980,0
504681427,504681209,4259850,4325386,-0.000480662,-0.000324322,-2.11583e-05,0.00368593,-0.00588792,-0.040574,4983,4964,0
505180359,505180158,4259850,4325386,-0.00160031,0.000679635,0.00146738,0.0038906,0.0220446,-0.0375884,4968,4946,0
505678880,505678691,4259850,4325386,-0.00106013,0.000430488,0.000903937,0.00201747,0.019528,-0.045113,4991,4925,0
506177539,506177428,4259850,4325386,-0.00108029,-0.00166152,0.000904029,0.00461418,-0.00634121,-0.0507261,4988,4987,0
506681343,506681163,4259850,4325386,-0.00139924,0.000471565,0.000132867,-0.00914826,-0.000678182,-0.0537925,4990,4872,0
507179505,507179396,4259850,4325386,0.000661714,0.000321197,-0.000424622,0.00640385,-0.0075101,-0.0434704,4968,4925,0
507678391,507678269,4259850,4325386,0.00277336,-0.000924371,-0.000725552,-0.000232244,0.0117716,-0.0476434,4989,4657,0
508182543,508182364,4259850,4325386,-0.00227199,0.00066247,5.04354e-05,-0.000485533,-0.000504493,-0.0500191,4989,5912,0
508681369,508681254,4259850,4325386,0.00199234,-0.000442394,-3.36194e-05,0.0126058,0.0028375,-0.0327079,4960,4962,0
509180393,509180282,4259850,4325386,-0.00103625,0.000403257,0.000306032,0.000590408,-0.0103709,-0.0438027,5022,4927,0
509678729,509678583,4259850,4325386,-0.00151664,0.000506204,0.000705615,-0.00929652,0.0164442,-0.0588489,4987,4926,0
510178068,510177325,4259850,4325386,-0.00248401,-0.00012426,0.00125071,0.000535799,0.023144,-0.0555508,4987,5329,0
510677184,510677061,4259850,4325386,0.00109194,0.00171432,-0.000321184,-0.00306015,-0.00731764,-0.0487265,4988,4925,0
511180493,511180290,4259850,4325386,-0.0011293,1.04551e-05,0.000323248,-0.010922,0.00859123,-0.0585771,4955,4929,0
511679406,511679250,4259850,4325386,0.000780558,0.000162321,0.000177218,-0.00224206,-0.00753428,-0.0408108,4971,4923,0
512182875,512182757,4259850,4325386,-0.00209937,0.000904501,0.00070305,-0.0116375,0.00687724,-0.0531209,4987,4984,0
512681609,512681498,4259850,4325386,-0.000357155,0.00288853,-0.000843284,0.00845091,0.00449117,-0.0357707,4985,4987,0
513179874,513179742,4259850,4325386,-0.00044074,-0.000340312,-0.000859533,-0.0131452,0.00828726,-0.0646183,4987,4929,0
513678591,513678480,4259850,4325386,-0.000419755,0.000441171,-0.000665776,-0.00463877,-0.0138668,-0.0550405,4985,4925,0
514177923,514177805,4259850,4325386,0.000516274,-0.000182801,-0.000213321,0.00472761,0.00249048,-0.0445067,5042,4928,0
514682130,514681450,4259850,4325386,-0.000646127,8.16216e-05,0.000140622,7.99679e-05,0.0117683,-0.0398103,4795,4989,0
515180460,515180298,4259850,4325386,0.00134561,4.77379e-05,-0.000783103,4.37933e-05,-0.00449033,-0.0407477,4964,4926,0
515679091,515678927,4259850,4325386,0.00061146,-0.0018321,-0.000240254,0.00455746,0.00949729,-0.0421266,4986,4959,0
516182773,516182654,4259850,4325386,-0.00121332,0.000328975,0.000985652,-0.0126113,-0.006191,-0.0567433,4980,4504,0
516681118,516680999,4259850,4325386,0.000348024,-0.00122338,8.38701e-05,0.00486682,0.0242831,-0.0397006,4991,4929,0
517179779,517179636,4259850,4325386,0.00121871,-0.000317149,5.70904e-05,0.0121077,0.00320051,-0.0314536,4985,4946,0
517678527,517678418,4259850,4325386,0.00111293,-0.00299816,0.000164095,0.00913487,0.00919503,-0.0354236,5030,4921,0
518177846,518177717,4259850,4325386,0.000866387,2.77578e-05,-0.000763827,0.00757632,0.0114078,-0.0469448,4991,4926,0
518681508,518681344,4259850,4325386,-0.00171807,0.000106009,0.000709431,0.00476517,0.0278852,-0.0485513,4962,4926,0
519180229,519180082,4259850,4325386,0.000878725,-0.000325185,-0.00239504,0.00243757,0.000433455,-0.0487245,4987,4943,0
519678937,519678822,4259850,4325386,-0.000167105,3.14586e-05,-0.000651932,-0.00832935,-0.00816307,-0.0585866,4984,4999,0
520177674,520177563,4259850,4325386,-0.0008514,0.000321056,0.000399076,-0.00475112,-0.00853975,-0.0552154,4989,4960,0
520681598,520681479,4259850,4325386,-0.000264388,-0.000345693,6.03965e-05,0.00475834,0.0084546,-0.0398448,4980,4976,0
521180147,521180030,4259850,4325386,-0.000263007,0.000714026,-0.00015036,0.000929434,0.00984944,-0.0344991,4987,4961,0
521679415,521679292,4259850,4325386,1.46811e-05,-0.000124959,-0.00122068,-0.00375767,-0.0189779,-0.0460903,5009,4898,0
522178162,522178008,4259850,4325386,-0.000301989,-0.00034982,-0.00551576,-0.00293584,-0.00642292,-0.0495731,4986,4961,0
522682025,522681735,4259850,4325386,0.000401811,0.000726543,-0.00255271,-0.0114662,-0.011749,-0.0550665,4967,4970,0
523180909,523180773,4259850,4325386,0.00762322,-0.00213925,0.00165857,-0.00319418,-0.00620449,-0.0497511,5007,4925,0
523679540,523679386,4259850,4325386,-0.00331255,0.00127235,-0.000786193,-0.00332356,-0.0127236,-0.0511805,4986,4925,0
524178120,524177959,4259850,4325386,3.17499e-05,-0.000559457,-0.00417451,0.00245856,0.0154933,-0.052409,4985,4926,0
524676808,524676696,4259850,4325386,-0.000399207,0.000269911,-0.00335847,-0.00352699,-0.0027157,-0.0530965,4987,4926,0
525180803,525180691,4259850,4325386,-0.000284627,0.00052394,0.000352896,0.00458568,0.00987332,-0.0426388,5026,4919,0
525678297,525678168,4259850,4325386,0.00010115,0.000347487,0.000364804,0.000899727,0.00981085,-0.0342444,4988,4927,0
526182013,526181894,4259850,4325386,0.000534685,-0.000556546,-2.37702e-05,0.00612328,0.0012574,-0.0358868,4986,4986,0
526681012,526680664,4259850,4325386,0.000344457,0.000545077,-0.000462026,-0.0086385,0.00810974,-0.0594393,5016,5041,0
527179575,527179463,4259850,4325386,0.00309432,-0.000208826,-0.000559997,-0.00476331,-0.0247114,-0.0520272,4974,4923,0
527678330,527678116,4259850,4325386,-0.000696996,0.000460017,-0.000368008,0.00189178,0.00583399,-0.0527082,4989,5822,0
528177105,528176994,4259850,4325386,-0.00200888,9.80148e-05,0.000642418,-0.00313617,0.0122308,-0.0493414,4955,4925,0
528680728,528680583,4259850,4325386,-0.000926287,-0.00286811,0.000256157,0.000366212,-0.00384136,-0.0431284,4987,4679,0
529178938,529178825,4259850,4325386,0.00166458,-0.000253523,-0.000604381,0.00741821,0.00223666,-0.043208,4990,4926,0
529682725,529682607,4259850,4325386,0.000617391,-0.000240413,-2.29742e-05,0.00859985,0.0144464,-0.03338,4980,4696,0
530181755,530181608,4259850,4325386,0.000518244,-0.00311852,-0.000235697,0.00829183,0.00293984,-0.034372,4977,4940,0
530680160,530680030,4259850,4325386,-0.00126857,0.00197933,-0.000332778,-0.00561576,-0.000958057,-0.0515361,4986,4926,0
531179232,531178775,4259850,4325386,0.00353268,-0.00481804,3.70076e-05,0.00741267,-0.00992805,-0.0384429,4991,4927,0
531677663,531677511,4259850,4325386,0.000850561,-1.49666e-05,-0.000403881,4.25663e-05,-0.00194087,-0.0548504,4987,4952,0
532181623,532181477,4259850,4325386,0.00176986,-0.000435526,0.000116882,0.0105747,-0.00178154,-0.0448828,4963,4927,0
532680157,532679978,4259850,4325386,0.000252428,-8.98532e-05,-0.0002091,0.00428486,0.0166737,-0.0396814,4985,4962,0
533178894,533178719,4259850,4325386,0.00408166,-0.000293595,-0.000451611,0.00607862,0.000938259,-0.0425636,4987,4973,0
533682824,533682674,4259850,4325386,-0.00139501,-0.000118082,0.000289296,0.000533423,0.00345302,-0.0447956,4919,4916,0
534176492,534176326,4259850,4325386,-0.000147769,0.00032324,-0.00124267,0.000672515,-0.00315875,-0.0428959,4991,4927,0
534681199,534679927,4259850,4325386,-0.000411945,0.000212758,0.000412853,0.000720088,-0.00200638,-0.0477197,4989,4930,0
535178864,535178666,4259850,4325386,-0.00057852,0.000551423,0.000712929,-0.00824261,-0.00436077,-0.0628305,4986,5839,0
535677749,535677611,4259850,4325386,-0.00152276,-0.00028906,-0.000350749,-0.00618657,-0.0109668,-0.0539722,4963,4961,0
536181264,536181134,4259850,4325386,-0.000586152,0.000248894,0.000755574,0.0019183,0.0125068,-0.0385366,4986,4962,0
536680018,536679907,4259850,4325386,-0.000898799,0.000187558,5.72241e-05,-0.00298572,-0.0164501,-0.0507022,5020,4905,0
537178963,537178741,4259850,4325386,-0.00056845,-3.64997e-05,-8.22188e-05,0.000604299,0.000440326,-0.0578137,4985,5908,0
537677762,537677651,4259850,4325386,-0.000100381,-0.000262099,-9.0693e-05,0.00479063,-0.00267627,-0.043778,5257,4930,0
538176462,538176291,4259850,4325386,-0.000116201,-0.000353018,-0.00106612,-0.00388878,-0.0176558,-0.0528956,4996,4928,0
538679932,538679821,4259850,4325386,-0.000908306,0.00032807,4.82532e-05,-0.00941488,0.0136007,-0.0604619,4987,4968,0
539178767,539178616,4259850,4325386,0.00198434,-5.4632e-05,0.000204268,0.00494907,0.00862321,-0.0473721,4976,4935,0
539682440,539682288,4259850,4325386,0.000120313,-0.00062218,-0.00108847,-0.000781221,-0.00468563,-0.0496567,4987,4926,0
540181140,540181029,4259850,4325386,-0.000571254,0.000522768,0.000652213,-0.0053095,-0.00246069,-0.0506592,4988,4779,0
540679748,540679617,4259850,4325386,0.00142285,-3.2071e-05,-0.000239334,0.00544533,0.0197155,-0.0381113,5287,4942,0
541177655,541177522,4259850,4325386,0.00130416,-0.000228393,-0.000542559,0.00980145,-0.00431462,-0.0385742,4978,4977,0
541676679,541676523,4259850,4325386,-0.000600447,0.00012737,1.40273e-05,0.0029867,-0.00708074,-0.0439592,5246,4928,0
542180097,542179988,4259850,4325386,-0.000713421,2.46618e-05,0.000297438,-0.0103684,0.00352037,-0.0560635,4985,4927,0
542679013,542678897,4259850,4325386,0.000664756,0.00029371,-3.55983e-05,0.00727626,-0.0166349,-0.0444454,4983,4974,0
543182699,543182526,4259850,4325386,0.00115916,-1.95673e-05,0.000630769,0.00473454,-0.00253345,-0.0488592,4964,4676,0
543681323,543681186,4259850,4325386,-0.000645804,0.000226051,0.000795884,0.00337761,0.000169233,-0.0488578,4982,4927,0
544180415,544179588,4259850,4325386,0.00118174,-0.0018453,-0.000121567,-0.00203929,0.00520323,-0.0474314,4937,4927,0
544683396,544683244,4259850,4325386,-0.000386322,7.85835e-05,-0.00101982,-0.000907592,0.00964146,-0.0460693,4989,4927,0
545177715,545177569,4259850,4325386,0.000342691,-0.000424389,-0.000789065,0.00922342,-0.00728875,-0.0394294,4970,4784,0
545681246,545681134,4259850,4325386,0.000891457,0.00130401,0.000991226,0.00430174,0.0201457,-0.044223,4988,4928,0
546180552,546180424,4259850,4325386,-0.00271964,0.000187132,-0.000248279,0.00502861,-0.0113973,-0.0439827,4991,4937,0
546679283,546679164,4259850,4325386,0.000745226,0.000180396,0.000570159,0.00319279,0.0134872,-0.0401602,4991,4954,0
547182999,547182889,4259850,4325386,0.000613827,0.000150035,-0.000305385,0.000444071,0.00635422,-0.0408594,4988,4927,0
547682081,547681886,4259850,4325386,-0.000739897,0.000290745,0.00123124,0.00734644,0.0237128,-0.0397029,4956,4947,0
548175959,548175844,4259850,4325386,0.000204315,5.63411e-05,0.000234473,-0.00829872,-0.0198603,-0.0516044,4933,4734,0
548679710,548679560,4259850,4325386,-0.00174222,0.000242754,0.000949473,0.00353593,0.0121285,-0.0521997,4988,4995,0
549178559,549178368,4259850,4325386,-0.000372936,-0.000382199,-0.000267333,-0.000962635,0.00592982,-0.0482838,4975,4964,0
549677812,549677539,4259850,4325386,-0.000410992,2.4388e-05,0.00115888,0.00974237,0.0340861,-0.0383547,4989,4928,0
550181373,550181265,4259850,4325386,0.00101183,-0.000486401,-0.000329075,0.00715023,-0.00509385,-0.0390996,4987,4730,0
550680724,550680118,4259850,4325386,0.00263656,-0.00113363,-0.000518994,-0.00159783,-0.0118757,-0.0580688,5001,5915,0
551179164,551179002,4259850,4325386,-0.00111234,0.000899465,-0.00115347,0.00755528,-0.028623,-0.0441513,5242,4944,0
551682581,551682472,4259850,4325386,5.25607e-05,-0.000654333,0.000563806,0.00844583,0.0202122,-0.04266,4945,4927,0
552180397,552180266,4259850,4325386,-4.32933e-05,-0.00122334,1.48122e-05,-0.00940134,-0.0170988,-0.058136,4990,4970,0
552679173,552679003,4259850,4325386,-0.00143662,1.82146e-05,-0.000518653,-0.00784724,0.00277858,-0.0534946,4987,4928,0
553177988,553177826,4259850,4325386,-0.00160601,0.000325069,0.000225657,-0.0115584,-0.00890579,-0.0598783,4972,4926,0
553681579,553681470,4259850,4325386,9.43956e-05,-2.15997e-06,-0.00112392,-0.00905401,-0.0155546,-0.0556156,4988,4925,0
554180320,554180209,4259850,4325386,-0.000465174,5.15311e-06,0.000362608,0.00176571,0.00411731,-0.0477023,4987,4969,0
554679104,554678993,4259850,4325386,-0.000415217,-0.00126697,0.000214675,-0.00579175,-0.0238053,-0.0554662,4966,4931,0
555178115,555177958,4259850,4325386,-0.000626364,-5.93789e-05,0.000780116,0.00418794,0.00781863,-0.0435683,4974,4926,0
555681076,555680883,4259850,4325386,-0.000504724,-0.000494576,0.000294115,-0.00384469,-0.0175684,-0.045203,4999,4927,0
556179923,556179783,4259850,4325386,0.00150889,-0.000312611,-0.000503439,0.00484996,-0.00408379,-0.0445283,4955,4927,0
556678465,556678352,4259850,4325386,-0.000401336,5.65413e-05,0.000753737,-0.00106358,0.00577309,-0.0587059,4990,4988,0
557177761,557177637,4259850,4325386,0.00149006,5.88781e-05,0.000157005,0.00643508,-0.00909515,-0.0484147,4983,4928,0
557681513,557681368,4259850,4325386,-0.00453504,0.0004368,0.000538746,-0.00930464,0.00752887,-0.0609844,4991,4954,0
558180277,558180110,4259850,4325386,-0.000916645,0.000203304,0.000985662,-0.00952946,0.00675383,-0.0529806,4993,4981,0
558679123,558679011,4259850,4325386,-0.001919,0.00185371,5.79829e-05,-0.00168277,0.00712263,-0.0495454,4991,4926,0
559177813,559177645,4259850,4325386,-0.00169952,0.000250718,0.000582426,-0.00249586,0.0109892,-0.0470856,4985,4943,0
559681454,559681311,4259850,4325386,0.00146587,0.000280249,-0.00030918,0.0110716,0.00285458,-0.034865,4987,4968,0
560180175,560180053,4259850,4325386,-0.000515336,0.00035346,-0.000195385,-0.000671718,-0.00378707,-0.0492978,4985,4955,0
560679138,560679004,4259850,4325386,-0.00237624,0.000539609,0.00117963,-0.0116193,-0.00376678,-0.0556492,4969,4927,0
561182632,561182520,4259850,4325386,0.00147804,-0.000192245,-0.000698359,-0.00167722,0.00709062,-0.0357191,4988,4754,0
561681415,561681259,4259850,4325386,0.00211707,-0.000246765,-0.00101907,0.00376027,0.00786584,-0.0339989,4987,4939,0
562180240,562180125,4259850,4325386,-0.00107321,0.000468408,-6.1356e-05,0.00706875,0.0115349,-0.0532916,4988,4989,0
562678777,562678200,4259850,4325386,0.00633677,-0.00130967,-0.0018516,-0.00267075,-0.0157866,-0.0675048,4993,5914,0
563177130,563176933,4259850,4325386,-0.00277467,-6.14364e-05,0.000533703,0.000645071,0.0256361,-0.0717963,4984,5913,0
563679830,563679717,4259850,4325386,0.00163085,-0.000576287,-0.000356802,0.00410724,-0.00396489,-0.0429526,4963,4919,0
564178516,564178403,4259850,4325386,-0.000941196,0.000383615,0.000708064,-0.00768513,0.00407849,-0.0441201,4988,4929,0
564682242,564682129,4259850,4325386,3.43234e-05,-0.000465974,0.000228377,0.0116684,0.0143028,-0.0285204,4987,4962,0
565181192,565180896,4259850,4325386,0.000418516,0.000415012,0.000493898,-0.00166781,0.00102689,-0.0712402,4966,5924,0
565680106,565679888,4259850,4325386,0.00118326,-0.000639446,-0.0010108,0.00503155,-0.00320783,-0.0479684,5000,5918,0
566178644,566178508,4259850,4325386,9.43334e-05,-6.28091e-05,0.000111755,0.00156973,-0.00872969,-0.0416205,4990,4927,0
566677761,566677589,4259850,4325386,0.00125412,0.000223482,-0.000522732,0.00996235,-0.0186635,-0.0398664,4987,4965,0
567181431,567181320,4259850,4325386,-0.000441888,0.000179816,0.000396772,-0.0116487,0.00173778,-0.0585949,4989,4969,0
567679689,567679558,4259850,4325386,-0.00154594,8.54444e-05,-0.000588546,-0.0080862,0.00248937,-0.05581,4984,4951,0
568178412,568178298,4259850,4325386,0.000809265,-0.00280348,0.00012555,-0.00811515,-0.00209171,-0.0497771,4972,4928,0
568681951,568681747,4259850,4325386,0.00125687,-0.000115784,-0.000389755,0.000924578,0.014964,-0.0401118,4968,4945,0
569180425,569180265,4259850,4325386,-0.00197428,0.00157772,0.000315288,-0.0159268,-0.0216482,-0.0613563,4988,4999,0
569679123,569679006,4259850,4325386,-0.000356554,-7.15258e-05,-0.000660077,-0.010844,-0.00865078,-0.0603107,4987,4694,0
570177887,570177765,4259850,4325386,-0.000905853,0.000264022,0.000230076,0.00503982,0.0116337,-0.0491354,4965,4925,0
570681600,570681473,4259850,4325386,-0.000816024,0.000122899,0.00102696,-0.00265409,0.0144813,-0.0508963,4988,5000,0
571179333,571179214,4259850,4325386,0.000604106,4.37411e-07,0.000368241,0.000166615,0.00996718,-0.0452297,4987,4754,0
571678162,571677956,4259850,4325386,0.00184185,-0.00027073,-0.00105572,0.00741603,-0.0256461,-0.0557834,4989,5908,0
572181850,572181734,4259850,4325386,-0.00164545,0.000141499,0.00116778,-0.0082993,0.00766864,-0.0555415,4950,4926,0
572680927,572680762,4259850,4325386,0.00177252,-0.000675895,-0.00103239,0.00430525,-0.0125398,-0.0495861,5005,5013,0
573179297,573179161,4259850,4325386,0.000374338,-2.78298e-05,-0.000600541,-0.0025413,-0.0257588,-0.0482313,4984,4926,0
573678599,573677904,4259850,4325386,-0.00177649,0.000385359,0.000795712,-0.00945042,-0.00664,-0.0631327,4982,6027,0
574181821,574181629,4259850,4325386,-0.000121266,-8.08753e-05,0.000489006,0.00641773,0.0197059,-0.0422525,4980,4959,0
574679983,574679870,4259850,4325386,-0.000598504,-5.71048e-05,-0.000523708,-0.00214648,-0.00357345,-0.0489818,4987,4967,0
575183258,575183103,4259850,4325386,0.00154598,0.00010148,-0.000985541,0.00338166,-0.0293011,-0.0447663,4990,4930,0
575681950,575681839,4259850,4325386,0.000458128,0.000195048,-0.00043747,-0.00681699,-0.0109346,-0.0540385,4981,4861,0
576180796,576180616,4259850,4325386,8.88387e-05,0.000336212,0.000452398,-0.00307075,-0.0215341,-0.0522588,5001,4996,0
576679654,576679519,4259850,4325386,0.000327505,-0.000521674,0.000493761,0.0101001,0.00781164,-0.0390477,4957,4926,0
577178213,577178097,4259850,4325386,0.00071212,0.000302493,-0.000869279,-0.00988138,-0.0020711,-0.0550336,4996,4971,0
577681930,577681789,4259850,4325386,-0.00193191,0.000151264,0.00105118,-0.00882897,0.00155678,-0.0556841,4988,4969,0
578180642,578180527,4259850,4325386,0.000246831,0.000384671,-0.000664192,-0.00759352,-0.0312426,-0.0566571,4991,4929,0
578679408,578679266,4259850,4325386,-0.00013936,-0.000218463,-0.00014582,0.00934378,-0.00360256,-0.0442077,4981,4970,0
579178129,579178006,4259850,4325386,-0.000432151,0.00046621,0.000423333,-0.00345572,-0.000465829,-0.0514391,4988,4976,0
579677374,579676754,4259850,4325386,-0.000122346,-0.000863008,7.9487e-05,0.00582598,0.0190203,-0.0466862,4994,5915,0
580180696,580180563,4259850,4325386,0.00016707,-0.000867534,-0.000950867,0.0022716,-0.00574518,-0.0446845,4964,4750,0
580679402,580679214,4259850,4325386,0.000552562,-0.000163728,-0.000680976,-0.00193293,0.00507078,-0.0427936,4984,4927,0
581178252,581178054,4259850,4325386,-0.00267951,0.00178229,0.000589264,-0.00588173,0.00382534,-0.0512208,4989,4926,0
581681822,581681680,4259850,4325386,0.000630689,0.000186676,0.00018031,-0.00461862,0.00862229,-0.052376,4987,4938,0
582181071,582180922,4259850,4325386,-0.000676602,0.000374769,0.00106574,0.00145562,0.0213713,-0.0494199,4990,4990,0
582680062,582679909,4259850,4325386,-0.00108307,0.000122481,0.00144749,-0.00633954,0.00057168,-0.0511229,4958,4929,0
583179082,583178953,4259850,4325386,0.000482936,-0.000119486,-0.000766165,0.00259279,-0.00766087,-0.0405208,4999,4931,0
583677996,583677883,4259850,4325386,-5.15997e-05,-0.000284533,-0.000640548,-0.00175753,0.00765134,-0.048651,4965,4926,0
584181689,584181456,4259850,4325386,0.000942675,0.000301762,-0.000207011,-0.00129754,0.0026024,-0.0491543,4974,4930,0
584680789,584680652,4259850,4325386,-0.000668787,0.000285297,-7.26651e-05,-0.00978299,0.0162054,-0.061423,4988,4988,0
585179800,585179393,4259850,4325386,0.00367216,5.67265e-05,-0.000675898,-0.00572098,-0.0157762,-0.0458597,4988,4952,0
585683349,585683174,4259850,4325386,-0.000773542,0.000575795,0.00096599,-0.0018093,0.0103033,-0.0540462,4953,4971,0
586182205,586182047,4259850,4325386,-0.00156819,0.000205143,0.000971311,-0.0077432,0.0117332,-0.0538479,4964,4964,0
586680710,586680599,4259850,4325386,0.00135612,-0.000952846,-1.36148e-06,-0.00789578,-0.00255619,-0.0516058,4988,4926,0
587179451,587179339,4259850,4325386,-0.000191925,-0.000557426,-0.00025018,-0.00369151,0.0146095,-0.0487822,4988,4949,0
587677644,587677529,4259850,4325386,-0.00191784,0.00112393,0.0004472,-0.0137323,0.00308585,-0.0565021,4981,4934,0
588181520,588181409,4259850,4325386,-0.000248501,-0.000402447,0.0008446,0.00493228,0.00144589,-0.0474185,4989,4960,0
588680151,588680001,4259850,4325386,0.000131178,-1.63383e-05,-0.000336236,-0.00775718,-0.0238801,-0.0576188,4988,4969,0
589179151,589178989,4259850,4325386,0.00163785,-0.000451886,-0.00111037,0.00295681,-0.0189294,-0.0448121,4965,4926,0
589682581,589682466,4259850,4325386,-0.000744809,0.00147863,4.29121e-05,0.00510424,-0.00175376,-0.0441783,4986,4920,0
590176334,590176222,4259850,4325386,-0.00146269,0.0004152,0.000727448,-0.0055829,0.00288409,-0.0554156,4990,4970,0
590680141,590680028,4259850,4325386,-0.00105494,0.000120337,-0.000194153,-0.00748515,0.00821857,-0.0563942,5019,4913,0
591178873,591178688,4259850,4325386,-0.000108556,-0.000684159,0.000224957,-0.0132405,0.0041902,-0.0616682,4989,4994,0
591677648,591677477,4259850,4325386,0.00167564,0.000232161,-0.000960856,-0.00615873,-0.0292342,-0.0579307,4980,5913,0
592181776,592181156,4259850,4325386,0.000221761,-0.000364113,0.000920046,0.00612472,-0.00133161,-0.045247,4989,5915,0
592680284,592680040,4259850,4325386,0.0011563,0.000201914,-0.000400915,-0.00483512,-0.0112672,-0.0628183,4970,5986,0
593178742,593178633,4259850,4325386,0.000321394,-0.000380405,0.000502579,0.00407638,-0.000234765,-0.0455537,4987,4945,0
593682545,593682361,4259850,4325386,-0.000898882,0.0003962,-0.000265008,-0.00325486,-0.00240146,-0.0566897,4979,5911,0
594180215,594180102,4259850,4325386,0.00212884,-0.00070172,-0.00068107,0.00247437,-0.00824056,-0.0455623,4984,4926,0
594679013,594678864,4259850,4325386,0.000803051,-5.19647e-05,-0.000667149,-0.00187069,-0.00498805,-0.0487715,4968,4927,0
595177731,595177589,4259850,4325386,0.0019418,-0.000312858,-0.000778278,0.0084311,-0.00368408,-0.0378745,4993,4925,0
595681479,595681311,4259850,4325386,0.00157691,-0.000395949,0.000253468,-0.00330285,-0.00784383,-0.0630448,4988,5911,0
596180278,596180120,4259850,4325386,-0.00411474,0.000324654,-0.000605358,0.00289262,0.0101619,-0.0485411,4956,4758,0
596679049,596678920,4259850,4325386,0.00015372,0.0003361,-0.000108307,-0.00268851,0.0163012,-0.0556842,4958,4905,0
597177755,597177534,4259850,4325386,-5.4691e-05,0.00104318,1.61768e-05,0.00580532,-0.0121423,-0.0452181,4991,4931,0
597677017,597676803,4259850,4325386,-0.000741536,0.000606322,0.000187823,-0.00681195,-0.000157094,-0.0623729,4993,5920,0
598180657,598180499,4259850,4325386,0.000680263,-8.71872e-05,0.000509621,-0.00137094,-0.00886139,-0.0488653,4789,4922,0
598679347,598679236,4259850,4325386,0.000980452,6.24853e-05,-0.000589568,-0.00191834,-0.0079726,-0.0438738,4984,4924,0
599178227,599178077,4259850,4325386,0.00211653,-0.00034691,-0.00105692,0.00757013,0.00516246,-0.0375741,4970,4926,0
599681818,599681703,4259850,4325386,-0.000980327,0.000514486,0.00126876,0.00254262,0.0204895,-0.0457783,4987,4925,0
600180588,600180477,4259850,4325386,0.000371052,-0.00131592,-3.98551e-05,0.00699362,0.010878,-0.042939,5021,4909,0
600679350,600679230,4259850,4325386,-0.00192402,0.000953775,-9.9594e-05,-0.0150531,-0.0156918,-0.0590373,4966,4924,0
601178252,601178134,4259850,4325386,-0.00134289,0.000682901,0.000960275,-0.0127995,6.13642e-05,-0.0555595,4964,4926,0
601677347,601677234,4259850,4325386,0.000667759,0.0005846,0.000697394,0.00596364,0.013919,-0.0350164,4969,4930,0
602181030,602180889,4259850,4325386,0.00130622,-0.000828725,-0.000743987,0.00587518,-0.0159908,-0.0393477,4987,4926,0
602679931,602679630,4259850,4325386,6.96681e-05,0.00126096,-0.000762572,0.00580296,0.0120218,-0.0498699,4988,5912,0
603178570,603178459,4259850,4325386,0.00121763,-0.00173445,-0.000441028,0.00852248,0.00159903,-0.0396727,4975,4964,0
603682429,603682259,4259850,4325386,-0.00120782,0.000605622,0.000236506,-0.0136945,-0.0107533,-0.0542584,4967,4925,0
604175964,604175849,4259850,4325386,0.000517695,-0.000369246,0.000276509,0.00313229,0.0131257,-0.039764,4986,4976,0
604679691,604679580,4259850,4325386,-0.00129723,0.000585689,0.000605025,0.000220784,0.00681236,-0.0404224,4981,4860,0
605177956,605177830,4259850,4325386,0.00149728,-0.00079666,-0.00118634,-0.00468006,-0.0352748,-0.0521826,4996,4975,0
605681834,605681702,4259850,4325386,0.000459294,1.51696e-05,0.00080246,-0.00387953,-0.00891725,-0.0518331,4982,4926,0
606180462,606180288,4259850,4325386,-0.00493437,0.000558153,6.20988e-05,-0.00978995,-0.00703841,-0.0575415,4981,4676,0
606679416,606679252,4259850,4325386,-0.000806675,-3.4683e-05,0.000605303,0.0012729,-0.00672936,-0.0479965,4970,4926,0
607182909,607182752,4259850,4325386,-0.00205937,0.000460112,0.000978109,-0.00516347,0.00179137,-0.0470833,4981,4961,0
607676618,607676506,4259850,4325386,-0.00152834,-1.88901e-05,0.000695677,-0.0154965,0.00570706,-0.04934,4988,4717,0
608180399,608180241,4259850,4325386,-0.00264935,0.00133968,0.000544856,-0.00434182,0.00160789,-0.0520082,4978,4923,0
608679191,608678975,4259850,4325386,0.000117535,5.86847e-05,0.000363273,-0.00123599,0.00816817,-0.0521984,4990,4924,0
609177886,609177775,4259850,4325386,0.00178631,-0.000395663,-0.000829217,0.00468811,-0.00681085,-0.043415,4995,4925,0
609681572,609681441,4259850,4325386,-0.00024285,-1.76823e-05,0.000283317,0.00218129,0.00549823,-0.0385492,4987,3938,0
610180794,610180678,4259850,4325386,0.000841063,-0.000309303,-0.000693212,0.00697092,-0.000238157,-0.0392135,4988,4972,0
610680276,610679579,4259850,4325386,-0.00039616,1.95631e-05,0.00054435,-0.00344223,-0.00565127,-0.0515343,4975,4952,0
611178290,611178161,4259850,4325386,-9.60236e-06,0.000368313,0.000892082,-0.00203408,-0.00550442,-0.0538721,4942,4927,0
611677010,611676898,4259850,4325386,-2.11771e-05,0.000279876,3.91944e-06,-0.00291754,-0.0189144,-0.057717,4985,4988,0
