timestamp,ref_timestamp,ref_lat,ref_lon,x,y,z,delta_xy[0],delta_xy[1],delta_z,vx,vy,vz,z_deriv,delta_vxy[0],delta_vxy[1],delta_vz,ax,ay,az,heading,delta_heading,ref_alt,dist_bottom,eph,epv,evh,evv,vxy_max,vz_max,hagl_min,hagl_max,xy_valid,z_valid,v_xy_valid,v_z_valid,xy_reset_counter,z_reset_counter,vxy_reset_counter,vz_reset_counter,heading_reset_counter,xy_global,z_global,dist_bottom_valid
361171267,43282259,34.0356038,108.7572644,-3.88234,10.4383,0.273466,-0.294967,0.746268,0.0,0.00445649,-0.00396865,0.0202556,-0.00267099,-0.165065,-0.848708,0.257229,-0.033788,0.161224,0.0107567,-1.70893,-0.0120855,418.114,0.1,0.273318,0.389481,0.131105,0.102481,inf,inf,inf,inf,1,1,1,1,2,0,2,1,4,1,1,1
361181025,43282259,34.0356038,108.7572644,-3.88217,10.4384,0.273623,-0.294967,0.746268,0.0,0.00433624,-0.00564332,0.0206903,-0.0020238,-0.165065,-0.848708,0.257229,-0.0842805,-0.095085,-0.0657684,-1.7093,-0.0120855,418.114,0.1,0.274154,0.390143,0.13155,0.102657,inf,inf,inf,inf,1,1,1,1,2,0,2,1,4,1,1,1
361379664,43282259,34.0356038,108.7572644,-3.8794,10.4399,0.273708,-0.294967,0.746268,0.0,0.00478436,0.00254454,0.0199192,-0.00213273,-0.165065,-0.848708,0.257229,0.524173,-0.704017,0.0296432,-1.70856,-0.0120855,418.114,0.1,0.274097,0.391838,0.131558,0.102636,inf,inf,inf,inf,1,1,1,1,2,0,2,1,4,1,1,1
361478987,43282259,34.0356038,108.7572644,-3.87814,10.4406,0.272021,-0.294967,0.746268,0.0,0.00729811,-0.0125494,0.0172965,-0.00616712,-0.165065,-0.848708,0.257229,-0.237988,0.45368,-1.08213,-1.70783,-0.0120855,418.114,0.1,0.282744,0.393632,0.136047,0.103846,inf,inf,inf,inf,1,1,1,1,2,0,2,1,4,1,1,1
361578306,43282259,34.0356038,108.7572644,-3.87619,10.4414,0.270878,-0.294967,0.746268,0.0,0.00221565,0.0015543,0.017544,-0.00654108,-0.165065,-0.848708,0.257229,-0.0817239,0.806725,-0.530616,-1.70847,-0.0120855,418.114,0.1,0.273966,0.39106,0.13149,0.102337,inf,inf,inf,inf,1,1,1,1,2,0,2,1,4,1,1,1
361677678,43282259,34.0356038,108.7572644,-3.87381,10.4422,0.271048,-0.294967,0.746268,0.0,0.00578177,0.000798745,0.0236514,0.000227405,-0.165065,-0.848708,0.257229,0.348193,-0.509627,0.522684,-1.70839,-0.0120855,418.114,0.1,0.282608,0.392831,0.135977,0.10354,inf,inf,inf,inf,1,1,1,1,2,0,2,1,4,1,1,1
361776947,43282259,34.0356038,108.7572644,-3.87097,10.4427,0.269405,-0.294967,0.746268,0.0,0.00509745,-0.00560445,0.0188601,-0.00581347,-0.165065,-0.848708,0.257229,-0.444411,-0.73676,0.34166,-1.70791,-0.0120855,418.114,0.1,0.27382,0.390273,0.131422,0.102044,inf,inf,inf,inf,1,1,1,1,2,0,2,1,4,1,1,1
361876272,43282259,34.0356038,108.7572644,-3.86791,10.443,0.266999,-0.294967,0.746268,0.0,0.00546625,0.00151055,0.0216905,-0.00476668,-0.165065,-0.848708,0.257229,0.336329,0.85581,-0.0706818,-1.70739,-0.0120855,418.114,0.1,0.282458,0.392022,0.135909,0.103239,inf,inf,inf,inf,1,1,1,1,2,0,2,1,4,1,1,1
361975732,43282259,34.0356038,108.7572644,-3.86512,10.4435,0.264986,-0.294967,0.746268,0.0,0.00782102,-0.00214819,0.0174607,-0.0100734,-0.165065,-0.848708,0.257229,0.0397653,-0.803887,0.118413,-1.70717,-0.0120855,418.114,0.1,0.27369,0.389485,0.131374,0.101759,inf,inf,inf,inf,1,1,1,1,2,0,2,1,4,1,1,1
362074910,43282259,34.0356038,108.7572644,-3.86262,10.4441,0.263537,-0.294967,0.746268,0.0,0.00620021,0.00106938,0.0194151,-0.00847839,-0.165065,-0.848708,0.257229,-0.0409873,0.714699,-0.0811649,-1.70691,-0.0120855,418.114,0.1,0.282325,0.39368,0.135846,0.103221,inf,inf,inf,inf,1,1,1,1,2,0,2,1,4,1,1,1
362174229,43282259,34.0356038,108.7572644,-3.86025,10.4447,0.262479,-0.294967,0.746268,0.0,0.00898376,-0.00174522,0.016344,-0.0114663,-0.165065,-0.848708,0.257229,0.0625527,-0.361551,0.0130207,-1.70568,-0.0120855,418.114,0.1,0.273544,0.391117,0.131319,0.101746,inf,inf,inf,inf,1,1,1,1,2,0,2,1,4,1,1,1
362278511,43282259,34.0356038,108.7572644,-3.85806,10.4451,0.261701,-0.294967,0.746268,0.0,0.00841018,-5.50886e-05,0.0168244,-0.010689,-0.165065,-0.848708,0.257229,0.517438,-0.0759398,-0.536715,-1.70614,-0.0120855,418.114,0.1,0.282176,0.39284,0.1358,0.102931,inf,inf,inf,inf,1,1,1,1,2,0,2,1,4,1,1,1
362377834,43282259,34.0356038,108.7572644,-3.85592,10.445,0.258481,-0.294967,0.746268,0.0,0.00662654,-0.00155422,0.0192959,-0.0102474,-0.165065,-0.848708,0.257229,0.284358,0.286005,0.604911,-1.70552,-0.0120855,418.114,0.1,0.273417,0.390284,0.131285,0.101466,inf,inf,inf,inf,1,1,1,1,2,0,2,1,4,1,1,1
362477203,43282259,34.0356038,108.7572644,-3.85389,10.4447,0.253692,-0.294967,0.746268,0.0,0.00568414,-0.00442964,0.01142,-0.0211319,-0.165065,-0.848708,0.257229,-0.075923,-0.206897,-0.48515,-1.70512,-0.0120855,418.114,0.1,0.28205,0.391978,0.135948,0.102651,inf,inf,inf,inf,1,1,1,1,2,0,2,1,4,1,1,1
362576475,43282259,34.0356038,108.7572644,-3.8519,10.4442,0.248574,-0.294967,0.746268,0.0,0.00557762,0.000401783,0.0141061,-0.0212701,-0.165065,-0.848708,0.257229,-0.465574,-0.615655,-0.434497,-1.70516,-0.0120855,418.114,0.1,0.273358,0.391895,0.131465,0.101478,inf,inf,inf,inf,1,1,1,1,2,0,2,1,4,1,1,1
362675796,43282259,34.0356038,108.7572644,-3.85018,10.4435,0.243021,-0.294967,0.746268,0.0,0.00729783,0.00380689,0.0143859,-0.0236946,-0.165065,-0.848708,0.257229,-0.31497,0.275324,0.947031,-1.70404,-0.0120855,418.114,0.1,0.282002,0.393602,0.13598,0.102659,inf,inf,inf,inf,1,1,1,1,2,0,2,1,4,1,1,1
362775231,43282259,34.0356038,108.7572644,-3.84822,10.4432,0.236969,-0.294967,0.746268,0.0,0.00801765,0.00509506,0.00316206,-0.037674,-0.165065,-0.848708,0.257229,2.33012,2.83964,-1.66748,-1.70441,-0.0120855,418.114,0.1,0.273231,0.391038,0.131459,0.101208,inf,inf,inf,inf,1,1,1,1,2,0,2,1,4,1,1,1
362874471,43282259,34.0356038,108.7572644,-3.84601,10.4432,0.232032,-0.294967,0.746268,0.0,0.00739711,-0.0100083,0.0132692,-0.0287277,-0.165065,-0.848708,0.257229,1.10587,-4.04278,3.50878,-1.70397,-0.0120855,418.114,0.1,0.281873,0.392717,0.13604,0.10238,inf,inf,inf,inf,1,1,1,1,2,0,2,1,4,1,1,1
362973758,43282259,34.0356038,108.7572644,-3.8438,10.4435,0.226136,-0.294967,0.746268,0.0,0.00315893,0.00278809,0.00511115,-0.0389445,-0.165065,-0.848708,0.257229,-0.953049,1.4323,-1.12739,-1.70387,-0.0120855,418.114,0.105565,0.27309,0.39017,0.131669,0.100944,inf,inf,inf,inf,1,1,1,1,2,0,2,1,4,1,1,1
363078049,43282259,34.0356038,108.7572644,-3.84166,10.4437,0.219217,-0.294967,0.746268,0.0,0.00836359,-0.00241867,0.0102869,-0.0363697,-0.165065,-0.848708,0.257229,-0.0773579,-4.02442,3.10393,-1.70316,-0.0120855,418.114,0.112484,0.281731,0.391831,0.136346,0.102109,inf,inf,inf,inf,1,1,1,1,2,0,2,1,4,1,1,1
363177366,43282259,34.0356038,108.7572644,-3.83977,10.4442,0.21117,-0.294967,0.746268,0.0,0.000764454,-0.0115502,0.00622816,-0.0436255,-0.165065,-0.848708,0.257229,-0.805545,-3.04527,1.29459,-1.70314,-0.0120855,418.114,0.120531,0.272848,0.391742,0.13195,0.100941,inf,inf,inf,inf,1,1,1,1,2,0,2,1,4,1,1,1
363276687,43282259,34.0356038,108.7572644,-3.83833,10.4447,0.201891,-0.294967,0.746268,0.0,0.00660367,-0.00125579,-0.00152611,-0.0549804,-0.165065,-0.848708,0.257229,0.366327,0.608423,-0.258219,-1.70275,-0.0120855,418.114,0.12981,0.281485,0.393423,0.136907,0.102119,inf,inf,inf,inf,1,1,1,1,2,0,2,1,4,1,1,1
363371039,43282259,34.0356038,108.7572644,-3.83565,10.4457,0.195715,-0.294967,0.746268,0.0,0.00630217,-0.00433981,0.00114659,-0.0529274,-0.165065,-0.848708,0.257229,-0.321583,-1.76413,1.47674,-1.70254,-0.0120855,418.114,0.135986,0.271967,0.39025,0.132207,0.100546,inf,inf,inf,inf,1,1,1,1,2,0,2,1,4,1,1,1
363480292,43282259,34.0356038,108.7572644,-3.83218,10.4477,0.189926,-0.294967,0.746268,0.0,0.00331433,0.00373075,-0.00374286,-0.0565189,-0.165065,-0.848708,0.257229,-0.700066,0.195305,-0.760033,-1.70308,-0.0120855,418.114,0.141775,0.281462,0.392564,0.137546,0.101881,inf,inf,inf,inf,1,1,1,1,2,0,2,1,4,1,1,1
363579708,43282259,34.0356038,108.7572644,-3.82918,10.4504,0.184416,-0.294967,0.746268,0.0,0.00470001,0.0140616,-0.0144218,-0.0660253,-0.165065,-0.848708,0.257229,0.410422,-0.574637,-1.33513,-1.70503,-0.0120855,418.114,0.147285,0.272743,0.390064,0.133421,0.100495,inf,inf,inf,inf,1,1,1,1,2,0,2,1,4,1,1,1
363678932,43282259,34.0356038,108.7572644,-3.82648,10.4529,0.179727,-0.294967,0.746268,0.0,0.00025014,0.00853544,-0.00834887,-0.0578668,-0.165065,-0.848708,0.257229,-1.15553,-0.713573,0.469685,-1.70397,-0.0120855,418.114,0.151974,0.281428,0.39172,0.138387,0.101659,inf,inf,inf,inf,1,1,1,1,2,0,2,1,4,1,1,1
363778253,43282259,34.0356038,108.7572644,-3.823,10.456,0.176817,-0.294967,0.746268,0.0,0.000825718,0.00961089,-0.00984582,-0.055744,-0.165065,-0.848708,0.257229,-1.46765,1.22133,-0.597308,-1.70156,-0.0120855,418.114,0.154884,0.272709,0.38925,0.133984,0.100279,inf,inf,inf,inf,1,1,1,1,2,0,2,1,4,1,1,1
363867838,43282259,34.0356038,108.7572644,-3.81953,10.4583,0.174975,-0.294967,0.746268,0.0,0.00946556,-0.00399266,-0.00429626,-0.0470157,-0.165065,-0.848708,0.257229,0.772322,0.100446,-0.846274,-1.69784,-0.0120855,418.114,0.156726,0.280521,0.392689,0.138488,0.101539,inf,inf,inf,inf,1,1,1,1,2,0,2,1,4,1,1,1
363981860,43282259,34.0356038,108.7572644,-3.81578,10.46,0.171843,-0.294967,0.746268,0.0,0.0189148,0.00840434,-0.00475187,-0.0450749,-0.165065,-0.848708,0.257229,1.75326,-1.71168,2.51493,-1.69368,-0.0120855,418.114,0.159858,0.272573,0.390849,0.134437,0.100317,inf,inf,inf,inf,1,1,1,1,2,0,2,1,4,1,1,1
364071249,43282259,34.0356038,108.7572644,-3.81302,10.4629,0.168244,-0.294967,0.746268,0.0,0.000336016,0.0240916,-0.0127106,-0.0516173,-0.165065,-0.848708,0.257229,-3.64928,0.455249,-0.883249,-1.69212,-0.0120855,418.114,0.163457,0.280397,0.391844,0.139101,0.101316,inf,inf,inf,inf,1,1,1,1,2,0,2,1,4,1,1,1
364180501,43282259,34.0356038,108.7572644,-3.8102,10.4659,0.164961,-0.294967,0.746268,0.0,0.00819149,0.00866036,-0.000133424,-0.0365762,-0.165065,-0.848708,0.257229,0.193792,-0.986975,1.5196,-1.68379,-0.0120855,418.114,0.166741,0.272462,0.390031,0.135028,0.100108,inf,inf,inf,inf,1,1,1,1,2,0,2,1,4,1,1,1
364279827,43282259,34.0356038,108.7572644,-3.80703,10.4671,0.163327,-0.294967,0.746268,0.0,0.020137,0.000643794,-0.00160307,-0.0349709,-0.165065,-0.848708,0.257229,-1.57249,-0.287205,1.30797,-1.67929,-0.0120855,418.114,0.168374,0.281206,0.391677,0.140013,0.101266,inf,inf,inf,inf,1,1,1,1,2,0,2,1,4,1,1,1
364379213,43282259,34.0356038,108.7572644,-3.80295,10.4668,0.163914,-0.294967,0.746268,0.0,0.005133,-0.0162127,0.00655691,-0.0225429,-0.165065,-0.848708,0.257229,-1.95659,-0.0496287,0.429178,-1.67738,-0.0120855,418.114,0.167787,0.272379,0.389226,0.135353,0.0999006,inf,inf,inf,inf,1,1,1,1,2,0,2,1,4,1,1,1
364478462,43282259,34.0356038,108.7572644,-3.79871,10.4663,0.164269,-0.294967,0.746268,0.0,0.011637,-0.0152245,-0.00787547,-0.0336055,-0.165065,-0.848708,0.257229,0.447534,-0.62625,0.440682,-1.67378,-0.0120855,418.114,0.167432,0.28114,0.390856,0.140335,0.101054,inf,inf,inf,inf,1,1,1,1,2,0,2,1,4,1,1,1
364577783,43282259,34.0356038,108.7572644,-3.79389,10.4667,0.162859,-0.294967,0.746268,0.0,0.014891,-0.00537652,-0.0102018,-0.0343485,-0.165065,-0.848708,0.257229,0.258232,-0.040701,-1.23813,-1.67219,-0.0120855,418.114,0.168842,0.272285,0.388417,0.135579,0.099695,inf,inf,inf,inf,1,1,1,1,2,0,2,1,4,1,1,1
364677106,43282259,34.0356038,108.7572644,-3.78903,10.4681,0.161566,-0.294967,0.746268,0.0,-0.0115901,0.0146414,-0.0101903,-0.0324398,-0.165065,-0.848708,0.257229,-5.17592,2.56116,-2.94207,-1.67089,-0.0120855,418.114,0.170135,0.281062,0.392484,0.140584,0.101112,inf,inf,inf,inf,1,1,1,1,2,0,2,1,4,1,1,1
364776471,43282259,34.0356038,108.7572644,-3.78477,10.47,0.160116,-0.294967,0.746268,0.0,0.0278713,0.00938155,-0.00380069,-0.0242787,-0.165065,-0.848708,0.257229,4.65099,-0.721711,0.799241,-1.66921,-0.0120855,418.114,0.171585,0.272211,0.390028,0.13579,0.0997551,inf,inf,inf,inf,1,1,1,1,2,0,2,1,4,1,1,1
364875744,43282259,34.0356038,108.7572644,-3.78146,10.4717,0.158273,-0.294967,0.746268,0.0,0.00215574,0.0147434,-0.0126282,-0.0316125,-0.165065,-0.848708,0.257229,-1.62791,-0.130153,1.29076,-1.66615,-0.0120855,418.114,0.173428,0.281007,0.391665,0.140796,0.10091,inf,inf,inf,inf,1,1,1,1,2,0,2,1,4,1,1,1
364975064,43282259,34.0356038,108.7572644,-3.77893,10.4758,0.154292,-0.294967,0.746268,0.0,-0.00222164,0.0409039,-0.0278053,-0.047087,-0.165065,-0.848708,0.257229,-4.88672,0.971303,-1.60418,-1.6665,-0.0120855,418.114,0.177409,0.272213,0.389235,0.136075,0.0995754,inf,inf,inf,inf,1,1,1,1,2,0,2,1,4,1,1,1
365074391,43282259,34.0356038,108.7572644,-3.77776,10.4836,0.148561,-0.294967,0.746268,0.0,-0.00857918,0.0805689,-0.0545995,-0.0737246,-0.165065,-0.848708,0.257229,-3.30303,2.55783,-2.84118,-1.67216,-0.0120855,418.114,0.18314,0.281035,0.39085,0.141013,0.100723,inf,inf,inf,inf,1,1,1,1,2,0,2,1,4,1,1,1
365173715,43282259,34.0356038,108.7572644,-3.77665,10.4947,0.142723,-0.294967,0.746268,0.0,-0.00162174,0.108882,-0.0480505,-0.066176,-0.165065,-0.848708,0.257229,-0.331574,-0.902556,1.5329,-1.68245,-0.0120855,418.114,0.188979,0.272052,0.388427,0.136015,0.0993737,inf,inf,inf,inf,1,1,1,1,2,0,2,1,4,1,1,1
365277992,43282259,34.0356038,108.7572644,-3.77435,10.5114,0.137269,-0.294967,0.746268,0.0,0.0030243,0.159423,-0.0466394,-0.0635845,-0.165065,-0.848708,0.257229,1.72512,-2.21067,2.26506,-1.69906,-0.0120855,418.114,0.194432,0.28088,0.390026,0.141013,0.100517,inf,inf,inf,inf,1,1,1,1,2,0,2,1,4,1,1,1
365377315,43282259,34.0356038,108.7572644,-3.77313,10.5313,0.12995,-0.294967,0.746268,0.0,0.00305048,0.18795,-0.0783111,-0.0938418,-0.165065,-0.848708,0.257229,4.49953,-2.38308,2.57453,-1.7142,-0.0120855,418.114,0.201751,0.271886,0.390023,0.135976,0.0994325,inf,inf,inf,inf,1,1,1,1,2,0,2,1,4,1,1,1
365476810,43282259,34.0356038,108.7572644,-3.77111,10.5532,0.122069,-0.294967,0.746268,0.0,0.00326205,0.221412,-0.0930944,-0.106634,-0.165065,-0.848708,0.257229,-0.901472,-0.424532,0.423293,-1.72864,-0.0120855,418.114,0.209632,0.28072,0.391646,0.141058,0.100586,inf,inf,inf,inf,1,1,1,1,2,0,2,1,4,1,1,1
365580919,43282259,34.0356038,108.7572644,-3.76942,10.5819,0.113859,-0.294967,0.746268,0.0,0.0235217,0.2625,-0.0814985,-0.0932636,-0.165065,-0.848708,0.257229,4.00877,-0.895782,-0.0675407,-1.74086,-0.0120855,418.114,0.217842,0.271799,0.389231,0.136158,0.0992616,inf,inf,inf,inf,1,1,1,1,2,0,2,1,4,1,1,1
365680240,43282259,34.0356038,108.7572644,-3.76835,10.6127,0.105923,-0.294967,0.746268,0.0,0.00453574,0.273395,-0.0759848,-0.0870742,-0.165065,-0.848708,0.257229,2.132,-1.68467,1.62085,-1.75082,-0.0120855,418.114,0.225778,0.28065,0.390841,0.141223,0.100411,inf,inf,inf,inf,1,1,1,1,2,0,2,1,4,1,1,1
365779562,43282259,34.0356038,108.7572644,-3.76729,10.6417,0.100375,-0.294967,0.746268,0.0,0.0240053,0.251095,-0.0556218,-0.0647734,-0.165065,-0.848708,0.257229,1.17081,-1.04036,0.44075,-1.75785,-0.0120855,418.114,0.231327,0.271759,0.388458,0.13617,0.0991027,inf,inf,inf,inf,1,1,1,1,2,0,2,1,4,1,1,1
365878929,43282259,34.0356038,108.7572644,-3.76716,10.6674,0.097363,-0.294967,0.746268,0.0,-0.00594469,0.220132,-0.0521632,-0.0590298,-0.165065,-0.848708,0.257229,-1.06254,-0.493756,-1.25868,-1.76358,-0.0120855,418.114,0.234338,0.280629,0.390062,0.141,0.100244,inf,inf,inf,inf,1,1,1,1,2,0,2,1,4,1,1,1
365978254,43282259,34.0356038,108.7572644,-3.76865,10.6886,0.0961241,-0.294967,0.746268,0.0,-0.00229443,0.143037,-0.00578825,-0.0106097,-0.165065,-0.848708,0.257229,-0.56986,-2.45309,2.46239,-1.76744,-0.0120855,418.114,0.235577,0.271737,0.387696,0.135978,0.0989431,inf,inf,inf,inf,1,1,1,1,2,0,2,1,4,1,1,1
366077522,43282259,34.0356038,108.7572644,-3.77232,10.7032,0.0986319,-0.294967,0.746268,0.0,-0.0210661,0.0794694,0.0138562,0.0119226,-0.165065,-0.848708,0.257229,-1.00429,-0.366155,0.579747,-1.76757,-0.0120855,418.114,0.233069,0.280615,0.389287,0.140706,0.100075,inf,inf,inf,inf,1,1,1,1,2,0,2,1,4,1,1,1
366176844,43282259,34.0356038,108.7572644,-3.77586,10.7065,0.105312,-0.294967,0.746268,0.0,-0.0316047,-0.0346,0.0298852,0.0318021,-0.165065,-0.848708,0.257229,-1.22199,-0.19036,-1.56894,-1.76475,-0.0120855,418.114,0.226389,0.27169,0.389325,0.13561,0.0990264,inf,inf,inf,inf,1,1,1,1,2,0,2,1,4,1,1,1
366276285,43282259,34.0356038,108.7572644,-3.77933,10.6982,0.112333,-0.294967,0.746268,0.0,-0.0469636,-0.127309,0.0471747,0.0512199,-0.165065,-0.848708,0.257229,-2.25104,1.21728,-2.99156,-1.75896,-0.0120855,418.114,0.219368,0.280567,0.390939,0.140309,0.100162,inf,inf,inf,inf,1,1,1,1,2,0,2,1,4,1,1,1
366380450,43282259,34.0356038,108.7572644,-3.78404,10.6791,0.122262,-0.294967,0.746268,0.0,-0.0334795,-0.247554,0.082511,0.0882602,-0.165065,-0.848708,0.257229,2.70216,-1.76852,1.60993,-1.75061,-0.0120855,418.114,0.20944,0.271528,0.388558,0.135256,0.0988528,inf,inf,inf,inf,1,1,1,1,2,0,2,1,4,1,1,1
366479772,43282259,34.0356038,108.7572644,-3.78882,10.65,0.132379,-0.294967,0.746268,0.0,-0.0441885,-0.354411,0.0867972,0.0931711,-0.165065,-0.848708,0.257229,-1.731,-0.806405,-0.90232,-1.7416,-0.0120855,418.114,0.199322,0.280396,0.390158,0.140051,0.0999884,inf,inf,inf,inf,1,1,1,1,2,0,2,1,4,1,1,1
366579091,43282259,34.0356038,108.7572644,-3.79275,10.6104,0.141535,-0.294967,0.746268,0.0,-0.0245984,-0.45997,0.0903148,0.0961268,-0.165065,-0.848708,0.257229,1.16474,-0.133708,-0.00801027,-1.73192,-0.0120855,418.114,0.190166,0.271439,0.387807,0.135093,0.098702,inf,inf,inf,inf,1,1,1,1,2,0,2,1,4,1,1,1
366678446,43282259,34.0356038,108.7572644,-3.79513,10.5599,0.150101,-0.294967,0.746268,0.0,-0.0179104,-0.573787,0.104251,0.108264,-0.165065,-0.848708,0.257229,-1.94575,-1.35844,1.21695,-1.7239,-0.0120855,418.114,0.1816,0.28031,0.389386,0.139829,0.0998334,inf,inf,inf,inf,1,1,1,1,2,0,2,1,4,1,1,1
366777733,43282259,34.0356038,108.7572644,-3.79786,10.5103,0.138841,-0.294967,0.746268,0.0,-0.00924948,-0.459573,-0.309219,-0.307623,-0.165065,-0.848708,0.257229,3.65424,10.3572,-6.99441,-1.65731,-0.0120855,418.114,0.19286,0.271242,0.389419,0.134823,0.098793,inf,inf,inf,inf,1,1,1,1,2,0,2,1,4,1,1,1
366872086,43282259,34.0356038,108.7572644,-3.79538,10.4725,0.105143,-0.294967,0.746268,0.0,-0.0129591,-0.423075,-0.388638,-0.388834,-0.165065,-0.848708,0.257229,1.95598,2.58882,-3.76371,-1.58818,-0.0120855,418.114,0.226558,0.279191,0.390358,0.139062,0.0997631,inf,inf,inf,inf,1,1,1,1,2,0,2,1,4,1,1,1
366981338,43282259,34.0356038,108.7572644,-3.80021,10.4105,0.061611,-0.294967,0.746268,0.0,-0.0655702,-0.529251,-0.406452,-0.406572,-0.165065,-0.848708,0.257229,0.58861,-1.51914,0.699052,-1.55205,-0.0120855,418.114,0.27009,0.271107,0.388633,0.135312,0.0979272,inf,inf,inf,inf,1,1,1,1,2,0,2,1,4,1,1,1
367080767,43282259,34.0356038,108.7572644,-3.80333,10.343,0.0218758,-0.294967,0.746268,0.0,-0.034159,-0.56328,-0.404843,-0.404405,-0.165065,-0.848708,0.257229,1.09611,1.32471,0.435197,-1.54821,-0.0120855,418.114,0.309825,0.280003,0.390161,0.139791,0.098165,inf,inf,inf,inf,1,1,1,1,2,0,2,1,4,1,1,1
367179982,43282259,34.0356038,108.7572644,-3.80676,10.2785,-0.0255102,-0.294967,0.746268,0.0,-0.106289,-0.544769,-0.393417,-0.401159,-0.165065,-0.848708,0.257229,-1.74329,-0.891492,0.960877,-1.55715,-0.0120855,418.114,0.357211,0.271001,0.387834,0.13439,0.0962007,inf,inf,inf,inf,1,1,1,1,2,0,2,1,4,1,1,1
367279310,43282259,34.0356038,108.7572644,-3.81273,10.2193,-0.0736654,-0.294967,0.746268,0.0,-0.102486,-0.511352,-0.377727,-0.394455,-0.165065,-0.848708,0.257229,3.54493,-0.203207,1.15812,-1.57687,-0.0120855,418.114,0.405366,0.279855,0.389285,0.138692,0.0965741,inf,inf,inf,inf,1,1,1,1,2,0,2,1,4,1,1,1
367378620,43282259,34.0356038,108.7572644,-3.82345,10.1606,-0.117922,-0.294967,0.746268,0.0,-0.12701,-0.483841,-0.352962,-0.375751,-0.165065,-0.848708,0.257229,0.863644,0.00210261,0.61713,-1.60061,-0.0120855,418.114,0.449623,0.270857,0.386986,0.133603,0.094855,inf,inf,inf,inf,1,1,1,1,2,0,2,1,4,1,1,1
367477952,43282259,34.0356038,108.7572644,-3.83834,10.1055,-0.15844,-0.294967,0.746268,0.0,-0.154134,-0.449495,-0.331124,-0.357417,-0.165065,-0.848708,0.257229,1.22656,-0.933954,2.62213,-1.62519,-0.0120855,418.114,0.490141,0.279661,0.390778,0.138054,0.0956278,inf,inf,inf,inf,1,1,1,1,2,0,2,1,4,1,1,1
367577264,43282259,34.0356038,108.7572644,-3.85299,10.057,-0.191335,-0.294967,0.746268,0.0,-0.172635,-0.411967,-0.30842,-0.332061,-0.165065,-0.848708,0.257229,0.756482,-0.693534,1.67472,-1.64867,-0.0120855,418.114,0.523036,0.270705,0.38848,0.133197,0.0941166,inf,inf,inf,inf,1,1,1,1,2,0,2,1,4,1,1,1
367676581,43282259,34.0356038,108.7572644,-3.86708,10.0136,-0.219678,-0.294967,0.746268,0.0,-0.169926,-0.380372,-0.291249,-0.310882,-0.165065,-0.848708,0.257229,-3.07293,1.60274,-0.919009,-1.67032,-0.0120855,418.114,0.551379,0.279466,0.389802,0.137834,0.0947863,inf,inf,inf,inf,1,1,1,1,2,0,2,1,4,1,1,0
367775902,43282259,34.0356038,108.7572644,-3.88441,9.97498,-0.248069,-0.294967,0.746268,0.0,-0.155694,-0.344002,-0.270229,-0.288058,-0.165065,-0.848708,0.257229,3.47154,-0.97213,1.71099,-1.6869,-0.0120855,418.114,0.57977,0.270516,0.387534,0.133175,0.0934638,inf,inf,inf,inf,1,1,1,1,2,0,2,1,4,1,1,0
367875272,43282259,34.0356038,108.7572644,-3.90102,9.94062,-0.275539,-0.294967,0.746268,0.0,-0.127088,-0.307565,-0.258142,-0.275314,-0.165065,-0.848708,0.257229,-3.53969,2.06669,-1.76996,-1.70139,-0.0120855,418.114,0.60724,0.279245,0.388789,0.137944,0.0942696,inf,inf,inf,inf,1,1,1,1,2,0,2,1,4,1,1,0
367979509,43282259,34.0356038,108.7572644,-3.90892,9.9116,-0.306367,-0.294967,0.746268,0.0,-0.0544202,-0.267504,-0.238818,-0.259602,-0.165065,-0.848708,0.257229,-0.407495,1.94316,-2.17838,-1.71312,-0.0120855,418.114,0.638068,0.270301,0.388929,0.133473,0.0933448,inf,inf,inf,inf,1,1,1,1,2,0,2,1,4,1,1,0
368078829,43282259,34.0356038,108.7572644,-3.91062,9.88944,-0.335335,-0.294967,0.746268,0.0,0.00188963,-0.239329,-0.209086,-0.234161,-0.165065,-0.848708,0.257229,-2.42865,-0.116529,0.946112,-1.72099,-0.0120855,418.114,0.667036,0.27901,0.390135,0.138372,0.0942806,inf,inf,inf,inf,1,1,1,1,2,0,2,1,4,1,1,0
368178150,43282259,34.0356038,108.7572644,-3.90041,9.87063,-0.357994,-0.294967,0.746268,0.0,0.0866118,-0.200816,-0.183402,-0.208571,-0.165065,-0.848708,0.257229,-0.923319,0.48502,-0.565149,-1.72722,-0.0120855,418.114,0.689696,0.270067,0.38789,0.134071,0.0932572,inf,inf,inf,inf,1,1,1,1,2,0,2,1,4,1,1,0
368277467,43282259,34.0356038,108.7572644,-3.88529,9.8555,-0.377058,-0.294967,0.746268,0.0,0.10844,-0.16064,-0.159697,-0.183753,-0.165065,-0.848708,0.257229,3.35406,0.187551,0.698676,-1.73127,-0.0120855,418.114,0.708759,0.278772,0.389056,0.139033,0.0943118,inf,inf,inf,inf,1,1,1,1,2,0,2,1,4,1,1,0
368376791,43282259,34.0356038,108.7572644,-3.86835,9.84548,-0.393575,-0.294967,0.746268,0.0,0.158894,-0.116837,-0.134542,-0.157847,-0.165065,-0.848708,0.257229,2.31615,1.06205,-0.495949,-1.73305,-0.0120855,418.114,0.725276,0.269864,0.386846,0.134575,0.0933853,inf,inf,inf,inf,1,1,1,1,2,0,2,1,4,1,1,0
368476112,43282259,34.0356038,108.7572644,-3.85026,9.83904,-0.409026,-0.294967,0.746268,0.0,0.140241,-0.0803236,-0.112598,-0.136539,-0.165065,-0.848708,0.257229,1.04492,0.680922,-0.166807,-1.73395,-0.0120855,418.114,0.740727,0.278569,0.387973,0.139614,0.0945527,inf,inf,inf,inf,1,1,1,1,2,0,2,1,4,1,1,0
368575432,43282259,34.0356038,108.7572644,-3.83787,9.83862,-0.42094,-0.294967,0.746268,0.0,0.116995,-0.0372113,-0.0887138,-0.112031,-0.165065,-0.848708,0.257229,-2.4766,-0.438606,0.877228,-1.7337,-0.0120855,418.114,0.752641,0.269688,0.385796,0.135149,0.0937155,inf,inf,inf,inf,1,1,1,1,2,0,2,1,4,1,1,0
368674775,43282259,34.0356038,108.7572644,-3.82833,9.84251,-0.431274,-0.294967,0.746268,0.0,0.107562,-0.000390611,-0.0815586,-0.104522,-0.165065,-0.848708,0.257229,-0.538488,1.08934,-0.647961,-1.73304,-0.0120855,418.114,0.762975,0.278403,0.389281,0.140224,0.0952075,inf,inf,inf,inf,1,1,1,1,2,0,2,1,4,1,1,0
368779039,43282259,34.0356038,108.7572644,-3.8209,9.85072,-0.440963,-0.294967,0.746268,0.0,0.0816659,0.0415295,-0.0913948,-0.112749,-0.165065,-0.848708,0.257229,-1.35736,1.15145,-0.637397,-1.73272,-0.0120855,418.114,0.772664,0.269541,0.387096,0.13568,0.0944215,inf,inf,inf,inf,1,1,1,1,2,0,2,1,4,1,1,0
368878372,43282259,34.0356038,108.7572644,-3.81557,9.86213,-0.451403,-0.294967,0.746268,0.0,0.0671733,0.0704769,-0.106095,-0.126127,-0.165065,-0.848708,0.257229,-0.825461,0.445221,-1.173,-1.73365,-0.0120855,418.114,0.783104,0.278273,0.388195,0.140906,0.0957956,inf,inf,inf,inf,1,1,1,1,2,0,2,1,4,1,1,0
368977856,43282259,34.0356038,108.7572644,-3.80903,9.87485,-0.463754,-0.294967,0.746268,0.0,0.0992552,0.0868028,-0.109955,-0.129197,-0.165065,-0.848708,0.257229,1.30354,-2.31158,3.31362,-1.73358,-0.0120855,418.114,0.795455,0.269418,0.386048,0.136551,0.0950878,inf,inf,inf,inf,1,1,1,1,2,0,2,1,4,1,1,0
369077006,43282259,34.0356038,108.7572644,-3.7992,9.88857,-0.476506,-0.294967,0.746268,0.0,0.126526,0.111672,-0.118553,-0.136531,-0.165065,-0.848708,0.257229,3.20636,-1.08059,1.80163,-1.73346,-0.0120855,418.114,0.808207,0.278189,0.387144,0.141826,0.0965478,inf,inf,inf,inf,1,1,1,1,2,0,2,1,4,1,1,0
369176322,43282259,34.0356038,108.7572644,-3.78462,9.90341,-0.486148,-0.294967,0.746268,0.0,0.181232,0.130644,-0.112342,-0.126536,-0.165065,-0.848708,0.257229,1.20378,0.880132,-0.893713,-1.73114,-0.0120855,418.114,0.817849,0.269336,0.385025,0.137161,0.0958411,inf,inf,inf,inf,1,1,1,1,2,0,2,1,4,1,1,0
369275641,43282259,34.0356038,108.7572644,-3.76167,9.91844,-0.493812,-0.294967,0.746268,0.0,0.263817,0.13732,-0.0990091,-0.10956,-0.165065,-0.848708,0.257229,-0.942324,0.546554,-0.784312,-1.73019,-0.0120855,418.114,0.825513,0.278142,0.386113,0.14241,0.0973652,inf,inf,inf,inf,1,1,1,1,2,0,2,1,4,1,1,0
369374964,43282259,34.0356038,108.7572644,-3.72649,9.93382,-0.501333,-0.294967,0.746268,0.0,0.369406,0.14828,-0.086062,-0.0945248,-0.165065,-0.848708,0.257229,2.44031,1.09294,-0.564244,-1.72793,-0.0120855,418.114,0.833034,0.269252,0.384019,0.137599,0.0966588,inf,inf,inf,inf,1,1,1,1,2,0,2,1,4,1,1,0
369474282,43282259,34.0356038,108.7572644,-3.6811,9.94988,-0.508527,-0.294967,0.746268,0.0,0.464064,0.15262,-0.0664064,-0.073771,-0.165065,-0.848708,0.257229,-1.28246,-0.238489,0.243763,-1.72591,-0.0120855,418.114,0.840229,0.278088,0.387473,0.142766,0.0984442,inf,inf,inf,inf,1,1,1,1,2,0,2,1,4,1,1,0
369578569,43282259,34.0356038,108.7572644,-3.6251,9.96915,-0.511376,-0.294967,0.746268,0.0,0.524384,0.170783,-0.0618771,-0.065191,-0.165065,-0.848708,0.257229,0.16607,2.16197,-2.8216,-1.72393,-0.0120855,418.114,0.843078,0.269163,0.385372,0.137886,0.0977243,inf,inf,inf,inf,1,1,1,1,2,0,2,1,4,1,1,0
369677889,43282259,34.0356038,108.7572644,-3.5691,9.99031,-0.511501,-0.294967,0.746268,0.0,0.562063,0.191648,-0.0525022,-0.0505951,-0.165065,-0.848708,0.257229,-1.86207,0.445576,-0.371226,-1.7216,-0.0120855,418.114,0.843202,0.278027,0.386507,0.143009,0.09935,inf,inf,inf,inf,1,1,1,1,2,0,2,1,4,1,1,0
369777348,43282259,34.0356038,108.7572644,-3.50768,10.0107,-0.512182,-0.294967,0.746268,0.0,0.58802,0.197974,-0.0879467,-0.0800666,-0.165065,-0.848708,0.257229,-2.64514,-1.48288,2.44169,-1.72034,-0.0120855,418.114,0.843883,0.269064,0.384426,0.138199,0.0986356,inf,inf,inf,inf,1,1,1,1,2,0,2,1,4,1,1,0
369881503,43282259,34.0356038,108.7572644,-3.44437,10.033,-0.519467,-0.294967,0.746268,0.0,0.586238,0.228135,-0.170363,-0.157389,-0.165065,-0.848708,0.257229,5.18121,1.42134,-3.00904,-1.71963,-0.0120855,418.114,0.851168,0.277961,0.385588,0.143369,0.100319,inf,inf,inf,inf,1,1,1,1,2,0,2,1,4,1,1,0
369980817,43282259,34.0356038,108.7572644,-3.38621,10.0604,-0.52925,-0.294967,0.746268,0.0,0.563619,0.245407,-0.240072,-0.218701,-0.165065,-0.848708,0.257229,4.78408,0.287713,-1.38989,-1.71987,-0.0120855,418.114,0.860951,0.268967,0.383526,0.138699,0.0996071,inf,inf,inf,inf,1,1,1,1,2,0,2,1,4,1,1,0
370080144,43282259,34.0356038,108.7572644,-3.33089,10.0916,-0.545487,-0.294967,0.746268,0.0,0.530129,0.269912,-0.309658,-0.279948,-0.165065,-0.848708,0.257229,1.69846,-1.05896,0.469063,-1.72054,-0.0120855,418.114,0.877188,0.277913,0.384723,0.14406,0.101357,inf,inf,inf,inf,1,1,1,1,2,0,2,1,4,1,1,0
370179459,43282259,34.0356038,108.7572644,-3.28319,10.1255,-0.568808,-0.294967,0.746268,0.0,0.486899,0.291404,-0.374674,-0.337509,-0.165065,-0.848708,0.257229,-2.5769,-1.34932,1.55912,-1.72049,-0.0120855,418.114,0.900509,0.268906,0.382682,0.139075,0.100578,inf,inf,inf,inf,1,1,1,1,2,0,2,1,4,1,1,0
370278807,43282259,34.0356038,108.7572644,-3.24089,10.1598,-0.600248,-0.294967,0.746268,0.0,0.441849,0.289112,-0.433289,-0.391572,-0.165065,-0.848708,0.257229,-3.7951,-1.4819,1.18677,-1.71902,-0.0120855,418.114,0.931949,0.277895,0.386241,0.144404,0.102565,inf,inf,inf,inf,1,1,1,1,2,0,2,1,4,1,1,0
370378099,43282259,34.0356038,108.7572644,-3.19858,10.1921,-0.638475,-0.294967,0.746268,0.0,0.401668,0.27571,-0.493944,-0.449384,-0.165065,-0.848708,0.257229,-2.95437,-1.40678,0.868403,-1.71632,-0.0120855,418.114,0.970176,0.268844,0.384175,0.139288,0.101723,inf,inf,inf,inf,1,1,1,1,2,0,2,1,4,1,1,0
370477419,43282259,34.0356038,108.7572644,-3.16105,10.2232,-0.684617,-0.294967,0.746268,0.0,0.305246,0.27256,-0.560357,-0.514822,-0.165065,-0.848708,0.257229,-5.92038,-0.624778,0.159902,-1.71422,-0.0120855,418.114,1.01632,0.277867,0.385448,0.144529,0.103515,inf,inf,inf,inf,1,1,1,1,2,0,2,1,4,1,1,0
370576855,43282259,34.0356038,108.7572644,-3.12629,10.253,-0.740519,-0.294967,0.746268,0.0,0.230843,0.220947,-0.60889,-0.566468,-0.165065,-0.848708,0.257229,-6.36834,-1.16213,1.18111,-1.71106,-0.0120855,418.114,1.07222,0.26887,0.383382,0.139433,0.102627,inf,inf,inf,inf,1,1,1,1,2,0,2,1,4,1,1,0
370681026,43282259,34.0356038,108.7572644,-3.09753,10.2779,-0.806992,-0.294967,0.746268,0.0,0.164061,0.161325,-0.667164,-0.629916,-0.165065,-0.848708,0.257229,-1.96,-0.146239,-2.09435,-1.70742,-0.0120855,418.114,1.13869,0.27793,0.384687,0.144641,0.104426,inf,inf,inf,inf,1,1,1,1,2,0,2,1,4,1,1,0
370780347,43282259,34.0356038,108.7572644,-3.08364,10.295,-0.877044,-0.294967,0.746268,0.0,0.071961,0.0967147,-0.714742,-0.683985,-0.165065,-0.848708,0.257229,-0.924627,-0.410787,-2.13618,-1.70409,-0.0120855,418.114,1.20874,0.268786,0.382624,0.139512,0.103478,inf,inf,inf,inf,1,1,1,1,2,0,2,1,4,1,1,0
370874701,43282259,34.0356038,108.7572644,-3.08011,10.3035,-0.94854,-0.294967,0.746268,0.0,0.00140243,-0.00285638,-0.746101,-0.721169,-0.165065,-0.848708,0.257229,-1.24532,-2.00889,1.64293,-1.70152,-0.0120855,418.114,1.28024,0.276934,0.385706,0.144119,0.105267,inf,inf,inf,inf,1,1,1,1,2,0,2,1,4,1,1,0
370974023,43282259,34.0356038,108.7572644,-3.08067,10.3012,-1.03127,-0.294967,0.746268,0.0,-0.0541582,-0.116343,-0.790045,-0.773994,-0.165065,-0.848708,0.257229,-0.871506,-1.99695,1.3964,-1.69907,-0.0120855,418.114,1.36297,0.267851,0.383629,0.138778,0.104225,inf,inf,inf,inf,1,1,1,1,2,0,2,1,4,1,1,0
371073371,43282259,34.0356038,108.7572644,-3.08507,10.2867,-1.11717,-0.294967,0.746268,0.0,-0.105182,-0.241936,-0.826748,-0.817413,-0.165065,-0.848708,0.257229,-1.49168,-2.48354,1.85861,-1.69894,-0.0120855,418.114,1.44887,0.276885,0.385039,0.144009,0.106053,inf,inf,inf,inf,1,1,1,1,2,0,2,1,4,1,1,0
371172666,43282259,34.0356038,108.7572644,-3.09325,10.2606,-1.20029,-0.294967,0.746268,0.0,-0.144752,-0.379385,-0.85238,-0.84329,-0.165065,-0.848708,0.257229,-1.74831,-2.47043,2.0025,-1.70022,-0.0120855,418.114,1.53199,0.267678,0.382967,0.138529,0.10493,inf,inf,inf,inf,1,1,1,1,2,0,2,1,4,1,1,0
371281915,43282259,34.0356038,108.7572644,-3.10526,10.2185,-1.28894,-0.294967,0.746268,0.0,-0.17588,-0.531691,-0.883831,-0.869471,-0.165065,-0.848708,0.257229,-1.87888,-2.63839,1.72343,-1.70276,-0.0120855,418.114,1.62064,0.277644,0.385043,0.144067,0.106955,inf,inf,inf,inf,1,1,1,1,2,0,2,1,4,1,1,0
371371344,43282259,34.0356038,108.7572644,-3.12054,10.1657,-1.36616,-0.294967,0.746268,0.0,-0.204894,-0.641617,-0.919306,-0.90308,-0.165065,-0.848708,0.257229,-1.66557,-1.75675,1.19152,-1.70579,-0.0120855,418.114,1.69786,0.267623,0.382356,0.138183,0.105559,inf,inf,inf,inf,1,1,1,1,2,0,2,1,4,1,1,0
371480556,43282259,34.0356038,108.7572644,-3.14433,10.0873,-1.46801,-0.294967,0.746268,0.0,-0.225787,-0.701352,-0.95736,-0.942206,-0.165065,-0.848708,0.257229,0.10197,-0.474267,-0.130333,-1.70571,0.00458317,418.114,1.79971,0.277583,0.384468,0.142688,0.107423,inf,inf,inf,inf,1,1,1,1,2,0,2,1,5,1,1,0
371579877,43282259,34.0356038,108.7572644,-3.16595,10.0165,-1.56063,-0.294967,0.746268,0.0,-0.222887,-0.758048,-0.85977,-0.847956,-0.165065,-0.848708,0.257229,5.73966,-2.04069,3.246,-1.7093,0.00458317,418.114,1.89234,0.268491,0.384697,0.13489,0.105954,inf,inf,inf,inf,1,1,1,1,2,0,2,1,5,1,1,0
371679205,43282259,34.0356038,108.7572644,-3.18764,9.94498,-1.64045,-0.294967,0.746268,0.0,-0.231316,-0.760819,-0.710322,-0.701296,-0.165065,-0.848708,0.257229,2.95147,-0.999834,3.98029,-1.71027,0.00458317,418.114,1.97215,0.277326,0.386249,0.137102,0.107304,inf,inf,inf,inf,1,1,1,1,2,0,2,1,5,1,1,0
371778548,43282259,34.0356038,108.7572644,-3.20703,9.87664,-1.70615,-0.294967,0.746268,0.0,-0.240721,-0.7311,-0.55052,-0.544943,-0.165065,-0.848708,0.257229,2.21752,-2.28158,5.00517,-1.71255,0.00458317,418.114,2.03786,0.268323,0.384132,0.130411,0.105694,inf,inf,inf,inf,1,1,1,1,2,0,2,1,5,1,1,0
371877839,43282259,34.0356038,108.7572644,-3.22477,9.80978,-1.75619,-0.294967,0.746268,0.0,-0.20137,-0.729388,-0.404563,-0.401968,-0.165065,-0.848708,0.257229,0.427086,0.0903287,0.83233,-1.71391,0.00458317,418.114,2.08789,0.2769,0.385683,0.132715,0.10708,inf,inf,inf,inf,1,1,1,1,2,0,2,1,5,1,1,0
371977159,43282259,34.0356038,108.7572644,-3.24157,9.73958,-1.79086,-0.294967,0.746268,0.0,-0.132652,-0.739929,-0.265158,-0.264569,-0.165065,-0.848708,0.257229,4.027,1.01823,0.543738,-1.71991,0.00458317,418.114,2.12256,0.268024,0.383568,0.126781,0.105521,inf,inf,inf,inf,1,1,1,1,2,0,2,1,5,1,1,0
372076481,43282259,34.0356038,108.7572644,-3.25584,9.66714,-1.81373,-0.294967,0.746268,0.0,-0.0882324,-0.760157,-0.140266,-0.141977,-0.165065,-0.848708,0.257229,1.44123,-1.12532,3.20677,-1.72533,0.00458317,418.114,2.14543,0.276373,0.385132,0.129659,0.106946,inf,inf,inf,inf,1,1,1,1,2,0,2,1,5,1,1,0
372175839,43282259,34.0356038,108.7572644,-3.26182,9.59056,-1.81924,-0.294967,0.746268,0.0,-0.0252303,-0.780627,-0.0326055,-0.0303617,-0.165065,-0.848708,0.257229,2.55857,1.2164,-0.537035,-1.7256,0.00458317,418.114,2.15094,0.267622,0.383018,0.124776,0.105433,inf,inf,inf,inf,1,1,1,1,2,0,2,1,5,1,1,0
372280086,43282259,34.0356038,108.7572644,-3.26082,9.50881,-1.8118,-0.294967,0.746268,0.0,0.026571,-0.780377,0.0927369,0.0993177,-0.165065,-0.848708,0.257229,0.615544,-0.608751,1.7896,-1.72398,0.00458317,418.114,2.1435,0.275782,0.386931,0.128204,0.107116,inf,inf,inf,inf,1,1,1,1,2,0,2,1,5,1,1,0
372379407,43282259,34.0356038,108.7572644,-3.25001,9.43143,-1.79614,-0.294967,0.746268,0.0,0.0885419,-0.783303,0.210161,0.216664,-0.165065,-0.848708,0.257229,3.75873,0.270228,1.27289,-1.72522,0.00458317,418.114,2.12784,0.267148,0.384779,0.124087,0.10563,inf,inf,inf,inf,1,1,1,1,2,0,2,1,5,1,1,0
372478953,43282259,34.0356038,108.7572644,-3.23519,9.35613,-1.77328,-0.294967,0.746268,0.0,0.0837617,-0.743515,0.313246,0.315831,-0.165065,-0.848708,0.257229,-0.32958,-1.7981,3.5132,-1.72901,0.00458317,418.114,2.10498,0.275161,0.386392,0.128035,0.107143,inf,inf,inf,inf,1,1,1,1,2,0,2,1,5,1,1,0
372578047,43282259,34.0356038,108.7572644,-3.21981,9.28834,-1.7461,-0.294967,0.746268,0.0,0.119139,-0.695795,0.409978,0.404132,-0.165065,-0.848708,0.257229,2.44061,-0.91874,2.05216,-1.73006,0.00458317,418.114,2.0778,0.26667,0.384247,0.124227,0.10569,inf,inf,inf,inf,1,1,1,1,2,0,2,1,5,1,1,0
372677368,43282259,34.0356038,108.7572644,-3.20337,9.22369,-1.71306,-0.294967,0.746268,0.0,0.10437,-0.66365,0.515374,0.497847,-0.165065,-0.848708,0.257229,-5.31686,0.955112,1.06368,-1.73148,0.00458317,418.114,2.04476,0.274577,0.385867,0.128252,0.107224,inf,inf,inf,inf,1,1,1,1,2,0,2,1,5,1,1,0
372771723,43282259,34.0356038,108.7572644,-3.18718,9.16442,-1.67224,-0.294967,0.746268,0.0,0.10728,-0.627103,0.604358,0.576902,-0.165065,-0.848708,0.257229,-4.22838,-0.77627,2.56665,-1.73089,0.00458317,418.114,2.00394,0.26542,0.383101,0.124272,0.105587,inf,inf,inf,inf,1,1,1,1,2,0,2,1,5,1,1,0
372880975,43282259,34.0356038,108.7572644,-3.16939,9.10279,-1.61549,-0.294967,0.746268,0.0,0.108268,-0.556176,0.697071,0.659407,-0.165065,-0.848708,0.257229,-1.33979,0.0447549,-0.260601,-1.72752,0.00458317,418.114,1.94719,0.27402,0.385341,0.129002,0.107341,inf,inf,inf,inf,1,1,1,1,2,0,2,1,5,1,1,0
372980376,43282259,34.0356038,108.7572644,-3.15224,9.04716,-1.55148,-0.294967,0.746268,0.0,0.134761,-0.545039,0.803934,0.75971,-0.165065,-0.848708,0.257229,-1.8666,1.30078,-0.505505,-1.72315,0.00458317,418.114,1.88318,0.265706,0.383202,0.12579,0.105932,inf,inf,inf,inf,1,1,1,1,2,0,2,1,5,1,1,0
373079616,43282259,34.0356038,108.7572644,-3.13489,8.99442,-1.4768,-0.294967,0.746268,0.0,0.127314,-0.468637,0.890041,0.840623,-0.165065,-0.848708,0.257229,-0.991162,2.85762,-1.62965,-1.69625,0.00458317,418.114,1.8085,0.273516,0.387193,0.130362,0.107747,inf,inf,inf,inf,1,1,1,1,2,0,2,1,5,1,1,0
373178962,43282259,34.0356038,108.7572644,-3.12097,8.94531,-1.3947,-0.294967,0.746268,0.0,0.116783,-0.43672,0.981156,0.926016,-0.165065,-0.848708,0.257229,-6.73172,0.689854,-0.816813,-1.65868,0.00458317,418.114,1.7264,0.265272,0.38502,0.127141,0.106323,inf,inf,inf,inf,1,1,1,1,2,0,2,1,5,1,1,0
373278406,43282259,34.0356038,108.7572644,-3.10638,8.89755,-1.3036,-0.294967,0.746268,0.0,0.183715,-0.434819,1.05265,0.992498,-0.165065,-0.848708,0.257229,0.982288,0.742398,-1.50984,-1.63068,0.00458317,418.114,1.6353,0.273088,0.386701,0.131946,0.107934,inf,inf,inf,inf,1,1,1,1,2,0,2,1,5,1,1,0
373377577,43282259,34.0356038,108.7572644,-3.07725,8.84413,-1.20868,-0.294967,0.746268,0.0,0.263186,-0.469023,1.11756,1.05063,-0.165065,-0.848708,0.257229,1.51352,-0.708641,0.61618,-1.62121,0.00458317,418.114,1.54038,0.265001,0.384523,0.128734,0.106521,inf,inf,inf,inf,1,1,1,1,2,0,2,1,5,1,1,0
373476899,43282259,34.0356038,108.7572644,-3.04467,8.78978,-1.11427,-0.294967,0.746268,0.0,0.261244,-0.460365,1.04569,0.972684,-0.165065,-0.848708,0.257229,-0.707988,0.55724,-3.30898,-1.61121,0.00458317,418.114,1.44598,0.272863,0.386206,0.133821,0.108153,inf,inf,inf,inf,1,1,1,1,2,0,2,1,5,1,1,0
373581185,43282259,34.0356038,108.7572644,-3.0043,8.73471,-1.02027,-0.294967,0.746268,0.0,0.363589,-0.495992,0.985824,0.909096,-0.165065,-0.848708,0.257229,1.46331,-1.18605,0.151707,-1.59442,0.00458317,418.114,1.35197,0.264726,0.384019,0.130561,0.106735,inf,inf,inf,inf,1,1,1,1,2,0,2,1,5,1,1,0
373680505,43282259,34.0356038,108.7572644,-2.95649,8.68085,-0.937418,-0.294967,0.746268,0.0,0.387359,-0.515984,0.907219,0.827676,-0.165065,-0.848708,0.257229,0.0837251,1.2485,-2.85716,-1.58622,0.00458317,418.114,1.26912,0.272659,0.385719,0.13613,0.108411,inf,inf,inf,inf,1,1,1,1,2,0,2,1,5,1,1,0
373779825,43282259,34.0356038,108.7572644,-2.922,8.62834,-0.866584,-0.294967,0.746268,0.0,0.38154,-0.480602,0.820536,0.734645,-0.165065,-0.848708,0.257229,0.754302,1.99383,-2.14495,-1.57739,0.00458317,418.114,1.19828,0.264534,0.38586,0.133286,0.107262,inf,inf,inf,inf,1,1,1,1,2,0,2,1,5,1,1,0
373879190,43282259,34.0356038,108.7572644,-2.89295,8.57965,-0.805785,-0.294967,0.746268,0.0,0.360594,-0.452117,0.695661,0.603986,-0.165065,-0.848708,0.257229,-4.99375,1.11551,-2.40723,-1.57102,0.00458317,418.114,1.13749,0.272579,0.387611,0.138854,0.108972,inf,inf,inf,inf,1,1,1,1,2,0,2,1,5,1,1,0
373978467,43282259,34.0356038,108.7572644,-2.86368,8.53019,-0.762835,-0.294967,0.746268,0.0,0.366719,-0.414324,0.514525,0.415844,-0.165065,-0.848708,0.257229,3.43574,1.65524,-3.46769,-1.56547,0.00458317,418.114,1.09454,0.264474,0.385381,0.135392,0.107558,inf,inf,inf,inf,1,1,1,1,2,0,2,1,5,1,1,0
374077932,43282259,34.0356038,108.7572644,-2.83442,8.48253,-0.736091,-0.294967,0.746268,0.0,0.326906,-0.39621,0.348124,0.244554,-0.165065,-0.848708,0.257229,-3.90136,-1.50255,0.292508,-1.56388,0.00458317,418.114,1.06779,0.272641,0.387144,0.141309,0.109303,inf,inf,inf,inf,1,1,1,1,2,0,2,1,5,1,1,0
374177109,43282259,34.0356038,108.7572644,-2.80301,8.43851,-0.721728,-0.294967,0.746268,0.0,0.321456,-0.385121,0.179022,0.0756185,-0.165065,-0.848708,0.257229,-0.61018,-0.242605,-1.65993,-1.56398,0.00458317,418.114,1.05343,0.264451,0.384888,0.137712,0.10788,inf,inf,inf,inf,1,1,1,1,2,0,2,1,5,1,1,0
374276428,43282259,34.0356038,108.7572644,-2.76968,8.3925,-0.718601,-0.294967,0.746268,0.0,0.304535,-0.424433,0.019303,-0.0795002,-0.165065,-0.848708,0.257229,-3.15926,-0.169361,-1.9587,-1.56512,0.00458317,418.114,1.0503,0.272752,0.389027,0.143695,0.109878,inf,inf,inf,inf,1,1,1,1,2,0,2,1,5,1,1,0
374375748,43282259,34.0356038,108.7572644,-2.7404,8.34505,-0.723441,-0.294967,0.746268,0.0,0.302753,-0.465543,-0.133079,-0.220202,-0.165065,-0.848708,0.257229,1.78655,-1.50183,-0.427952,-1.56942,0.00458317,418.114,1.05514,0.264597,0.38673,0.139717,0.108437,inf,inf,inf,inf,1,1,1,1,2,0,2,1,5,1,1,0
374475069,43282259,34.0356038,108.7572644,-2.71367,8.29274,-0.739318,-0.294967,0.746268,0.0,0.271174,-0.539407,-0.283878,-0.357147,-0.165065,-0.848708,0.257229,-2.23995,0.198797,-2.79536,-1.57369,0.00458317,418.114,1.07102,0.273045,0.388525,0.145644,0.110205,inf,inf,inf,inf,1,1,1,1,2,0,2,1,5,1,1,0
374574442,43282259,34.0356038,108.7572644,-2.68919,8.23198,-0.764298,-0.294967,0.746268,0.0,0.252845,-0.575071,-0.422567,-0.47818,-0.165065,-0.848708,0.257229,-1.35798,-0.690992,-0.656313,-1.57687,0.00458317,418.114,1.096,0.264699,0.386218,0.141101,0.108716,inf,inf,inf,inf,1,1,1,1,2,0,2,1,5,1,1,0
374678676,43282259,34.0356038,108.7572644,-2.6647,8.16196,-0.802575,-0.294967,0.746268,0.0,0.244752,-0.641804,-0.551491,-0.589134,-0.165065,-0.848708,0.257229,1.79598,-1.67732,0.171606,-1.57808,0.00458317,418.114,1.13428,0.273273,0.388024,0.146985,0.110482,inf,inf,inf,inf,1,1,1,1,2,0,2,1,5,1,1,0
374777991,43282259,34.0356038,108.7572644,-2.64325,8.0929,-0.855861,-0.294967,0.746268,0.0,0.226268,-0.660166,-0.682441,-0.708991,-0.165065,-0.848708,0.257229,0.62397,-0.759927,-1.79614,-1.5806,0.00458317,418.114,1.18756,0.264947,0.385718,0.142264,0.108987,inf,inf,inf,inf,1,1,1,1,2,0,2,1,5,1,1,0
374877395,43282259,34.0356038,108.7572644,-2.62281,8.02354,-0.923935,-0.294967,0.746268,0.0,0.20804,-0.675545,-0.792062,-0.811225,-0.165065,-0.848708,0.257229,-2.68559,-0.987831,-0.259629,-1.58111,0.00458317,418.114,1.25564,0.273654,0.387544,0.148251,0.11077,inf,inf,inf,inf,1,1,1,1,2,0,2,1,5,1,1,0
374981603,43282259,34.0356038,108.7572644,-2.60083,7.94828,-1.00668,-0.294967,0.746268,0.0,0.210728,-0.691396,-0.848552,-0.863345,-0.165065,-0.848708,0.257229,1.35083,0.59179,-0.54267,-1.58276,0.00458317,418.114,1.33839,0.26524,0.38524,0.143208,0.10925,inf,inf,inf,inf,1,1,1,1,2,0,2,1,5,1,1,0
375070993,43282259,34.0356038,108.7572644,-2.58167,7.88157,-1.08141,-0.294967,0.746268,0.0,0.205535,-0.71472,-0.872383,-0.884394,-0.165065,-0.848708,0.257229,0.281556,0.567636,-1.44669,-1.58578,0.00458317,418.114,1.41311,0.27315,0.388803,0.148218,0.111022,inf,inf,inf,inf,1,1,1,1,2,0,2,1,5,1,1,0
375180245,43282259,34.0356038,108.7572644,-2.55645,7.80191,-1.1759,-0.294967,0.746268,0.0,0.197889,-0.751512,-0.898505,-0.907811,-0.165065,-0.848708,0.257229,2.53882,0.483815,-1.92145,-1.59133,0.00458317,418.114,1.5076,0.265648,0.387135,0.143449,0.109691,inf,inf,inf,inf,1,1,1,1,2,0,2,1,5,1,1,0
375279566,43282259,34.0356038,108.7572644,-2.53406,7.72781,-1.26263,-0.294967,0.746268,0.0,0.186523,-0.789407,-0.913835,-0.919779,-0.165065,-0.848708,0.257229,0.709237,0.945639,-2.2004,-1.59829,0.00458317,418.114,1.59433,0.274568,0.389032,0.148692,0.111418,inf,inf,inf,inf,1,1,1,1,2,0,2,1,5,1,1,0
375378885,43282259,34.0356038,108.7572644,-2.5037,7.65018,-1.35404,-0.294967,0.746268,0.0,0.184768,-0.830603,-0.932428,-0.938249,-0.165065,-0.848708,0.257229,4.07444,0.767304,-2.09128,-1.60531,0.00458317,418.114,1.68575,0.26606,0.386685,0.143035,0.10981,inf,inf,inf,inf,1,1,1,1,2,0,2,1,5,1,1,0
375478206,43282259,34.0356038,108.7572644,-2.47398,7.56772,-1.44603,-0.294967,0.746268,0.0,0.149994,-0.886283,-0.944018,-0.948538,-0.165065,-0.848708,0.257229,-1.85855,0.553229,-2.29038,-1.6117,0.00458317,418.114,1.77773,0.275048,0.388583,0.148156,0.111514,inf,inf,inf,inf,1,1,1,1,2,0,2,1,5,1,1,0
375577526,43282259,34.0356038,108.7572644,-2.44759,7.48283,-1.54103,-0.294967,0.746268,0.0,0.130063,-0.945141,-0.940825,-0.946362,-0.165065,-0.848708,0.257229,-4.08359,-0.376804,-0.704369,-1.61474,0.00458317,418.114,1.87274,0.266365,0.386222,0.142363,0.109866,inf,inf,inf,inf,1,1,1,1,2,0,2,1,5,1,1,0
375676890,43282259,34.0356038,108.7572644,-2.42563,7.39347,-1.63597,-0.294967,0.746268,0.0,0.107112,-1.0019,-0.904844,-0.912303,-0.165065,-0.848708,0.257229,-4.94233,-0.996819,0.423819,-1.61588,0.00458317,418.114,1.96768,0.275392,0.388125,0.147424,0.111554,inf,inf,inf,inf,1,1,1,1,2,0,2,1,5,1,1,0
375771208,43282259,34.0356038,108.7572644,-2.40649,7.29893,-1.72378,-0.294967,0.746268,0.0,0.117665,-1.05619,-0.858046,-0.869451,-0.165065,-0.848708,0.257229,0.990627,0.837406,-2.02921,-1.61519,0.00458317,418.114,2.05548,0.265779,0.387467,0.141114,0.109911,inf,inf,inf,inf,1,1,1,1,2,0,2,1,5,1,1,0
375880454,43282259,34.0356038,108.7572644,-2.38766,7.18127,-1.82067,-0.294967,0.746268,0.0,0.0817138,-1.10172,-0.80153,-0.817868,-0.165065,-0.848708,0.257229,-1.00555,-0.248648,-0.640656,-1.6132,0.00458317,418.114,2.15237,0.275698,0.390081,0.146371,0.111793,inf,inf,inf,inf,1,1,1,1,2,0,2,1,5,1,1,0
375979777,43282259,34.0356038,108.7572644,-2.38328,7.07332,-1.90289,-0.294967,0.746268,0.0,0.0817377,-1.15019,-0.727659,-0.747566,-0.165065,-0.848708,0.257229,4.1164,-1.82756,3.35096,-1.60856,0.00458317,418.114,2.23459,0.266965,0.387679,0.140675,0.110113,inf,inf,inf,inf,1,1,1,1,2,0,2,1,5,1,1,0
376079095,43282259,34.0356038,108.7572644,-2.38353,6.96349,-1.97915,-0.294967,0.746268,0.0,0.0529973,-1.14233,-0.703502,-0.726015,-0.165065,-0.848708,0.257229,2.34066,2.89738,-3.08097,-1.60511,0.00458317,418.114,2.31085,0.276028,0.389633,0.145336,0.111763,inf,inf,inf,inf,1,1,1,1,2,0,2,1,5,1,1,0
376178437,43282259,34.0356038,108.7572644,-2.38015,6.85685,-2.05746,-0.294967,0.746268,0.0,0.0250773,-1.13799,-0.702931,-0.731555,-0.165065,-0.848708,0.257229,0.848061,1.3632,-2.59792,-1.60359,0.00458317,418.114,2.38917,0.267249,0.387208,0.139459,0.110047,inf,inf,inf,inf,1,1,1,1,2,0,2,1,5,1,1,0
376277736,43282259,34.0356038,108.7572644,-2.37714,6.75059,-2.1349,-0.294967,0.746268,0.0,-0.00101094,-1.11352,-0.701519,-0.734747,-0.165065,-0.848708,0.257229,1.37412,3.11072,-3.0669,-1.60085,0.00458317,418.114,2.4666,0.276309,0.389147,0.14407,0.111691,inf,inf,inf,inf,1,1,1,1,2,0,2,1,5,1,1,0
376377056,43282259,34.0356038,108.7572644,-2.36993,6.64563,-2.2193,-0.294967,0.746268,0.0,-0.0101561,-1.07532,-0.681554,-0.726615,-0.165065,-0.848708,0.257229,0.006686,0.568215,-0.272733,-1.59684,0.00458317,418.114,2.551,0.2674,0.389093,0.138375,0.110224,inf,inf,inf,inf,1,1,1,1,2,0,2,1,5,1,1,0
376476386,43282259,34.0356038,108.7572644,-2.36122,6.54332,-2.30371,-0.294967,0.746268,0.0,-0.0221284,-1.03765,-0.658766,-0.715488,-0.165065,-0.848708,0.257229,-1.78966,-1.33864,2.09146,-1.59239,0.00458317,418.114,2.63541,0.276449,0.391068,0.142954,0.111868,inf,inf,inf,inf,1,1,1,1,2,0,2,1,5,1,1,0
376580663,43282259,34.0356038,108.7572644,-2.35511,6.43925,-2.39032,-0.294967,0.746268,0.0,-0.0125572,-0.980552,-0.644192,-0.711804,-0.165065,-0.848708,0.257229,-0.022354,-0.55343,0.991614,-1.5888,0.00458317,418.114,2.72202,0.267559,0.388585,0.137242,0.110118,inf,inf,inf,inf,1,1,1,1,2,0,2,1,5,1,1,0
376679985,43282259,34.0356038,108.7572644,-2.35108,6.34402,-2.47133,-0.294967,0.746268,0.0,-0.0289422,-0.936031,-0.639149,-0.715231,-0.165065,-0.848708,0.257229,-2.83157,0.315277,-0.0534012,-1.5862,0.00458317,418.114,2.80303,0.276585,0.390557,0.141683,0.111738,inf,inf,inf,inf,1,1,1,1,2,0,2,1,5,1,1,0
376779464,43282259,34.0356038,108.7572644,-2.34619,6.25445,-2.54888,-0.294967,0.746268,0.0,0.00937551,-0.889176,-0.628157,-0.709102,-0.165065,-0.848708,0.257229,-1.19603,-0.0783093,1.10117,-1.58487,0.00458317,418.114,2.88059,0.267715,0.38808,0.136316,0.11001,inf,inf,inf,inf,1,1,1,1,2,0,2,1,5,1,1,0
376878625,43282259,34.0356038,108.7572644,-2.33785,6.17037,-2.62219,-0.294967,0.746268,0.0,0.068245,-0.850498,-0.615335,-0.697506,-0.165065,-0.848708,0.257229,4.83974,-1.62249,3.26674,-1.58409,0.00458317,418.114,2.95389,0.276721,0.390057,0.140772,0.11162,inf,inf,inf,inf,1,1,1,1,2,0,2,1,5,1,1,0
376977947,43282259,34.0356038,108.7572644,-2.32091,6.08893,-2.69335,-0.294967,0.746268,0.0,0.103676,-0.793301,-0.623473,-0.705247,-0.165065,-0.848708,0.257229,-1.92473,1.47735,-1.67285,-1.58304,0.00458317,418.114,3.02505,0.267841,0.387571,0.135355,0.109867,inf,inf,inf,inf,1,1,1,1,2,0,2,1,5,1,1,0
377077266,43282259,34.0356038,108.7572644,-2.29972,6.01107,-2.76341,-0.294967,0.746268,0.0,0.140355,-0.753859,-0.619265,-0.699892,-0.165065,-0.848708,0.257229,4.2488,0.901998,0.628659,-1.58014,0.00458317,418.114,3.09511,0.276818,0.391978,0.139787,0.111731,inf,inf,inf,inf,1,1,1,1,2,0,2,1,5,1,1,0
377176586,43282259,34.0356038,108.7572644,-2.27329,5.93755,-2.83546,-0.294967,0.746268,0.0,0.200091,-0.71267,-0.585829,-0.669143,-0.165065,-0.848708,0.257229,0.510892,0.256509,0.883851,-1.58057,0.00458317,418.114,3.16716,0.267846,0.389446,0.134492,0.109954,inf,inf,inf,inf,1,1,1,1,2,0,2,1,5,1,1,0
377275935,43282259,34.0356038,108.7572644,-2.24234,5.86747,-2.90426,-0.294967,0.746268,0.0,0.215647,-0.676749,-0.53919,-0.625979,-0.165065,-0.848708,0.257229,0.912087,1.02256,-0.642038,-1.5839,0.00458317,418.114,3.23596,0.276785,0.391447,0.138969,0.111549,inf,inf,inf,inf,1,1,1,1,2,0,2,1,5,1,1,0
377375227,43282259,34.0356038,108.7572644,-2.21338,5.80582,-2.9681,-0.294967,0.746268,0.0,0.207917,-0.632158,-0.482623,-0.572476,-0.165065,-0.848708,0.257229,-0.337636,-0.446968,1.60386,-1.58912,0.00458317,418.114,3.29981,0.267953,0.388924,0.133697,0.109772,inf,inf,inf,inf,1,1,1,1,2,0,2,1,5,1,1,0
377474551,43282259,34.0356038,108.7572644,-2.18621,5.75025,-3.02291,-0.294967,0.746268,0.0,0.203263,-0.584194,-0.429818,-0.518768,-0.165065,-0.848708,0.257229,-1.55508,1.19517,-1.00055,-1.59371,0.00458317,418.114,3.35461,0.276857,0.390917,0.138029,0.111336,inf,inf,inf,inf,1,1,1,1,2,0,2,1,5,1,1,0
377573970,43282259,34.0356038,108.7572644,-2.16121,5.69404,-3.07665,-0.294967,0.746268,0.0,0.21044,-0.550019,-0.358702,-0.452145,-0.165065,-0.848708,0.257229,5.06855,-0.180991,2.11836,-1.5971,0.00458317,418.114,3.40835,0.268027,0.388395,0.132871,0.109559,inf,inf,inf,inf,1,1,1,1,2,0,2,1,5,1,1,0
377678155,43282259,34.0356038,108.7572644,-2.13641,5.63697,-3.12429,-0.294967,0.746268,0.0,0.200296,-0.500501,-0.283964,-0.380766,-0.165065,-0.848708,0.257229,3.19865,1.70607,-0.439598,-1.59985,0.00458317,418.114,3.45599,0.276891,0.390379,0.137117,0.111099,inf,inf,inf,inf,1,1,1,1,2,0,2,1,5,1,1,0
377777475,43282259,34.0356038,108.7572644,-2.1226,5.58507,-3.15913,-0.294967,0.746268,0.0,0.177123,-0.475032,-0.193273,-0.289802,-0.165065,-0.848708,0.257229,-1.32374,0.0163303,2.07328,-1.60162,0.00458317,418.114,3.49083,0.267984,0.387852,0.132093,0.109323,inf,inf,inf,inf,1,1,1,1,2,0,2,1,5,1,1,0
377876825,43282259,34.0356038,108.7572644,-2.11527,5.53618,-3.18193,-0.294967,0.746268,0.0,0.146739,-0.434961,-0.117488,-0.210089,-0.165065,-0.848708,0.257229,-4.10062,1.03508,-1.34629,-1.6031,0.00458317,418.114,3.51363,0.276801,0.392282,0.136324,0.111123,inf,inf,inf,inf,1,1,1,1,2,0,2,1,5,1,1,0
377976116,43282259,34.0356038,108.7572644,-2.10807,5.49206,-3.19206,-0.294967,0.746268,0.0,0.1556,-0.406866,-0.0333389,-0.117984,-0.165065,-0.848708,0.257229,2.65013,-0.405975,2.54977,-1.60236,0.00458317,418.114,3.52376,0.267974,0.389726,0.131263,0.109335,inf,inf,inf,inf,1,1,1,1,2,0,2,1,5,1,1,0
378075437,43282259,34.0356038,108.7572644,-2.1013,5.45249,-3.19213,-0.294967,0.746268,0.0,0.129647,-0.361002,0.00983945,-0.0643828,-0.165065,-0.848708,0.257229,0.607757,1.90373,-1.06072,-1.6027,0.00458317,418.114,3.52383,0.276748,0.391732,0.135426,0.110851,inf,inf,inf,inf,1,1,1,1,2,0,2,1,5,1,1,0
378179723,43282259,34.0356038,108.7572644,-2.09441,5.41247,-3.1872,-0.294967,0.746268,0.0,0.123059,-0.324252,0.0249895,-0.0388916,-0.165065,-0.848708,0.257229,0.732179,1.4267,-2.02019,-1.6023,0.00458317,418.114,3.5189,0.267941,0.38918,0.130618,0.109085,inf,inf,inf,inf,1,1,1,1,2,0,2,1,5,1,1,0
378279045,43282259,34.0356038,108.7572644,-2.08789,5.37609,-3.18063,-0.294967,0.746268,0.0,0.128619,-0.316237,0.0353584,-0.0183769,-0.165065,-0.848708,0.257229,0.780182,-0.0866562,-0.154894,-1.60213,0.00458317,418.114,3.51233,0.276678,0.391172,0.134921,0.110601,inf,inf,inf,inf,1,1,1,1,2,0,2,1,5,1,1,0
378378568,43282259,34.0356038,108.7572644,-2.08037,5.33964,-3.16976,-0.294967,0.746268,0.0,0.146932,-0.316166,0.0370173,-0.00365736,-0.165065,-0.848708,0.257229,1.75418,0.720019,-0.462667,-1.60348,0.00458317,418.114,3.50147,0.267853,0.388633,0.130515,0.10888,inf,inf,inf,inf,1,1,1,1,2,0,2,1,5,1,1,0
378482655,43282259,34.0356038,108.7572644,-2.07082,5.30274,-3.15937,-0.294967,0.746268,0.0,0.15399,-0.329508,0.0331549,0.00369902,-0.165065,-0.848708,0.257229,2.41871,-0.747873,0.200109,-1.60775,0.00458317,418.114,3.49107,0.276573,0.390622,0.134881,0.110394,inf,inf,inf,inf,1,1,1,1,2,0,2,1,5,1,1,0
378572039,43282259,34.0356038,108.7572644,-2.06145,5.26763,-3.14475,-0.294967,0.746268,0.0,0.185507,-0.372524,0.0492169,0.0335789,-0.165065,-0.848708,0.257229,2.80342,-2.24015,3.2165,-1.61195,0.00458317,418.114,3.47645,0.266927,0.389814,0.129962,0.108723,inf,inf,inf,inf,1,1,1,1,2,0,2,1,5,1,1,0
378681292,43282259,34.0356038,108.7572644,-2.04713,5.22037,-3.12412,-0.294967,0.746268,0.0,0.218884,-0.411505,0.0479147,0.049052,-0.165065,-0.848708,0.257229,5.82074,-1.20555,1.92516,-1.6168,0.00458317,418.114,3.45582,0.276482,0.392526,0.134959,0.11046,inf,inf,inf,inf,1,1,1,1,2,0,2,1,5,1,1,0
378770680,43282259,34.0356038,108.7572644,-2.03402,5.17982,-3.10717,-0.294967,0.746268,0.0,0.221889,-0.450112,0.0451998,0.0584153,-0.165065,-0.848708,0.257229,4.27401,-0.155186,0.529891,-1.61986,0.00458317,418.114,3.43887,0.266819,0.389275,0.129918,0.108511,inf,inf,inf,inf,1,1,1,1,2,0,2,1,5,1,1,0
378879933,43282259,34.0356038,108.7572644,-2.01562,5.12765,-3.08671,-0.294967,0.746268,0.0,0.202024,-0.48476,0.0515566,0.0765983,-0.165065,-0.848708,0.257229,-4.81733,-0.379263,-0.404246,-1.62232,0.00458317,418.114,3.41842,0.276356,0.391972,0.134808,0.110217,inf,inf,inf,inf,1,1,1,1,2,0,2,1,5,1,1,0
378979292,43282259,34.0356038,108.7572644,-2.00055,5.07555,-3.0696,-0.294967,0.746268,0.0,0.213719,-0.52391,0.0591257,0.091306,-0.165065,-0.848708,0.257229,-0.843977,-1.31639,0.992617,-1.6192,0.00458317,418.114,3.4013,0.267642,0.389412,0.130408,0.108497,inf,inf,inf,inf,1,1,1,1,2,0,2,1,5,1,1,0
379078574,43282259,34.0356038,108.7572644,-1.9855,5.01985,-3.05403,-0.294967,0.746268,0.0,0.209251,-0.547099,0.0556578,0.09244,-0.165065,-0.848708,0.257229,-0.944259,1.10268,-3.20197,-1.6142,0.00458317,418.114,3.38573,0.276333,0.391407,0.13481,0.109977,inf,inf,inf,inf,1,1,1,1,2,0,2,1,5,1,1,0
379177943,43282259,34.0356038,108.7572644,-1.97027,4.95954,-3.03762,-0.294967,0.746268,0.0,0.219249,-0.586284,0.0682005,0.109943,-0.165065,-0.848708,0.257229,2.47982,-0.504902,1.29135,-1.60786,0.00458317,418.114,3.36932,0.267572,0.388837,0.130353,0.108247,inf,inf,inf,inf,1,1,1,1,2,0,2,1,5,1,1,0
379272249,43282259,34.0356038,108.7572644,-1.9545,4.89906,-3.02372,-0.294967,0.746268,0.0,0.212271,-0.629176,0.0747655,0.119224,-0.165065,-0.848708,0.257229,-5.20304,-2.79303,2.67044,-1.6038,0.00458317,418.114,3.35542,0.275361,0.392587,0.134404,0.109797,inf,inf,inf,inf,1,1,1,1,2,0,2,1,5,1,1,0
379381504,43282259,34.0356038,108.7572644,-1.93562,4.82596,-3.00205,-0.294967,0.746268,0.0,0.220585,-0.667863,0.0782128,0.129886,-0.165065,-0.848708,0.257229,-2.48683,0.851654,-1.79298,-1.59848,0.00458317,418.114,3.33375,0.267504,0.390681,0.130416,0.108265,inf,inf,inf,inf,1,1,1,1,2,0,2,1,5,1,1,0
379471106,43282259,34.0356038,108.7572644,-1.92007,4.76334,-2.98084,-0.294967,0.746268,0.0,0.231127,-0.710663,0.100787,0.159457,-0.165065,-0.848708,0.257229,1.29518,-1.72647,2.5381,-1.59296,0.00458317,418.114,3.31254,0.27529,0.392003,0.134588,0.109545,inf,inf,inf,inf,1,1,1,1,2,0,2,1,5,1,1,0
379580142,43282259,34.0356038,108.7572644,-1.90093,4.68323,-2.9566,-0.294967,0.746268,0.0,0.230114,-0.756186,0.108473,0.171591,-0.165065,-0.848708,0.257229,-2.09507,-0.342891,-0.712759,-1.58584,0.00458317,418.114,3.2883,0.267497,0.390119,0.130693,0.108038,inf,inf,inf,inf,1,1,1,1,2,0,2,1,5,1,1,0
379679463,43282259,34.0356038,108.7572644,-1.88287,4.60688,-2.93619,-0.294967,0.746268,0.0,0.238867,-0.780445,0.115184,0.179195,-0.165065,-0.848708,0.257229,2.44469,1.17313,-1.26943,-1.57631,0.00458317,418.114,3.2679,0.276175,0.392111,0.135165,0.109487,inf,inf,inf,inf,1,1,1,1,2,0,2,1,5,1,1,0
379778787,43282259,34.0356038,108.7572644,-1.86297,4.52796,-2.91705,-0.294967,0.746268,0.0,0.22651,-0.815937,0.133548,0.195948,-0.165065,-0.848708,0.257229,1.40706,-1.04729,0.572285,-1.56936,0.00458317,418.114,3.24875,0.26749,0.389538,0.130786,0.107785,inf,inf,inf,inf,1,1,1,1,2,0,2,1,5,1,1,0
379878103,43282259,34.0356038,108.7572644,-1.8427,4.44663,-2.89855,-0.294967,0.746268,0.0,0.205408,-0.837956,0.149411,0.208292,-0.165065,-0.848708,0.257229,-5.02999,-1.08613,0.452946,-1.56555,0.00458317,418.114,3.23025,0.276171,0.391514,0.135347,0.109227,inf,inf,inf,inf,1,1,1,1,2,0,2,1,5,1,1,0
379977531,43282259,34.0356038,108.7572644,-1.82844,4.36088,-2.87719,-0.294967,0.746268,0.0,0.198557,-0.86377,0.151671,0.209486,-0.165065,-0.848708,0.257229,-0.471765,0.550668,-1.59261,-1.56318,0.00458317,418.114,3.20889,0.267368,0.388942,0.130835,0.107517,inf,inf,inf,inf,1,1,1,1,2,0,2,1,5,1,1,0
380076746,43282259,34.0356038,108.7572644,-1.81807,4.27226,-2.85514,-0.294967,0.746268,0.0,0.190914,-0.881418,0.163885,0.220696,-0.165065,-0.848708,0.257229,5.48896,1.08857,-1.00954,-1.56258,0.00458317,418.114,3.18685,0.276042,0.393369,0.135333,0.109222,inf,inf,inf,inf,1,1,1,1,2,0,2,1,5,1,1,0
380176065,43282259,34.0356038,108.7572644,-1.807,4.18248,-2.83053,-0.294967,0.746268,0.0,0.166601,-0.908496,0.183791,0.241133,-0.165065,-0.848708,0.257229,-0.930376,0.684147,-0.174898,-1.56437,0.00458317,418.114,3.16223,0.267257,0.390757,0.13089,0.107514,inf,inf,inf,inf,1,1,1,1,2,0,2,1,5,1,1,0
380275530,43282259,34.0356038,108.7572644,-1.79557,4.09088,-2.80486,-0.294967,0.746268,0.0,0.140092,-0.929041,0.196062,0.252941,-0.165065,-0.848708,0.257229,-1.38988,0.610332,-1.67327,-1.56608,0.00458317,418.114,3.13656,0.275928,0.392733,0.13547,0.108942,inf,inf,inf,inf,1,1,1,1,2,0,2,1,5,1,1,0
380374706,43282259,34.0356038,108.7572644,-1.78309,3.99587,-2.77844,-0.294967,0.746268,0.0,0.152205,-0.963375,0.227358,0.282679,-0.165065,-0.848708,0.257229,6.48174,0.0158615,0.517909,-1.56751,0.00458317,418.114,3.11014,0.267128,0.390132,0.130977,0.107241,inf,inf,inf,inf,1,1,1,1,2,0,2,1,5,1,1,0
380474074,43282259,34.0356038,108.7572644,-1.76963,3.89664,-2.75198,-0.294967,0.746268,0.0,0.142478,-0.995289,0.253242,0.30473,-0.165065,-0.848708,0.257229,1.24455,0.367424,0.630786,-1.5715,0.00458317,418.114,3.08369,0.275796,0.392089,0.135465,0.108648,inf,inf,inf,inf,1,1,1,1,2,0,2,1,5,1,1,0
380578316,43282259,34.0356038,108.7572644,-1.75538,3.78717,-2.72476,-0.294967,0.746268,0.0,0.124381,-1.03948,0.28401,0.329196,-0.165065,-0.848708,0.257229,0.666019,-2.72066,3.62825,-1.57584,0.00458317,418.114,3.05646,0.267014,0.391925,0.130997,0.107227,inf,inf,inf,inf,1,1,1,1,2,0,2,1,5,1,1,0
380677635,43282259,34.0356038,108.7572644,-1.74109,3.67839,-2.69602,-0.294967,0.746268,0.0,0.122534,-1.06821,0.28898,0.329558,-0.165065,-0.848708,0.257229,-1.39182,0.270435,-0.872232,-1.57951,0.00458317,418.114,3.02772,0.275679,0.393891,0.135496,0.10863,inf,inf,inf,inf,1,1,1,1,2,0,2,1,5,1,1,0
380776988,43282259,34.0356038,108.7572644,-1.7203,3.56815,-2.67164,-0.294967,0.746268,0.0,0.131006,-1.10713,0.315739,0.345862,-0.165065,-0.848708,0.257229,0.584337,-1.04707,1.99592,-1.58308,0.00458317,418.114,3.00334,0.26691,0.391249,0.131172,0.106949,inf,inf,inf,inf,1,1,1,1,2,0,2,1,5,1,1,0
380876289,43282259,34.0356038,108.7572644,-1.69726,3.45597,-2.6471,-0.294967,0.746268,0.0,0.123757,-1.13694,0.325527,0.345021,-0.165065,-0.848708,0.257229,-2.689,0.587086,-1.68203,-1.58657,0.00458317,418.114,2.9788,0.275581,0.393195,0.135711,0.108342,inf,inf,inf,inf,1,1,1,1,2,0,2,1,5,1,1,0
380975595,43282259,34.0356038,108.7572644,-1.67996,3.34036,-2.62205,-0.294967,0.746268,0.0,0.133336,-1.1695,0.348526,0.357375,-0.165065,-0.848708,0.257229,0.30812,-1.49019,2.25516,-1.5903,0.00458317,418.114,2.95375,0.266828,0.390568,0.13125,0.106663,inf,inf,inf,inf,1,1,1,1,2,0,2,1,5,1,1,0
