timestamp,timestamp_sample,xyz[0],xyz[1],xyz[2]
361180020,361179789,0.00915054,-0.00418318,-0.0225301
361181266,361181025,0.00902624,-0.00679421,-0.0271883
361202376,361202147,-0.00335078,-0.0119199,-0.017235
361219745,361219510,-0.00301507,0.00168771,0.0372943
361240854,361240615,-0.00565574,0.00264612,0.0348668
361261967,361261724,-0.0137836,-0.00777516,-0.0104479
361321585,361321357,-0.00127121,0.00601225,0.0372547
361342645,361342419,0.0133267,0.0195522,-0.00484871
361360029,361359799,0.0287183,0.00193926,-0.0776242
361381140,361380911,-0.032705,0.0302346,0.0875769
361402251,361402012,0.0864997,-0.0174025,-0.0321649
361419740,361419509,-0.0245461,0.0152409,0.0384446
361440907,361440675,0.033366,-0.00621571,-0.0439245
361461827,361461603,-0.00278712,0.0149958,-0.0282906
361479224,361478987,0.0259524,-0.0021147,0.0873615
361500325,361500091,-0.0208089,-0.00563127,-0.0997188
361521428,361521200,-0.0022526,0.00116068,0.00360884
361540051,361539820,0.00508283,0.020683,0.0504994
361559912,361559682,0.00409082,-0.0417478,-0.0321166
361581014,361580788,-0.0197892,0.0094342,-0.0174823
361602121,361601893,0.0214835,0.0194888,0.0181049
361623235,361622999,-0.00644336,-0.0341495,0.0150285
361640605,361640380,-0.00101292,0.0157357,0.000511392
361661709,361661486,0.0214348,0.0306159,-0.0285883
361682861,361682626,-0.0128674,-0.0498428,0.0213739
361700393,361700162,0.0141827,0.0240157,0.00574857
361721312,361721078,0.0209955,0.0293641,-0.0244936
361741165,361740942,-0.0128785,-0.0542062,0.01273
361762281,361762048,-0.0249265,-0.00149764,0.0106183
361780898,361780670,0.0444879,0.049592,-0.0141241
361800760,361800534,-0.0137998,-0.038467,0.0201576
361821894,361821666,-0.0239923,-0.0143064,0.00252354
361839246,361839021,0.0399578,0.0293954,-0.0183465
361860353,361860126,0.00131508,-0.024427,0.0190871
361881464,361881232,-0.0338683,-0.00771208,-0.000898067
361902566,361902338,0.00753972,0.0494339,-0.00599819
361919947,361919719,0.0180892,-0.0392168,0.00690841
361941052,361940824,-0.0267691,-0.0385091,-0.007665
361962249,361962015,-0.0141812,0.0386485,-0.00361863
361979714,361979488,0.0219347,-0.00625802,0.0136019
362000653,362000420,-0.00676429,-0.0358226,-0.0221938
362021749,362021522,-0.0163137,0.0102076,-0.0298317
362042855,362042628,0.00870675,0.0322614,0.036362
362060285,362060057,-0.00133341,-0.028364,-0.00217511
362081340,362081114,0.00294272,-0.0206738,-0.072907
362102447,362102221,0.0125634,0.019887,-0.0141018
362119829,362119602,-0.0142027,0.00663206,0.0662156
362140937,362140707,-0.0188218,-0.0241479,-0.0461238
362162048,362161814,0.0118437,-0.0151581,-0.0815549
362183156,362182920,0.0307606,0.00125931,0.0292022
362200533,362200306,-0.0314929,0.0201973,0.0422987
362221668,362221443,-0.0276616,-0.000690195,-0.0753721
362241624,362241399,0.0255772,-0.033049,-0.0306503
362260115,362259891,0.0207683,-0.00452397,0.0761281
362281226,362280998,-0.0245529,0.0306444,0.000398915
362302341,362302103,-0.0325421,0.0366984,-0.0620772
362322192,362321966,0.00816894,-0.0234428,0.0163468
362340824,362340589,0.0305317,-0.0416605,0.0432608
362360692,362360453,-0.0245127,0.0383308,-0.0516385
362381789,362381559,-0.0238632,0.054979,-0.0319996
362399173,362398941,0.014722,-0.0439506,0.0602222
362420270,362420045,0.022395,-0.0463518,-0.0115877
362441376,362441152,0.0104909,0.00477288,-0.0537579
362462503,362462268,-0.0180776,0.0515072,0.0147493
362479870,362479640,-0.0177197,-0.00626763,0.0327711
362501051,362500828,0.0335857,-0.0688621,-0.0511011
362522269,362522037,0.0357682,-0.0581049,-0.0329746
362539462,362539230,-0.0387544,0.0932361,0.0583795
362560564,362560336,-0.0186853,0.0460056,-0.00137273
362581675,362581441,0.0281102,-0.0777501,-0.0596129
362602794,362602563,0.047931,-0.118565,-0.0189943
362620155,362619929,-0.0369786,0.130414,0.059256
362641262,362641034,-0.0352049,0.117122,-0.0054944
362662367,362662139,0.0035468,-0.0654381,-0.0572662
362679744,362679520,0.0289541,-0.122709,0.0228578
362700855,362700626,-0.0149667,0.0959691,0.0551996
362721994,362721768,-0.047841,0.290871,0.0582873
362743063,362742838,0.0312015,0.336617,0.0610415
362760551,362760323,0.0245447,0.0869346,0.0324154
362781701,362781475,0.0463611,0.0312486,0.0530505
362802654,362802429,0.115733,-0.0235873,0.0241191
362820039,362819812,0.119199,-0.0697415,0.0224287
362841155,362840924,-0.047768,0.0436596,-0.00887594
362862257,362862029,-0.0453454,0.0186563,0.0149311
362879628,362879400,0.0513068,-0.104045,1.78083e-05
362900736,362900510,0.0195581,-0.0181004,-0.00403531
362921849,362921614,-0.104774,0.0202286,0.0123818
362941707,362941480,0.142741,-0.0597916,-0.0140048
362960334,362960101,0.0697222,0.0394675,-0.0117175
362981438,362981208,-0.0259618,0.00895331,-0.0245037
363001296,363001070,0.0464839,-0.0800405,-0.0111861
363022431,363022205,-0.11265,0.037742,0.0348366
363039937,363039700,0.00682972,-0.0509825,0.0271034
363061087,363060863,-0.054917,0.0463217,-0.022011
363082005,363081768,0.000457825,-0.00587633,0.0129241
363099380,363099150,0.0789856,-0.02221,-0.00492369
363120481,363120255,-0.0649399,0.0370367,0.0092895
363141585,363141360,0.0512354,-0.032182,-0.0160944
363162695,363162466,-0.0447262,0.0202002,0.0377968
363180108,363179882,0.0522616,-0.0546469,-0.000808228
363201178,363200953,-0.0828319,0.0577477,0.00855385
363222296,363222063,0.0220748,-0.0293724,-0.0117408
363239666,363239440,-0.0148079,0.0300621,0.00368454
363260768,363260545,0.011315,-0.0125758,-0.0154564
363281880,363281652,-0.0363838,-0.00932115,0.0151083
363303045,363302819,0.0181733,0.0419801,-0.00331314
363320504,363320278,-0.0195588,-0.0143257,0.0157632
363342728,363342486,-0.0315464,0.0179277,0.0152032
363362581,363362352,0.0218775,-0.0319964,-0.0195409
363379994,363379769,0.0270622,0.0314709,-0.00889056
363401066,363400835,-0.00552585,-0.0111038,-0.0107839
363422171,363421941,-0.0126368,0.0406941,-0.0256468
363443276,363443048,0.0321415,0.0167969,0.00315738
363460663,363460428,-0.000705515,0.0268416,-0.022037
363481766,363481535,0.0380871,-0.00170538,-0.0135519
363502865,363502638,-0.0540843,0.0547584,-0.00506497
363520255,363520023,0.0500652,0.00615627,-0.049376
363541360,363541128,-0.0238997,0.118057,-0.0469377
363561250,363561016,-0.0586016,0.0346693,-0.0233157
363582435,363582210,-0.055204,0.0781207,0.0312602
363599898,363599670,0.00424395,-0.00576839,0.0284394
363620815,363620584,-0.136378,0.135885,0.0420216
363641921,363641687,0.0227237,-0.0355494,0.0131852
363659295,363659068,0.0255166,0.0636145,-0.0214161
363680405,363680176,0.0046192,0.0038264,-0.0336525
363701506,363701280,-0.0202242,0.0142642,0.00608623
363720138,363719904,0.00182284,0.0640524,0.0407703
363740006,363739775,-0.00641602,0.0443776,0.0524071
363761097,363760873,-0.0687495,-0.00578149,0.0443716
363782207,363781977,-0.0561915,0.0139931,0.0377528
363799588,363799360,-0.000606632,0.0283443,0.0131801
363820691,363820465,0.0205428,-0.0028793,0.0235532
363841937,363841708,0.0359907,-0.0158528,0.0279359
363863071,363862838,0.0579383,-0.0322655,0.05405
363880282,363880056,-0.00214121,-0.0281721,0.0644252
363901391,363901162,-0.0428145,-0.0628324,0.0613659
363923749,363923513,-0.0553217,-0.0361532,0.0686285
363939875,363939648,0.022409,-0.00805265,0.0408178
363960977,363960754,-0.0299736,0.0149403,0.028513
363982088,363981860,-0.0254292,0.0401909,-0.00413096
364003203,364002967,-0.0647029,0.0577255,-0.00831976
364020572,364020346,-0.0126184,0.0632941,-0.0236786
364041703,364041473,0.016802,0.0583443,0.0251198
364062787,364062558,0.0361404,0.0246758,0.0521746
364080213,364079983,-0.0215506,0.0359354,0.0762793
364102553,364102317,-0.0275341,0.02319,0.0889595
364121265,364121033,-0.0106536,0.0240365,0.126382
364142246,364142015,0.0143687,0.017508,0.102482
364162117,364161882,0.00153836,0.0145069,0.0261734
364180732,364180501,-0.0523614,0.0271386,0.033283
364201880,364201653,-0.0530703,0.0476336,0.0688018
364219217,364218989,0.00789874,0.000175738,0.0439162
364240325,364240093,0.0202567,0.0335059,0.0274717
364261427,364261198,0.00179378,0.0165546,0.0219629
364282533,364282306,0.0884735,-2.12828e-05,0.0138951
364299916,364299687,0.0199581,-0.00719964,0.0176253
364321022,364320792,-0.0105282,-0.0358443,0.0096601
364342138,364341897,0.00989514,-0.0411695,0.0268933
364359547,364359317,0.0474514,-0.0829945,0.02785
364380732,364380504,-0.00336745,-0.0831558,0.0236187
364401882,364401658,-0.0143666,-0.0621626,0.0351671
364419098,364418870,0.00013009,-0.0590164,0.0699786
364440214,364439976,0.0175015,-0.0669019,0.0311139
364461310,364461083,-0.0467982,-0.00718607,0.0219494
364482421,364482188,-0.00233523,-0.0532013,0.010732
364499847,364499613,0.0477053,-0.0472843,0.00752074
364520900,364520673,0.0771841,-0.0308385,0.0172367
364539526,364539298,-0.0526998,-0.0535881,0.0361663
364563116,364562885,-0.0803225,-0.00415529,0.0624913
364580492,364580266,-0.000590825,0.0256344,0.012565
364601597,364601371,0.0488951,-0.0146095,-0.0176679
364622709,364622478,0.00794109,-0.00378859,0.00143378
364640106,364639881,-0.0464247,0.0138556,0.0353836
364661323,364661089,0.0307591,0.0530127,0.0489339
364682307,364682069,-0.0805211,0.0656874,0.0511537
364702160,364701933,-0.10186,0.0686724,0.0365279
364720786,364720556,0.00914597,0.0374827,-0.00778739
364741895,364741662,0.00302799,0.0692321,-0.00331811
364761755,364761525,0.0375361,0.0544588,0.00385718
364780421,364780186,0.0747649,0.00441605,0.0104156
364800242,364800012,-0.0202914,0.0199007,0.0695455
364821352,364821125,-0.166957,0.0393188,0.0804374
364842452,364842223,-0.0929822,0.0565441,0.076781
364859835,364859605,-0.018417,0.0857434,0.0117182
364880947,364880710,0.000145469,0.0863078,0.024594
364902057,364901826,-0.0358736,0.0750031,0.0284944
364919499,364919268,0.0271197,0.0435755,-0.0010895
364940716,364940478,0.00436254,0.0906726,-0.00865783
364961641,364961408,-0.0511145,0.149972,-0.0179872
364982739,364982514,-0.113395,0.161894,-0.00757509
365000126,364999896,-0.118709,0.0993788,-0.0767373
365021236,365021000,-0.0888439,0.105735,-0.0876519
365042332,365042106,-0.0694919,0.164139,-0.0955163
365059715,365059487,0.000988383,0.168273,-0.0564393
365080822,365080594,0.00465847,0.0693556,-0.0509898
365101927,365101698,-0.0436653,-0.0182702,-0.0614988
365123030,365122804,-0.0253054,-0.0636199,-0.0861703
365140416,365140185,-0.0920401,-0.129485,-0.0915706
365161570,365161346,0.00666134,-0.161123,-0.0995237
365182666,365182441,0.035474,-0.194338,-0.107474
365200130,365199900,0.137983,-0.131337,-0.159804
365221110,365220882,0.145147,-0.0450023,-0.173296
365242257,365242032,0.145096,-0.0463367,-0.186689
365263332,365263094,0.128959,0.0119149,-0.201352
365280699,365280475,0.109982,-0.0167691,-0.167662
365301817,365301583,-0.0219105,-0.0426879,-0.16593
365321676,365321445,0.0567254,0.0212312,-0.182451
365340293,365340068,0.0518833,0.0134727,-0.172982
365360159,365359931,0.0329393,0.0179502,-0.166694
365381259,365381036,-0.0511834,-0.0989303,-0.15566
365402373,365402143,-0.0302436,-0.162811,-0.154577
365419752,365419524,-0.0440254,-0.126099,-0.122684
365440894,365440670,0.0717732,-0.0852753,-0.129249
365462104,365461873,0.172888,-0.0642351,-0.158948
365479525,365479300,0.141262,-0.107239,-0.158671
365500456,365500223,-0.0100641,0.0262155,-0.163268
365521568,365521340,0.000251085,0.0324913,-0.144316
365542665,365542434,-0.0538328,0.101578,-0.0947779
365560039,365559814,-0.020892,0.0362845,-0.106358
365581151,365580919,-0.0144253,0.00277269,-0.0832132
365602265,365602032,-0.0722133,-0.0645939,-0.0593953
365619631,365619407,-0.0946067,-0.113917,-0.107156
365640736,365640508,-0.110766,-0.139953,-0.0595663
365661858,365661622,-0.0620904,-0.148555,-0.0672279
365682949,365682723,-0.0811975,-0.197898,-0.074442
365700338,365700105,-0.0303185,-0.262385,-0.0713709
365721493,365721264,0.0651607,-0.39024,-0.0761633
365742682,365742458,0.156713,-0.455085,-0.0786491
365759983,365759755,0.118023,-0.517141,-0.0401495
365781030,365780804,0.151276,-0.608474,-0.0495954
365802136,365801909,0.0604216,-0.542323,-0.0389278
365819520,365819289,0.103863,-0.435298,-0.0952124
365840626,365840396,0.0562006,-0.457464,-0.0541291
365861724,365861501,-0.0849489,-0.498478,-0.0268343
365879160,365878929,-0.0765906,-0.404536,-0.018817
365900222,365899987,0.000625197,-0.355834,-0.0139527
365921326,365921092,0.0952098,-0.390378,0.0068198
365941237,365941005,0.0696362,-0.357684,-0.0115928
365962287,365962062,0.172437,-0.332413,-0.0272115
365980925,365980691,0.201538,-0.27136,-0.0388809
366000872,366000646,0.178541,-0.139644,-0.0193331
366021880,366021657,-0.00571314,-0.0686049,-0.0210841
366039268,366039037,-0.0564051,0.0229537,0.000277403
366060369,366060141,-0.0721304,-0.0112128,0.00148974
366081484,366081248,-0.0147221,0.0167392,0.0199431
366102584,366102353,-0.00260912,0.0450629,0.036266
366119966,366119734,0.0428439,-0.0169869,0.00207137
366141062,366140838,0.0417807,-0.0799365,0.03846
366162180,366161951,0.0838822,-0.0996679,0.0588846
366179553,366179326,0.0889443,-0.0689164,0.03676
366200658,366200431,0.126134,-0.0471492,0.0506243
366221770,366221542,0.122486,-0.043197,0.0755125
366242885,366242659,0.0803237,-0.0456454,0.0803832
366260306,366260077,0.0515065,-0.0616817,0.090138
366281523,366281288,-0.104766,-0.0259088,0.11063
366302470,366302236,-0.146958,-0.0342582,0.0939582
366319845,366319616,-0.155159,0.00210044,0.0945433
366342201,366341964,0.0458235,-0.000304484,0.0885546
366362062,366361830,0.0440236,0.0434889,0.0907079
366383170,366382932,0.0812557,0.0625194,0.0918145
366400549,366400314,0.0506002,0.0758105,0.096516
366421647,366421419,0.0928325,0.0113728,0.0980504
366442749,366442525,0.0924814,-0.033785,0.0990367
366461391,366461151,0.176114,-0.0360318,0.108094
366481246,366481012,0.220056,-0.0448439,0.0995417
366502354,366502118,0.24088,-0.00912886,0.107608
366519763,366519534,0.167932,-0.0153948,0.10719
366539721,366539485,0.128396,0.0471377,0.111615
366560707,366560473,0.141315,0.0153742,0.106153
366580570,366580334,0.208097,-0.0140723,0.0780762
366599188,366598956,0.280191,0.0116845,0.056599
366620296,366620064,0.195983,0.0141374,0.0654994
366641392,366641167,0.18754,0.00482843,0.0887656
366662499,366662272,0.145723,-0.0901059,0.0779099
366679897,366679666,0.0830724,-0.138872,0.0742135
366700985,366700758,0.0800283,-0.0774802,0.0518819
366722091,366721865,-0.125829,-0.66496,0.275074
366739481,366739246,-0.49005,-1.23057,1.26293
366760575,366760351,-0.894279,-0.441378,1.16592
366781680,366781456,0.257259,-1.32604,1.04913
366802960,366802731,0.38617,0.094748,0.839909
366820324,366820097,0.590351,0.771563,0.738723
366841275,366841048,0.51515,1.4945,0.53918
366862389,366862156,0.108341,1.45512,0.454144
366879760,366879535,-0.0861204,1.3537,0.418461
366900865,366900640,-0.548871,1.40433,0.319523
366922016,366921786,-0.773745,1.19431,0.310194
366943101,366942855,-0.998014,1.10932,0.264147
366960464,366960237,-0.859682,0.787557,0.202531
366981567,366981338,-0.664259,0.676251,0.157944
367002673,367002444,-0.372193,0.430685,0.122124
367020057,367019825,-0.0977273,0.293274,0.0731966
367041213,367040979,0.228793,0.122546,0.0164212
367062363,367062116,0.330529,0.00404042,-0.0204903
367082288,367082059,0.383655,0.00109086,-0.0238111
367100756,367100523,0.286657,-0.096901,-0.00337392
367121868,367121629,0.206978,-0.100621,-0.0390411
367141729,367141498,0.150359,-0.0709994,-0.115073
367160358,367160116,-0.0319103,0.0249424,-0.10642
367180218,367179982,-0.0880103,0.0881233,-0.129131
367201320,367201086,-0.126808,0.200847,-0.170466
367222423,367222191,-0.131647,0.194709,-0.212787
367239799,367239571,-0.000540184,0.184583,-0.245952
367260912,367260679,-0.0731027,0.224847,-0.220039
367282010,367281783,-0.0584796,0.148787,-0.197056
367299394,367299164,-0.00306333,0.106621,-0.255733
367320601,367320370,0.0903406,0.0331793,-0.247094
367341670,367341445,0.0890308,0.00622954,-0.242552
367362880,367362655,0.106468,-0.00129793,-0.233668
367380102,367379869,0.0384438,0.0406305,-0.227291
367401201,367400969,0.0291807,-0.00454444,-0.237064
367422298,367422074,-0.036525,-0.0174861,-0.241272
367439689,367439454,0.0688155,0.00488016,-0.26174
367460785,367460562,0.0292491,-0.00387551,-0.261009
367481891,367481665,0.0178969,0.00624536,-0.247558
367503042,367502813,0.00467056,0.0144974,-0.240493
367520378,367520152,-0.0466585,0.00648095,-0.222032
367541486,367541259,-0.0177024,0.0608128,-0.219571
367562600,367562363,0.00719855,0.0472235,-0.230817
367579968,367579744,0.0623302,0.0134021,-0.234413
367601107,367600882,0.12172,-0.0307603,-0.228516
367622322,367622084,0.206596,-0.0273774,-0.222462
367643288,367643061,0.286533,-0.0311967,-0.216115
367660666,367660442,0.29302,-0.0141902,-0.17335
367681778,367681547,0.352393,-0.033796,-0.163429
367702883,367702654,0.348806,-0.0105842,-0.162823
367720263,367720034,0.358249,-0.022501,-0.207299
367741375,367741140,0.291298,0.0110017,-0.180192
367761242,367761006,0.202087,0.00855809,-0.196555
367782341,367782113,0.192125,-0.0211934,-0.179819
367799715,367799491,0.144893,0.00383494,-0.145677
367820826,367820596,0.179727,-0.0112289,-0.145179
367841935,367841703,0.221616,-0.0422201,-0.131487
367859337,367859105,0.182261,-0.031251,-0.094531
367880493,367880262,0.28773,-0.0227341,-0.0938298
367901710,367901479,0.321531,0.0114805,-0.0880408
367922625,367922400,0.388427,0.0162774,-0.0749625
367940011,367939780,0.397521,0.00095446,-0.133792
367961114,367960888,0.342363,0.0130945,-0.127244
367982227,367981993,0.187902,0.0455789,-0.111929
367999601,367999373,0.0980175,0.0415592,-0.119424
368020713,368020480,-0.0824521,0.0604966,-0.109646
368041812,368041586,-0.203378,0.022679,-0.0907346
368060459,368060224,-0.224991,0.0199443,-0.082812
368080304,368080073,-0.165709,0.00375914,-0.0835843
368101404,368101177,-0.089478,-0.0527568,-0.0774947
368122566,368122341,-0.0258102,-0.0345328,-0.0798224
368139928,368139698,0.02813,-0.00586023,-0.0526041
368161130,368160898,-0.00123622,-0.0160717,-0.0482174
368182116,368181887,-0.0616474,-0.0334991,-0.0455777
368203220,368202984,-0.189277,-0.0405178,-0.0384129
368220588,368220361,-0.307116,-0.042021,-0.0231085
368241692,368241467,-0.471117,-0.0669567,-0.0169432
368262814,368262573,-0.591821,-0.0633801,-0.00842058
368280182,368279953,-0.633827,-0.0650581,-0.0200004
368301289,368301062,-0.601127,-0.0176349,-0.0224963
368322399,368322165,-0.476333,-0.0136847,-0.0273833
368342260,368342029,-0.31692,0.0108253,-0.0392581
368360876,368360648,-0.190855,0.0142173,-0.011626
368380751,368380516,-0.0443493,0.0168664,0.00174342
368401895,368401666,0.0231178,0.00698365,0.00715129
368419302,368419077,0.0393547,-0.0235169,0.00553007
368440523,368440291,0.0174164,-0.0380294,0.00906899
368461458,368461218,-0.0458618,-0.105184,0.0105939
368482557,368482331,-0.0838803,-0.081748,0.0128635
368499925,368499700,-0.164293,-0.0718668,0.0167909
368521065,368520836,-0.165996,-0.0192067,0.019377
368542147,368541914,-0.133157,0.00804313,0.0200309
368559516,368559292,-0.0972185,0.000219396,-0.00361068
368580629,368580398,-0.0694087,0.0294986,-0.0118977
368601731,368601504,-0.0165878,0.0294864,-0.00364797
368622834,368622609,0.008404,0.0516811,-0.00820413
368640233,368639996,0.0333586,0.0172077,-0.00189053
368661336,368661097,0.0519154,-0.0287786,-0.0100116
368682481,368682254,0.062969,-0.027611,-0.0135186
368699947,368699714,0.0162422,-0.00433618,0.0164508
368720957,368720731,-0.00546631,-0.0435725,0.0109756
368742024,368741794,-0.0165815,-0.045502,0.00764514
368759405,368759175,-0.0155804,-0.0246134,0.0137279
368780517,368780283,-0.0481403,0.00586294,0.023299
368801612,368801386,-0.0512521,0.0220124,0.0225848
368820254,368820013,-0.00928346,0.0187992,0.00477552
368840109,368839878,0.00857971,9.05781e-05,-0.00616969
368861221,368860979,0.0455396,-0.0341533,0.00959469
368882324,368882085,0.0495136,-0.0394254,0.0090439
368902178,368901951,0.120248,-0.0510905,-0.00476022
368920809,368920571,0.228079,-0.0651828,-0.0287789
368940660,368940436,0.33701,-0.0389032,-0.0157156
368961858,368961635,0.467262,-0.0655406,-0.0322867
368979393,368979166,0.506851,-0.0110064,0.00299921
369000254,369000025,0.587729,-0.0252939,-0.0138974
369021357,369021133,0.61205,-0.0304746,-0.0146105
369042473,369042239,0.569198,0.000348671,-0.032419
369059854,369059620,0.466339,-0.0118332,0.0146157
369080952,369080725,0.454929,-0.00235305,0.00112402
369102060,369101831,0.43148,0.0229099,-0.00380831
369119439,369119212,0.296626,0.0391732,0.0141403
369140541,369140317,0.275646,0.0368517,0.016173
369161650,369161422,0.257752,0.0152749,0.00441148
369182754,369182528,0.25567,-0.000959544,-0.0083339
369200136,369199911,0.170848,0.0363965,0.0314861
369221301,369221070,0.152537,0.000246055,0.0291359
369242501,369242275,0.180778,0.0056308,0.0260929
369259729,369259502,0.187841,-0.0137633,0.0279233
369280837,369280608,0.152662,-0.0203155,0.0241456
369301992,369301757,0.130942,-0.0154754,0.0184355
369323054,369322827,0.0896265,-0.0259269,0.00870532
369340432,369340204,0.0811344,0.0022554,0.0256334
369361531,369361305,0.0210853,-0.0284254,0.0228512
369382640,369382411,-0.0105746,0.00356467,0.00887353
369400026,369399792,-0.112952,0.0649691,0.0361464
369421124,369420898,-0.114188,0.00516284,0.0475877
369442268,369442041,-0.0993424,0.0429975,0.0477662
369463362,369463110,-0.084975,0.0248915,0.0360822
369480784,369480559,-0.0995972,-0.00949674,0.044018
369500681,369500455,-0.115901,-0.0448695,0.0376538
369521686,369521462,-0.189911,-0.0254189,0.0389397
369540331,369540092,-0.24528,-0.0786882,0.0193309
369560182,369559952,-0.348362,-0.0299377,0.00965417
369581280,369581056,-0.531758,-0.0246115,0.023835
369602390,369602161,-0.757888,-0.0428819,0.0540941
369619768,369619539,-0.827756,-0.00729792,0.0352076
369640874,369640644,-0.820605,0.0102728,0.0399983
369661995,369661765,-0.721441,0.0375574,0.0360654
369679363,369679131,-0.509628,0.0374401,-0.00355151
369700462,369700237,-0.306942,0.0132797,-0.0117386
369721566,369721342,-0.154687,-0.00123145,-0.0122214
369742678,369742449,-0.0917636,-0.00385973,-0.00630702
369760109,369759881,-0.0252366,-0.00732426,0.00424923
369781318,369781093,-0.0165733,-0.0436639,-0.00800981
369802272,369802040,-0.0610512,-0.0536609,-0.0100363
369819689,369819464,-0.075532,-0.0568008,-0.000432289
369840749,369840526,-0.123101,-0.039722,-0.00307411
369861865,369861632,-0.1316,-0.017364,0.0021836
369882969,369882739,-0.115545,-0.0230062,0.0131598
369900345,369900119,-0.0842085,-0.0610684,-0.00816781
369921454,369921225,-0.086681,-0.0507818,0.00360318
369942565,369942331,-0.0663356,-0.0337034,0.0132937
369959938,369959711,-0.0353644,-0.0298374,-0.0102929
369982287,369982055,-0.0457504,-0.0391932,0.0137831
370002157,370001923,-0.0400002,-0.0436849,0.0128076
370023362,370023120,-0.00690643,-0.0239115,-0.000727119
370040742,370040515,-0.0573694,0.0027215,0.0163658
370061753,370061516,-0.0120638,-0.0023057,0.00669435
370082859,370082620,0.0223703,0.0117977,-0.00807205
370100240,370100001,-0.0252242,0.0389716,0.0132716
370121343,370121108,0.00648981,0.029515,-0.00266096
370141208,370140972,0.022879,0.0381426,-0.00356699
370159832,370159594,0.0252696,0.0341487,0.0129527
370180935,370180701,0.0296695,0.00915745,-0.00517837
370200794,370200564,0.0514979,-0.0147567,-0.00347192
370221900,370221669,0.103512,-0.0794526,-0.0047543
370240535,370240294,0.0563683,-0.143363,0.00539972
370260390,370260156,0.0365391,-0.229456,0.0134049
370281488,370281262,-0.0585212,-0.316699,-0.00134973
370302663,370302440,-0.103236,-0.385875,0.00711473
370320154,370319926,-0.0913906,-0.440881,0.0330655
370341078,370340853,-0.118975,-0.463602,0.0102147
370362185,370361959,-0.144729,-0.419854,0.000229401
370379580,370379347,-0.10517,-0.372707,0.0219854
370400708,370400483,-0.127915,-0.250792,-0.00830785
370421782,370421552,-0.249736,-0.153794,-0.0105068
370442886,370442657,-0.448061,-0.0421814,0.0353323
370460265,370460038,-0.447583,-0.00971548,-0.00877011
370481371,370481143,-0.507368,0.023536,0.00652723
370502487,370502259,-0.503199,0.0412613,0.0444383
370519866,370519636,-0.345778,-0.00716985,-0.00540601
370540971,370540741,-0.3181,-0.0588385,0.0140228
370562100,370561871,-0.241504,-0.122381,0.0407116
370583312,370583078,-0.121668,-0.175558,0.0503862
370600558,370600329,0.0436271,-0.17514,0.0112254
370621711,370621482,0.195832,-0.131051,0.0221179
370642772,370642540,0.287222,-0.175224,0.0244614
370660146,370659921,0.353142,-0.202356,0.00911751
370681254,370681026,0.382389,-0.238201,0.00726068
370702370,370702133,0.332217,-0.301428,0.0199244
370722236,370721999,0.295093,-0.295412,0.0215859
370742109,370741863,0.235746,-0.27803,0.0247434
370760713,370760483,0.202831,-0.229156,0.0148137
370781820,370781590,0.155557,-0.157565,0.027778
370799230,370798987,0.122699,-0.131168,0.0146362
370821550,370821318,0.108291,-0.127505,0.0297883
370841493,370841264,0.0848968,-0.15354,0.0305538
370862750,370862524,0.065663,-0.198511,0.0395738
370879896,370879667,0.0677456,-0.238306,0.0194227
370901046,370900822,0.0737248,-0.253505,0.0266458
370922104,370921878,0.0702281,-0.261434,0.034717
370939488,370939259,0.0989132,-0.268577,0.00837088
370960595,370960365,0.116765,-0.221207,0.0144522
370981743,370981521,0.111708,-0.163713,0.0215029
371002802,371002577,0.120925,-0.108874,0.027132
371020231,371019993,0.118622,-0.0758836,0.00211909
371041293,371041064,0.0904102,-0.0464337,0.0172234
371062393,371062168,0.071881,-0.0460298,0.0260326
371079780,371079554,0.071774,-0.060575,-0.00705497
371100912,371100686,0.0805966,-0.0717778,0.00776784
371122133,371121897,0.0824799,-0.0866067,0.0144658
371144405,371144171,0.0845744,-0.0850915,-0.00534322
371160472,371160248,0.0571228,-0.0596495,-0.0114119
371181579,371181353,0.0220212,-0.0510471,0.00178824
371202687,371202459,0.0277927,-0.0501787,0.0060182
371220067,371219840,0.0039216,-0.00151034,-0.010271
371241175,371240947,0.0109072,0.0308265,-0.00109903
371262285,371262051,0.0382195,0.0128363,-0.00588192
371283397,371283157,0.0618977,-0.00242622,-0.0180153
371300771,371300542,0.0360191,0.0167985,-0.00409371
371321888,371321654,0.000235801,0.0381528,-0.0202919
371341736,371341507,-0.029633,0.107939,-0.0221039
371360356,371360130,-0.0788097,0.206831,-0.0314513
371380303,371380078,-0.0613905,0.28794,-0.0419597
371401518,371401284,-0.0206979,0.436132,-0.0668867
371422446,371422214,0.007958,0.582583,-0.0775767
371439811,371439586,-0.0288776,0.699515,-0.067913
371460927,371460692,0.00422742,0.849658,-0.056554
371482033,371481801,-0.00483291,0.961817,-0.0511518
371499405,371499178,-0.0168944,0.961884,-0.0597964
371520515,371520284,0.0200172,0.88542,-0.0486457
371541624,371541392,0.0361348,0.762495,-0.0484025
371562719,371562495,0.0687551,0.615,-0.0398356
371581358,371581121,-0.0134368,0.469819,0.0216226
371601215,371600983,-0.0279868,0.342994,0.0221192
371622360,371622136,0.0860637,0.215278,0.00380675
371639738,371639506,0.193102,0.0878617,0.0114792
371660947,371660711,0.164719,0.0405203,0.0405558
371681921,371681680,0.0793951,-0.0015927,0.0248834
371699290,371699061,0.0517218,0.0157345,0.0177814
371720402,371720168,-0.00955173,-0.0336744,0.0178941
371741501,371741276,-0.0911188,-0.0235817,-0.0176566
371762602,371762378,-0.0812227,-0.0147943,-0.0309343
371779986,371779759,-0.137397,-0.0165854,-0.00287344
371801094,371800865,-0.175242,-0.0361948,0.0268461
371822199,371821970,-0.0615357,-0.138167,0.0298038
371843312,371843076,0.0700168,-0.238018,0.000329958
371860734,371860505,0.245486,-0.346577,-0.00751469
371881790,371881563,0.420177,-0.405691,-4.32242e-05
371901703,371901478,0.561121,-0.473292,-0.00732516
371919130,371918898,0.845732,-0.503458,-0.0750097
371940329,371940103,0.831246,-0.504668,-0.0371751
371961259,371961033,0.826043,-0.450423,-0.01216
371982397,371982168,0.746265,-0.337336,-0.00444301
371999731,371999506,0.650084,-0.282514,-0.0206904
372020840,372020611,0.512442,-0.235908,0.0124564
372041949,372041717,0.354782,-0.144327,0.0203028
372059324,372059098,0.362349,-0.0783406,-0.064421
372080437,372080208,0.167534,-0.0350929,-0.0627145
372101543,372101309,-0.0525152,0.0473546,-0.0169515
372122644,372122415,-0.188081,0.107629,-0.00689332
372140025,372139801,-0.137183,0.097257,-0.0520717
372161143,372160902,-0.265287,0.149352,-0.0125288
372182300,372182074,-0.406027,0.217364,-0.0284692
372199807,372199582,-0.553743,0.315882,0.000234559
372220721,372220494,-0.680752,0.422078,-0.0217928
372241836,372241603,-0.7008,0.546882,-0.0203542
372262943,372262705,-0.681833,0.589408,-0.0274788
372280316,372280086,-0.606235,0.571645,-0.0205988
372301419,372301188,-0.529814,0.498723,-0.0103349
372322524,372322298,-0.408555,0.390869,-0.0268999
372339910,372339678,-0.279453,0.295632,-0.0413117
372361018,372360784,-0.169062,0.183494,-0.0265924
372382118,372381890,-0.176226,0.0897138,0.0160302
372399502,372399272,-0.101581,0.0157655,-0.0572325
372420619,372420380,-0.0450441,-0.0492269,-0.0696976
372441733,372441505,-0.09187,-0.0602355,-0.0311479
372459210,372458974,-0.145014,0.0708158,-0.0129278
372480403,372480170,-0.244166,0.0947413,-0.0276056
372501307,372501074,-0.236226,0.151585,-0.0089762
372521165,372520938,-0.292864,0.214426,0.0236538
372542276,372542046,-0.188052,0.217929,0.0264148
372560895,372560666,-0.0334954,0.148761,-0.0363894
372580755,372580530,0.153901,0.00724631,-0.0134136
372601861,372601636,0.18549,-0.0693751,-0.000268484
372619258,372619021,0.229994,-0.092123,-0.00500473
372640350,372640123,0.224373,-0.174112,0.0149086
372661469,372661229,0.240509,-0.238965,0.0342243
372682562,372682334,0.162238,-0.294519,0.00993888
372699946,372699715,0.281035,-0.421249,0.0136806
372721110,372720882,0.178307,-0.411571,0.0489132
372742312,372742082,0.13545,-0.33441,0.0236093
372759531,372759307,0.0606144,-0.286819,0.0360689
372780637,372780413,-0.0613349,-0.139739,0.0524438
372801746,372801518,-0.191119,0.0926121,0.0601574
372822860,372822626,-0.396256,0.306244,0.0328559
372840238,372840006,-0.379824,0.35334,0.0475931
372861349,372861112,-0.403685,0.438685,0.0483006
372882447,372882218,-0.352589,0.459441,0.0393709
372899828,372899598,-0.15043,0.372255,0.00953083
372920933,372920703,-0.020741,0.247346,0.0153089
372942047,372941818,0.0869755,0.108048,0.0609539
372963140,372962915,0.146413,0.0141288,0.0809794
372980604,372980376,0.298553,-0.0801716,0.0798306
373001809,373001572,0.298941,-0.125518,0.177518
373022758,373022533,0.227384,-0.0643554,0.219177
373040119,373039888,0.174315,0.0276759,0.296655
373061235,373060995,0.027905,0.123989,0.329214
373082368,373082135,-0.0587864,0.150167,0.359995
373099710,373099481,-0.0848821,0.18582,0.394466
373120822,373120586,-0.136968,0.143941,0.384783
373140680,373140451,-0.164695,0.0958354,0.398249
373159313,373159074,-0.0907004,0.0649259,0.350751
373180412,373180180,0.0213293,-0.0695816,0.348196
373200273,373200043,0.00148108,-0.158067,0.37565
373220135,373219908,0.0418362,-0.24124,0.296713
373240042,373239813,0.0839959,-0.34294,0.249918
373259928,373259699,0.211036,-0.492504,0.259375
373281129,373280901,0.534874,-0.582485,0.25052
373302072,373301846,0.819324,-0.710171,0.186156
373319466,373319231,1.14675,-0.821961,0.153602
373340555,373340332,1.22641,-0.844941,0.143066
373361670,373361442,1.12756,-0.832218,0.159733
373382793,373382567,0.85419,-0.727433,0.134092
373400154,373399925,0.508853,-0.600033,0.164879
373421261,373421035,0.14116,-0.390982,0.117226
373442379,373442136,-0.267604,-0.0381252,0.131148
373459742,373459517,-0.546094,0.0962893,0.102568
373480848,373480623,-0.921703,0.35391,0.146725
373501996,373501766,-1.08764,0.524935,0.151592
373523090,373522866,-1.09165,0.640319,0.15538
373540612,373540387,-0.963173,0.653572,0.117749
373561549,373561321,-0.694569,0.699281,0.137072
373582658,373582428,-0.378154,0.64615,0.118761
373600033,373599807,-0.0941708,0.540024,0.052932
373622384,373622156,0.0627326,0.409386,0.0817244
373642263,373642019,0.131909,0.282432,0.0861501
373663358,373663124,0.0557249,0.192694,0.0947036
373681986,373681749,-0.0438321,0.0956263,0.0805766
373701879,373701648,-0.112206,0.0462752,0.0789185
373721704,373721475,-0.202609,0.0658275,0.0804012
373741568,373741340,-0.237734,0.0806777,0.0739993
373760190,373759961,-0.191164,0.0833122,0.0578526
373781301,373781072,-0.133839,0.098544,0.05732
373802538,373802312,-0.0785299,0.132095,0.0672855
373821214,373820981,-0.00376654,0.103053,0.0608206
373840889,373840660,-0.00781714,0.0792783,0.0447616
373861990,373861765,-0.0243852,0.0269426,0.0354989
373879424,373879190,0.0454452,0.0332543,0.0217411
373900486,373900252,-0.018636,0.0676412,0.033082
373921620,373921395,-0.0103637,0.0489139,0.0713128
373942686,373942463,-0.0130773,0.0126134,0.0603689
373960074,373959846,-0.0260936,-0.0317914,0.0596099
373981177,373980950,-0.015175,-0.0111728,0.0541035
373999801,373999573,-0.0332444,0.00554221,0.046508
374019666,374019437,0.00146632,-0.0299973,0.0467244
374040772,374040545,0.0925545,-0.0335286,0.0210385
374061914,374061686,0.0918182,-0.0281892,-0.00224308
374083159,374082918,-0.00983296,-0.0220179,0.00706705
374100364,374100134,0.00621324,-0.0509717,-0.00496202
374121463,374121240,-0.0749924,-0.0429317,-0.000619588
374140102,374139865,-0.108457,-0.0413277,-0.00987009
374159955,374159726,-0.0812089,-0.0745881,-0.0172878
374181057,374180832,-0.0557167,-0.199785,-0.000394305
374202176,374201947,-0.0266329,-0.411021,0.0110278
374223276,374223044,-0.00357255,-0.590984,0.000917599
374240648,374240424,0.0129842,-0.660122,0.0171394
374261761,374261530,-0.0384107,-0.689434,0.00925306
374282864,374282635,-0.0462873,-0.658704,-0.0129032
374300244,374300016,-0.064221,-0.568993,-0.0151346
374321393,374321162,-0.0609127,-0.475956,-0.0364526
374341349,374341118,-0.000562464,-0.336563,-0.0412787
374362516,374362289,0.0627107,-0.180688,-0.0509927
374379700,374379473,0.054766,-0.170575,-0.0543993
374400807,374400579,0.0656585,-0.127989,-0.0534299
374421915,374421684,-0.00997481,-0.0638524,-0.036232
374439322,374439097,0.0142388,-0.0272914,-0.0421829
374460400,374460171,-0.0117051,-0.0157984,-0.032513
374481501,374481276,-0.0345551,0.0346882,-0.032437
374502605,374502382,-0.0113025,0.090618,-0.0355816
374519993,374519763,-0.0793302,0.267796,-0.0508201
374541098,374540869,-0.0744705,0.514287,-0.0429019
374562208,374561975,-0.0614137,0.623,-0.026848
374579591,374579357,-0.049376,0.664575,-0.027096
374600778,374600554,0.0157137,0.658488,-0.0165658
374621936,374621708,0.05367,0.536629,-0.00997244
374642902,374642672,0.0825708,0.408091,-0.0286101
374660286,374660055,0.0604637,0.290191,0.00596586
374681396,374681162,0.0516367,0.138518,-0.0179025
374700014,374699783,0.0512554,0.0608505,-0.000172413
374719879,374719648,0.0234283,-0.0103202,-0.020927
374740978,374740752,0.0231792,-0.0398919,-0.0432869
374762085,374761857,0.0103855,-0.0356571,-0.0249979
374783199,374782965,0.0187153,-0.121017,0.00813439
374800572,374800344,0.0942163,-0.162965,-0.00784338
374821675,374821451,0.0137414,-0.140259,-0.00172249
374842783,374842555,-0.0315547,-0.159778,-0.0151232
374860180,374859953,-0.0143792,-0.165505,0.000466843
374881366,374881136,-0.0186605,-0.207899,-0.0170951
374902381,374902150,-0.0290659,-0.224671,-0.0186268
374923486,374923253,-0.0193187,-0.181815,-0.0105508
374940860,374940633,-0.00592968,-0.140953,-0.0365078
374960728,374960504,0.00805782,-0.148873,-0.0352705
374981831,374981603,0.0291457,-0.0897264,-0.0297588
374999218,374998986,0.0517601,-0.0680318,-0.0466445
375020322,375020090,0.0756924,-0.0320444,-0.0592275
375041433,375041203,0.0489783,-0.0130261,-0.043821
375062538,375062302,0.0135871,-0.0745666,-0.0276554
375079910,375079683,0.016213,-0.0166246,-0.061038
375101017,375100788,0.0131339,-0.0203767,-0.0564438
375122149,375121922,0.0100439,-0.0650212,-0.0458138
375139543,375139318,-0.00141006,-0.1201,-0.0647032
375162002,375161773,-0.0779243,-0.115044,-0.0377437
375181716,375181486,-0.115563,-0.0540682,-0.047867
375202828,375202599,-0.102961,-0.0757687,-0.039662
375220206,375219972,-0.0423014,-0.1158,-0.075259
375241307,375241078,-0.0609742,-0.0914831,-0.0622387
375262419,375262184,-0.0753665,-0.0807322,-0.048851
375281039,375280810,-0.0394337,-0.114879,-0.0718352
375300901,375300672,-0.046396,-0.0646154,-0.0792902
375322032,375321801,-0.0508662,-0.085127,-0.0675458
375339386,375339157,-0.0655838,-0.106376,-0.0683497
375360498,375360266,-0.0574736,-0.0370504,-0.0539475
375381680,375381451,-0.025179,-0.0304368,-0.0497157
375402761,375402534,-0.0163076,-0.00682487,-0.0479672
375420248,375420013,-0.0538704,-0.0720122,-0.0514347
375441199,375440964,-0.109923,-0.103172,-0.0421933
375462314,375462068,-0.129793,-0.0764193,-0.0300256
375483408,375483172,-0.12375,-0.0964244,-0.024316
375500834,375500600,-0.058533,-0.132862,-0.038847
375521886,375521660,-0.0123605,-0.172539,-0.027142
375541750,375541523,0.0814078,-0.163458,-0.0104315
375560378,375560145,0.0481185,-0.171382,-0.0208038
375580240,375580010,0.00696634,-0.138461,-0.00740064
375601339,375601115,-0.0471604,-0.120909,0.00729565
375622450,375622221,-0.0792237,-0.0923382,0.0182852
375639831,375639603,-0.0517365,-0.0787543,-0.0209994
375660961,375660730,-0.0590306,-0.040269,-0.00966935
375682112,375681882,-0.0640996,0.00580805,0.00465725
375699570,375699340,0.0430173,0.0270798,-0.0266727
375720524,375720300,0.110521,0.00771017,-0.011633
375741639,375741405,0.149097,-0.000651133,-0.00244776
375762738,375762511,0.119804,0.0483307,0.0195532
375780118,375779892,0.175727,0.0511779,-0.00831896
375801233,375800998,0.133579,0.144611,-0.0113352
375822334,375822103,0.0507667,0.256252,-0.00429394
375839717,375839484,0.0109157,0.276331,0.0074736
375862072,375861837,-0.0710591,0.288143,0.021951
375881930,375881698,-0.149459,0.308824,0.0237478
375903035,375902801,-0.18827,0.296797,0.0351479
375921661,375921425,-0.09795,0.22389,0.019805
375941544,375941315,-0.0412489,0.162663,0.00426058
375962732,375962508,0.00699146,0.106802,0.0111514
375980010,375979777,-0.0888565,0.0972297,0.0776461
376001108,376000880,-0.0789605,0.0606023,0.0846753
376022217,376021985,-0.0243013,0.0836991,0.0833531
376040856,376040614,-0.0266103,0.148861,0.0579336
376060716,376060477,0.0220365,0.180685,0.0420541
376081866,376081623,0.00956418,0.24014,0.0471191
376099186,376098959,0.043427,0.320836,-0.00828695
376120295,376120066,0.00388356,0.384402,0.00623946
376141400,376141171,0.086193,0.393778,0.0239408
376161260,376161034,0.118876,0.396209,0.0139602
376182368,376182140,0.125496,0.335869,0.0169036
376199759,376199531,0.117558,0.266143,0.0307311
376220916,376220689,0.0497516,0.195615,0.0401635
376242119,376241893,-0.0223302,0.12376,0.0491344
376259353,376259120,-0.0987157,0.0973704,0.0383713
376280443,376280219,-0.134217,0.106313,0.0577181
376301549,376301325,-0.1201,0.110061,0.0625589
376322659,376322430,-0.0837758,0.123492,0.0624766
376340036,376339811,0.00349166,0.121442,0.0292387
376361141,376360918,0.0494212,0.103684,0.0413147
376382249,376382022,0.0372719,0.0620269,0.0574293
376399629,376399403,0.01334,0.0129988,0.0284472
376420743,376420509,-0.00284598,0.000242952,0.0381643
376441842,376441615,-0.000632807,-0.000224721,0.0415598
376462969,376462727,-0.015436,-0.00949202,0.051518
376480346,376480122,0.0101306,-0.0338499,0.00327806
376501554,376501323,-0.00761631,-0.00762088,0.0106901
376522538,376522312,-0.0489082,-0.0165656,0.0157571
376539920,376539694,-0.0308186,-0.0124947,0.0286149
376561028,376560799,0.0197444,-0.0168145,0.0247012
376582134,376581907,0.0433432,0.00288803,0.0224668
376603239,376603010,0.0680622,0.026144,0.0158772
376620621,376620391,0.0317745,0.0311199,0.0369943
376641728,376641498,0.0197999,0.0137559,0.0287933
376662860,376662620,0.00079134,-0.0438276,0.024095
376680218,376679985,0.017019,-0.0361516,0.0266263
376701345,376701109,0.00452162,-0.0407909,0.0289569
376721182,376720954,0.0826264,-0.0195085,0.0206619
376739834,376739599,0.197772,0.0225891,-0.00173185
376759733,376759506,0.333267,0.0439151,-0.00627979
376780945,376780716,0.476559,0.0369853,-0.018743
376801876,376801651,0.493813,0.0155194,-0.0281766
376819263,376819033,0.409406,0.0543732,-0.00176923
376840377,376840141,0.476172,-0.0163031,-0.0109646
376861469,376861243,0.502593,-0.0542778,-0.0156449
376882576,376882350,0.516139,-0.0742418,-0.0368483
376899960,376899731,0.401755,-0.0393177,0.0368907
376921062,376920838,0.335558,-0.0341242,0.0329793
376942201,376941966,0.267694,-0.027838,0.0296575
376959551,376959323,0.163976,-0.0510035,0.0304383
376980656,376980428,0.0482534,-0.0366572,0.0367796
377001769,377001540,-0.0819745,-0.0230866,0.00695296
377022910,377022681,-0.249428,-0.0377774,-0.00220204
377040367,377040140,-0.422473,-0.0236225,0.0378443
377061350,377061126,-0.582335,0.048332,0.0337945
377082462,377082233,-0.659202,0.0588416,0.0207
377099840,377099613,-0.680948,0.102465,0.0469764
377120943,377120718,-0.55874,0.136558,0.0246025
377142056,377141824,-0.431695,0.127992,0.014268
377163156,377162930,-0.25788,0.091531,0.0158518
377180594,377180371,-0.118869,0.0979924,-0.0430514
377201645,377201416,-0.024627,0.0683573,-0.0481709
377222754,377222522,0.0241026,0.0167353,-0.0483666
377240130,377239903,-0.0106344,-0.0341569,-0.0366226
377261254,377261011,0.00795641,-0.0588081,-0.0451228
377282400,377282170,-0.0450897,-0.0544017,-0.0551285
377302289,377302064,-0.116864,-0.0698763,-0.0520614
377319752,377319528,-0.162013,-0.0261004,-0.0301285
377340694,377340465,-0.168164,-0.00534313,-0.0274339
377361829,377361602,-0.160633,0.00995055,-0.0328589
377380431,377380199,-0.120658,0.0139983,-0.0782855
377400294,377400058,-0.0773185,0.0146286,-0.0599341
377421391,377421163,-0.0395956,-0.00407007,-0.0517524
377442495,377442269,0.0125528,-0.00298237,-0.0641689
377459888,377459655,-0.001686,-0.0101131,-0.0462885
377481022,377480797,-0.00611378,-0.00759005,-0.0421921
377502086,377501861,-0.0323534,0.0115147,-0.0294228
377519473,377519242,-0.0697759,0.000536125,-0.024057
377540584,377540350,-0.0453484,-0.000503875,-0.0253981
377561772,377561546,-0.0169222,0.00473249,-0.0351989
377582924,377582696,0.154113,-0.00586674,-0.05296
377600177,377599942,0.220024,-0.0109634,-0.0491557
377621273,377621048,0.265498,-0.0122025,-0.0522457
377642405,377642180,0.228826,-0.00257622,-0.0504501
377659768,377659533,0.0599707,-0.0155799,0.00698938
377680862,377680638,-0.0215936,-0.00575214,0.0222803
377701968,377701745,-0.126774,0.0033537,0.0143119
377723081,377722849,-0.167247,0.00931105,0.0187983
377740462,377740230,-0.101956,-0.0690016,-0.0107194
377761561,377761336,-0.11654,-0.0103528,0.00289843
377782671,377782442,-0.138083,0.000223004,-0.0147134
377800050,377799823,-0.0914891,-0.0152115,-0.0368078
377821204,377820971,-0.0774031,0.0484691,-0.0317049
377842369,377842130,-0.0492546,0.0407727,-0.0128733
377859835,377859600,-0.0818604,0.0809316,0.0165079
377880749,377880521,-0.0315691,0.047235,0.00169114
377901861,377901626,0.0116722,0.0170202,-0.00301159
377921718,377921491,-0.00193985,-0.00939362,0.00100844
377940347,377940112,0.0498811,0.0184586,-0.0272164
377960207,377959977,0.0829987,-0.0340887,-0.0219828
377981318,377981083,0.092966,-0.00138109,-0.0387615
378002425,378002188,0.0618499,0.0248617,-0.0372436
378019797,378019569,-0.0076372,-0.0370336,0.0233865
378040909,378040675,-0.010379,-0.0110989,0.021103
378062013,378061780,0.0117411,0.0258352,0.010742
378079389,378079165,-0.015798,0.0457848,0.0347613
378100538,378100310,0.0138285,0.0711227,0.0415583
378121739,378121514,0.039464,0.0267668,0.0276303
378142703,378142478,0.00549521,-0.0171343,0.0289045
378160091,378159861,0.0155059,-0.0324187,-0.0202326
378181200,378180965,0.0101692,-0.0245095,-0.00819891
378202301,378202072,0.0288689,-0.0536366,-0.00418619
378219685,378219455,0.0015511,-0.0621226,-0.0046128
378240786,378240558,0.0206842,-0.135831,-0.00240463
378261895,378261663,0.0732617,-0.212127,0.000882585
378279280,378279045,0.124731,-0.282901,-0.0103063
378300384,378300152,0.197561,-0.406664,-0.00384823
378321490,378321261,0.266941,-0.448145,-0.0140154
378342590,378342365,0.355295,-0.462838,-0.0105618
378360013,378359783,0.325062,-0.396251,0.0103488
378381176,378380950,0.312944,-0.330804,-0.00274968
378402190,378401957,0.296913,-0.245804,-0.0234065
378423290,378423058,0.250894,-0.110636,-0.0416144
378440663,378440439,0.152349,-0.101579,-0.0317941
378461771,378461548,0.076077,-0.0987212,-0.037722
378482886,378482655,-0.00553478,-0.0600319,-0.0282535
378500269,378500036,-0.0224983,-0.0805005,-0.019755
378521386,378521158,0.021214,-0.124637,-0.0436421
378541230,378541001,0.00849205,-0.183478,-0.0277766
378562340,378562108,0.0374185,-0.19634,-0.0222906
378579715,378579488,-0.00436826,-0.154764,-0.0224799
378600821,378600594,-0.0505882,-0.114023,-0.00644255
378623175,378622942,-0.0231727,-0.094231,-0.0116535
378639354,378639126,0.0314192,-0.0986748,-0.0455032
378660558,378660330,0.0844722,-0.0349591,-0.03522
378681522,378681292,-0.0419238,0.0244316,-0.0223288
378702628,378702398,-0.105098,0.0526161,-0.0207517
378720001,378719778,-0.146106,0.0120168,-0.0398024
378741112,378740884,-0.283631,0.0378449,-0.0270037
378762230,378761994,-0.223856,0.0438101,-0.0179898
378779596,378779370,-0.304196,0.0423405,-0.014934
378800709,378800481,-0.275089,0.0815688,-0.00836982
378821814,378821583,-0.216416,0.103992,0.00188599
378842918,378842687,-0.186425,0.119682,0.0245616
378860354,378860125,-0.0419161,0.107836,-0.0456944
378881403,378881174,-0.0211887,0.104966,-0.0474782
378902534,378902309,-0.0290711,0.0716744,-0.0254315
378921298,378921069,-0.0813819,0.0695059,0.00674551
378941001,378940771,-0.039006,0.0325792,0.0269415
378962101,378961873,-0.00207842,0.0284554,0.0279565
378979525,378979292,0.0515233,-0.0126148,0.0425623
379000589,379000360,0.0558135,-0.0392591,0.0507295
379021691,379021466,0.0887336,-0.0845209,0.0638658
379042806,379042570,0.0551708,-0.116797,0.0804074
379060182,379059952,0.0395398,-0.0981383,0.0613995
379081284,379081058,0.0763675,-0.0803456,0.0612657
379102398,379102162,0.11086,-0.0816816,0.0679727
379122253,379122027,0.136789,-0.0489524,0.0553133
379140887,379140649,0.133385,-0.0398966,0.0447286
379160776,379160552,0.10453,-0.0207531,0.0559437
379181921,379181692,0.0627417,0.0106259,0.0404662
379199425,379199186,0.0323726,-0.00292247,0.056643
379220330,379220105,0.0599066,-0.000691949,0.0584524
379241437,379241212,0.0735589,-0.0369986,0.0563911
379262547,379262318,0.0607552,-0.030069,0.0487618
379279925,379279698,0.0297363,-0.0488058,0.07477
379301029,379300803,0.00346594,-0.0420029,0.0843184
379322143,379321913,-0.0115663,-0.0337701,0.0815365
379339520,379339290,0.00897546,-0.0542766,0.0339903
379360624,379360396,0.0202238,-0.05278,0.0253119
379381734,379381504,0.0181851,-0.0503576,0.0187593
379402836,379402607,-0.0275783,-0.0435042,0.0193861
379420216,379419988,-0.0904973,-0.0103182,0.0707529
379441350,379441122,-0.115246,-0.00406942,0.0678762
379462565,379462333,-0.0986692,-0.00143989,0.0652623
379479806,379479580,-0.143763,0.0361599,0.0844572
379502164,379501929,-0.136888,0.0293422,0.0811014
379522023,379521792,-0.0602315,0.0152247,0.0927276
379543123,379542897,-0.0328413,0.0452317,0.0929249
379561775,379561544,0.0305686,0.0771954,0.0506632
379581612,379581384,0.0898949,0.0333529,0.0357746
379602715,379602490,0.0735337,0.0546944,0.0418468
379620099,379619870,-0.0112728,0.115874,0.110649
379641214,379640977,-0.0736796,0.100045,0.0998239
379662324,379662086,-0.0947375,0.0950393,0.0967105
379679692,379679463,-0.118165,0.050479,0.0810497
379700851,379700615,-0.114348,0.0883119,0.0740371
379720737,379720509,-0.0971785,0.079992,0.0592308
379741937,379741711,-0.0921034,0.0523589,0.0580145
379760401,379760162,-0.0812475,0.0740181,0.0678908
379780252,379780025,-0.146904,0.0621032,0.065199
379801367,379801140,-0.13776,0.0418293,0.0655823
379819992,379819759,-0.100407,0.036735,0.060206
379839861,379839634,-0.0918472,0.0226414,0.012461
379860950,379860722,-0.158425,0.00436195,0.0151643
379882057,379881829,-0.140499,0.0238269,0.00761563
379899447,379899211,-0.044243,0.0336143,0.0239782
379920541,379920315,-0.00720487,0.0223994,0.016336
379941644,379941420,-0.0121588,0.00184821,0.00741557
379962783,379962554,0.0100596,-0.0202992,0.0202258
379980178,379979945,0.0166118,-0.0172643,0.0239213
380001383,380001151,0.0455668,-0.0357883,0.0109984
380022424,380022191,0.0345396,-0.0248852,-0.00828425
380039725,380039500,0.0441232,-0.0323292,-0.00920844
380060835,380060605,0.0286066,-0.00251794,-0.0116052
380081942,380081713,-0.0182142,-0.0230612,-0.0107601
380103047,380102818,-0.00353358,-0.030992,0.00510709
380120427,380120202,-0.0285354,-0.0358088,0.0157974
380141576,380141348,0.0400229,-0.0314992,0.0155739
380162634,380162409,0.0803434,-0.0658256,0.015176
380180048,380179823,0.0590379,-0.0754368,-0.00900518
380201128,380200895,0.0852051,-0.058051,-0.010633
380222240,380222001,0.0690329,-0.0613289,-0.0332002
380243343,380243109,0.0154195,-0.0316012,-0.0398954
380260806,380260567,-0.0299209,-0.0119997,-0.0151323
380280753,380280525,-0.0535464,0.0195301,0.00140216
380301691,380301465,-0.0583929,0.0441779,-0.00393879
380320314,380320080,-0.0495468,0.0479095,-0.0197779
380340172,380339945,0.00948301,0.0440223,-0.0396268
380361276,380361046,0.0113069,0.0162373,-0.0502787
380379905,380379672,0.0467052,-0.0384269,-0.0286563
380399765,380399536,0.04066,-0.0279625,-0.0292703
380420870,380420643,0.0580566,-0.0702411,-0.04974
380441975,380441747,0.0637992,-0.0886524,-0.0520759
380459360,380459132,0.0280362,-0.102039,-0.0104888
380480475,380480251,0.0414689,-0.0618057,-0.0220338
380501570,380501341,0.0431298,-0.0125418,-0.0351835
380522717,380522493,-0.00704291,0.0134381,-0.0242521
380540236,380540006,0.0598609,0.016616,-0.071411
380561155,380560932,0.0510701,0.0467179,-0.0824626
380582262,380582038,0.0646659,0.0226885,-0.0796792
380599706,380599474,-0.0477805,0.0389696,-0.0118955
380620757,380620524,-0.037525,0.0380756,-0.00102546
380641862,380641630,0.102843,-0.027934,-0.0188762
380662974,380662737,0.123732,-0.0698128,-0.0120957
380680346,380680119,0.128541,-0.0361667,-0.0456053
380701448,380701222,0.124488,-0.0330325,-0.0697602
380722559,380722328,0.0427466,-0.0270196,-0.0548162
380739934,380739709,0.0440304,-0.0269994,-0.0435797
380761039,380760815,0.0446258,-0.028406,-0.0583642
380782153,380781925,0.0176898,-0.0200193,-0.0645411
380803364,380803132,-0.0290034,-0.003807,-0.058298
380820828,380820591,-0.0735929,-0.0110914,-0.0423653
380841743,380841512,-0.0810042,0.0229332,-0.0452432
380862861,380862618,-0.0515501,0.0495579,-0.0548149
380880229,380880000,-0.110673,0.029294,-0.00429526
380901343,380901104,-0.0589755,0.0750757,-0.00149883
380921202,380920969,-0.0519912,0.0795094,-0.0358682
380942300,380942074,-0.0671973,0.0933624,-0.0376731
380959682,380959456,0.00838624,0.0524261,-0.0635229
380980793,380980561,0.0277604,0.0553979,-0.06294
381001919,381001692,0.0671044,0.0795721,-0.0531255
381019275,381019048,0.013094,0.0433029,-0.0291534
381040384,381040153,0.0777735,0.0419695,-0.0361861
381061540,381061312,0.0971403,0.0131484,-0.0449473
381082743,381082516,0.105592,0.0147576,-0.0425356
381099973,381099746,0.0487325,-0.0143773,0.000218967
381121076,381120851,0.0433984,-0.00700452,-0.00985142
381142185,381141957,0.0633182,-0.0120522,-0.00725098
381159566,381159338,0.0528745,-0.00426576,-0.0491093
381180667,381180444,0.0931985,-0.0597015,-0.0613623
381201776,381201549,0.192354,-0.130859,-0.0977012
381222877,381222655,0.32397,-0.145931,-0.0797606
381240268,381240039,0.273627,-0.167273,0.0051583
381261374,381261143,0.392491,-0.19501,-0.00438598
381282475,381282248,0.426428,-0.210741,-0.0130707
381299855,381299628,0.390102,-0.177583,-0.0384258
381320966,381320741,0.349525,-0.206907,-0.0123377
381342227,381341999,0.233391,-0.11878,0.00559512
381363177,381362950,0.108773,-0.108096,0.0228379
381380552,381380326,0.0309106,-0.0496107,-0.00770295
381401664,381401432,-0.0373785,0.0503661,0.00453993
381422763,381422534,-0.136073,0.071044,0.00561746
381440144,381439918,-0.137241,0.057698,-0.0187006
381461256,381461024,-0.16558,0.084788,-0.0120529
381482361,381482130,-0.168118,0.100259,-0.0214654
381502234,381501996,-0.140876,0.163802,-0.0126541
381520854,381520616,-0.131899,0.176618,0.00695801
381540712,381540481,-0.113921,0.171345,0.000499691
381561811,381561581,-0.100017,0.197065,-0.00576273
381579209,381578968,-0.162575,0.25931,0.0147143
381600365,381600131,-0.183006,0.262362,0.0223359
381621624,381621389,-0.219167,0.284084,0.0295547
381642514,381642285,-0.268757,0.270346,0.0346382
381659894,381659665,-0.141508,0.158064,-0.0269874
381681004,381680770,-0.0412462,0.106253,-0.0186145
381702158,381701929,-0.0314551,0.0412741,-0.00205787
381719490,381719264,-0.0836784,4.37439e-05,0.0419025
381740595,381740363,-0.0729012,-0.0693042,0.0377231
381761692,381761465,-0.0732622,-0.0686352,0.026403
381782800,381782574,-0.0615002,-0.0449405,0.0294363
381800184,381799955,-0.0419255,-0.0173095,0.00947573
381821297,381821062,-0.123643,0.0128118,0.0293372
381842400,381842166,-0.102481,0.0441982,0.0457722
381859850,381859618,-0.131804,0.0581535,0.00199551
381881045,381880818,-0.256775,0.131184,0.0229365
381901985,381901759,-0.262396,0.130387,0.0154624
381920658,381920431,-0.230979,0.140381,0.0307493
381940479,381940249,-0.236815,0.211834,0.0472472
381961575,381961351,-0.147589,0.26796,0.0649896
381982680,381982457,-0.0685389,0.362793,0.0699831
382000099,381999870,-0.099018,0.439929,0.0133049
382021181,382020949,-0.0391286,0.40189,0.0345093
382042307,382042069,0.0110475,0.410415,0.0457086
382063388,382063155,0.0172954,0.344026,0.0234196
382080763,382080536,0.0316891,0.227985,0.0436597
382101873,382101641,0.0588828,0.202988,0.0378638
382121731,382121505,-0.0242903,0.132939,0.0533029
382139252,382139023,-0.0215728,0.0248844,0.0159259
382160380,382160151,0.0265455,0.0489054,0.0357124
382181340,382181116,0.0158072,-0.00719162,0.0256475
382202434,382202206,0.011524,-0.030155,0.024024
382219819,382219588,0.0138025,0.0176159,0.0121786
382240921,382240690,0.0444437,0.00399709,0.000817721
382262025,382261795,0.115875,-0.00348741,-0.00873484
382279404,382279177,0.0292282,-0.00868762,0.038914
382300558,382300330,-0.0379572,0.0079805,0.0417166
382322869,382322633,-0.0260194,0.0117572,0.0337864
382342730,382342499,-0.106747,0.0546166,0.013859
382360105,382359877,-0.0624904,0.0560573,-0.0370512
382381217,382380980,-0.00232428,0.0289283,-0.0434268
382402353,382402124,0.0941311,-0.0139864,-0.0480851
382419802,382419578,-0.0396058,0.0578942,-0.00344964
382440808,382440573,-0.0189557,0.00921852,-0.00599525
382461912,382461678,-0.0313757,-0.00318658,-0.0273621
382483012,382482784,-0.00135044,0.00307289,-0.0328563
382500397,382500165,0.0506276,-0.0184316,-0.0413619
382521508,382521271,0.0234062,0.02805,-0.0539303
382542602,382542376,0.0609129,0.0387083,-0.0638842
382559994,382559763,-0.0110527,-0.0388875,-0.0284259
382581096,382580865,-0.025284,-0.0327908,-0.029747
382602203,382601969,-0.0809759,0.0292122,-0.0239089
382619583,382619350,-0.00387129,-0.0736139,-0.108237
382640687,382640455,-0.108218,-0.109356,-0.0994034
382661878,382661646,-0.0579046,-0.0435127,-0.0579694
382681782,382681550,-0.0447206,-0.000937762,-0.0684857
382699247,382699016,0.0872984,-0.021933,-0.103733
382721385,382721153,0.0777243,-0.0704282,-0.0873629
382741250,382741018,0.0550547,-0.062637,-0.118298
382762348,382762122,-0.0114567,-0.066751,-0.0775987
382779731,382779503,-0.0632782,-0.07633,-0.0830599
382800834,382800609,-0.0677875,-0.0975298,-0.0644965
382821945,382821715,-0.115536,-0.0887739,-0.0637691
382839320,382839096,-0.0193988,-0.0163543,-0.084694
382860433,382860206,-0.0145225,-0.0126466,-0.0922713
382881535,382881308,0.0774197,0.0131664,-0.0539437
382903892,382903659,0.0668851,-0.00434824,-0.0417048
382920022,382919797,0.0354543,0.0108333,-0.0565494
382941213,382940982,0.006549,-0.0426346,-0.0396227
382962360,382962131,-0.047136,0.0148344,-0.0317938
382979616,382979386,-0.00789109,-0.0530836,-0.0375649
383000729,383000497,-0.0306837,-0.0303255,-0.0266881
383021827,383021596,-0.0120654,-0.0870102,0.00530681
383042934,383042706,-0.00238392,-0.0355542,0.00110775
383060312,383060084,0.0474943,0.0100116,-0.0153823
383081434,383081199,-0.00205396,-0.0179584,-0.00320315
383102534,383102304,-0.00484223,-0.0247106,-0.0114095
383119900,383119676,-0.01093,-0.00138565,-0.00150217
383142256,383142026,-0.0602803,0.016125,0.0162627
383162121,383161886,-0.0636657,-0.00755593,0.036261
383183226,383182993,-0.0849694,0.00378497,0.0316407
383200639,383200409,-0.0429914,0.0156245,0.0239398
383221804,383221569,-0.0250703,0.0241444,0.0315363
383241761,383241531,0.0794522,-0.00740667,0.0393294
383261460,383261216,0.0996425,-0.00638204,0.0388165
383281332,383281096,0.0799392,0.00166637,0.053414
383301172,383300938,0.0347241,-0.0114373,0.051465
383319791,383319559,0.079336,-0.0110944,0.0455079
383340912,383340665,0.0738495,-0.00540134,0.0465287
383360759,383360529,0.0979216,0.00375532,0.0366733
383379384,383379152,0.202685,-0.0471704,0.0341016
383399248,383399015,0.358088,-0.0291728,0.0195457
383420351,383420121,0.521495,-0.10468,0.0389631
383441452,383441227,0.684203,-0.187243,0.0278167
383462608,383462378,0.702141,-0.269221,0.027836
383479982,383479753,0.692468,-0.354313,0.00787281
383501173,383500948,0.512748,-0.303064,0.00374094
383522156,383521928,0.294475,-0.27699,0.0382194
383539532,383539305,0.130492,-0.259575,0.030999
383560644,383560418,-0.110637,-0.126251,0.0570763
383581740,383581517,-0.426966,0.0493451,0.0548997
383602851,383602623,-0.638591,0.194957,0.0470064
383620236,383620003,-0.703211,0.322142,0.0508097
383641337,383641109,-0.685565,0.384036,0.0443105
383662447,383662215,-0.534959,0.348742,0.0444613
383679853,383679629,-0.426688,0.275371,0.0466074
383700926,383700701,-0.283395,0.17047,0.0591915
383722054,383721820,-0.173935,0.0726056,0.0636185
383743181,383742955,-0.0725472,-0.0140636,0.0588121
383760610,383760386,-0.0384609,-0.0155933,0.0732355
383781824,383781589,-0.0772142,-0.000937284,0.0753955
383802736,383802505,-0.0839783,0.00605648,0.0773394
383820117,383819886,-0.0398528,0.00853345,0.0405304
383841226,383840992,-0.0271546,0.0456037,0.0364867
383862337,383862099,-0.0691534,0.0604712,0.0499276
383882191,383881963,-0.0747825,0.046855,0.0237084
383900818,383900583,-0.0188969,0.031614,0.0111767
383920679,383920448,-0.00358524,0.00730482,0.0186938
383941779,383941553,0.0641338,0.0129179,0.00994589
383959159,383958934,0.0569488,0.0123463,0.0382769
383980269,383980040,0.0441656,-0.0104727,0.0237631
384001383,384001158,0.0141792,-0.0489436,0.0168425
384022534,384022309,-0.0278448,-0.0561043,0.0225334
384040002,384039766,-0.0237364,-0.0192005,-0.00569386
384060975,384060739,-0.0573189,-0.0484938,0.0126701
384082074,384081843,-0.0231651,-0.104592,0.0107178
384099456,384099225,-0.0200385,-0.0692451,0.0241617
384120562,384120331,0.00492909,-0.165498,0.0255718
384141669,384141436,0.0477207,-0.269893,0.0230216
384162768,384162541,0.093231,-0.323771,0.030703
384180158,384179926,0.0528803,-0.366344,0.0621989
384201256,384201028,0.0833248,-0.442301,0.060798
384222362,384222134,0.0822797,-0.426119,0.0325541
384239795,384239565,0.0588957,-0.380915,0.0329722
384260850,384260621,0.0305517,-0.337821,0.0199799
384282017,384281790,0.00210951,-0.294756,-0.00407011
