timestamp,timestamp_sample,accel_device_id,gyro_device_id,delta_angle[0],delta_angle[1],delta_angle[2],delta_velocity[0],delta_velocity[1],delta_velocity[2],delta_angle_dt,delta_velocity_dt,delta_velocity_clipping
361176320,361176055,3932170,3932170,0.000115649,-4.5747e-05,-0.000145192,-3.47526e-05,-0.00100666,-0.0486055,4992,4992,0
361182023,361181310,3932170,3932170,4.53904e-05,-0.000112787,-0.000260443,-0.000205798,-0.00234546,-0.051212,5255,5255,0
361680255,361679943,3932170,3932170,0.000144416,-0.000334101,0.000126622,0.00177323,-0.000238544,-0.0486056,4988,4988,0
362179099,362178848,3932170,3932170,0.000170502,-2.56015e-05,6.38976e-05,-0.00332562,-0.00242953,-0.0480563,4990,4990,0
362677996,362677751,3932170,3932170,0.00031928,-0.00173725,-0.000242775,0.000218821,-0.00215308,-0.0460607,4989,4989,0
363176975,363176655,3932170,3932170,0.000929798,-0.00153892,-3.9253e-05,0.0144734,0.00217755,-0.0475505,4989,4989,0
363680805,363680553,3932170,3932170,0.000614444,0.000102918,-0.000488859,-0.00533137,-0.00680546,-0.0485672,4993,4993,0
364179921,364179588,3932170,3932170,0.00127944,-6.30813e-05,-0.000872326,0.00397202,0.0154618,-0.0434644,4977,4977,0
364678981,364678626,3932170,3932170,-0.00202875,0.0006482,0.000776245,-0.00552532,-0.0263636,-0.0527506,5260,5260,0
365182503,365182249,3932170,3932170,-9.92732e-05,-0.00119492,0.000136794,0.00829621,0.00885372,-0.0488937,4987,4987,0
365681456,365681156,3932170,3932170,-0.000703403,-0.00123218,-0.000342341,0.00191374,0.0165361,-0.0469372,4987,4987,0
366180346,366180058,3932170,3932170,-0.000133025,-0.000646978,0.00104245,-0.00180007,0.00444071,-0.0553265,4990,4990,0
366679592,366678962,3932170,3932170,0.001151,-0.000969394,-0.00046376,-0.00233814,-0.0112823,-0.0425637,4990,4990,0
367178164,367177867,3932170,3932170,-0.000348267,0.000758866,-0.00021821,-0.00175253,0.00667533,-0.0517627,4990,4990,0
367682109,367681833,3932170,3932170,0.00075332,-0.000116868,-0.000284494,-0.0022388,0.0158683,-0.0494097,4972,4972,0
368181286,368180911,3932170,3932170,-0.000625082,-0.000276842,-7.09427e-05,-0.00102963,0.00152522,-0.0479397,4962,4962,0
368679824,368679566,3932170,3932170,0.000332195,-0.000476883,-0.000245879,-0.0016606,0.00235309,-0.0487519,4989,4989,0
369178762,369178470,3932170,3932170,0.000238486,-0.000292367,0.000576789,-0.00190928,0.0176842,-0.0496206,4984,4984,0
369682661,369682364,3932170,3932170,-0.00373569,0.000144032,0.00085037,0.000235614,0.00975951,-0.0544694,4990,4990,0
370176526,370176278,3932170,3932170,-0.00105166,0.000561903,0.000989325,-0.00284668,0.0196004,-0.0590941,4980,4980,0
370680465,370680171,3932170,3932170,0.00268606,-0.00129383,-0.00013079,-0.000738578,-0.00500691,-0.0562963,4989,4989,0
371179484,371179203,3932170,3932170,-0.000550323,0.000462067,0.000674592,-0.00458253,0.00143506,-0.0518891,4955,4955,0
371678531,371678234,3932170,3932170,-0.000122053,0.000556042,0.000952434,3.59797e-05,0.0157603,-0.0440496,4965,4965,0
372182139,372181878,3932170,3932170,-0.000312376,0.000798961,-0.00105694,-0.00145945,-0.0152605,-0.039832,4993,4993,0
372681021,372680776,3932170,3932170,-0.000941978,-0.00112044,0.000708086,-0.00801724,-0.018258,-0.0448847,4987,4987,0
373180097,373179682,3932170,3932170,0.000216385,-0.00015467,0.00111995,0.00129802,-0.0367633,-0.0400231,4948,4948,0
373678879,373678585,3932170,3932170,0.000370561,0.000277464,-0.000360073,0.003962,-0.0124632,-0.0493334,4989,4989,0
374179223,374177487,3932170,3932170,-0.000365227,-0.00115993,-0.000509311,0.000636406,-0.00404661,-0.0566736,4987,4987,0
374681784,374681495,3932170,3932170,0.00138294,0.000475569,-0.00116194,0.00220097,0.00128508,-0.0578018,4992,4992,0
375181348,375180516,3932170,3932170,-0.00161117,-0.000135885,0.000384732,-0.00490995,0.00946663,-0.0563906,4964,4964,0
375679454,375679190,3932170,3932170,-0.00103055,3.10716e-05,-0.000347028,-0.00624742,-0.0147087,-0.0475411,4984,4984,0
376183439,376183083,3932170,3932170,0.00128835,0.00136701,-2.30615e-05,0.00177902,0.000104969,-0.0443282,4989,4989,0
376677310,376677006,3932170,3932170,0.000581219,-0.000345257,0.00026399,-0.00341937,0.00739345,-0.0520262,4997,4997,0
377181179,377180894,3932170,3932170,-0.000833126,0.00099204,-4.23467e-05,-0.00545231,-0.00459309,-0.0501723,4992,4992,0
377680107,377679795,3932170,3932170,-0.000624716,0.000293519,0.000832059,-0.00275789,0.0308107,-0.04948,4988,4988,0
378179054,378178771,3932170,3932170,0.000250382,-0.000225301,-0.000449327,-0.00471815,9.66525e-05,-0.0514099,4982,4982,0
378678103,378677851,3932170,3932170,-0.00134501,0.000335492,6.18104e-05,-0.00360771,-0.020317,-0.0463256,4964,4964,0
379181753,379181497,3932170,3932170,0.00112701,7.33791e-05,-5.81315e-05,-0.00168312,-0.00921635,-0.0486847,4989,4989,0
379680804,379680404,3932170,3932170,-0.00142378,0.000755633,0.00112093,-0.00697387,0.0110817,-0.0527591,4992,4992,0
380179554,380179306,3932170,3932170,0.000302504,-0.000334766,0.000348521,-0.00201134,0.00814434,-0.0492188,4991,4991,0
380678722,380678212,3932170,3932170,0.000591703,0.000104998,-0.000323006,-0.00440362,-0.0118058,-0.0457495,4990,4990,0
381177450,381177119,3932170,3932170,0.00145991,-0.000546872,-0.000668746,0.00116747,0.0113571,-0.0487696,4993,4993,0
381681789,381681095,3932170,3932170,-0.000224207,0.000117343,-0.000871511,-0.00216998,-0.00789594,-0.0477688,4967,4967,0
382180427,382180136,3932170,3932170,0.000815311,0.000399161,0.000251341,-0.00602441,2.82193e-05,-0.0512306,4965,4965,0
382679072,382678814,3932170,3932170,-0.00080318,-0.000529257,-0.000325109,-0.00386809,0.00589844,-0.0576772,4989,4989,0
383182956,383182707,3932170,3932170,-5.28669e-05,-0.000583991,0.000143679,0.00103471,0.0169549,-0.0566065,4989,4989,0
383681855,383681612,3932170,3932170,-0.00155979,0.00125294,1.27167e-05,0.000219269,0.0116414,-0.0494212,4937,4937,0
384180820,384180523,3932170,3932170,0.000789228,-0.00206422,0.000517374,0.00265044,-0.00144869,-0.0438431,4996,4996,0
384679672,384679421,3932170,3932170,-0.00572674,0.0011848,-0.000201039,-0.00938324,-0.0212973,-0.0475965,4984,4984,0
385178737,385178420,3932170,3932170,-0.00180554,0.000305502,0.000839904,-0.00698267,0.00659283,-0.0583854,4992,4992,0
385677793,385677453,3932170,3932170,-0.00168901,0.00068408,0.000857603,-0.00259951,0.0014397,-0.0478442,4970,4970,0
386181402,386181125,3932170,3932170,-4.37833e-05,-0.00281889,0.000460743,-0.000397144,0.00453229,-0.0444538,4991,4991,0
386680279,386680025,3932170,3932170,9.24133e-06,0.000962191,-1.52042e-05,-0.00295138,0.00442176,-0.0466861,4988,4988,0
387179233,387178934,3932170,3932170,0.0015364,0.00119166,-3.92156e-05,0.00276351,-0.00169663,-0.0410068,4992,4992,0
387678124,387677834,3932170,3932170,-0.00087147,0.000655223,-0.000173526,-0.00669693,0.00120669,-0.0502859,4988,4988,0
388182528,388181729,3932170,3932170,0.00209419,-0.00156816,-0.000474963,-0.00827037,0.00777491,-0.0541677,4990,4990,0
388680954,388680706,3932170,3932170,0.000428825,0.000117123,-0.000521871,-0.00812554,0.00508891,-0.0506726,4964,4964,0
389180487,389179740,3932170,3932170,0.000352185,-0.000613986,0.000230479,-0.00276237,0.00607959,-0.0559536,4965,4965,0
389678700,389678440,3932170,3932170,0.00153063,0.000408503,0.000441986,-0.0054774,0.00733155,-0.0562686,4989,4989,0
390182678,390182333,3932170,3932170,6.57902e-05,-0.000254683,-0.000402553,-0.000158536,-0.0168826,-0.0429176,4989,4989,0
390676540,390676248,3932170,3932170,-0.00159663,0.000704386,0.000577534,-0.0068268,0.0151386,-0.0574623,4989,4989,0
391180390,391180142,3932170,3932170,0.000575337,0.000193604,-0.000484738,-0.00201461,0.0046907,-0.0506442,4989,4989,0
391679342,391679046,3932170,3932170,0.00226712,-0.000378002,-0.000963829,0.000905318,-0.0183864,-0.0402456,4989,4989,0
392178379,392178089,3932170,3932170,0.000482731,-0.000732302,-0.00102111,-0.00338332,-0.0222454,-0.0453225,4975,4975,0
392682391,392682037,3932170,3932170,0.00135002,-0.000351944,-0.000492579,-0.000285912,-0.00798359,-0.0439633,4971,4971,0
393181001,393180748,3932170,3932170,-0.000494751,0.000325863,7.81262e-05,-0.00635863,0.0073177,-0.0487802,4989,4989,0
393680314,393679653,3932170,3932170,-0.000746687,7.02561e-05,-6.37609e-05,-0.00317464,-0.0145118,-0.04459,4990,4990,0
394178917,394178556,3932170,3932170,0.0012204,-0.000267256,0.00131142,-0.00222255,0.0176235,-0.0507066,4989,4989,0
394678073,394677462,3932170,3932170,-0.00301302,0.00116666,0.000768286,-0.00964881,0.0111381,-0.0551839,4989,4989,0
395181621,395181374,3932170,3932170,-0.000851433,-0.000375996,-0.000750705,-0.00335938,-0.0240395,-0.0489202,4992,4992,0
395680699,395680332,3932170,3932170,-0.00178632,0.000482008,0.000274789,-0.00619132,-0.0150759,-0.0488274,4974,4974,0
396179618,396179373,3932170,3932170,8.82374e-05,-0.000280832,-0.000286262,-0.000172719,-0.0151172,-0.0405552,4924,4924,0
396678335,396678082,3932170,3932170,0.000712685,-0.00081612,-0.000833916,-0.00525173,0.0138942,-0.0559632,5004,5004,0
397182209,397181960,3932170,3932170,-0.000516378,0.000130208,0.000947934,-0.000616908,-0.00152346,-0.0471697,4987,4987,0
397681160,397680864,3932170,3932170,-0.00191134,0.000556637,0.00177832,-0.00573169,0.0186337,-0.053855,4989,4989,0
398180022,398179774,3932170,3932170,-0.00180311,4.50458e-05,0.0013084,-0.00392562,0.0168205,-0.052498,4995,4995,0
398678924,398678673,3932170,3932170,0.00206916,2.40869e-05,-0.00123312,0.00125016,-0.00576305,-0.0458524,4989,4989,0
399177952,399177609,3932170,3932170,0.00031713,0.000601504,-0.000915081,1.18441e-05,-0.0279932,-0.0449428,4977,4977,0
399682018,399681655,3932170,3932170,-0.000747395,0.00200685,0.000580331,-0.00647275,-0.010674,-0.0510457,4973,4973,0
400180642,400180379,3932170,3932170,0.000872569,-0.00187597,-5.38267e-05,-0.00250907,-0.0131049,-0.0440065,4993,4993,0
400679589,400679279,3932170,3932170,0.000828371,-3.38153e-05,-0.000601985,0.000566147,0.00677496,-0.0425294,4980,4980,0
401178515,401178265,3932170,3932170,0.00160893,-0.000648186,-0.000506216,0.00746332,0.00141801,-0.0421835,5031,5031,0
401677340,401677088,3932170,3932170,9.28673e-05,-0.000235276,0.000450842,-0.000936812,-0.00516434,-0.0448063,4985,4985,0
402181280,402180983,3932170,3932170,0.00185355,-0.00286515,-0.000429161,-0.00236844,-0.0148693,-0.0465568,4989,4989,0
402680249,402679947,3932170,3932170,0.00241838,-0.00148679,-0.000735712,-0.00381275,0.00174738,-0.0519238,4969,4969,0
403179857,403178974,3932170,3932170,-0.000190814,0.000110045,-0.000161292,0.00162304,0.00176464,-0.0443999,4970,4970,0
403682948,403682683,3932170,3932170,0.000812387,0.000577922,-0.000344454,-0.00450987,0.012036,-0.0552476,4989,4989,0
404181861,404181587,3932170,3932170,0.000977095,-0.000204204,0.000472688,-0.00121149,0.00748924,-0.0505973,4988,4988,0
404675749,404675503,3932170,3932170,0.00163481,-0.00189627,0.000159848,-0.000587182,0.00921029,-0.0480805,4989,4989,0
405179688,405179403,3932170,3932170,0.000252547,0.000467604,-8.13815e-05,0.00130285,-0.00314691,-0.0477007,4990,4990,0
405678593,405678346,3932170,3932170,-0.00137672,0.000582235,0.00105603,-0.00396445,0.00690434,-0.0476024,4988,4988,0
406177609,406177276,3932170,3932170,0.000556012,-0.000476897,0.000365626,-0.00263128,-0.00242214,-0.0452948,4970,4970,0
406681534,406681274,3932170,3932170,0.000902361,0.000295817,-0.000480659,0.0043426,-0.0112238,-0.0397701,4973,4973,0
407180263,407180003,3932170,3932170,0.00145584,-0.00121189,-0.000188083,0.000116832,0.00391801,-0.0512692,4988,4988,0
407679190,407678912,3932170,3932170,-0.000513229,0.000219124,-0.00103682,-0.00340076,-0.000590894,-0.0469704,4989,4989,0
408178161,408177816,3932170,3932170,0.00248631,-0.00244693,-0.000768319,0.00648292,-0.000153587,-0.0425355,4993,4993,0
408677015,408676717,3932170,3932170,-0.0016869,0.00148882,0.000918481,-0.00600546,0.0296629,-0.055843,4988,4988,0
409180899,409180610,3932170,3932170,0.00334412,-0.0046095,0.000506388,-4.51728e-05,0.0224915,-0.0490944,4989,4989,0
409680512,409679566,3932170,3932170,0.00212527,0.00066237,-0.00142132,0.00213199,-0.0032751,-0.0513662,4978,4978,0
410178894,410178593,3932170,3932170,0.000656628,-0.000216303,-0.00037314,0.00365422,-0.0288853,-0.0381863,4970,4970,0
410682570,410682312,3932170,3932170,0.00226576,-0.000745226,-0.000812808,-0.00113729,-0.00317012,-0.0488898,4988,4988,0
411181545,411181217,3932170,3932170,0.000197432,0.000358054,-0.00114744,-0.00212294,-0.00937318,-0.0493378,4974,4974,0
411680417,411680122,3932170,3932170,0.000648923,-0.00112336,6.36288e-05,0.00068853,0.0106354,-0.049389,4939,4939,0
412179280,412179027,3932170,3932170,0.00281003,-0.00113386,-0.000959032,0.00290504,-0.00224749,-0.0465989,4989,4989,0
412678181,412677932,3932170,3932170,0.00012436,0.000440158,0.000245724,-0.00249476,0.00135769,-0.0465339,4990,4990,0
413182128,413181826,3932170,3932170,-0.000526505,0.000606633,0.000772336,-0.0045943,0.0106793,-0.0545819,4993,4993,0
413681227,413680879,3932170,3932170,0.000298549,-0.00105321,0.000508483,-0.0108915,-0.00260878,-0.0537001,4958,4958,0
414179897,414179633,3932170,3932170,-0.0013491,0.000397237,0.00192982,-0.00618462,0.0253085,-0.0555492,4985,4985,0
414678852,414678537,3932170,3932170,0.00136263,-0.0012328,0.000932555,-0.00232733,0.00901987,-0.049794,4988,4988,0
415177716,415177446,3932170,3932170,-0.00122384,0.00041326,0.000675771,-0.00834356,0.00132149,-0.0520055,4979,4979,0
415676589,415676342,3932170,3932170,-0.00145989,0.00267749,0.00117079,-0.00352842,0.0115915,-0.0460718,4979,4979,0
416180988,416180242,3932170,3932170,0.00112148,0.00010239,-0.000495731,-0.00308698,-0.0188803,-0.0485865,4989,4989,0
416679434,416679183,3932170,3932170,0.00327626,4.21832e-05,-0.000890666,-0.00149214,0.00353979,-0.0502246,4963,4963,0
417179259,417178215,3932170,3932170,0.000700382,0.000205085,-0.00105716,-0.00250547,-0.0165065,-0.049229,4972,4972,0
417682224,417681962,3932170,3932170,-0.00122048,0.00047113,0.000922397,9.81504e-05,-0.0160335,-0.0493238,5009,5009,0
418181124,418180847,3932170,3932170,0.000696858,-0.0010085,0.000292039,-0.00870294,0.00896467,-0.0581128,4989,4989,0
418680064,418679751,3932170,3932170,-0.00105731,-0.000319203,0.000691564,-0.00589805,-0.00789868,-0.048592,4989,4989,0
419178964,419178655,3932170,3932170,0.0024253,-0.00139635,-0.000922522,0.00859582,-0.0181486,-0.0409318,4988,4988,0
419677871,419677560,3932170,3932170,0.000123452,-0.000491274,-0.00015968,-0.00118037,0.00325873,-0.0513426,4989,4989,0
420181759,420181513,3932170,3932170,-0.00144404,0.000721637,0.000918747,-0.00635724,0.0172762,-0.0566173,4968,4968,0
420680810,420680509,3932170,3932170,0.000567392,-0.000580072,-0.000218619,-0.000821204,0.0107836,-0.0486439,4974,4974,0
421179525,421179266,3932170,3932170,-0.00124761,-0.00018003,0.000687721,-0.0107053,-0.00505133,-0.0506779,4991,4991,0
421683427,421683163,3932170,3932170,-0.000125249,0.00300001,-0.000641216,0.00133127,-0.0176273,-0.0465146,4994,4994,0
422177405,422177073,3932170,3932170,0.00137485,-0.000448564,-0.000261709,0.00361258,-0.00131469,-0.0453867,4990,4990,0
422676738,422675978,3932170,3932170,0.00120689,-0.00058856,-0.000762339,-0.00281248,-0.0320228,-0.0437529,4989,4989,0
423180176,423179870,3932170,3932170,-0.00132243,0.000783869,0.000910234,-0.00266846,-0.00217563,-0.0447359,4989,4989,0
423679637,423678775,3932170,3932170,0.000537594,0.000983835,0.000584299,0.0011886,0.0225396,-0.0446728,4988,4988,0
424178123,424177878,3932170,3932170,8.35393e-05,-0.000300101,0.000247044,-0.00234465,-0.00167396,-0.0450221,4976,4976,0
424681870,424681614,3932170,3932170,0.000325072,0.000295957,-0.000227054,-0.00474175,0.0121669,-0.054429,5031,5031,0
425180757,425180477,3932170,3932170,0.00301276,-0.00282027,-0.000750784,-0.0103541,0.00984809,-0.0591276,4989,4989,0
425679678,425679381,3932170,3932170,-0.000440378,-0.000120973,-0.000414187,-0.00575286,-0.0256741,-0.0532536,4989,4989,0
426178531,426178286,3932170,3932170,0.00020261,-0.00165139,0.000715736,-0.00374966,-0.00491067,-0.051209,4989,4989,0
426677437,426677190,3932170,3932170,0.000334781,0.00121297,-0.00020697,-4.94816e-05,0.00607481,-0.0503098,4984,4984,0
427181452,427181094,3932170,3932170,0.00160706,-0.00163797,-0.000650143,-0.00323593,-0.0030831,-0.0442711,4998,4998,0
427680443,427680136,3932170,3932170,-0.00187453,0.000378593,0.000133073,-0.0078445,-0.0170079,-0.0486125,4915,4915,0
428179158,428178894,3932170,3932170,0.000364921,9.14407e-05,-9.89673e-05,-0.00345281,0.00847443,-0.0480502,4990,4990,0
428683043,428682785,3932170,3932170,-0.000474259,2.2651e-05,0.000419871,-0.00148045,0.00477731,-0.0478782,4971,4971,0
429177061,429176708,3932170,3932170,0.00102432,-0.000490825,-0.000680218,0.00274113,-0.0126787,-0.0444062,4995,4995,0
429680846,429680595,3932170,3932170,-0.00108237,2.48885e-05,0.000792397,-0.00233655,0.00239952,-0.0450761,4988,4988,0
430179750,430179500,3932170,3932170,0.000830351,0.000133025,-0.000134397,-0.00342238,-0.015232,-0.050299,4988,4988,0
430678667,430678416,3932170,3932170,0.000855675,-0.00114066,-0.000790829,-0.000805583,-0.00145696,-0.0454033,4922,4922,0
431182896,431182416,3932170,3932170,-0.00081577,0.000827127,0.000861073,-0.000160349,0.0131831,-0.0484251,4975,4975,0
431681465,431681206,3932170,3932170,0.00150351,-0.00164295,0.00142635,-0.0106127,0.0105209,-0.0551515,4990,4990,0
432180374,432180106,3932170,3932170,-0.00122425,0.00123467,-0.000129849,-0.000595421,-0.00174671,-0.0451461,4988,4988,0
432679306,432679011,3932170,3932170,0.00305678,-0.00346765,-0.000107646,0.000795923,0.0139178,-0.0440992,4986,4986,0
433178172,433177927,3932170,3932170,0.00124143,-0.000100691,-0.000928426,0.00524142,-0.0225259,-0.046307,5001,5001,0
433677121,433676821,3932170,3932170,-0.000171261,-0.00296798,0.000678524,-0.00409401,0.0220513,-0.0573284,4987,4987,0
434180970,434180715,3932170,3932170,0.00118641,0.00217602,-0.00142481,0.00280604,-0.0257822,-0.0436744,4989,4989,0
434680012,434679758,3932170,3932170,-0.000226126,0.000343614,-0.000588512,-0.00851101,-0.00449133,-0.049933,4994,4994,0
435178791,435178523,3932170,3932170,0.000786678,-0.000463622,-0.000304839,-0.0035286,0.00329419,-0.0511644,4989,4989,0
435682718,435682417,3932170,3932170,-0.00224713,0.0026168,0.00098402,-0.0071821,-0.0120751,-0.0486309,4990,4990,0
436176587,436176340,3932170,3932170,0.00385504,5.82579e-05,0.000456726,0.00386468,0.00332014,-0.0438199,4998,4998,0
436680601,436680229,3932170,3932170,-0.00215506,0.000191728,-0.000384803,0.00434095,-0.0246882,-0.0378246,4993,4993,0
437179376,437179130,3932170,3932170,-0.00425488,0.00279968,0.000392551,-0.00292758,0.00522911,-0.0449767,4989,4989,0
437679112,437678036,3932170,3932170,0.00187632,-0.0002191,-0.000421631,0.00136389,0.00419622,-0.0592295,4990,4990,0
438182432,438182028,3932170,3932170,0.00225108,-0.00252506,0.000837992,0.00506029,-0.00710561,-0.0465187,4975,4975,0
438681094,438680835,3932170,3932170,0.000293758,0.000559502,0.000463981,-0.00102986,0.00823849,-0.0561789,4990,4990,0
439180051,439179741,3932170,3932170,-0.000813253,0.000164683,0.000216193,-0.00130254,0.000357535,-0.0569309,4994,4994,0
439684012,439683630,3932170,3932170,-0.00124508,0.000518941,0.000393682,-0.00366841,0.004456,-0.0540276,4986,4986,0
440177848,440177545,3932170,3932170,-0.00111378,0.000369068,0.000393502,-0.0030314,-0.0165938,-0.0470424,4989,4989,0
440681698,440681443,3932170,3932170,0.000571266,0.00107055,-0.000432031,-0.00287793,0.00135934,-0.049062,4992,4992,0
441180639,441180344,3932170,3932170,-0.0017168,-8.04337e-05,0.000456525,-0.00277571,-0.013075,-0.0481903,4974,4974,0
441679632,441679356,3932170,3932170,-3.50107e-05,0.000195007,-0.000384628,-0.00520603,0.00891305,-0.0457204,4966,4966,0
442178421,442178158,3932170,3932170,-0.00123868,0.00142918,0.000386185,-0.00108814,-0.00188711,-0.0494707,4995,4995,0
442682299,442682046,3932170,3932170,0.000846711,-0.00203936,0.000372659,-0.00197984,0.0039729,-0.0513436,4989,4989,0
443181224,443180955,3932170,3932170,-7.95354e-05,-0.000607109,-0.000688414,0.00140168,-0.0116525,-0.040761,4992,4992,0
443680176,443679855,3932170,3932170,0.00214469,-0.000313248,-0.00109761,-1.08087e-05,0.00668639,-0.0464944,4989,4989,0
444179423,444178762,3932170,3932170,-0.00199711,-0.000842877,0.00110473,-0.00329637,-0.0135041,-0.0455831,4987,4987,0
444677954,444677664,3932170,3932170,-0.00085588,0.00280098,0.00019936,-0.00503926,-0.00483648,-0.0498336,4987,4987,0
445182419,445181642,3932170,3932170,-0.000877249,2.70259e-05,0.000510365,-0.00317524,-0.0215055,-0.0496528,4967,4967,0
445681096,445680729,3932170,3932170,-0.000734865,-0.000213881,8.04718e-05,-0.00565694,-0.00282052,-0.0599837,5256,5256,0
446179665,446179367,3932170,3932170,0.00108454,0.000541034,-0.000276205,-0.00296831,0.00151035,-0.0530342,4989,4989,0
446683506,446683261,3932170,3932170,-0.00178057,0.000464638,0.000779431,-0.00384742,0.00039946,-0.0510676,4970,4970,0
447177469,447177175,3932170,3932170,0.000165584,-0.000332995,-0.000815257,-0.000842623,-0.001067,-0.046826,4988,4988,0
447681387,447681069,3932170,3932170,-0.00117659,0.000117295,2.58762e-05,-0.00398899,-0.014629,-0.0453497,4989,4989,0
448180223,448179974,3932170,3932170,0.00219952,-0.00138983,-0.000963908,-0.000744747,-0.00814931,-0.0438773,4977,4977,0
448679329,448678976,3932170,3932170,-0.000729245,8.95245e-05,-0.000417723,-0.00501611,-0.00608152,-0.0482117,4954,4954,0
449178372,449178049,3932170,3932170,-1.18028e-05,0.00112301,-0.000116035,-0.00337227,0.00462417,-0.0496759,5255,5255,0
449681936,449681677,3932170,3932170,-0.0015607,-3.21998e-05,0.000567469,-0.0064731,0.00944125,-0.0548574,4985,4985,0
450175855,450175592,3932170,3932170,-0.000110034,0.00127042,0.000357172,-0.00184139,-0.002035,-0.0451385,4989,4989,0
450680046,450679489,3932170,3932170,0.00201677,5.0848e-05,-0.000219038,-1.80118e-05,0.00955321,-0.0458917,4992,4992,0
451178690,451178402,3932170,3932170,9.26955e-06,3.15279e-05,-0.00033716,-0.00272712,-0.00306512,-0.0450502,4987,4987,0
451677650,451677314,3932170,3932170,0.00169001,-0.000972063,-0.000421323,-0.00292681,-0.0275859,-0.0447649,4966,4966,0
452181560,452181313,3932170,3932170,0.000943522,0.00271045,-0.000788879,0.00412919,-0.0123095,-0.0490498,5015,5015,0
452680852,452680348,3932170,3932170,0.00150091,-0.000258276,-0.000520661,0.00304825,-0.0141575,-0.0477112,5239,5239,0
453179263,453178997,3932170,3932170,0.00259987,-0.00198908,-7.1522e-05,0.00321057,-0.0108127,-0.0438121,4987,4987,0
453683268,453682891,3932170,3932170,-0.00148105,0.000479386,0.000634642,-0.00662936,0.0245936,-0.0590801,4990,4990,0
454177086,454176831,3932170,3932170,0.000387812,0.0015183,-0.00027171,-0.00116141,-0.00975139,-0.0447571,4991,4991,0
454680958,454680700,3932170,3932170,-0.000910954,0.00163711,-0.000458796,-0.00499146,-0.0010648,-0.0494236,4988,4988,0
455179951,455179605,3932170,3932170,-0.00132247,0.000343079,0.000235008,-0.00612908,-0.00269875,-0.0513651,4989,4989,0
455678973,455678642,3932170,3932170,0.000532591,0.000556818,0.000636039,-0.00147614,0.00137512,-0.0491408,4974,4974,0
456182899,456182641,3932170,3932170,0.000240166,-0.000241252,-0.000239813,-0.00219428,0.0178119,-0.0491156,4961,4961,0
456681562,456681307,3932170,3932170,0.00611161,-0.00258071,-0.000793826,0.00195737,-0.0225474,-0.0370783,4988,4988,0
457180508,457180213,3932170,3932170,-0.000541745,-5.82295e-05,0.000658562,-0.00382771,0.0228133,-0.0543303,4974,4974,0
457679412,457679120,3932170,3932170,-0.0014434,-0.000462686,0.00112012,-0.00541102,0.00243925,-0.0540694,4993,4993,0
458178772,458178022,3932170,3932170,0.00208057,-0.00309413,-0.000582278,7.52236e-05,-0.02308,-0.0430016,4987,4987,0
458677179,458676928,3932170,3932170,-0.000734351,-0.00135169,0.00096114,-0.00543863,0.00394572,-0.0514312,4991,4991,0
459181334,459180924,3932170,3932170,0.000387745,0.00456987,-0.000521462,-0.00483447,0.000355858,-0.0472596,4954,4954,0
459680305,459679968,3932170,3932170,0.000769373,-0.00189639,-0.000728055,-0.0015004,-0.0249689,-0.0400064,4970,4970,0
460178971,460178675,3932170,3932170,0.00136203,-0.000223691,-0.000364382,-0.00225953,-0.000680837,-0.0536471,4991,4991,0
460682855,460682521,3932170,3932170,-0.000420801,0.000534057,0.000344598,-0.00209512,-0.0139012,-0.0466337,4989,4989,0
461176734,461176436,3932170,3932170,-0.000197679,0.000295498,0.00037374,-0.00187128,-0.0241906,-0.0454053,4965,4965,0
461680668,461680380,3932170,3932170,0.00147214,-0.000228174,-0.000589764,0.000631956,0.00898736,-0.0491979,4982,4982,0
462179482,462179236,3932170,3932170,-0.000174919,-0.000260271,-0.00140423,-0.00435007,-0.027173,-0.0438753,4968,4968,0
462678517,462678268,3932170,3932170,-0.00123007,0.000712555,-0.0010122,-0.00300913,-0.0192436,-0.0439735,4973,4973,0
463182507,463182257,3932170,3932170,0.000326233,0.000571801,0.000390937,-0.00280611,0.0109062,-0.0444955,4959,4959,0
463681215,463680940,3932170,3932170,-0.000619646,-0.00038307,0.00130813,-0.00308567,-0.00752084,-0.0518524,4992,4992,0
464180233,464179842,3932170,3932170,-0.000194791,4.57426e-05,0.000170721,-0.00567597,0.0104277,-0.054939,4990,4990,0
464679318,464678742,3932170,3932170,0.000764414,-0.000567488,4.31217e-05,-0.00142343,0.00405561,-0.0478292,4920,4920,0
465177956,465177656,3932170,3932170,-0.00041947,-0.000169343,-0.00028448,-0.000267659,-0.00378539,-0.0440827,4995,4995,0
465681947,465681545,3932170,3932170,0.000752255,-0.00152508,0.000281207,-0.00725168,0.0123417,-0.0595826,4989,4989,0
466180740,466180494,3932170,3932170,-0.000734445,0.000286998,0.000321804,-0.00492218,-0.00637715,-0.0535159,4965,4965,0
466679948,466679591,3932170,3932170,-0.000680127,8.14721e-06,-0.000640948,-0.0081036,-0.00553845,-0.0511081,4972,4972,0
467183510,467183246,3932170,3932170,-0.000542775,0.000838682,0.00131345,-0.00445024,0.0152139,-0.0529987,4977,4977,0
467677452,467677162,3932170,3932170,-0.000745015,-0.000241514,-0.000253379,-0.00324421,-0.00104504,-0.0472964,4989,4989,0
468181315,468181058,3932170,3932170,0.000346999,0.000658672,-0.00107753,0.00289288,-0.00174917,-0.0477165,4992,4992,0
468680208,468679960,3932170,3932170,-0.000250977,0.00031374,-0.000147907,-0.000437138,-0.0303476,-0.0413612,4989,4989,0
469179184,469178865,3932170,3932170,0.00137259,-0.00047258,2.27423e-05,-0.00174231,-0.00130766,-0.0484256,4989,4989,0
469678104,469677815,3932170,3932170,0.00145372,-0.00151802,-0.000125827,-0.00367574,-0.00465807,-0.0470164,4964,4964,0
470182183,470181889,3932170,3932170,0.000177082,0.000605621,-0.000183412,-0.00111116,-0.00347083,-0.0470147,4911,4911,0
470680927,470680567,3932170,3932170,-0.000203035,-0.000416523,0.000297114,-0.00356796,0.0268557,-0.0572556,4989,4989,0
471179718,471179472,3932170,3932170,0.000325628,-0.000301883,-0.000408076,-0.00242389,-0.00637504,-0.0470266,4987,4987,0
471678621,471678376,3932170,3932170,-0.00221669,0.000869263,0.00116344,-0.00265441,0.0135395,-0.0553296,4989,4989,0
472177970,472177283,3932170,3932170,-0.00128973,0.000621253,0.000879256,-0.00579184,0.00789869,-0.0509931,4989,4989,0
472681454,472681175,3932170,3932170,0.00114169,1.08059e-05,-0.000610627,-0.00424961,-0.0150684,-0.0502528,4989,4989,0
473181039,473180166,3932170,3932170,0.00147045,0.0013189,-7.54253e-05,-0.00632047,0.00212062,-0.0540812,4974,4974,0
473679541,473679204,3932170,3932170,-0.000559653,-0.00102225,0.00072815,-0.00121622,-0.000421783,-0.0480834,4972,4972,0
474183131,474182877,3932170,3932170,-0.000305521,6.85805e-05,0.000428487,-0.00364972,0.00717032,-0.0532,4989,4989,0
474677125,474676792,3932170,3932170,-9.30824e-05,-2.44608e-05,-0.000704941,-0.00281844,-0.0259684,-0.0444508,4988,4988,0
475180977,475180686,3932170,3932170,0.00249632,-0.00232967,-0.000753978,-0.00213329,-0.0314016,-0.0419541,4989,4989,0
475679839,475679594,3932170,3932170,0.00425965,-0.000929549,-0.00109676,-0.000583571,-0.00987973,-0.0420503,4991,4991,0
476178802,476178498,3932170,3932170,-0.00185631,0.000754621,0.00115282,-0.00212389,0.00472724,-0.0539776,4991,4991,0
476682763,476682413,3932170,3932170,0.00186985,-0.000588239,-0.00103527,-0.00628057,0.00922187,-0.0563264,4967,4967,0
477181769,477181521,3932170,3932170,-0.00191184,0.000419028,0.00041321,-0.00528583,-0.00223599,-0.0530102,4952,4952,0
477680489,477680238,3932170,3932170,0.00137881,-0.000227154,-0.000503173,-0.00329401,0.0102462,-0.0544843,5027,5027,0
478179351,478179104,3932170,3932170,0.00154238,-0.00206916,-0.000232945,-0.00757889,0.00287639,-0.0497725,4980,4980,0
478678565,478678011,3932170,3932170,-0.000381797,0.000618045,-0.000301449,-0.00465662,-0.0044428,-0.0481261,4992,4992,0
479177158,479176913,3932170,3932170,-0.00159644,0.00170791,0.000689535,-0.00235678,-0.00871879,-0.0438647,4990,4990,0
479681102,479680807,3932170,3932170,0.000253125,-0.000700683,-0.000171736,0.000262973,-0.00443133,-0.0456045,4974,4974,0
480179982,480179733,3932170,3932170,0.000657526,-0.000946938,-0.00120856,0.000646735,-0.0250445,-0.0406346,4969,4969,0
480679637,480678810,3932170,3932170,0.000286482,0.00344256,-0.000720469,0.000626366,-0.000200892,-0.0464011,4964,4964,0
481182803,481182508,3932170,3932170,-0.00101594,-0.00115956,0.000659149,-0.000470853,-0.00126355,-0.0501032,4989,4989,0
481681658,481681413,3932170,3932170,-0.00058741,-0.000111485,5.52509e-05,-0.00148788,-0.000656834,-0.0457025,4982,4982,0
482180626,482180317,3932170,3932170,-6.77956e-06,0.000807469,-0.000258341,-0.00352996,-0.000418427,-0.0506786,4951,4951,0
482679554,482679222,3932170,3932170,-0.000666247,0.000626648,-0.000916348,-0.00713615,-0.0298865,-0.0460397,4989,4989,0
483178385,483178127,3932170,3932170,-0.000894377,5.85098e-05,0.00124472,-0.00396979,0.016687,-0.0534712,4989,4989,0
483682389,483682115,3932170,3932170,0.00276797,-0.00149242,-0.000950809,-0.000990434,0.0061694,-0.0518642,4964,4964,0
484181465,484181121,3932170,3932170,-0.00182958,0.00128285,-0.000837011,-0.00466947,-0.00617423,-0.0497291,4975,4975,0
484680086,484679831,3932170,3932170,0.000656641,-7.20372e-05,-0.00086261,0.000547588,-0.00728927,-0.0461898,4991,4991,0
485179154,485178738,3932170,3932170,0.000828709,-0.000656693,-0.000686616,-0.00253812,0.00115441,-0.0497802,4994,4994,0
485677929,485677638,3932170,3932170,0.00119356,8.02254e-05,-0.000991834,-0.00288218,-0.0211616,-0.0446742,4989,4989,0
486181808,486181556,3932170,3932170,-0.00134341,0.000466355,-0.00029216,0.000340068,-0.00941952,-0.0435859,5012,5012,0
486680681,486680437,3932170,3932170,-0.00179294,0.000454781,0.000400409,-0.00721449,-0.00962422,-0.0474774,4989,4989,0
487180209,487179348,3932170,3932170,-0.00136367,-0.00021593,0.000127972,-0.00641326,-0.0130014,-0.0476606,4956,4956,0
487678772,487678527,3932170,3932170,0.000884929,-0.000319243,-0.000193004,0.000345102,0.00229335,-0.0495099,4990,4990,0
488182447,488182188,3932170,3932170,0.00441078,-0.000217831,-9.30034e-05,-0.00150008,0.027181,-0.0553194,5038,5038,0
488676380,488676055,3932170,3932170,-0.00148585,0.000827412,0.000561063,-0.00125983,0.00788326,-0.0508209,4990,4990,0
489180255,489179948,3932170,3932170,0.0013384,-0.00291345,0.000792082,-0.00381365,-0.00857556,-0.0497465,4989,4989,0
489679099,489678853,3932170,3932170,-0.000656503,0.000272083,0.00124319,-0.00380283,0.0184128,-0.05636,4989,4989,0
490178017,490177766,3932170,3932170,-0.000669854,8.83805e-05,-0.000190437,-0.00130765,0.00434054,-0.0450351,4956,4956,0
490681947,490681696,3932170,3932170,-0.000196818,0.00116375,8.04975e-05,-0.0049691,-0.0013356,-0.053601,5017,5017,0
491181135,491180731,3932170,3932170,0.00382539,-0.000815987,-0.000851328,0.00345225,-0.0166532,-0.0470969,4970,4970,0
491679720,491679461,3932170,3932170,-0.00219621,0.000441508,2.07797e-05,-0.00632107,0.00962613,-0.0634304,4990,4990,0
492178608,492178364,3932170,3932170,0.00171849,-0.000453436,-0.000166923,-0.00676267,0.000255893,-0.0536209,4988,4988,0
492677785,492677273,3932170,3932170,0.00125608,-0.000339167,-0.000735721,-0.000773497,-0.013264,-0.0445911,4992,4992,0
493181430,493181162,3932170,3932170,0.000975378,-0.000366379,-0.000397313,0.0015515,-0.00395588,-0.0437028,4988,4988,0
493680794,493680069,3932170,3932170,-0.000857127,0.00201023,0.000916811,-0.00185783,-0.0104962,-0.0450973,4982,4982,0
494179337,494179078,3932170,3932170,-0.000716676,-0.00016564,-0.000436175,-0.00476658,-0.0232917,-0.0461814,4958,4958,0
494683424,494683024,3932170,3932170,0.000670964,-0.000546691,-0.000396931,-0.00267749,-0.0217639,-0.0440793,4975,4975,0
495182027,495181769,3932170,3932170,-0.00255287,0.000745392,0.000481166,-0.00850054,0.0042471,-0.0516964,4981,4981,0
495680958,495680674,3932170,3932170,0.000437057,-0.000153076,0.000578071,0.00252372,0.00633721,-0.0500755,4989,4989,0
496179867,496179579,3932170,3932170,-0.00247304,0.00109534,0.000772854,-0.00826491,0.00948211,-0.0549234,4989,4989,0
496678775,496678532,3932170,3932170,0.000591881,0.000676526,-0.000152669,0.00352802,0.00610201,-0.0490657,5042,5042,0
497177681,497177388,3932170,3932170,0.00310183,-0.00144925,-0.000153826,-0.00191304,0.0205915,-0.0557419,4988,4988,0
497681578,497681283,3932170,3932170,-0.00100762,0.000735682,-0.000298556,-0.000800949,-0.000262191,-0.0466536,4988,4988,0
498180714,498180407,3932170,3932170,0.000650991,-3.98649e-05,0.000188702,0.00172067,0.012874,-0.0450193,4981,4981,0
498679351,498679090,3932170,3932170,-0.00101414,0.000445547,0.000810783,-0.00140438,-0.0128532,-0.0433775,4989,4989,0
499178279,499177996,3932170,3932170,-0.00167809,-7.29641e-05,0.00191,-0.00607901,0.0226604,-0.051375,4978,4978,0
499677145,499676899,3932170,3932170,0.000364039,-0.000399048,-0.00112549,-0.00267445,-0.00076868,-0.0452323,4987,4987,0
500182164,500180801,3932170,3932170,-7.56531e-06,-0.000341769,-0.00712032,-0.00143931,-0.00842575,-0.0501806,4997,4997,0
500679985,500679697,3932170,3932170,-0.000541543,-0.00119829,-0.000366691,-0.00312231,-0.0108432,-0.0387836,4989,4989,0
501180298,501178680,3932170,3932170,-0.00169947,0.00273489,0.00107527,-0.00275789,0.0108835,-0.0548792,4962,4962,0
501682933,501682631,3932170,3932170,0.00143587,-7.8832e-05,-0.000218369,-4.3401e-05,-0.0166751,-0.0506252,4966,4966,0
502181655,502181399,3932170,3932170,0.000348388,-0.000313242,-0.000278579,-0.00121144,-0.0322617,-0.0442835,4986,4986,0
502680601,502680316,3932170,3932170,-0.000268128,-0.000533387,0.000362916,-0.00281431,-0.0120154,-0.0489903,5001,5001,0
503179560,503179210,3932170,3932170,0.00218451,-0.000327504,-0.00153184,-0.00055475,-0.0231251,-0.0445607,4990,4990,0
503678450,503678117,3932170,3932170,0.00135612,-0.00059682,-0.00435436,-0.0078763,-0.00772127,-0.0465205,4993,4993,0
504182297,504182009,3932170,3932170,0.00536686,-5.31547e-05,-0.00149467,-0.00671426,-0.00870532,-0.0482436,4992,4992,0
504681379,504680924,3932170,3932170,-0.000498626,-0.000380329,-0.000159159,-0.00164478,-0.00519164,-0.0415675,4964,4964,0
505180311,505179961,3932170,3932170,-0.00116363,0.000603713,0.00124743,-0.000503258,0.0176457,-0.0463299,4965,4965,0
505679006,505678745,3932170,3932170,-0.000380193,0.000359499,0.000488254,-0.00272997,0.0169447,-0.0523291,4986,4986,0
506177922,506177623,3932170,3932170,-0.00108599,-0.00178864,0.000524493,0.00248535,-0.00426103,-0.0491484,4989,4989,0
506676853,506676531,3932170,3932170,0.000822726,-0.000299616,-0.000771083,-0.000165818,-0.00675235,-0.0522105,4991,4991,0
507180684,507180441,3932170,3932170,0.000791478,0.000228645,-0.000904084,-0.00165959,-0.00824004,-0.0495756,4985,4985,0
507680109,507679327,3932170,3932170,0.00281677,-0.00068589,-0.000337662,-0.00147149,0.00416969,-0.054283,4989,4989,0
508178574,508178231,3932170,3932170,-0.00234593,0.000892024,0.000254467,-0.00606469,-0.00969249,-0.0499202,4993,4993,0
508683245,508682298,3932170,3932170,0.00323468,-0.000898698,-0.00132292,0.00474037,-0.0142541,-0.039457,4919,4919,0
509181287,509181027,3932170,3932170,-0.0008387,3.62502e-05,9.41017e-05,-0.00163458,-0.0100139,-0.044887,4987,4987,0
509680211,509679931,3932170,3932170,-0.000979428,0.000393267,0.000853508,-0.0023011,0.0143097,-0.0539442,4987,4987,0
510179086,510178836,3932170,3932170,-0.000385682,-0.000800065,0.00024718,0.00210225,0.0164239,-0.0528586,4987,4987,0
510678038,510677740,3932170,3932170,0.000839401,0.00187747,1.99127e-05,-0.00198388,-0.0109949,-0.050033,4989,4989,0
511181896,511181634,3932170,3932170,-0.00107853,0.000238265,0.000900458,-0.00488548,0.0155005,-0.0527467,4989,4989,0
511680849,511680548,3932170,3932170,0.000874617,0.000159051,-1.59694e-05,-0.00374339,-0.00553933,-0.0397192,4997,4997,0
512179883,512179583,3932170,3932170,-0.00033471,-1.66563e-05,-0.000960384,-0.00617272,-0.0220308,-0.0422613,4954,4954,0
512678601,512678347,3932170,3932170,-0.00307714,0.00318387,0.000775293,-0.0031211,0.0259029,-0.0512565,4986,4986,0
513177568,513177296,3932170,3932170,-0.000205558,-0.000589132,-0.00175533,-0.00201653,-0.0114963,-0.0543568,5034,5034,0
513676444,513676155,3932170,3932170,-0.000326952,0.000543671,-0.000247983,-0.00156152,-0.00474605,-0.0501312,4981,4981,0
514180405,514180052,3932170,3932170,0.000886465,-0.00045044,-0.000342736,0.00322316,-0.0206484,-0.0434694,4991,4991,0
514679238,514678964,3932170,3932170,-0.00106629,0.000108999,0.000248197,-0.00518091,-0.0138049,-0.0460353,5000,5000,0
515178274,515177870,3932170,3932170,0.000618967,-0.00022012,-0.000710102,0.000380743,0.013272,-0.0459094,4967,4967,0
515682206,515681864,3932170,3932170,0.000775288,-0.00120347,-0.000211314,-0.000182358,-0.00899,-0.0442881,4959,4959,0
516180971,516180657,3932170,3932170,0.000363977,-1.15177e-05,0.000121367,-0.00529503,-0.0260528,-0.0475792,4983,4983,0
516679818,516679559,3932170,3932170,-0.000342988,-0.000975035,0.000479695,-0.0025301,0.0240828,-0.050317,4987,4987,0
517178775,517178463,3932170,3932170,0.000762694,-8.49262e-05,0.00061709,0.000715948,0.0143088,-0.0436847,4989,4989,0
517677703,517677368,3932170,3932170,0.000569872,-0.00292334,0.000412856,0.000538376,0.0215277,-0.0476522,4990,4990,0
518181558,518181267,3932170,3932170,-0.000751791,0.000354033,-0.000189214,-0.00333693,-0.0244421,-0.0518063,4995,4995,0
518680519,518680178,3932170,3932170,-0.00244813,0.000241212,0.00108223,-0.00569411,0.0298636,-0.0625718,4989,4989,0
519179507,519179181,3932170,3932170,0.00081565,-0.000375215,-0.00231579,-0.000268707,0.00142825,-0.0523506,4960,4960,0
519683228,519682970,3932170,3932170,-0.000858619,-0.000198524,0.000246599,-0.00303149,0.000896998,-0.0509847,4994,4994,0
520177179,520176879,3932170,3932170,-0.000683333,0.000292872,0.000299604,-0.000844253,-0.0147761,-0.0496251,4991,4991,0
520681099,520680777,3932170,3932170,-0.000297372,-0.000349838,0.000164264,-0.000680906,0.00687282,-0.0463464,4995,4995,0
521179926,521179678,3932170,3932170,-8.10787e-06,0.000728673,-0.000195551,-0.00398797,0.00788215,-0.0399214,4992,4992,0
521679122,521678581,3932170,3932170,0.00018026,-0.000169841,-0.00120943,0.000313786,-0.019314,-0.0400639,4988,4988,0
522182724,522182474,3932170,3932170,-0.000442963,-0.000216377,-0.00538074,-0.00106613,-0.00562845,-0.0405274,4996,4996,0
522681976,522681481,3932170,3932170,0.000309837,0.000741177,-0.00245157,-0.0085187,-0.0122355,-0.0530525,4972,4972,0
523180556,523180284,3932170,3932170,0.00767837,-0.00204829,0.00155482,-0.00354879,-0.008388,-0.0462802,4992,4992,0
523679493,523679185,3932170,3932170,-0.00356107,0.00131977,-0.000598548,-0.00424115,-0.0162861,-0.0525704,4984,4984,0
524178333,524178090,3932170,3932170,0.000280522,-0.000596627,-0.00441259,-7.26295e-05,0.0145783,-0.0540772,4986,4986,0
524677297,524676996,3932170,3932170,-0.000489438,0.000211016,-0.00297157,0.00120258,0.00508161,-0.0544704,4992,4992,0
525181141,525180887,3932170,3932170,0.000265752,0.000495034,-7.15788e-05,-0.00101126,0.00745112,-0.0490357,4989,4989,0
525680087,525679791,3932170,3932170,0.000637778,-0.000278065,0.000248285,-0.000679105,-0.00458774,-0.0380606,4989,4989,0
526179065,526178803,3932170,3932170,0.000269528,-0.000498093,-3.77493e-05,0.00069323,-0.00278367,-0.0367418,4975,4975,0
526677858,526677599,3932170,3932170,0.000731791,-7.22758e-05,-0.000942578,-0.00122331,-0.00217468,-0.0492015,4989,4989,0
527176768,527176505,3932170,3932170,0.00377288,-0.000503912,-0.000909449,-0.000266826,0.00699296,-0.04991,4991,4991,0
527680640,527680396,3932170,3932170,-0.000169624,0.000221548,-0.000105242,0.000663396,-0.0125521,-0.049032,4989,4989,0
528180205,528179303,3932170,3932170,0.000492413,-6.71933e-05,0.000103613,0.000224387,0.0193845,-0.0518332,4991,4991,0
528678488,528678236,3932170,3932170,-0.000383936,-0.00262738,0.00052604,0.00181868,-0.0183491,-0.0453924,5020,5020,0
529182403,529182099,3932170,3932170,-0.000527915,0.000425353,5.90514e-05,-0.00229498,-0.0266578,-0.0477933,4990,4990,0
529681355,529681089,3932170,3932170,-0.000435546,0.000104101,0.000447603,0.000700368,0.016586,-0.0448855,4966,4966,0
530180947,530180183,3932170,3932170,-2.41873e-05,-0.0033614,0.000640223,0.00061043,0.00874259,-0.046334,5262,5262,0
530679074,530678810,3932170,3932170,-0.00101891,0.0019246,-0.000606357,-0.000762755,-0.0120625,-0.0454197,4983,4983,0
531178091,531177723,3932170,3932170,0.00342575,-0.00467148,0.000330335,0.00298828,-0.00921289,-0.0418154,4993,4993,0
531676867,531676614,3932170,3932170,0.00068159,-2.56366e-05,-0.000276912,-0.00208421,0.00690554,-0.0591396,4936,4936,0
532180760,532180511,3932170,3932170,0.00152628,-0.000353758,0.000430585,-0.000396025,0.0134224,-0.058218,4988,4988,0
532679672,532679420,3932170,3932170,0.000284687,-9.73974e-05,-0.000209799,-0.000838899,0.0164926,-0.047612,4988,4988,0
533178845,533178466,3932170,3932170,0.00426504,-0.000351012,-0.000631298,0.000229112,-0.00056433,-0.0455502,4968,4968,0
533682776,533682477,3932170,3932170,-0.00121256,-0.000172906,0.000321418,-0.000451624,0.000367786,-0.0494039,5198,5198,0
534176444,534176128,3932170,3932170,-9.33588e-05,0.00024787,-0.00132206,-0.000448501,-0.00424727,-0.0441947,4989,4989,0
534681239,534680021,3932170,3932170,-0.000287291,0.000110838,0.000484014,0.0015167,-0.00253843,-0.0479883,4982,4982,0
535179208,535178925,3932170,3932170,-0.000829397,0.000638519,0.0013214,-0.00265101,0.00132315,-0.0498286,4988,4988,0
535678081,535677831,3932170,3932170,-0.00215074,-1.23408e-05,-3.78844e-05,-0.00290383,-0.0115591,-0.047375,4990,4990,0
536181971,536181722,3932170,3932170,0.000129721,2.00024e-05,0.000357634,3.23963e-05,0.00817698,-0.041825,4988,4988,0
536681703,536680707,3932170,3932170,-0.00160716,-7.10991e-05,0.000242607,-0.000580815,-0.015161,-0.0455467,4977,4977,0
537180132,537179788,3932170,3932170,8.77053e-06,0.000127621,-0.000158277,-0.00472003,0.00783954,-0.0565633,4972,4972,0
537678686,537678434,3932170,3932170,0.000358468,-0.000290742,-0.000250385,-0.00104475,0.00205692,-0.0501514,4988,4988,0
538177586,538177340,3932170,3932170,-0.0015669,-0.000191344,-0.000133817,-0.00294386,-0.0181827,-0.0509439,4991,4991,0
538681521,538681231,3932170,3932170,-3.1521e-06,0.000441465,0.000337896,-0.00443288,0.0199631,-0.0612966,4989,4989,0
539180396,539180144,3932170,3932170,0.00294219,-0.000633764,-0.00060563,0.00517204,-0.0161461,-0.0412144,4992,4992,0
539679297,539679041,3932170,3932170,2.15378e-05,-0.000404937,-9.32101e-06,0.00333161,-0.00523227,-0.0471943,4986,4986,0
540183296,540182991,3932170,3932170,-0.000496636,0.00013225,0.000567172,-0.000499962,0.0010983,-0.0464286,4957,4957,0
540682363,540682065,3932170,3932170,0.00170407,0.000279951,-0.000393404,0.000877072,-0.0115405,-0.0445676,4955,4955,0
541181016,541180745,3932170,3932170,-0.000842125,0.000226118,-0.000313921,-0.000723,-0.0152753,-0.046601,4994,4994,0
541679888,541679644,3932170,3932170,-0.000543158,0.000364804,-0.00029241,-0.00266155,-0.00440247,-0.0422355,4989,4989,0
542178877,542178552,3932170,3932170,-0.000144986,-0.000313467,-0.000270079,-0.00168737,-0.0114723,-0.0477237,4993,4993,0
542677695,542677452,3932170,3932170,0.000697446,0.000429093,0.000245523,0.00054281,-0.00146831,-0.0515979,4989,4989,0
543181717,543181346,3932170,3932170,0.00124521,4.7822e-05,0.00057291,0.000126886,0.000954033,-0.0561982,4989,4989,0
543680607,543680362,3932170,3932170,-0.000655987,0.000268802,0.000945313,-0.000414511,-6.90861e-05,-0.051478,4966,4966,0
544180332,544179392,3932170,3932170,0.00144341,-0.00185274,-7.13099e-05,-0.00150296,0.00682916,-0.0511554,4967,4967,0
544683350,544683046,3932170,3932170,-0.000256198,9.79336e-05,-0.001016,-0.00252368,0.0079165,-0.0496997,4989,4989,0
545177252,545177003,3932170,3932170,0.000356801,-0.000427192,-0.000756073,0.0045036,-0.0100373,-0.0427573,5031,5031,0
545681099,545680854,3932170,3932170,0.00132788,0.00126033,0.000870095,0.000887646,0.0183359,-0.0503935,4989,4989,0
546180027,546179758,3932170,3932170,-0.00271206,0.00018841,-0.000241771,0.00301986,-0.0117295,-0.0467983,4989,4989,0
546678917,546678662,3932170,3932170,0.000808631,0.000145119,0.000546438,0.00120242,0.0137732,-0.0471438,4989,4989,0
547182847,547182590,3932170,3932170,0.000673521,0.000203912,-0.000303285,-0.000261903,0.0044592,-0.0438769,4962,4962,0
547682033,547681687,3932170,3932170,-0.000304721,0.000190508,0.00100987,0.00116965,0.0248708,-0.0504967,4961,4961,0
548180627,548180366,3932170,3932170,0.000438968,1.1371e-06,-0.000152228,-0.001207,0.0144949,-0.0526868,4994,4994,0
548679663,548679271,3932170,3932170,-0.00157137,0.000208956,0.000864206,-0.00147344,0.00516871,-0.054362,4993,4993,0
549178510,549178171,3932170,3932170,-0.000241326,-0.000400577,-0.000278263,-0.000698353,0.00112601,-0.0497763,4978,4978,0
549682323,549682071,3932170,3932170,0.00170031,-0.000712644,-0.00135605,-0.00183388,-0.035716,-0.0398777,4995,4995,0
550181234,550180972,3932170,3932170,0.00118341,-0.000497262,-0.000483856,0.001893,-0.00566526,-0.044947,4990,4990,0
550680674,550679916,3932170,3932170,0.00256562,-0.00107107,-0.000530578,0.000131708,-0.0112058,-0.0472457,4964,4964,0
551179355,551179062,3932170,3932170,-0.00184529,0.000886849,-0.000888743,0.00281933,-0.0352069,-0.0435142,4971,4971,0
551682923,551682668,3932170,3932170,0.000838394,-0.000929921,0.00011285,0.00227416,0.0184092,-0.0512973,4989,4989,0
552176856,552176596,3932170,3932170,0.00318696,-0.00160284,-0.00126863,-5.7582e-05,-0.00753766,-0.0504116,5002,5002,0
552680725,552680476,3932170,3932170,-0.00200954,0.000722338,-9.6312e-05,-0.00530222,0.00417725,-0.052662,4989,4989,0
553179719,553179385,3932170,3932170,-0.00197044,0.000495156,0.00107858,-0.00397712,0.0121483,-0.0509138,4995,4995,0
553678579,553678283,3932170,3932170,0.00147443,-0.000252997,-0.000806594,0.0038137,-0.00725125,-0.0441446,4953,4953,0
554182565,554182274,3932170,3932170,0.000374687,0.000134712,-0.000319849,-0.00100243,0.00467339,-0.0474253,4968,4968,0
554681593,554681290,3932170,3932170,-0.00162524,-0.000963199,0.00107125,-0.00200979,0.0046677,-0.0478452,4963,4963,0
555180248,555179985,3932170,3932170,0.000909505,-0.000714425,-0.000445251,0.00112817,-0.00391254,-0.045663,4987,4987,0
555679214,555678888,3932170,3932170,0.000681619,-0.000877563,-0.000409921,0.00118418,-0.0173895,-0.0361048,4984,4984,0
556178134,556177794,3932170,3932170,0.000786282,-0.000151197,-2.97716e-05,-0.00121815,0.0137529,-0.0558912,4991,4991,0
556681936,556681684,3932170,3932170,0.000853508,-0.000196274,-0.000187959,0.00116118,-0.00217431,-0.0540901,4988,4988,0
557181219,557180636,3932170,3932170,0.000933102,5.10498e-05,-0.000315347,-0.00383792,-0.00698836,-0.0563129,4987,4987,0
557679878,557679586,3932170,3932170,-0.00373031,0.000201447,-0.000254941,0.00261303,-0.0227869,-0.0457884,4974,4974,0
558184629,558183586,3932170,3932170,0.00129198,-0.000643462,0.000716213,0.00463827,0.00879145,-0.0409297,4981,4981,0
558677559,558677301,3932170,3932170,-0.00204608,0.0016544,-0.000130742,-0.00298976,0.00877797,-0.0514371,4990,4990,0
559176454,559176206,3932170,3932170,-0.00132128,0.000239264,0.000265107,-0.00342585,-0.0157153,-0.0461144,4991,4991,0
559680423,559680096,3932170,3932170,0.000833416,0.000405493,0.000228293,0.000658106,0.0159609,-0.0480105,4989,4989,0
560179297,560179004,3932170,3932170,-0.000398855,0.00041862,-0.000295333,-0.000207333,-0.00494763,-0.0489802,4989,4989,0
560678189,560677905,3932170,3932170,-0.00186377,0.000396921,0.00080346,-0.00540429,-0.0129995,-0.0480572,4990,4990,0
561182100,561181851,3932170,3932170,0.00147502,-0.000229471,-0.00065136,-0.00628145,0.0125164,-0.0417854,5000,5000,0
561681150,561680899,3932170,3932170,0.00243882,-0.000318923,-0.00116498,-0.000489134,0.0163604,-0.0395294,4962,4962,0
562179890,562179606,3932170,3932170,-0.000988535,0.000425969,-4.19628e-06,0.00179587,0.00878704,-0.0565446,4991,4991,0
562678867,562678523,3932170,3932170,0.0059523,-0.00113756,-0.00174656,-0.00435361,-0.0192184,-0.0562053,5004,5004,0
563177655,563177413,3932170,3932170,-0.00189517,-0.00032933,0.000302805,-0.00159852,0.0232792,-0.0654149,4990,4990,0
563681915,563681307,3932170,3932170,-0.000118295,-0.000260098,0.000254694,-0.00110163,-0.0212298,-0.0440267,4990,4990,0
564180498,564180209,3932170,3932170,-0.000371797,0.000332832,0.00102927,-0.00103073,0.0120502,-0.0468922,4989,4989,0
564679662,564679138,3932170,3932170,-0.00229326,0.000138664,0.00166595,0.00347457,0.00731624,-0.0408834,4963,4963,0
565183495,565183244,3932170,3932170,0.000286448,-0.000120687,0.000198639,0.00329129,-0.0151229,-0.0493447,5022,5022,0
565682212,565681910,3932170,3932170,6.82393e-05,0.000269565,-0.0010265,-0.00289368,-0.0151763,-0.0434259,4988,4988,0
566181137,566180816,3932170,3932170,8.85785e-05,6.64966e-05,-0.000365278,-0.00257921,0.000489133,-0.0460128,4992,4992,0
566679984,566679717,3932170,3932170,0.000369205,-0.000296248,-0.000860578,0.00356412,-0.0292059,-0.0438988,4989,4989,0
567178913,567178667,3932170,3932170,0.00113962,-0.000399293,-0.000730303,-0.000561604,-0.0198558,-0.0479442,5036,5036,0
567677856,567677524,3932170,3932170,-0.00137588,-0.000194733,-0.000791193,-0.00366988,0.00025319,-0.0532569,4988,4988,0
568181804,568181517,3932170,3932170,0.00172409,-0.00281349,0.000506094,-0.00141582,0.0145988,-0.0516608,4949,4949,0
568680879,568680511,3932170,3932170,0.000780108,-0.00019195,-0.000236972,-0.00149584,0.0157025,-0.0474746,4982,4982,0
569179544,569179230,3932170,3932170,-0.00133802,0.00153495,-6.81451e-05,-0.00741181,-0.0293653,-0.0473892,4995,4995,0
569678376,569678128,3932170,3932170,-0.000149463,-6.11127e-05,-0.000887201,-0.00452696,-0.0107293,-0.0591725,4989,4989,0
570177418,570177028,3932170,3932170,-0.000922785,0.000279722,0.00031996,0.0010516,0.00894091,-0.0510722,4932,4932,0
570681240,570680925,3932170,3932170,-0.000751388,0.000133696,0.00102039,-0.00368817,0.0132228,-0.0548457,4989,4989,0
571180423,571179831,3932170,3932170,0.000953431,3.45087e-05,0.000350267,-0.000528172,0.00456314,-0.0516474,4990,4990,0
571679074,571678740,3932170,3932170,0.000640012,-0.000217649,-0.000826596,0.00322033,-0.0296645,-0.0453393,4970,4970,0
572183805,572182785,3932170,3932170,-0.000650943,-0.000290017,0.00106986,0.000168325,0.00802246,-0.0492532,4966,4966,0
572681838,572681530,3932170,3932170,0.00128632,-0.00062388,-0.00122564,-0.000276898,-0.013178,-0.0495593,4991,4991,0
573180733,573180432,3932170,3932170,-0.0013225,8.97417e-05,0.000511252,0.00082894,-0.0198632,-0.0452221,4989,4989,0
573679580,573679336,3932170,3932170,-0.00181418,0.000422373,0.00099059,-0.0050927,0.0136518,-0.049264,4986,4986,0
574178496,574178240,3932170,3932170,0.000179645,7.52575e-05,0.000453621,-0.00266863,-0.0204658,-0.0492736,4988,4988,0
574682469,574682133,3932170,3932170,-0.00148651,0.000104456,0.000551083,0.000844534,-0.0116541,-0.0477299,4988,4988,0
575181354,575181068,3932170,3932170,0.00217056,0.000347817,-0.000698429,0.00640452,-0.0125397,-0.0406059,4958,4958,0
575680453,575680205,3932170,3932170,0.000787791,-4.31842e-05,-0.000745033,-0.00104654,0.00427117,-0.0524021,4953,4953,0
576179110,576178844,3932170,3932170,0.00127198,0.00022953,0.000203817,-0.0012288,-0.0193904,-0.0468529,4990,4990,0
576678062,576677749,3932170,3932170,-0.000505113,-0.000234213,0.00117209,0.000162647,0.00924501,-0.0510505,4990,4990,0
577176905,577176651,3932170,3932170,0.000999862,-0.000128788,-0.00120189,-0.00230959,0.00172836,-0.0513471,4989,4989,0
577681206,577680546,3932170,3932170,-0.00124824,-1.57162e-06,0.000605265,-0.00262827,-0.0171458,-0.0477359,4989,4989,0
578179736,578179448,3932170,3932170,0.000989011,0.000256677,-0.00100993,-4.0216e-05,-0.0324877,-0.0454386,4989,4989,0
578678831,578678401,3932170,3932170,-0.000229529,-0.000151477,7.97294e-05,0.00401173,-0.00304878,-0.0474736,4969,4969,0
579177768,579177431,3932170,3932170,-0.00037658,0.000416654,0.000560416,0.000163935,-0.000602293,-0.0504191,4974,4974,0
579676424,579676165,3932170,3932170,-0.000112932,-0.000897801,0.000134626,0.000579553,0.0231652,-0.0491167,4991,4991,0
580180332,580180059,3932170,3932170,0.000209144,-0.000895548,-0.000983607,0.000637823,-0.00743789,-0.0454461,4997,4997,0
580679325,580678957,3932170,3932170,0.00060634,-0.000179764,-0.000686804,-0.0040772,0.0034285,-0.0477143,4991,4991,0
581178200,581177859,3932170,3932170,-0.00265944,0.0017978,0.000560209,-0.0078202,0.00443856,-0.0516067,4989,4989,0
581682000,581681752,3932170,3932170,0.000654455,0.000204015,0.000238041,-0.0030241,0.00452995,-0.0524568,4989,4989,0
582181023,582180706,3932170,3932170,-0.000377905,0.000265725,0.00102594,-0.00231384,0.0213047,-0.0553602,4991,4991,0
582680013,582679711,3932170,3932170,-0.00100497,0.000154096,0.00156616,-0.00280993,0.00217021,-0.0469663,4964,4964,0
583178831,583178464,3932170,3932170,0.000592095,-0.000145531,-0.000807973,0.000835513,-0.00799287,-0.0445063,4989,4989,0
583677647,583677369,3932170,3932170,-6.75596e-05,-0.000315366,-0.000645235,-0.00382288,0.00442669,-0.0509921,4992,4992,0
584181611,584181260,3932170,3932170,0.00106419,0.000283827,-0.000173468,-0.000973055,0.00232961,-0.0522062,4972,4972,0
584680455,584680163,3932170,3932170,-0.000576673,0.000240039,-5.23574e-05,-0.00710212,0.00905568,-0.0596025,4989,4989,0
585179752,585179069,3932170,3932170,0.0036884,0.000119124,-0.000561566,-0.00126461,-0.0125148,-0.0465883,4990,4990,0
585683277,585682978,3932170,3932170,-0.00076389,0.000613217,0.000976642,-0.00172053,0.00405801,-0.0510588,4975,4975,0
586182346,586182096,3932170,3932170,-0.00131587,0.000173655,0.00118279,-0.00516704,0.00921503,-0.0547709,4961,4961,0
586681056,586680767,3932170,3932170,0.00125237,-0.00104919,0.00037101,-0.0023975,-0.00277007,-0.0490864,4990,4990,0
587179981,587179674,3932170,3932170,0.000196934,-0.00028242,-0.000110906,-0.00426395,0.0143161,-0.054624,4993,4993,0
587678886,587678581,3932170,3932170,-0.0018671,0.00105229,0.00153786,-0.00431672,0.0101931,-0.0547225,4983,4983,0
588177723,588177477,3932170,3932170,0.000352623,-6.19049e-05,0.000291819,-0.00130879,-0.00915409,-0.049817,4989,4989,0
588681618,588681370,3932170,3932170,-0.00174172,1.31867e-05,0.000758901,-0.00253852,-0.00828306,-0.0490589,4985,4985,0
589180576,589180276,3932170,3932170,0.000134824,-0.000194718,-0.000428692,0.0010607,-0.0231006,-0.0444614,4990,4990,0
589679671,589679329,3932170,3932170,-6.46554e-05,0.00166738,2.36873e-05,-0.00251718,-0.00335663,-0.0571363,4973,4973,0
590178340,590178082,3932170,3932170,-0.000795201,8.94481e-05,0.000803785,0.000816769,0.0183687,-0.0524597,4987,4987,0
590677325,590677008,3932170,3932170,0.000177155,-0.000163903,-0.000692404,0.00125709,-0.0255906,-0.0411171,4983,4983,0
591181124,591180877,3932170,3932170,-0.000248034,-0.000587173,0.000840113,-0.00637926,0.00567884,-0.056541,4989,4989,0
591680031,591679782,3932170,3932170,-0.00181205,0.000594238,0.00101182,-0.00499801,-0.0147173,-0.0487148,4988,4988,0
592178941,592178686,3932170,3932170,-0.000475303,0.000173746,0.000848456,-0.00104206,0.00358255,-0.048405,4990,4990,0
592682885,592682581,3932170,3932170,-0.000574241,1.48052e-06,0.000503845,-0.000615076,-0.0111079,-0.0462759,4991,4991,0
593181902,593181610,3932170,3932170,0.00100681,-0.000770017,-0.00083914,-0.00233257,-0.00183545,-0.046902,4963,4963,0
593680691,593680388,3932170,3932170,-0.00064855,-4.79307e-05,-0.000430986,-0.000549493,-0.00162182,-0.0453463,4992,4992,0
594179562,594179289,3932170,3932170,0.00211829,-0.000759837,-0.000644374,0.00268879,0.00508537,-0.0488204,4989,4989,0
594678445,594678192,3932170,3932170,0.000876318,-8.53309e-05,-0.000716857,0.000344597,-0.000842014,-0.0487058,4985,4985,0
595177352,595177104,3932170,3932170,0.00194505,-0.000346835,-0.000748824,0.00148556,-0.0030875,-0.0438994,4983,4983,0
595681247,595680989,3932170,3932170,0.001473,-0.000406105,0.000251236,-0.00100813,-0.00655867,-0.0514998,4989,4989,0
596180230,596179924,3932170,3932170,-0.00394015,0.000263282,-0.000687445,-0.00162361,0.00680462,-0.0555706,5019,5019,0
596679267,596678974,3932170,3932170,0.000646639,0.00018365,-0.000333993,-0.00369073,0.0138876,-0.0577428,4958,4958,0
597177973,597177702,3932170,3932170,-0.00014762,0.000950346,-0.000267983,0.00216011,-0.0136621,-0.0453265,4991,4991,0
597676963,597676603,3932170,3932170,-0.00076864,0.000659632,0.00024451,-0.00477036,-0.00175677,-0.0507275,4988,4988,0
598180805,598180561,3932170,3932170,0.000672554,-0.000187273,0.000556442,-0.000704756,-0.0104298,-0.0464724,5048,5048,0
598679649,598679400,3932170,3932170,0.000976052,0.000154133,-0.000458542,-0.000398654,-0.00660907,-0.0458509,4989,4989,0
599178653,599178306,3932170,3932170,0.00231763,-0.000477533,-0.00136107,0.000718521,-0.00256434,-0.0456694,4990,4990,0
599682445,599682201,3932170,3932170,0.00012043,0.00011978,0.000773637,-0.000266364,0.0184924,-0.053088,4992,4992,0
600181732,600181213,3932170,3932170,0.00143794,-0.00164778,-0.000772545,0.00122189,0.0028551,-0.0487536,4962,4962,0
600680269,600680003,3932170,3932170,-0.00268457,0.00155996,0.000810808,-0.00972392,0.00520675,-0.0570874,4988,4988,0
601179215,601178909,3932170,3932170,-0.0012469,0.000621436,0.00138134,-0.0026923,0.00446361,-0.0506371,4989,4989,0
601678191,601677819,3932170,3932170,0.00175934,0.000178464,0.000165691,0.00265425,0.00722195,-0.0422877,4997,4997,0
602182029,602181703,3932170,3932170,0.000363911,-0.000536067,-0.000929105,-0.00297205,-0.0231456,-0.0432225,4988,4988,0
602680966,602680622,3932170,3932170,0.000746248,0.00121615,-0.00127463,-0.000353825,-0.00206496,-0.0476757,5001,5001,0
603179798,603179544,3932170,3932170,0.00158312,-0.00197643,-0.00119055,0.00230996,-0.0132202,-0.041033,4966,4966,0
603678833,603678527,3932170,3932170,0.00167259,-0.000459629,-0.00145104,0.00192865,-0.0200569,-0.0374118,4950,4950,0
604177580,604177318,3932170,3932170,0.00178729,-0.000486946,-0.000522082,-0.00217553,-0.00299727,-0.0488153,4989,4989,0
604681490,604681214,3932170,3932170,0.00030279,0.000353745,6.21653e-05,-0.000989061,0.0106804,-0.0463343,4992,4992,0
605180359,605180114,3932170,3932170,-0.00153916,0.000376184,0.00101854,-0.0104349,-0.00669417,-0.0525325,4989,4989,0
605679393,605679022,3932170,3932170,0.00134967,-0.00037072,-0.000286043,-0.00397514,-0.0025829,-0.0549062,4991,4991,0
606178218,606177968,3932170,3932170,-0.00325816,0.000129799,-0.00086461,-0.00105179,-0.0255904,-0.048833,5035,5035,0
606682129,606681816,3932170,3932170,0.000444416,-0.000183811,-0.000363766,-3.12931e-06,0.00542986,-0.0488506,4990,4990,0
607181205,607180821,3932170,3932170,-0.00106971,0.000256455,0.00014757,-0.0042091,-0.0245244,-0.0426501,4971,4971,0
607679885,607679625,3932170,3932170,0.00131398,-0.000357831,0.000330279,0.00153154,0.0176664,-0.0445203,4992,4992,0
608178784,608178525,3932170,3932170,-0.00184327,0.0010891,9.80868e-05,-0.00268492,-0.0193139,-0.0454156,4989,4989,0
608677678,608677429,3932170,3932170,-0.000175797,0.000196005,0.000463468,-0.00431585,0.00961974,-0.0573976,4989,4989,0
609181568,609181322,3932170,3932170,-0.000384534,0.000176416,0.000651289,-0.00376682,-0.00253371,-0.0529354,4977,4977,0
609680529,609680226,3932170,3932170,-0.000285748,3.33989e-05,0.000527395,-0.00367762,-0.00409078,-0.0508164,4989,4989,0
610184400,610184150,3932170,3932170,-0.000729679,-0.000535893,-0.000200416,-0.000560305,-0.0180466,-0.0519602,5020,5020,0
610683323,610683095,3932170,3932170,-0.000882308,0.000260299,8.75267e-05,-0.00392453,-0.000343871,-0.0481785,4961,4961,0
