timestamp,gyro_device_id,gyro_bias[0],gyro_bias[1],gyro_bias[2],accel_device_id,accel_bias[0],accel_bias[1],accel_bias[2],mag_device_id,mag_bias[0],mag_bias[1],mag_bias[2]
14576691,3670026,-0.010772344,-0.012359896,-0.0064534643,3670026,0.0,0.0,-0.0012962095,396809,0.0,0.0,0.0
14586665,3670026,-0.010775213,-0.012360431,-0.006443667,3670026,0.0,0.0,-0.0010278092,396809,0.0,0.0,0.0
15574559,3670026,-0.010727683,-0.01244165,-0.0077407057,3670026,0.0,0.0,-5.3116153e-05,396809,0.0,0.0,0.0
16572454,3670026,-0.00983422,-0.0119352015,-0.008345136,3670026,0.0,0.0,-0.0007717652,396809,0.0,0.0,0.0
17580453,3670026,-0.007697746,-0.010582959,-0.008047167,3670026,0.0,0.0,-0.004780759,396809,0.0,0.0,0.0
18578179,3670026,-0.00718126,-0.010128229,-0.004929708,3670026,-3.114052e-05,6.0264287e-05,-0.008142917,396809,0.0,0.0,0.0
19581040,3670026,-0.0071395757,-0.010018566,-0.0027457946,3670026,-0.00046680222,0.00084990007,-0.009765671,396809,0.0,0.0,0.0
20578938,3670026,-0.0069115497,-0.009765902,-0.0015253901,3670026,-0.0031865472,0.0057041203,-0.00901258,396809,0.0,0.0,0.0
21576862,3670026,-0.0064223767,-0.009376686,-0.0013708106,3670026,-0.010354305,0.017927738,-0.007224455,396809,0.0,0.0,0.0
22574734,3670026,-0.0058017895,-0.008882433,-0.00070134073,3670026,-0.019754287,0.033822097,-0.006892871,396809,0.0,0.0,0.0
23572633,3670026,-0.005323209,-0.008640486,-0.00010937494,3670026,-0.026506681,0.04642732,-0.007321782,396809,0.0,0.0,0.0
24575646,3670026,-0.005095324,-0.00854893,0.00037850763,3670026,-0.028350472,0.052890398,-0.007483046,396809,0.0,0.0,0.0
25578360,3670026,-0.004907967,-0.008453531,0.0005515562,3670026,-0.028186496,0.05752507,-0.0069896495,396809,0.0,0.0,0.0
26571295,3670026,-0.004831799,-0.008424497,0.0005434718,3670026,-0.027306452,0.059990432,-0.0064723045,396809,0.0,0.0,0.0
27579123,3670026,-0.0048430436,-0.008463376,0.0005901363,3670026,-0.026609428,0.061702736,-0.006251064,396809,0.0,0.0,0.0
28577027,3670026,-0.004747401,-0.008448228,0.00053617766,3670026,-0.028612666,0.05587649,-0.005663934,396809,0.0,0.0,0.0
29579937,3670026,-0.0048298184,-0.008546398,0.0005313303,3670026,-0.038126096,0.06366002,-0.0049196086,396809,0.0,0.0,0.0
30572822,3670026,-0.004927011,-0.008562203,0.0005406545,3670026,-0.03866392,0.07039386,-0.0047427663,396809,0.0,0.0,0.0
31575928,3670026,-0.005029233,-0.008574558,0.0005451108,3670026,-0.03729136,0.07621154,-0.003828152,396809,0.0,0.0,0.0
32583516,3670026,-0.00532349,-0.00853539,0.0005589277,3670026,-0.036978792,0.094494544,-0.0029748352,396809,0.0,0.0,0.0
33576452,3670026,-0.0053901896,-0.008556762,0.0005754284,3670026,-0.03492375,0.09651062,-0.0030402306,396809,0.0,0.0,0.0
34579318,3670026,-0.005162738,-0.008543155,0.00056984444,3670026,-0.035489604,0.085752994,-0.00045642126,396809,0.0,0.0,0.0
35582262,3670026,-0.005131253,-0.008442709,0.0006236629,3670026,-0.030692553,0.08442697,-0.00034705398,396809,0.0,0.0,0.0
36575118,3670026,-0.004477066,-0.008621007,0.0005720402,3670026,-0.03833566,0.045936555,0.00093772035,396809,0.0,0.0,0.0
37577984,3670026,-0.0041886643,-0.008730349,0.00052318885,3670026,-0.04570208,0.030509213,0.0012166448,396809,0.0,0.0,0.0
38580849,3670026,-0.0041337805,-0.008679985,0.00047193363,3670026,-0.04327253,0.027387464,0.0013414295,396809,0.0,0.0,0.0
39578751,3670026,-0.0040759137,-0.008612699,0.00036180543,3670026,-0.03794918,0.023280665,0.0011009098,396809,0.0,0.0,0.0
40571687,3670026,-0.004036085,-0.008504537,0.00022489448,3670026,-0.031784575,0.02122779,0.0013562051,396809,0.0,0.0,0.0
41574553,3670026,-0.00408853,-0.008466569,8.052985e-05,3670026,-0.027817568,0.02362736,0.0012557443,396809,0.0,0.0,0.0
42577443,3670026,-0.004108196,-0.0083671985,-7.995362e-05,3670026,-0.020952107,0.024623757,0.000840375,396809,0.0,0.0,0.0
43575320,3670026,-0.004126948,-0.008343294,-0.0002266393,3670026,-0.019462701,0.026048763,0.0022628843,396809,0.0,0.0,0.0
44578191,3670026,-0.0041928114,-0.0082898205,-0.0003536292,3670026,-0.017272592,0.029861066,0.0036072065,396809,0.0,0.0,0.0
45581054,3670026,-0.0042181164,-0.008251585,-0.0005222551,3670026,-0.015336484,0.03132897,0.004733689,396809,0.0,0.0,0.0
46573989,3670026,-0.0042621307,-0.008320597,-0.00067458727,3670026,-0.015573246,0.032505002,0.005341444,396809,0.0,0.0,0.0
47571925,3670026,-0.004360092,-0.008277556,-0.00073627924,3670026,-0.015382445,0.037370507,0.0038941866,396809,0.0,0.0,0.0
48579723,3670026,-0.004362915,-0.008195553,-0.00080218527,3670026,-0.010554785,0.03629666,0.003411186,396809,0.0,0.0,0.0
49577654,3670026,-0.0043639415,-0.00810381,-0.0008334076,3670026,-0.005978071,0.037428137,0.0040201796,396809,0.0,0.0,0.0
50580491,3670026,-0.0043982984,-0.0080355145,-0.00079465593,3670026,-0.0038274624,0.03972079,0.0034410164,396809,0.0,0.0,0.0
51578401,3670026,-0.00442042,-0.008042345,-0.00080719026,3670026,-0.002532699,0.04106152,0.0037622151,396809,0.0,0.0,0.0
52576296,3670026,-0.004499462,-0.00799559,-0.00076502294,3670026,-0.0011069014,0.045233987,0.0041989833,396809,0.0,0.0,0.0
53579209,3670026,-0.004450168,-0.007917171,-0.00067957264,3670026,0.0021987776,0.04453407,0.00468034,396809,0.0,0.0,0.0
54577067,3670026,-0.004480907,-0.0080128545,-0.0006554394,3670026,0.00062377023,0.045255374,0.005334807,396809,0.0,0.0,0.0
55579934,3670026,-0.0044578253,-0.008036863,-0.00058943627,3670026,0.00046136792,0.04602351,0.005764438,396809,0.0,0.0,0.0
56577890,3670026,-0.0044483235,-0.00815011,-0.00058178866,3670026,0.0007208214,0.04692601,0.0063603097,396809,0.0,0.0,0.0
57575738,3670026,-0.0044888156,-0.00817127,-0.0006154503,3670026,0.0012297187,0.045673,0.005630177,396809,0.0,0.0,0.0
58573642,3670026,-0.0045053777,-0.008109701,-0.00066426245,3670026,0.005375422,0.04808003,0.006651658,396809,0.0,0.0,0.0
59581473,3670026,-0.004398608,-0.008016828,-0.00065622095,3670026,0.008571739,0.042255748,0.005754899,396809,0.0,0.0,0.0
60579377,3670026,-0.004421608,-0.008020659,-0.00066754624,3670026,0.009110941,0.04274202,0.0057999194,396809,0.0,0.0,0.0
61577283,3670026,-0.004454623,-0.008065314,-0.0006450898,3670026,0.009307374,0.044687223,0.0071052667,396809,0.0,0.0,0.0
62580148,3670026,-0.00449265,-0.008086478,-0.0006462238,3670026,0.009941146,0.04291349,0.0062855687,396809,0.0,0.0,0.0
63578110,3670026,-0.004507578,-0.008096501,-0.00069102296,3670026,0.01085578,0.0425093,0.0057076677,396809,0.0,0.0,0.0
64575956,3670026,-0.004463074,-0.008022017,-0.00070966367,3670026,0.015289148,0.04322575,0.0072771073,396809,0.0,0.0,0.0
65578823,3670026,-0.004450652,-0.007953586,-0.00071441056,3670026,0.015865859,0.04359971,0.007653355,396809,0.0,0.0,0.0
66576726,3670026,-0.004502281,-0.007988553,-0.0006817434,3670026,0.016656596,0.04387999,0.0080202585,396809,0.0,0.0,0.0
67579594,3670026,-0.00452077,-0.008005511,-0.0006743834,3670026,0.01882877,0.043809585,0.0065628043,396809,0.0,0.0,0.0
68572534,3670026,-0.004573367,-0.008014196,-0.00065515324,3670026,0.020041201,0.043525256,0.0069984505,396809,0.0,0.0,0.0
69580366,3670026,-0.004556823,-0.00802761,-0.00064518856,3670026,0.018795144,0.043098405,0.0077332896,396809,0.0,0.0,0.0
70578349,3670026,-0.004470783,-0.00803935,-0.0006554361,3670026,0.01792612,0.039386846,0.009630339,396809,0.0,0.0,0.0
71581138,3670026,-0.004523596,-0.008031854,-0.00071767357,3670026,0.018151011,0.041467104,0.008053024,396809,0.0,0.0,0.0
72579042,3670026,-0.0045382045,-0.008022155,-0.0007206111,3670026,0.017240992,0.04144634,0.008148468,396809,0.0,0.0,0.0
73576948,3670026,-0.004572754,-0.008031462,-0.00070535846,3670026,0.016930332,0.040278956,0.007996233,396809,0.0,0.0,0.0
74579814,3670026,-0.004585365,-0.008028085,-0.00070561713,3670026,0.017780434,0.0382493,0.009547978,396809,0.0,0.0,0.0
75577718,3670026,-0.0045897635,-0.008082268,-0.0007300974,3670026,0.018098036,0.03788685,0.009662214,396809,0.0,0.0,0.0
76575622,3670026,-0.0046295286,-0.008013633,-0.0006875448,3670026,0.01729243,0.042050716,0.006934803,396809,0.0,0.0,0.0
77578577,3670026,-0.0046218755,-0.007960998,-0.0006512352,3670026,0.01686076,0.042268585,0.0056396546,396809,0.0,0.0,0.0
78581362,3670026,-0.0046274713,-0.007958488,-0.00062136044,3670026,0.011793794,0.03899557,0.005893233,396809,0.0,0.0,0.0
79574299,3670026,-0.0046409657,-0.007971882,-0.0005482552,3670026,0.006811019,0.03972458,0.0057282043,396809,0.0,0.0,0.0
80582168,3670026,-0.0046074204,-0.007934568,-0.000516328,3670026,-0.0052101356,0.033043575,0.006812181,396809,0.0,0.0,0.0
81580032,3670026,-0.004607365,-0.007918164,-0.0005110999,3670026,0.0033946808,0.03427546,0.0063661607,396809,0.0,0.0,0.0
82577940,3670026,-0.004608481,-0.0079646725,-0.0005015384,3670026,-0.0024501588,0.039154414,0.008920082,396809,0.0,0.0,0.0
83580808,3670026,-0.0045850244,-0.007923022,-0.0004786809,3670026,0.0025294903,0.037676625,0.008399468,396809,0.0,0.0,0.0
84578820,3670026,-0.004569411,-0.007945981,-0.00048366128,3670026,0.00010408426,0.041204225,0.008390558,396809,0.0,0.0,0.0
85576617,3670026,-0.0045626187,-0.00796746,-0.00047817966,3670026,0.00018875608,0.041389246,0.0092685195,396809,0.0,0.0,0.0
86579485,3670026,-0.004528696,-0.007928987,-0.0004736525,3670026,0.00082370156,0.03848153,0.013698371,396809,0.0,0.0,0.0
87582354,3670026,-0.0045011602,-0.00794575,-0.00048297067,3670026,0.00080116745,0.03806025,0.01531388,396809,0.0,0.0,0.0
88580254,3670026,-0.0044519063,-0.007944327,-0.00048517608,3670026,0.00078736764,0.03770454,0.014566435,396809,0.0,0.0,0.0
89578161,3670026,-0.0044704545,-0.008014383,-0.00048925617,3670026,0.001020712,0.037481874,0.014032957,396809,0.0,0.0,0.0
90581033,3670026,-0.0044371067,-0.007963542,-0.0004808718,3670026,0.0009760152,0.037086237,0.012964779,396809,0.0,0.0,0.0
91579065,3670026,-0.0044380734,-0.007984723,-0.00049448013,3670026,0.00084855827,0.036558907,0.011308546,396809,0.0,0.0,0.0
92576840,3670026,-0.0044825543,-0.008001116,-0.00049891963,3670026,-0.00041256554,0.036407597,0.012866705,396809,0.0,0.0,0.0
93579709,3670026,-0.004510719,-0.007996889,-0.0004989881,3670026,-0.001674975,0.03616502,0.013356409,396809,0.0,0.0,0.0
94577647,3670026,-0.0045709885,-0.007976483,-0.00049612735,3670026,-0.0034586694,0.037363175,0.014378972,396809,0.0,0.0,0.0
95575519,3670026,-0.004579908,-0.007986427,-0.00048778942,3670026,-0.0038506575,0.0372595,0.016787494,396809,0.0,0.0,0.0
96578387,3670026,-0.0045279516,-0.007935045,-0.00048827945,3670026,-0.0024783905,0.037742496,0.016857624,396809,0.0,0.0,0.0
97576292,3670026,-0.0045736684,-0.008002065,-0.00049627613,3670026,-0.0036445272,0.03650616,0.01386458,396809,0.0,0.0,0.0
98579305,3670026,-0.004568907,-0.00798065,-0.0005002408,3670026,-0.003868138,0.035940386,0.010719141,396809,0.0,0.0,0.0
99577064,3670026,-0.004592345,-0.007982304,-0.0005127728,3670026,-0.0041172807,0.036561534,0.0130078485,396809,0.0,0.0,0.0
100579937,3670026,-0.0045423065,-0.008007894,-0.00051468663,3670026,-0.0026997814,0.036449064,0.01314807,396809,0.0,0.0,0.0
101577858,3670026,-0.0045637484,-0.0079849325,-0.0005128124,3670026,-0.0036847224,0.036693625,0.011525492,396809,0.0,0.0,0.0
102575746,3670026,-0.0046189697,-0.00799979,-0.00050677144,3670026,-0.0050887624,0.03697536,0.010179879,396809,0.0,0.0,0.0
103578614,3670026,-0.0046514734,-0.007981385,-0.0005062241,3670026,-0.0062595974,0.036978822,0.009303287,396809,0.0,0.0,0.0
104576519,3670026,-0.004626777,-0.008002141,-0.00050691795,3670026,-0.005380569,0.036512308,0.009218314,396809,0.0,0.0,0.0
105579572,3670026,-0.004673123,-0.00792872,-0.00049524294,3670026,-0.0067357523,0.038535208,0.007715557,396809,0.0,0.0,0.0
106577294,3670026,-0.004717623,-0.007977499,-0.0004975166,3670026,-0.00812896,0.037901107,0.003635978,396809,0.0,0.0,0.0
107575204,3670026,-0.004704768,-0.007972265,-0.00050630287,3670026,-0.007813491,0.03798851,0.0023911966,396809,0.0,0.0,0.0
108573104,3670026,-0.0046571447,-0.00793812,-0.0005158795,3670026,-0.007298096,0.038157877,0.0033958936,396809,0.0,0.0,0.0
109575973,3670026,-0.0046870615,-0.007975448,-0.00052749086,3670026,-0.0071781045,0.038445223,0.004546722,396809,0.0,0.0,0.0
110578843,3670026,-0.004643148,-0.007956733,-0.0005248525,3670026,-0.0068389117,0.038643364,0.0057010874,396809,0.0,0.0,0.0
111581713,3670026,-0.004583897,-0.007965081,-0.0005357036,3670026,-0.005911078,0.038973328,0.007628399,396809,0.0,0.0,0.0
112579778,3670026,-0.0045984,-0.007952426,-0.00054571946,3670026,-0.0063544353,0.038994685,0.0067593595,396809,0.0,0.0,0.0
113577525,3670026,-0.0046098055,-0.007979623,-0.0005515762,3670026,-0.006685026,0.038603917,0.0074308156,396809,0.0,0.0,0.0
114580394,3670026,-0.0046201698,-0.0080193095,-0.0005593077,3670026,-0.0066635166,0.03834495,0.008563466,396809,0.0,0.0,0.0
115578300,3670026,-0.004609768,-0.008003389,-0.00056072033,3670026,-0.0065696756,0.0384591,0.009839657,396809,0.0,0.0,0.0
116576204,3670026,-0.0045844857,-0.007991623,-0.0005765872,3670026,-0.006218907,0.0387696,0.0105115445,396809,0.0,0.0,0.0
117574110,3670026,-0.004620746,-0.008015218,-0.0005846353,3670026,-0.0067262035,0.038645115,0.010612066,396809,0.0,0.0,0.0
118581947,3670026,-0.0046319934,-0.008004737,-0.0005884013,3670026,-0.0070442487,0.038486622,0.010587378,396809,0.0,0.0,0.0
119575037,3670026,-0.004670891,-0.008012605,-0.00059613073,3670026,-0.007457289,0.038969122,0.011877909,396809,0.0,0.0,0.0
120577755,3670026,-0.0046655554,-0.007976881,-0.00059853826,3670026,-0.007700144,0.039100066,0.013230132,396809,0.0,0.0,0.0
121580625,3670026,-0.004661689,-0.0079792375,-0.0006056951,3670026,-0.007643265,0.038837116,0.013114431,396809,0.0,0.0,0.0
122578531,3670026,-0.0046751713,-0.007966376,-0.00060163264,3670026,-0.007753646,0.03947428,0.015447777,396809,0.0,0.0,0.0
123576475,3670026,-0.0046656574,-0.007933037,-0.00061010936,3670026,-0.0074198693,0.039906282,0.015457853,396809,0.0,0.0,0.0
124579347,3670026,-0.0046609147,-0.007930275,-0.0006126086,3670026,-0.007443799,0.039977487,0.016859353,396809,0.0,0.0,0.0
125577213,3670026,-0.004670078,-0.0079555875,-0.000611057,3670026,-0.007353027,0.040204957,0.018420095,396809,0.0,0.0,0.0
126575305,3670026,-0.004709301,-0.007962149,-0.00058917166,3670026,-0.007531861,0.03979716,0.01750957,396809,0.0,0.0,0.0
127577992,3670026,-0.0046804715,-0.007926825,-0.0005723884,3670026,-0.0072527844,0.03978265,0.015606394,396809,0.0,0.0,0.0
128575895,3670026,-0.0046734987,-0.00796726,-0.00054493424,3670026,-0.010520082,0.039083723,0.014661651,396809,0.0,0.0,0.0
129578767,3670026,-0.0046815625,-0.007965813,-0.000523078,3670026,-0.011149446,0.03811362,0.013318148,396809,0.0,0.0,0.0
130581708,3670026,-0.0046612523,-0.007919988,-0.00050296646,3670026,-0.011019394,0.03804321,0.012999216,396809,0.0,0.0,0.0
131579543,3670026,-0.0046671,-0.007966948,-0.0004987163,3670026,-0.011217244,0.03838128,0.012135371,396809,0.0,0.0,0.0
132577449,3670026,-0.0046402854,-0.007960089,-0.00047610758,3670026,-0.011151953,0.038702983,0.012440774,396809,0.0,0.0,0.0
133575530,3670026,-0.004616287,-0.007953246,-0.0004508137,3670026,-0.011215022,0.039084487,0.012691694,396809,0.0,0.0,0.0
134578225,3670026,-0.004619664,-0.007911522,-0.0004197339,3670026,-0.011176699,0.039252903,0.01325157,396809,0.0,0.0,0.0
135576132,3670026,-0.0046247323,-0.007951614,-0.00039927854,3670026,-0.011199883,0.039351087,0.014063573,396809,0.0,0.0,0.0
136579003,3670026,-0.004630378,-0.007949768,-0.00037423798,3670026,-0.011197425,0.039319627,0.012798361,396809,0.0,0.0,0.0
137576926,3670026,-0.0046155127,-0.00795089,-0.0003516469,3670026,-0.011114333,0.03964558,0.011462719,396809,0.0,0.0,0.0
138574815,3670026,-0.0046157516,-0.007941885,-0.00033157493,3670026,-0.011125124,0.03992032,0.011005243,396809,0.0,0.0,0.0
139572722,3670026,-0.004592049,-0.007878926,-0.0003075591,3670026,-0.01108338,0.040209286,0.010885124,396809,0.0,0.0,0.0
140580557,3670026,-0.0045743473,-0.007857374,-0.0002762332,3670026,-0.011019948,0.040319473,0.011099897,396809,0.0,0.0,0.0
141578463,3670026,-0.0045961197,-0.007860384,-0.00024076173,3670026,-0.011091794,0.04059677,0.011806466,396809,0.0,0.0,0.0
142576369,3670026,-0.0046251044,-0.007872277,-0.00020007009,3670026,-0.011315898,0.04077428,0.01135818,396809,0.0,0.0,0.0
143579260,3670026,-0.004615225,-0.007864786,-0.00015494095,3670026,-0.0112263225,0.040815085,0.011920444,396809,0.0,0.0,0.0
144577174,3670026,-0.0046177143,-0.00785213,-0.000110939014,3670026,-0.011196937,0.041230064,0.01204874,396809,0.0,0.0,0.0
145580034,3670026,-0.004629029,-0.007861751,-6.1377876e-05,3670026,-0.011365115,0.04116231,0.01093439,396809,0.0,0.0,0.0
146572961,3670026,-0.0046210326,-0.007895663,-1.18265525e-05,3670026,-0.01129578,0.04143865,0.010727697,396809,0.0,0.0,0.0
147575839,3670026,-0.0046370206,-0.007934634,4.821008e-05,3670026,-0.011243093,0.041656334,0.01147701,396809,0.0,0.0,0.0
148578701,3670026,-0.0046240943,-0.007871966,0.00010346553,3670026,-0.0112595605,0.04168874,0.011023088,396809,0.0,0.0,0.0
149581572,3670026,-0.0046527027,-0.007877653,0.00015323727,3670026,-0.011283278,0.04215527,0.011266747,396809,0.0,0.0,0.0
150579480,3670026,-0.0046431865,-0.007908704,0.00019151547,3670026,-0.011045031,0.042248216,0.011748184,396809,0.0,0.0,0.0
151577416,3670026,-0.0046320898,-0.007858855,0.00023786857,3670026,-0.011033156,0.04221938,0.011658356,396809,0.0,0.0,0.0
152580257,3670026,-0.004658314,-0.007892603,0.00028277506,3670026,-0.011096109,0.042424332,0.012053052,396809,0.0,0.0,0.0
153578162,3670026,-0.0046672355,-0.007868202,0.00031493796,3670026,-0.011213601,0.04241919,0.011224468,396809,0.0,0.0,0.0
154581033,3670026,-0.0046518883,-0.007897664,0.0003499118,3670026,-0.011055212,0.042682018,0.011337056,396809,0.0,0.0,0.0
155578940,3670026,-0.004622952,-0.007835545,0.00038411768,3670026,-0.0010689836,0.040038794,0.012113015,396809,0.0,0.0,0.0
156576847,3670026,-0.004612999,-0.007832244,0.00039591207,3670026,0.012120064,0.038752407,0.012927453,396809,0.0,0.0,0.0
157579718,3670026,-0.0045843027,-0.007812079,0.00040860882,3670026,0.016699987,0.037727684,0.012984077,396809,0.0,0.0,0.0
158582655,3670026,-0.004544292,-0.0077517764,0.0005455855,3670026,0.022295194,0.037002623,0.0123538645,396809,0.0,0.0,0.0
159575531,3670026,-0.0045937,-0.0077991937,0.0006203869,3670026,0.026707679,0.038092077,0.013141442,396809,0.0,0.0,0.0
160573453,3670026,-0.0045832153,-0.007793884,0.00071006827,3670026,0.02243079,0.042562246,0.012984883,396809,0.0,0.0,0.0
161581275,3670026,-0.0045729214,-0.007715658,0.00090747676,3670026,0.023074832,0.04240736,0.012628481,396809,0.0,0.0,0.0
162579184,3670026,-0.0045916587,-0.0076779053,0.0010346775,3670026,0.022784028,0.046615563,0.0132310605,396809,0.0,0.0,0.0
163572123,3670026,-0.0045777503,-0.0076910756,0.0010755362,3670026,0.01898736,0.050543625,0.012882488,396809,0.0,0.0,0.0
164579965,3670026,-0.004547336,-0.0076796147,0.001100099,3670026,0.017416669,0.051958896,0.013936702,396809,0.0,0.0,0.0
165578013,3670026,-0.004525605,-0.00771836,0.0011232453,3670026,0.016792115,0.054189768,0.015086761,396809,0.0,0.0,0.0
166575774,3670026,-0.004516681,-0.0077330857,0.0011274386,3670026,0.016942017,0.0557409,0.014088048,396809,0.0,0.0,0.0
167578645,3670026,-0.0044888356,-0.0076567996,0.0012190917,3670026,0.018537391,0.05970732,0.013381504,396809,0.0,0.0,0.0
168581516,3670026,-0.004498782,-0.007660748,0.0012631542,3670026,0.019054925,0.060696784,0.012591009,396809,0.0,0.0,0.0
169574459,3670026,-0.0045005158,-0.0077388827,0.0012903087,3670026,0.019440696,0.061011463,0.0118816,396809,0.0,0.0,0.0
170572365,3670026,-0.0044538938,-0.007758126,0.0013080841,3670026,0.019675037,0.06013956,0.010981278,396809,0.0,0.0,0.0
171580208,3670026,-0.0044355453,-0.0077476026,0.0013239036,3670026,0.019578408,0.060110755,0.0112368595,396809,0.0,0.0,0.0
172578181,3670026,-0.004434311,-0.0077767433,0.0013521157,3670026,0.019409247,0.059805654,0.010576197,396809,0.0,0.0,0.0
173580982,3670026,-0.004437035,-0.0078360755,0.0013829492,3670026,0.019243676,0.059050404,0.01086049,396809,0.0,0.0,0.0
174578901,3670026,-0.0044573806,-0.007812897,0.0014089444,3670026,0.018509187,0.05935946,0.010165851,396809,0.0,0.0,0.0
175581759,3670026,-0.004494227,-0.007825761,0.0014297825,3670026,0.01776383,0.059575345,0.010352668,396809,0.0,0.0,0.0
176579666,3670026,-0.0044869855,-0.00780655,0.0014451828,3670026,0.017342735,0.059187647,0.010850778,396809,0.0,0.0,0.0
177572647,3670026,-0.0044702403,-0.007852998,0.001464689,3670026,0.017835332,0.058750145,0.010594005,396809,0.0,0.0,0.0
178575480,3670026,-0.00450306,-0.007860944,0.0014924842,3670026,0.017311849,0.05912922,0.011016203,396809,0.0,0.0,0.0
179578436,3670026,-0.0045142956,-0.007821767,0.0015106861,3670026,0.01654322,0.0589249,0.011081869,396809,0.0,0.0,0.0
180571296,3670026,-0.00451551,-0.00781784,0.0015371079,3670026,0.016341167,0.05882371,0.010196964,396809,0.0,0.0,0.0
181579132,3670026,-0.004520331,-0.0078578135,0.0015798487,3670026,0.016638663,0.059353247,0.009947084,396809,0.0,0.0,0.0
182582003,3670026,-0.0045035486,-0.007813414,0.0016246404,3670026,0.01629494,0.059299685,0.009204212,396809,0.0,0.0,0.0
183579962,3670026,-0.0045168037,-0.0077950414,0.0016807867,3670026,0.01592552,0.05955415,0.008199012,396809,0.0,0.0,0.0
184577818,3670026,-0.0045385375,-0.0078059733,0.001732535,3670026,0.015652804,0.059735924,0.0071317786,396809,0.0,0.0,0.0
185575725,3670026,-0.0045511066,-0.0077877836,0.0017732326,3670026,0.015346505,0.059839,0.00634443,396809,0.0,0.0,0.0
186578693,3670026,-0.00456159,-0.007753338,0.001801956,3670026,0.01493216,0.059746172,0.0065228697,396809,0.0,0.0,0.0
187576504,3670026,-0.0046216566,-0.007792945,0.001833732,3670026,0.014464999,0.059946805,0.008583816,396809,0.0,0.0,0.0
188574411,3670026,-0.004625369,-0.0077969627,0.0018435441,3670026,0.014428764,0.059973054,0.008435736,396809,0.0,0.0,0.0
189582248,3670026,-0.004579602,-0.0077746348,0.0018020206,3670026,0.014870539,0.0599506,0.0068112896,396809,0.0,0.0,0.0
190580155,3670026,-0.0045825224,-0.007790393,0.0017693542,3670026,0.0148317795,0.059624553,0.0060906187,396809,0.0,0.0,0.0
191578065,3670026,-0.0046134307,-0.007858283,0.0017570709,3670026,0.014879615,0.05965745,0.0068334276,396809,0.0,0.0,0.0
192580934,3670026,-0.004600035,-0.0078704,0.0017056911,3670026,0.014959849,0.059290957,0.0068365326,396809,0.0,0.0,0.0
193578955,3670026,-0.004541751,-0.00786918,0.0016428836,3670026,0.015375455,0.059084017,0.0067646354,396809,0.0,0.0,0.0
194571784,3670026,-0.0045366134,-0.0078778,0.0015695137,3670026,0.015592305,0.059175886,0.007101301,396809,0.0,0.0,0.0
195579634,3670026,-0.004578912,-0.007913634,0.0014702408,3670026,0.015746657,0.059278794,0.007789092,396809,0.0,0.0,0.0
196577530,3670026,-0.0045941337,-0.007888321,0.0013534909,3670026,0.015903588,0.05917999,0.008641889,396809,0.0,0.0,0.0
197580406,3670026,-0.0045148428,-0.007890134,0.0012219987,3670026,0.016110355,0.058861386,0.008686337,396809,0.0,0.0,0.0
198578319,3670026,-0.004528409,-0.0078844,0.0011150547,3670026,0.01631408,0.059103265,0.008947485,396809,0.0,0.0,0.0
199576216,3670026,-0.0045634005,-0.007911392,0.0010575992,3670026,0.016446605,0.059458125,0.009565619,396809,0.0,0.0,0.0
200574229,3670026,-0.004565808,-0.007877517,0.001006978,3670026,0.016408725,0.05931734,0.010997917,396809,0.0,0.0,0.0
201572034,3670026,-0.0045227315,-0.007874124,0.0009593749,3670026,0.016595406,0.05914968,0.011659785,396809,0.0,0.0,0.0
202579868,3670026,-0.0045402725,-0.007866759,0.0008997412,3670026,0.016605884,0.059209097,0.012971857,396809,0.0,0.0,0.0
203577779,3670026,-0.004523698,-0.007851222,0.0008746022,3670026,0.016770659,0.0594108,0.0120652085,396809,0.0,0.0,0.0
204580663,3670026,-0.0044935984,-0.007818402,0.0008450248,3670026,0.016761808,0.059252642,0.011896453,396809,0.0,0.0,0.0
205578555,3670026,-0.0045327977,-0.007854271,0.00082118815,3670026,0.016806928,0.059555292,0.0112699205,396809,0.0,0.0,0.0
206576463,3670026,-0.0045621074,-0.0078262715,0.0007847342,3670026,0.016765295,0.05977199,0.010167868,396809,0.0,0.0,0.0
207579470,3670026,-0.004526719,-0.007789582,0.00073971564,3670026,0.01672051,0.0595039,0.009262138,396809,0.0,0.0,0.0
208572278,3670026,-0.0045414357,-0.0078159105,0.0007130411,3670026,0.016784046,0.059711356,0.008902698,396809,0.0,0.0,0.0
209575150,3670026,-0.0045762947,-0.007832622,0.0006847746,3670026,0.016772168,0.059929386,0.00855173,396809,0.0,0.0,0.0
210582987,3670026,-0.0045469166,-0.0078024627,0.00064310356,3670026,0.01673887,0.059687153,0.008264193,396809,0.0,0.0,0.0
211580926,3670026,-0.0045425706,-0.0077515733,0.000624158,3670026,0.016737277,0.059729744,0.008309132,396809,0.0,0.0,0.0
212578803,3670026,-0.0045535034,-0.0077397344,0.0006210614,3670026,0.016766727,0.06253887,0.0093205655,396809,0.0,0.0,0.0
213576784,3670026,-0.004545426,-0.007743054,0.00066296285,3670026,0.016747924,0.06572721,0.007886239,396809,0.0,0.0,0.0
214579737,3670026,-0.004531856,-0.00770443,0.00069277716,3670026,0.016737621,0.06543481,0.006056412,396809,0.0,0.0,0.0
215577490,3670026,-0.004565451,-0.007734333,0.00073030934,3670026,0.017040417,0.065595716,0.004951781,396809,0.0,0.0,0.0
216575405,3670026,-0.004553143,-0.0077229077,0.0007544474,3670026,0.015391074,0.06435855,0.0057847523,396809,0.0,0.0,0.0
217573307,3670026,-0.004565244,-0.007702,0.0007882199,3670026,0.015800865,0.063880235,0.0056042573,396809,0.0,0.0,0.0
218576179,3670026,-0.004574549,-0.007692441,0.0008618161,3670026,0.014805357,0.06384455,0.0026346312,396809,0.0,0.0,0.0
219574090,3670026,-0.0046063284,-0.0076330286,0.00087055593,3670026,0.014372984,0.060792755,0.0005951948,396809,0.0,0.0,0.0
220581924,3670026,-0.004581297,-0.0075623267,0.0008731675,3670026,0.01345758,0.059800845,-3.8837693e-06,396809,0.0,0.0,0.0
221580002,3670026,-0.0045588417,-0.007567652,0.0008708907,3670026,0.013137816,0.060024705,-0.0010921044,396809,0.0,0.0,0.0
222577740,3670026,-0.0045623067,-0.007568825,0.00083492225,3670026,0.013313412,0.059760533,-0.00376662,396809,0.0,0.0,0.0
223580629,3670026,-0.004600199,-0.00758628,0.0008045584,3670026,0.0140854195,0.05913849,-0.0036950833,396809,0.0,0.0,0.0
224578520,3670026,-0.004598869,-0.007572529,0.00079270493,3670026,0.014155769,0.059111133,-0.0026481263,396809,0.0,0.0,0.0
225576429,3670026,-0.004597943,-0.0075910827,0.0007809148,3670026,0.014351477,0.059215777,-0.0019840715,396809,0.0,0.0,0.0
226579303,3670026,-0.0045809182,-0.0076022665,0.00076426123,3670026,0.014524783,0.058799937,-0.0012339482,396809,0.0,0.0,0.0
227577209,3670026,-0.0044998126,-0.007663997,0.00075598544,3670026,0.015446551,0.058579024,-0.0008359206,396809,0.0,0.0,0.0
228575312,3670026,-0.0045085107,-0.007724785,0.000738423,3670026,0.015400226,0.058308274,0.00016156085,396809,0.0,0.0,0.0
229578044,3670026,-0.004501605,-0.007686429,0.00071752805,3670026,0.015302197,0.05841592,0.0015063817,396809,0.0,0.0,0.0
230580862,3670026,-0.004521095,-0.00765783,0.0006965127,3670026,0.015030404,0.05850618,0.0009622021,396809,0.0,0.0,0.0
231578803,3670026,-0.004543611,-0.007682304,0.000692993,3670026,0.015059363,0.058802783,0.0006916823,396809,0.0,0.0,0.0
232581653,3670026,-0.004514916,-0.007712701,0.00067002216,3670026,0.015097952,0.058097977,0.001413284,396809,0.0,0.0,0.0
233574591,3670026,-0.004480895,-0.0077350764,0.00065216894,3670026,0.015659034,0.058201704,0.0023409103,396809,0.0,0.0,0.0
234577469,3670026,-0.00447459,-0.0077841515,0.00063106563,3670026,0.015917273,0.05824392,0.002883071,396809,0.0,0.0,0.0
235580523,3670026,-0.004453473,-0.0077723786,0.0006158683,3670026,0.01582717,0.0577925,0.003484263,396809,0.0,0.0,0.0
236573332,3670026,-0.0044812225,-0.007813583,0.00059284136,3670026,0.015982086,0.05839485,0.005373532,396809,0.0,0.0,0.0
237576149,3670026,-0.0044421167,-0.0077702394,0.0005725206,3670026,0.016049316,0.05823634,0.005786084,396809,0.0,0.0,0.0
238579022,3670026,-0.00447661,-0.0077881007,0.00056345883,3670026,0.015931362,0.058396813,0.0061580096,396809,0.0,0.0,0.0
239571967,3670026,-0.004476154,-0.0077661606,0.0005489,3670026,0.015740823,0.058096327,0.0064754784,396809,0.0,0.0,0.0
240579804,3670026,-0.0045013344,-0.007809755,0.0005459507,3670026,0.015903814,0.05858292,0.0063038175,396809,0.0,0.0,0.0
241577712,3670026,-0.004489079,-0.007787402,0.00052986405,3670026,0.015840532,0.05842905,0.0065074093,396809,0.0,0.0,0.0
242580588,3670026,-0.004527642,-0.0077529657,0.00052597735,3670026,0.01544199,0.058371004,0.0058097905,396809,0.0,0.0,0.0
243578496,3670026,-0.0045594093,-0.0077631623,0.00051949854,3670026,0.015334996,0.058610227,0.0046004313,396809,0.0,0.0,0.0
244576402,3670026,-0.004552342,-0.00776566,0.00050463894,3670026,0.0154321585,0.058711164,0.0050279507,396809,0.0,0.0,0.0
245579276,3670026,-0.004533551,-0.007747556,0.00049183774,3670026,0.015442978,0.058586188,0.0050581275,396809,0.0,0.0,0.0
246577200,3670026,-0.004557404,-0.007778957,0.0004869997,3670026,0.015445932,0.058768976,0.0049941232,396809,0.0,0.0,0.0
247580057,3670026,-0.004565605,-0.0077646025,0.00048249814,3670026,0.015437612,0.0589312,0.0049594445,396809,0.0,0.0,0.0
248573001,3670026,-0.004570817,-0.007765161,0.00048308916,3670026,0.015339702,0.05875763,0.005484124,396809,0.0,0.0,0.0
249576067,3670026,-0.004575185,-0.0077823824,0.000484205,3670026,0.015409016,0.058909234,0.0054403828,396809,0.0,0.0,0.0
250573785,3670026,-0.00458054,-0.007768881,0.00048249378,3670026,0.01541726,0.059048023,0.00593474,396809,0.0,0.0,0.0
251581621,3670026,-0.0045705787,-0.0077448636,0.00048630396,3670026,0.015307172,0.058769032,0.0066103525,396809,0.0,0.0,0.0
252579530,3670026,-0.004560864,-0.0077514406,0.0004866173,3670026,0.015317306,0.058708075,0.007193235,396809,0.0,0.0,0.0
253577532,3670026,-0.0045361356,-0.007785983,0.0004880422,3670026,0.015398359,0.058561295,0.008212503,396809,0.0,0.0,0.0
254580312,3670026,-0.0045754733,-0.0078071305,0.0004958225,3670026,0.015337603,0.058658164,0.008547589,396809,0.0,0.0,0.0
255578222,3670026,-0.004613427,-0.007820419,0.0005036355,3670026,0.015122719,0.058435276,0.006631698,396809,0.0,0.0,0.0
256581094,3670026,-0.0045749564,-0.0077056396,0.0005097204,3670026,0.018726768,0.05839943,0.005491585,396809,0.0,0.0,0.0
257574038,3670026,-0.004618301,-0.0076825325,0.0005404107,3670026,0.023348833,0.058965173,0.004397598,396809,0.0,0.0,0.0
258581876,3670026,-0.0045760656,-0.0077125793,0.0005579457,3670026,0.025860697,0.058679484,0.0055122785,396809,0.0,0.0,0.0
259574821,3670026,-0.0045569027,-0.007799942,0.00057473266,3670026,0.026339423,0.058816466,0.0077995155,396809,0.0,0.0,0.0
260577733,3670026,-0.0045112204,-0.0077684135,0.0005803376,3670026,0.026239354,0.058600143,0.008538974,396809,0.0,0.0,0.0
261580569,3670026,-0.0045400276,-0.007734286,0.0005838703,3670026,0.026262518,0.05838614,0.009365718,396809,0.0,0.0,0.0
262578477,3670026,-0.0045857304,-0.0077266893,0.0005776352,3670026,0.02639751,0.058373332,0.008233078,396809,0.0,0.0,0.0
263581350,3670026,-0.004575695,-0.0077299695,0.0005753823,3670026,0.026427465,0.058488656,0.007883104,396809,0.0,0.0,0.0
264579259,3670026,-0.0046075596,-0.007723421,0.0005738536,3670026,0.026340824,0.05835576,0.007179149,396809,0.0,0.0,0.0
265577171,3670026,-0.00462901,-0.0077528534,0.0005786636,3670026,0.026354142,0.058385823,0.0064386376,396809,0.0,0.0,0.0
266580042,3670026,-0.004630188,-0.007747191,0.0005746243,3670026,0.026357291,0.058447536,0.006533244,396809,0.0,0.0,0.0
267578067,3670026,-0.0045904764,-0.007772247,0.00056824856,3670026,0.026351016,0.05818567,0.007536405,396809,0.0,0.0,0.0
268575920,3670026,-0.0046018725,-0.007842407,0.0005679465,3670026,0.026451008,0.058265325,0.0077154674,396809,0.0,0.0,0.0
269578734,3670026,-0.0045946618,-0.007808233,0.00055547734,3670026,0.029275756,0.05827101,0.005515515,396809,0.0,0.0,0.0
270581608,3670026,-0.0045229476,-0.0076349922,0.0005466487,3670026,0.035489276,0.05782663,0.001195794,396809,0.0,0.0,0.0
271579517,3670026,-0.004480498,-0.0075888876,0.00054216955,3670026,0.03995558,0.059096657,-0.0024223141,396809,0.0,0.0,0.0
272577426,3670026,-0.004466356,-0.0075825113,0.0005409521,3670026,0.041676313,0.06182625,-0.006557882,396809,0.0,0.0,0.0
273580301,3670026,-0.004473997,-0.007566075,0.0005983722,3670026,0.041644055,0.064964585,-0.008242072,396809,0.0,0.0,0.0
274578272,3670026,-0.0044155167,-0.0075552287,0.0006313668,3670026,0.038551327,0.066473484,-0.007194268,396809,0.0,0.0,0.0
275576122,3670026,-0.0044370242,-0.007574916,0.00063594326,3670026,0.039900314,0.066396415,-0.0046613435,396809,0.0,0.0,0.0
276578995,3670026,-0.0044177747,-0.0075560603,0.0006526929,3670026,0.039549775,0.06631584,-0.0042294273,396809,0.0,0.0,0.0
277581868,3670026,-0.004442771,-0.007499687,0.0007157554,3670026,0.038769025,0.070938,-0.00609477,396809,0.0,0.0,0.0
278579777,3670026,-0.0043844157,-0.007477212,0.0007895185,3670026,0.036455557,0.07778614,-0.0064612776,396809,0.0,0.0,0.0
279572722,3670026,-0.004393057,-0.007481152,0.000803524,3670026,0.03623432,0.081320815,-0.005360724,396809,0.0,0.0,0.0
280580562,3670026,-0.004371244,-0.007457332,0.00083028304,3670026,0.03584585,0.08180331,-0.004791896,396809,0.0,0.0,0.0
281583536,3670026,-0.0043386146,-0.0074710064,0.00084366644,3670026,0.036028504,0.08211944,-0.0058282292,396809,0.0,0.0,0.0
282576380,3670026,-0.004314171,-0.007533781,0.0008433643,3670026,0.036544837,0.081513375,-0.005689392,396809,0.0,0.0,0.0
283579255,3670026,-0.0043248315,-0.007548812,0.00086276035,3670026,0.036718167,0.08130435,-0.0056993864,396809,0.0,0.0,0.0
284577161,3670026,-0.004352198,-0.0075295395,0.00087093015,3670026,0.036500335,0.08112784,-0.0047213836,396809,0.0,0.0,0.0
285580039,3670026,-0.0043661315,-0.007523484,0.0008732195,3670026,0.03617665,0.08058455,-0.0051452657,396809,0.0,0.0,0.0
286577950,3670026,-0.0043580295,-0.00757854,0.00089035236,3670026,0.036584266,0.08020993,-0.0040799086,396809,0.0,0.0,0.0
287575859,3670026,-0.0042877616,-0.00760269,0.00088816363,3670026,0.037572768,0.08003274,-0.0014333966,396809,0.0,0.0,0.0
288578850,3670026,-0.004265759,-0.007576054,0.0008920762,3670026,0.03756161,0.079594865,0.00022014335,396809,0.0,0.0,0.0
289581608,3670026,-0.0042998437,-0.0075945426,0.00091119955,3670026,0.03754245,0.079820536,0.00088485953,396809,0.0,0.0,0.0
290574553,3670026,-0.0043301964,-0.0076133134,0.0009181961,3670026,0.037455004,0.080030866,0.0014623425,396809,0.0,0.0,0.0
291582393,3670026,-0.004317126,-0.007600425,0.0009206233,3670026,0.03721107,0.07950099,0.0018933846,396809,0.0,0.0,0.0
292580303,3670026,-0.0043323627,-0.0076194946,0.00092014304,3670026,0.03700162,0.07935655,0.0022174085,396809,0.0,0.0,0.0
293578214,3670026,-0.0043664654,-0.007638747,0.0009368499,3670026,0.036940847,0.079530045,0.004018609,396809,0.0,0.0,0.0
294581088,3670026,-0.0043893848,-0.007674226,0.00093914755,3670026,0.036894403,0.07955339,0.005486794,396809,0.0,0.0,0.0
295579100,3670026,-0.0043730736,-0.0076158405,0.0009501241,3670026,0.03711963,0.07978694,0.0052469852,396809,0.0,0.0,0.0
296576908,3670026,-0.004373026,-0.007618932,0.00094771496,3670026,0.037247635,0.07995308,0.005831199,396809,0.0,0.0,0.0
297579785,3670026,-0.0044082687,-0.007633346,0.0009397036,3670026,0.037046213,0.08005456,0.0064954716,396809,0.0,0.0,0.0
298577693,3670026,-0.004409881,-0.0076406104,0.0009303107,3670026,0.036814164,0.07973352,0.007549211,396809,0.0,0.0,0.0
299575604,3670026,-0.0044418722,-0.0076623317,0.0009081857,3670026,0.036669105,0.07987081,0.0073275957,396809,0.0,0.0,0.0
300578481,3670026,-0.0044688364,-0.0076537915,0.0008831356,3670026,0.036335494,0.07974819,0.007699386,396809,0.0,0.0,0.0
301581354,3670026,-0.00446766,-0.0075997706,0.00085276976,3670026,0.036149397,0.0797211,0.0070824954,396809,0.0,0.0,0.0
302579439,3670026,-0.004503703,-0.007628646,0.00083579595,3670026,0.035991482,0.07985268,0.006715193,396809,0.0,0.0,0.0
303577175,3670026,-0.0045343526,-0.0076886257,0.0008165412,3670026,0.035982393,0.079994716,0.0079968935,396809,0.0,0.0,0.0
304580050,3670026,-0.004519447,-0.007597654,0.0008018667,3670026,0.035860613,0.079875715,0.0076395515,396809,0.0,0.0,0.0
305582926,3670026,-0.0044811284,-0.007539111,0.00078180927,3670026,0.03620094,0.08004782,0.0074183405,396809,0.0,0.0,0.0
306580854,3670026,-0.0045111105,-0.0076144007,0.00081701257,3670026,0.035766136,0.08159375,0.0072773276,396809,0.0,0.0,0.0
307578746,3670026,-0.0045479177,-0.0076261433,0.0007870291,3670026,0.036015715,0.082547255,0.0068234024,396809,0.0,0.0,0.0
308581622,3670026,-0.0046042716,-0.0076693124,0.0007669828,3670026,0.03613015,0.08192889,0.005718597,396809,0.0,0.0,0.0
309574671,3670026,-0.004594017,-0.007687561,0.00076539227,3670026,0.0361679,0.082513444,0.0051198914,396809,0.0,0.0,0.0
310577444,3670026,-0.0045354892,-0.0076553295,0.0007479021,3670026,0.035949163,0.08241339,0.0047616684,396809,0.0,0.0,0.0
311580319,3670026,-0.0044787307,-0.0076074037,0.0007232919,3670026,0.03575189,0.08233352,0.0042581414,396809,0.0,0.0,0.0
312578230,3670026,-0.004484293,-0.007624126,0.00071864226,3670026,0.035920005,0.08284247,0.0052992646,396809,0.0,0.0,0.0
313581105,3670026,-0.004404222,-0.007560432,0.0007165973,3670026,0.03571446,0.08226212,0.0067285714,396809,0.0,0.0,0.0
314579016,3670026,-0.0044107577,-0.0075807283,0.0006978696,3670026,0.03576053,0.082552284,0.007404671,396809,0.0,0.0,0.0
315576927,3670026,-0.004450884,-0.0076606767,0.00067812164,3670026,0.035695765,0.08250592,0.009752256,396809,0.0,0.0,0.0
316579947,3670026,-0.0044619674,-0.007601486,0.0006451961,3670026,0.035416298,0.082154356,0.00719804,396809,0.0,0.0,0.0
317577713,3670026,-0.0044844216,-0.007613007,0.0006166628,3670026,0.0354465,0.08244515,0.0070217727,396809,0.0,0.0,0.0
318575663,3670026,-0.0045117848,-0.007680672,0.0005848399,3670026,0.035267483,0.082464136,0.007157458,396809,0.0,0.0,0.0
319578501,3670026,-0.0044498555,-0.007638361,0.0005330891,3670026,0.035059452,0.081997864,0.007185891,396809,0.0,0.0,0.0
320571479,3670026,-0.0044223056,-0.0076181884,0.0004844236,3670026,0.03492437,0.08184546,0.008019384,396809,0.0,0.0,0.0
321579286,3670026,-0.0044536674,-0.0076933987,0.00044118494,3670026,0.03503213,0.08233026,0.0077017117,396809,0.0,0.0,0.0
322577195,3670026,-0.00445499,-0.007666839,0.0003894406,3670026,0.03496668,0.08247508,0.0075261476,396809,0.0,0.0,0.0
323580226,3670026,-0.0044595595,-0.007678479,0.00036250887,3670026,0.034454003,0.0816438,0.007668719,396809,0.0,0.0,0.0
324577984,3670026,-0.0045093456,-0.0077087744,0.0003397752,3670026,0.034437865,0.08199619,0.005957721,396809,0.0,0.0,0.0
325575932,3670026,-0.004556144,-0.007703346,0.00031482062,3670026,0.034319803,0.082102895,0.0039459807,396809,0.0,0.0,0.0
326573807,3670026,-0.004587356,-0.0077065085,0.00027755514,3670026,0.03411997,0.08194547,0.0028194967,396809,0.0,0.0,0.0
327576682,3670026,-0.0046309684,-0.007789249,0.00023827126,3670026,0.034127533,0.08210139,0.0020957724,396809,0.0,0.0,0.0
328574593,3670026,-0.004658972,-0.00775744,0.0001804948,3670026,0.034410767,0.08289778,0.0023097936,396809,0.0,0.0,0.0
329582434,3670026,-0.004671106,-0.007663064,0.00022046,3670026,0.033548422,0.087097764,0.006624144,396809,0.0,0.0,0.0
330575520,3670026,-0.0047384207,-0.007691677,0.00021670363,3670026,0.031572588,0.094165094,0.010778146,396809,0.0,0.0,0.0
331578257,3670026,-0.0047253165,-0.0076766484,0.00017653224,3670026,0.02737401,0.09676323,0.013182763,396809,0.0,0.0,0.0
332581133,3670026,-0.004707352,-0.007686951,0.00017056918,3670026,0.021219842,0.09565837,0.016758882,396809,0.0,0.0,0.0
333579044,3670026,-0.004644859,-0.0075647384,0.00018518555,3670026,0.016560279,0.08890889,0.019263823,396809,0.0,0.0,0.0
334576961,3670026,-0.0046438924,-0.0075126146,0.00020592983,3670026,0.0151336165,0.0859127,0.018818375,396809,0.0,0.0,0.0
335579832,3670026,-0.0046038316,-0.007497508,0.00021891776,3670026,0.012755707,0.08611621,0.019159857,396809,0.0,0.0,0.0
336577743,3670026,-0.00458072,-0.0074598715,0.00023464624,3670026,0.011978024,0.0855071,0.01841388,396809,0.0,0.0,0.0
337580811,3670026,-0.0045535895,-0.0074501126,0.00024158487,3670026,0.011637509,0.085424505,0.016201856,396809,0.0,0.0,0.0
338578532,3670026,-0.0045797206,-0.0074450574,0.00024872783,3670026,0.011332805,0.08470036,0.014766419,396809,0.0,0.0,0.0
339581407,3670026,-0.0045852773,-0.00744121,0.00025578993,3670026,0.010991715,0.08475623,0.013720342,396809,0.0,0.0,0.0
340579319,3670026,-0.0045555276,-0.0074334177,0.00025717268,3670026,0.010980992,0.08458657,0.0149570815,396809,0.0,0.0,0.0
341577279,3670026,-0.0045611956,-0.0074185813,0.00025624826,3670026,0.010685109,0.08445444,0.01402012,396809,0.0,0.0,0.0
342580106,3670026,-0.0045809387,-0.007531025,0.0002171572,3670026,0.0022536225,0.08487851,0.016161472,396809,0.0,0.0,0.0
343578018,3670026,-0.004630179,-0.007682385,0.00017306283,3670026,-0.0041159885,0.08582512,0.018835446,396809,0.0,0.0,0.0
344576097,3670026,-0.0046346965,-0.0076303007,0.00015778048,3670026,-0.0058269477,0.08576772,0.019697497,396809,0.0,0.0,0.0
345578808,3670026,-0.0046050483,-0.0075916126,0.0001383707,3670026,-0.005995657,0.08559396,0.018989153,396809,0.0,0.0,0.0
346576718,3670026,-0.0046519786,-0.007585756,0.00013606719,3670026,-0.00635683,0.085837945,0.019541191,396809,0.0,0.0,0.0
347579595,3670026,-0.0046180887,-0.0075828847,0.000121337085,3670026,-0.0063417708,0.08582394,0.01868297,396809,0.0,0.0,0.0
348577510,3670026,-0.004601667,-0.0075890017,0.00010038719,3670026,-0.006424917,0.08544395,0.017660502,396809,0.0,0.0,0.0
349575476,3670026,-0.004596001,-0.0076491036,9.2851944e-05,3670026,-0.0065074135,0.08516247,0.015769238,396809,0.0,0.0,0.0
350578333,3670026,-0.0046073697,-0.0076427693,8.07227e-05,3670026,-0.0066426843,0.085133746,0.015257021,396809,0.0,0.0,0.0
351581172,3670026,-0.0045887786,-0.007618605,6.4639054e-05,3670026,-0.0067754276,0.084389456,0.0139338225,396809,0.0,0.0,0.0
352579085,3670026,-0.004615185,-0.0076569617,6.3210995e-05,3670026,-0.0070311413,0.08439268,0.010636427,396809,0.0,0.0,0.0
353576997,3670026,-0.004601809,-0.0076717837,5.1091443e-05,3670026,-0.006960393,0.084377445,0.009168654,396809,0.0,0.0,0.0
354579872,3670026,-0.0045985198,-0.0075980057,2.7796894e-05,3670026,-0.0068700006,0.084478445,0.009048015,396809,0.0,0.0,0.0
355577809,3670026,-0.0046188645,-0.0075889234,1.3012741e-05,3670026,-0.0068659275,0.08489774,0.008939685,396809,0.0,0.0,0.0
356575697,3670026,-0.004614253,-0.007616901,-2.0870436e-06,3670026,-0.0069184494,0.084765546,0.008769273,396809,0.0,0.0,0.0
357573609,3670026,-0.0046054916,-0.0075803674,-2.1666789e-05,3670026,-0.006901914,0.08450802,0.008930836,396809,0.0,0.0,0.0
358576489,3670026,-0.0046066805,-0.0076032253,-3.9492374e-05,3670026,-0.006852984,0.084747,0.00990362,396809,0.0,0.0,0.0
359574398,3670026,-0.0046101427,-0.0076191723,-6.6627705e-05,3670026,-0.0068641664,0.08463816,0.010795493,396809,0.0,0.0,0.0
360582240,3670026,-0.004587897,-0.0076119755,-8.642734e-05,3670026,-0.0068375985,0.08432546,0.011289798,396809,0.0,0.0,0.0
361580152,3670026,-0.004564327,-0.007612892,-0.0001112612,3670026,-0.006796562,0.084026575,0.010376239,396809,0.0,0.0,0.0
362578102,3670026,-0.0045767426,-0.0076548937,-0.00013042566,3670026,-0.0068889568,0.08395071,0.0098375995,396809,0.0,0.0,0.0
363580941,3670026,-0.0046044043,-0.0076917014,-0.00013778583,3670026,-0.0069690887,0.08389692,0.007898319,396809,0.0,0.0,0.0
364578855,3670026,-0.0045852135,-0.007658613,-0.00015371274,3670026,-0.0068509984,0.0837891,0.007264586,396809,0.0,0.0,0.0
365581731,3670026,-0.0046161306,-0.0076921047,-0.00016805797,3670026,-0.007012188,0.083788626,0.004038817,396809,0.0,0.0,0.0
366579647,3670026,-0.0045854882,-0.007671613,-0.00019425142,3670026,-0.0069206497,0.08354931,0.004654383,396809,0.0,0.0,0.0
367577557,3670026,-0.004585834,-0.007706302,-0.00021518752,3670026,-0.0069069974,0.083766796,0.0066017713,396809,0.0,0.0,0.0
368575470,3670026,-0.004585325,-0.007704263,-0.0002332338,3670026,-0.006879906,0.08392442,0.0073517365,396809,0.0,0.0,0.0
369578393,3670026,-0.0046100654,-0.0076792273,-0.0002434137,3670026,-0.00696656,0.08356821,0.007543485,396809,0.0,0.0,0.0
370581225,3670026,-0.0046229344,-0.007701823,-0.0002488998,3670026,-0.0069859927,0.08387334,0.00788056,396809,0.0,0.0,0.0
371579135,3670026,-0.0045999773,-0.007706872,-0.00024812995,3670026,-0.006951515,0.084004134,0.009167336,396809,0.0,0.0,0.0
372577063,3670026,-0.0045979037,-0.0076978807,-0.00024873207,3670026,-0.0069710785,0.08376964,0.009322868,396809,0.0,0.0,0.0
373579925,3670026,-0.00460156,-0.007683416,-0.00023533951,3670026,-0.0069680307,0.08361119,0.00986798,396809,0.0,0.0,0.0
374577846,3670026,-0.0046423115,-0.007692603,-0.00022064979,3670026,-0.00702939,0.08376162,0.009841363,396809,0.0,0.0,0.0
375580716,3670026,-0.0046299216,-0.007658391,-0.00020729,3670026,-0.006977084,0.08382853,0.011041111,396809,0.0,0.0,0.0
376578815,3670026,-0.0045936266,-0.0076568346,-0.0001865076,3670026,-0.007001314,0.083670765,0.013428561,396809,0.0,0.0,0.0
377581505,3670026,-0.004583137,-0.007653101,-0.000158576,3670026,-0.0069693304,0.08342629,0.013675862,396809,0.0,0.0,0.0
378579418,3670026,-0.0046140323,-0.007725149,-0.00012946123,3670026,-0.00702602,0.08396425,0.013694889,396809,0.0,0.0,0.0
379577333,3670026,-0.004562083,-0.007712385,-0.00010299449,3670026,-0.0069475677,0.083758056,0.014372239,396809,0.0,0.0,0.0
380580229,3670026,-0.004492357,-0.0076453667,-7.4357915e-05,3670026,-0.0068178265,0.08348077,0.01586746,396809,0.0,0.0,0.0
381578120,3670026,-0.0045503,-0.0076645887,-4.483615e-05,3670026,-0.0069299787,0.083711565,0.015466964,396809,0.0,0.0,0.0
382576080,3670026,-0.0045449077,-0.0076546376,-1.4692289e-05,3670026,-0.0069186375,0.08378772,0.015534142,396809,0.0,0.0,0.0
383579103,3670026,-0.004553462,-0.007669954,1.3432312e-05,3670026,-0.006946185,0.08363712,0.01638295,396809,0.0,0.0,0.0
384576823,3670026,-0.004601331,-0.0077235554,5.0407627e-05,3670026,-0.0070034442,0.08389919,0.018391203,396809,0.0,0.0,0.0
385574736,3670026,-0.0045791003,-0.007693722,8.0471276e-05,3670026,-0.006994624,0.08394816,0.018454634,396809,0.0,0.0,0.0
386582578,3670026,-0.004586291,-0.007643265,0.00012159825,3670026,-0.006990922,0.08336168,0.017623667,396809,0.0,0.0,0.0
387575586,3670026,-0.0046370565,-0.0077103516,0.00015722515,3670026,-0.0070841736,0.0839864,0.016905762,396809,0.0,0.0,0.0
388573439,3670026,-0.0046807844,-0.0077196616,0.00019283673,3670026,-0.00717666,0.08404288,0.015041837,396809,0.0,0.0,0.0
389581282,3670026,-0.004652939,-0.007713071,0.00022624989,3670026,-0.0071791415,0.083787195,0.013204105,396809,0.0,0.0,0.0
390579201,3670026,-0.004634342,-0.0077168336,0.00022507003,3670026,-0.010483099,0.08412932,0.01592723,396809,0.0,0.0,0.0
391577108,3670026,-0.0046557975,-0.0077446154,-6.7124206e-06,3670026,-0.013059723,0.08686715,0.024066716,396809,0.0,0.0,0.0
392579984,3670026,-0.004655175,-0.0076693706,-0.00011159957,3670026,-0.012651686,0.08434261,0.031093998,396809,0.0,0.0,0.0
393577898,3670026,-0.004666593,-0.007631707,-0.00017761857,3670026,-0.012423987,0.07961526,0.03566416,396809,0.0,0.0,0.0
394580822,3670026,-0.0046760696,-0.0075449487,-0.00023628026,3670026,-0.011444966,0.07419365,0.03646347,396809,0.0,0.0,0.0
395578688,3670026,-0.0047189943,-0.0075575,-0.00030382702,3670026,-0.012127137,0.07234386,0.040881928,396809,0.0,0.0,0.0
396581565,3670026,-0.004752415,-0.007538168,-0.00029621823,3670026,-0.012231186,0.069715604,0.042679366,396809,0.0,0.0,0.0
397579479,3670026,-0.004785658,-0.0075081512,-0.00028865467,3670026,-0.01253085,0.06757564,0.04390365,396809,0.0,0.0,0.0
398572469,3670026,-0.0047808737,-0.0074306387,-0.0002689165,3670026,-0.012479331,0.065689646,0.04249309,396809,0.0,0.0,0.0
399580270,3670026,-0.004841693,-0.0074152043,-0.0002332572,3670026,-0.012476215,0.06481865,0.044451706,396809,0.0,0.0,0.0
400578183,3670026,-0.0048966613,-0.007440241,-0.00018690802,3670026,-0.012006977,0.06628478,0.047372777,396809,0.0,0.0,0.0
401576181,3670026,-0.0048544845,-0.007447756,-0.00016573197,3670026,-0.011801534,0.067123815,0.045233153,396809,0.0,0.0,0.0
402579024,3670026,-0.0048280866,-0.007465848,-0.00015402611,3670026,-0.011547437,0.06707778,0.042393796,396809,0.0,0.0,0.0
403581852,3670026,-0.0048141624,-0.0074703884,-0.00018573368,3670026,-0.01123678,0.067540005,0.040604774,396809,0.0,0.0,0.0
404579765,3670026,-0.0048227315,-0.007483903,-0.00022994496,3670026,-0.011556409,0.069034226,0.038576256,396809,0.0,0.0,0.0
405577679,3670026,-0.0048120446,-0.007511373,-0.00027407648,3670026,-0.011919304,0.07013433,0.03794952,396809,0.0,0.0,0.0
406575592,3670026,-0.0047490066,-0.007516329,-0.0002998347,3670026,-0.011364116,0.07101237,0.033539426,396809,0.0,0.0,0.0
407578470,3670026,-0.0046966304,-0.0074915444,-0.00031290157,3670026,-0.010979761,0.07144258,0.031470615,396809,0.0,0.0,0.0
408581419,3670026,-0.00463212,-0.007461426,-0.0003086963,3670026,-0.010796029,0.07097537,0.030866837,396809,0.0,0.0,0.0
409574298,3670026,-0.004632473,-0.007501564,-0.00030687018,3670026,-0.010751955,0.071554676,0.029186325,396809,0.0,0.0,0.0
410577175,3670026,-0.0046070586,-0.007467366,-0.00028919394,3670026,-0.010856786,0.071330935,0.027810741,396809,0.0,0.0,0.0
411580054,3670026,-0.0045734174,-0.007469668,-0.00026833545,3670026,-0.010944447,0.0709603,0.025880307,396809,0.0,0.0,0.0
412577967,3670026,-0.0045834896,-0.007463658,-0.000247055,3670026,-0.011035086,0.07159155,0.02378143,396809,0.0,0.0,0.0
413575881,3670026,-0.00460214,-0.00749581,-0.0002090157,3670026,-0.011077588,0.072597176,0.021024408,396809,0.0,0.0,0.0
414578759,3670026,-0.004590868,-0.007487161,-0.00020326827,3670026,-0.010929373,0.0733711,0.020470425,396809,0.0,0.0,0.0
415576770,3670026,-0.0045920964,-0.0075212177,-0.00019318979,3670026,-0.010831173,0.07386166,0.021055838,396809,0.0,0.0,0.0
416579551,3670026,-0.0045565525,-0.0075098905,-0.00016294679,3670026,-0.010484429,0.07389484,0.017353795,396809,0.0,0.0,0.0
417582437,3670026,-0.004577171,-0.007530029,-4.135865e-05,3670026,-0.009782922,0.075628065,0.01808923,396809,0.0,0.0,0.0
418580343,3670026,-0.004603878,-0.007500944,5.631961e-05,3670026,-0.009681433,0.076281205,0.018961865,396809,0.0,0.0,0.0
419578260,3670026,-0.004577445,-0.00750656,8.679302e-05,3670026,-0.00995146,0.076653525,0.018725285,396809,0.0,0.0,0.0
420581135,3670026,-0.0045705033,-0.0075517534,0.00014999903,3670026,-0.010568128,0.07631523,0.018718842,396809,0.0,0.0,0.0
421579048,3670026,-0.0045629987,-0.0075806524,0.0002085962,3670026,-0.011273243,0.07670338,0.01871283,396809,0.0,0.0,0.0
422577088,3670026,-0.0045556617,-0.007588757,0.00026719994,3670026,-0.0119554475,0.07671951,0.01781817,396809,0.0,0.0,0.0
423579840,3670026,-0.00456681,-0.00761648,0.0003263515,3670026,-0.01266324,0.07690749,0.017750176,396809,0.0,0.0,0.0
424577756,3670026,-0.0045572687,-0.0076225284,0.00038319157,3670026,-0.01326682,0.07685857,0.01766214,396809,0.0,0.0,0.0
425575670,3670026,-0.004563605,-0.0076158643,0.00044152373,3670026,-0.013877106,0.07701804,0.01733806,396809,0.0,0.0,0.0
426578546,3670026,-0.0045259907,-0.007598037,0.00049345475,3670026,-0.014314787,0.0767313,0.01682245,396809,0.0,0.0,0.0
427581424,3670026,-0.0045298277,-0.007557271,0.00053137256,3670026,-0.014631081,0.07670235,0.016547289,396809,0.0,0.0,0.0
428579343,3670026,-0.004555707,-0.0075604706,0.00053671346,3670026,-0.01469127,0.07697292,0.015595377,396809,0.0,0.0,0.0
429577328,3670026,-0.00456587,-0.0075572194,0.0005099402,3670026,-0.01450247,0.076963276,0.013169574,396809,0.0,0.0,0.0
430580130,3670026,-0.004555287,-0.007537432,0.00044280713,3670026,-0.013985351,0.07682027,0.012328475,396809,0.0,0.0,0.0
431578095,3670026,-0.004583427,-0.007569168,0.00037069333,3670026,-0.0135866115,0.07698944,0.0137547515,396809,0.0,0.0,0.0
432580921,3670026,-0.004581831,-0.007576303,0.00027413986,3670026,-0.012996903,0.076962635,0.012134414,396809,0.0,0.0,0.0
433578875,3670026,-0.0045833024,-0.0075712623,0.00020207872,3670026,-0.01254507,0.07694541,0.011839485,396809,0.0,0.0,0.0
434576754,3670026,-0.004609387,-0.0075788684,0.00015592147,3670026,-0.012350274,0.07713351,0.011975644,396809,0.0,0.0,0.0
435579627,3670026,-0.0046355245,-0.007592259,0.000105791725,3670026,-0.012165385,0.07719218,0.012010592,396809,0.0,0.0,0.0
436577635,3670026,-0.004632336,-0.0075787986,8.8237066e-05,3670026,-0.01208913,0.07702376,0.012657513,396809,0.0,0.0,0.0
437575454,3670026,-0.004621535,-0.0075843786,7.8928286e-05,3670026,-0.012104195,0.077164024,0.013184044,396809,0.0,0.0,0.0
438578333,3670026,-0.004589095,-0.007613512,6.4432774e-05,3670026,-0.0122196395,0.07727512,0.0122187855,396809,0.0,0.0,0.0
439571282,3670026,-0.0045744963,-0.007559033,5.417593e-05,3670026,-0.012117533,0.076969445,0.011861771,396809,0.0,0.0,0.0
440579125,3670026,-0.0045496705,-0.007556145,4.6755486e-05,3670026,-0.012095072,0.076766364,0.01258578,396809,0.0,0.0,0.0
441582003,3670026,-0.0045740753,-0.0075620566,3.174352e-05,3670026,-0.012060294,0.0769067,0.013233554,396809,0.0,0.0,0.0
442579918,3670026,-0.0045725238,-0.0075326283,1.4595975e-05,3670026,-0.011990669,0.07687138,0.013169954,396809,0.0,0.0,0.0
443572963,3670026,-0.004568396,-0.007520174,-3.887649e-06,3670026,-0.011917625,0.07664232,0.012312246,396809,0.0,0.0,0.0
444575744,3670026,-0.004595411,-0.0075852335,-1.4250313e-05,3670026,-0.011964089,0.07719161,0.010870302,396809,0.0,0.0,0.0
445578622,3670026,-0.0045734523,-0.007577882,-2.2168279e-05,3670026,-0.012015716,0.077535205,0.010572348,396809,0.0,0.0,0.0
446571571,3670026,-0.004579305,-0.007562707,-3.194536e-05,3670026,-0.012137527,0.08011213,0.01271559,396809,0.0,0.0,0.0
447574449,3670026,-0.004656768,-0.00763874,-7.3824376e-05,3670026,-0.013253689,0.08697887,0.012659922,396809,0.0,0.0,0.0
448582292,3670026,-0.004720753,-0.007618052,-9.255455e-05,3670026,-0.014723741,0.09189877,0.009154622,396809,0.0,0.0,0.0
449580222,3670026,-0.0047578663,-0.0076135667,-8.595316e-05,3670026,-0.016139995,0.09174447,0.006754384,396809,0.0,0.0,0.0
450573327,3670026,-0.004748859,-0.007574314,-6.349894e-05,3670026,-0.017501203,0.089090765,0.008003591,396809,0.0,0.0,0.0
451580997,3670026,-0.0047004144,-0.0074500027,-4.538405e-05,3670026,-0.019800406,0.08574985,0.008091949,396809,0.0,0.0,0.0
452578916,3670026,-0.0048326044,-0.007526266,-2.1909156e-05,3670026,-0.024674287,0.08641904,0.00072451634,396809,0.0,0.0,0.0
453571860,3670026,-0.0048631583,-0.0075356704,-2.8624565e-05,3670026,-0.032055333,0.086893536,-0.0049421126,396809,0.0,0.0,0.0
454579715,3670026,-0.0049391338,-0.007551599,-3.3983335e-05,3670026,-0.03843875,0.08627106,-0.00685241,396809,0.0,0.0,0.0
455577616,3670026,-0.0049733007,-0.007582748,-1.2240435e-05,3670026,-0.045087826,0.0866477,-0.008183589,396809,0.0,0.0,0.0
456580495,3670026,-0.0049883383,-0.007615823,3.8994503e-06,3670026,-0.052972563,0.08683598,-0.011319083,396809,0.0,0.0,0.0
457578555,3670026,-0.00500196,-0.0075786156,5.3657377e-06,3670026,-0.05695306,0.08619148,-0.011595315,396809,0.0,0.0,0.0
458581286,3670026,-0.0049440814,-0.0074807853,-1.5246198e-06,3670026,-0.058160946,0.086187236,-0.010324373,396809,0.0,0.0,0.0
459574235,3670026,-0.0049532675,-0.0074761515,-1.4337335e-05,3670026,-0.059022896,0.08702264,-0.0075107375,396809,0.0,0.0,0.0
460572196,3670026,-0.004913856,-0.0074137724,-2.8191138e-05,3670026,-0.058871154,0.086855166,-0.0056620142,396809,0.0,0.0,0.0
461575028,3670026,-0.004871906,-0.0073248134,-5.499458e-05,3670026,-0.058577295,0.086967334,-0.0034477161,396809,0.0,0.0,0.0
462577907,3670026,-0.004912906,-0.0073783426,-8.624704e-05,3670026,-0.058963466,0.08803552,-0.0018979877,396809,0.0,0.0,0.0
463580783,3670026,-0.0048505003,-0.0073842877,-0.0001228973,3670026,-0.058297098,0.087921426,-0.00042602557,396809,0.0,0.0,0.0
464578849,3670026,-0.0047951424,-0.0073483153,-0.00015193,3670026,-0.057585694,0.08806442,-0.00074914505,396809,0.0,0.0,0.0
465576613,3670026,-0.0047871694,-0.007381261,-0.00018038605,3670026,-0.05752808,0.08822838,-0.00064259034,396809,0.0,0.0,0.0
466574524,3670026,-0.004783955,-0.0074046566,-0.00021597752,3670026,-0.05749025,0.08833404,0.0011953792,396809,0.0,0.0,0.0
467572437,3670026,-0.004728126,-0.0074129542,-0.00023322798,3670026,-0.0570545,0.08787135,0.0022600242,396809,0.0,0.0,0.0
468575343,3670026,-0.0047898623,-0.007473676,-0.0002451367,3670026,-0.057672087,0.08790209,0.0025177996,396809,0.0,0.0,0.0
469578198,3670026,-0.00476108,-0.007472945,-0.00024806228,3670026,-0.05742516,0.08737866,0.0035777944,396809,0.0,0.0,0.0
470581073,3670026,-0.004679634,-0.007461187,-0.00025193518,3670026,-0.05682448,0.08701697,0.005369223,396809,0.0,0.0,0.0
471579210,3670026,-0.004681621,-0.007479427,-0.00026351193,3670026,-0.05688848,0.08724227,0.005916329,396809,0.0,0.0,0.0
472581866,3670026,-0.0046670036,-0.0074995398,-0.0002864217,3670026,-0.056828015,0.08723227,0.006613994,396809,0.0,0.0,0.0
473579778,3670026,-0.0046764836,-0.007523557,-0.00029495364,3670026,-0.0569476,0.08727139,0.007817424,396809,0.0,0.0,0.0
474572775,3670026,-0.00467565,-0.0075754365,-0.0002980011,3670026,-0.05706295,0.08710111,0.009314591,396809,0.0,0.0,0.0
475580569,3670026,-0.004670353,-0.007571181,-0.0003095495,3670026,-0.057000153,0.086802505,0.012000148,396809,0.0,0.0,0.0
476573520,3670026,-0.00469629,-0.0075868955,-0.0003148979,3670026,-0.057203874,0.086969644,0.011742034,396809,0.0,0.0,0.0
477576408,3670026,-0.0046873013,-0.007592437,-0.00031141474,3670026,-0.05722221,0.08727526,0.011629602,396809,0.0,0.0,0.0
478579457,3670026,-0.004671704,-0.007556196,-0.00030997524,3670026,-0.056978468,0.086918026,0.010646051,396809,0.0,0.0,0.0
479582155,3670026,-0.004671411,-0.007525855,-0.00029509183,3670026,-0.056864884,0.08668849,0.012017397,396809,0.0,0.0,0.0
480580071,3670026,-0.004678945,-0.00757711,-0.00029720203,3670026,-0.057185642,0.08733158,0.012001118,396809,0.0,0.0,0.0
481577994,3670026,-0.004661593,-0.007595811,-0.0002820473,3670026,-0.05718146,0.08726748,0.010892303,396809,0.0,0.0,0.0
482580873,3670026,-0.00460654,-0.0076089352,-0.00025279674,3670026,-0.056831345,0.086230114,0.010883034,396809,0.0,0.0,0.0
483578775,3670026,-0.0046081156,-0.007638185,-0.00023863491,3670026,-0.05698953,0.08649182,0.009224617,396809,0.0,0.0,0.0
484576689,3670026,-0.0045874664,-0.007642263,-0.00020909829,3670026,-0.056926835,0.08642696,0.009250335,396809,0.0,0.0,0.0
485579760,3670026,-0.004560424,-0.007599117,-0.00017700392,3670026,-0.056641925,0.08610172,0.008585169,396809,0.0,0.0,0.0
486577483,3670026,-0.0045915307,-0.00767271,-0.00014693021,3670026,-0.056928016,0.08629035,0.008253026,396809,0.0,0.0,0.0
487580363,3670026,-0.0046327603,-0.00764777,-0.000109226494,3670026,-0.05700735,0.08642795,0.008062122,396809,0.0,0.0,0.0
488578275,3670026,-0.0045983475,-0.007605365,-8.1199134e-05,3670026,-0.05679245,0.08618734,0.007758646,396809,0.0,0.0,0.0
489581231,3670026,-0.0046026693,-0.00760625,-5.3366017e-05,3670026,-0.056734726,0.085938804,0.007997573,396809,0.0,0.0,0.0
490579067,3670026,-0.0046122363,-0.0076926835,-2.1442584e-05,3670026,-0.05708681,0.08633432,0.008550881,396809,0.0,0.0,0.0
491581947,3670026,-0.0045826044,-0.0076718368,1.0559136e-05,3670026,-0.05686758,0.08608675,0.009697714,396809,0.0,0.0,0.0
492575085,3670026,-0.0045693833,-0.007612858,1.927181e-05,3670026,-0.05654244,0.08560682,0.0100263115,396809,0.0,0.0,0.0
493572810,3670026,-0.004582947,-0.007627347,5.1657695e-05,3670026,-0.056727495,0.085979305,0.009610654,396809,0.0,0.0,0.0
494580653,3670026,-0.004567014,-0.0076657026,8.242176e-05,3670026,-0.05693219,0.086424604,0.009274328,396809,0.0,0.0,0.0
495578567,3670026,-0.0045635058,-0.0076221735,0.00010793911,3670026,-0.05667338,0.086061746,0.009844154,396809,0.0,0.0,0.0
496581483,3670026,-0.0045439354,-0.0075984406,0.00013239578,3670026,-0.056558765,0.08593148,0.008491128,396809,0.0,0.0,0.0
497574395,3670026,-0.0045597893,-0.007607193,0.00015901178,3670026,-0.056577314,0.08599786,0.0077004465,396809,0.0,0.0,0.0
498582242,3670026,-0.004576587,-0.007672975,0.00019053095,3670026,-0.05692299,0.08646463,0.0076288045,396809,0.0,0.0,0.0
499575196,3670026,-0.004577856,-0.0076715755,0.00022669659,3670026,-0.05690146,0.08647753,0.008160254,396809,0.0,0.0,0.0
500578071,3670026,-0.004551383,-0.0076213526,0.00026592123,3670026,-0.056540374,0.08599238,0.009524279,396809,0.0,0.0,0.0
