timestamp,timestamp_sample,device_id,x,y,z,temperature,error_count,clip_counter[0],clip_counter[1],clip_counter[2]
14571638,14571446,3932170,0.19823991,0.04405331,-10.198821,20.544676,0,0,0,0
14572883,14572692,3932170,0.45346183,0.12114661,-10.140881,20.544676,0,0,0,0
15575410,15575214,3932170,0.16903064,0.82983035,-10.947727,20.544676,0,0,0,0
16572935,16572743,3932170,1.9756953,-0.77524257,-9.3661175,20.691555,0,0,0,0
17574209,17574015,3932170,1.1022904,-0.61770403,-9.285672,20.348837,0,0,0,0
18575479,18575289,3932170,-3.0411153,-5.4683566,-9.62086,20.593636,0,0,0,0
19573010,19572822,3932170,5.392221,1.2909536,-11.879551,20.593636,0,0,0,0
20573208,20573011,3932170,-2.8151026,6.2282767,-11.478761,20.544676,0,0,0,0
21574316,21574125,3932170,-0.57748145,3.461058,-11.427525,20.397797,0,0,0,0
22575620,22575430,3932170,-2.4693797,-4.3114786,-4.806599,20.691555,0,0,0,0
23573145,23572957,3932170,2.4847026,-9.565314,-10.987471,20.740515,0,0,0,0
24573147,24572962,3932170,-3.6128504,0.9667787,-5.57418,20.544676,0,0,0,0
25574435,25574238,3932170,2.288378,2.3065739,-12.271721,20.789474,0,0,0,0
26573217,26573020,3932170,0.7445967,11.410766,-9.164046,20.348837,0,0,0,0
27573440,27573251,3932170,5.3974886,3.3542767,-12.875539,20.740515,0,0,0,0
28574512,28574325,3932170,0.8403648,-0.7594408,-15.324807,20.789474,0,0,0,0
29572050,29571861,3932170,1.4561535,-0.81881696,-13.62253,20.593636,0,0,0,0
30573334,30573146,3932170,0.19823991,-5.242823,-8.018661,20.740515,0,0,0,0
31573352,31573167,3932170,0.9667787,-0.7671022,-5.406586,20.691555,0,0,0,0
32575877,32575690,3932170,-3.2733526,5.772899,-9.351752,20.593636,0,0,0,0
33572169,33571981,3932170,1.9000386,-2.3980324,-9.943599,20.936352,0,0,0,0
34573576,34573383,3932170,0.8619126,-4.3358994,-8.159439,20.936352,0,0,0,0
35574734,35574536,3932170,2.8174968,8.112034,-16.389748,20.593636,0,0,0,0
36574752,36574566,3932170,0.8552089,1.3881581,-8.80779,20.740515,0,0,0,0
37573541,37573351,3932170,4.3947964,-4.192726,-12.381854,20.446756,0,0,0,0
38573572,38573379,3932170,1.8938135,-5.0067544,-10.885957,20.740515,0,0,0,0
39574851,39574657,3932170,-2.377921,-5.1935024,-8.884404,20.740515,0,0,0,0
40572396,40572200,3932170,2.1906946,-0.80157876,-11.901098,20.789474,0,0,0,0
41573771,41573582,3932170,-1.7137696,-2.6767175,-4.6232033,20.740515,0,0,0,0
42573693,42573504,3932170,-0.11204864,-7.324821,-6.9632964,20.740515,0,0,0,0
43574985,43574783,3932170,-1.3781025,5.5823207,-13.403699,20.691555,0,0,0,0
44572515,44572320,3932170,-2.3080103,-0.46351746,-7.059543,20.593636,0,0,0,0
45573786,45573601,3932170,-2.4976313,8.021054,-8.7642145,20.789474,0,0,0,0
46575077,46574886,3932170,-5.938099,-0.32609028,-3.335602,20.691555,0,0,0,0
47572650,47572459,3932170,-3.6597767,1.3565547,-6.3475075,20.691555,0,0,0,0
48573984,48573792,3932170,-0.46447513,-1.472434,-7.3080616,20.593636,0,0,0,0
49573917,49573724,3932170,-1.5126566,-0.15179239,-14.335043,20.740515,0,0,0,0
50572723,50572534,3932170,7.5402994,5.8466406,-14.775577,20.593636,0,0,0,0
51572729,51572543,3932170,0.8034941,-1.0204087,-10.011594,20.691555,0,0,0,0
52574277,52574091,3932170,-3.755066,-11.819217,-11.4074135,20.740515,0,0,0,0
53575292,53575099,3932170,-1.376666,-4.3014226,-7.6973586,20.740515,0,0,0,0
54571586,54571400,3932170,5.035485,1.9574994,-12.6351595,20.936352,0,0,0,0
55572958,55572763,3932170,3.4524388,-0.94331545,-10.706392,20.789474,0,0,0,0
56574137,56573950,3932170,2.8452694,6.712384,-16.510895,20.887392,0,0,0,0
57575421,57575230,3932170,2.183033,11.721054,-16.894445,20.740515,0,0,0,0
58572969,58572776,3932170,4.730464,1.0836157,-13.590925,20.887392,0,0,0,0
59574495,59574309,3932170,0.6981492,5.1504064,-2.1404164,20.593636,0,0,0,0
60574265,60574080,3932170,0.3557784,5.4688354,-13.390292,20.789474,0,0,0,0
61571809,61571623,3932170,-3.700478,-6.3230867,-10.247663,20.887392,0,0,0,0
62573236,62573038,3932170,-3.2858024,4.8822565,-8.773791,20.936352,0,0,0,0
63574375,63574183,3932170,-0.14413095,-1.1281478,-9.512163,20.985312,0,0,0,0
64575657,64575460,3932170,-0.11540052,2.8419175,-15.735651,20.789474,0,0,0,0
65573193,65573000,3932170,1.3488933,2.1332338,-9.110895,20.789474,0,0,0,0
66573484,66573289,3932170,0.81402856,-2.879746,-0.21787235,20.789474,0,0,0,0
67572003,67571818,3932170,3.3317711,5.2179236,-9.303867,20.887392,0,0,0,0
68572039,68571852,3932170,-7.7696633,1.5456967,-11.162248,20.789474,0,0,0,0
69573389,69573202,3932170,-1.4911088,-6.9182854,-5.183447,20.740515,0,0,0,0
70574607,70574416,3932170,1.7606959,0.37445316,-11.339897,20.740515,0,0,0,0
71574632,71574446,3932170,1.8583794,10.761936,-15.8175335,20.936352,0,0,0,0
72572171,72571986,3932170,0.016280573,2.3712175,-12.799402,20.789474,0,0,0,0
73573696,73573506,3932170,0.7560889,4.208049,-11.9944725,20.936352,0,0,0,0
74572243,74572054,3932170,4.592558,0.9691729,-8.851364,20.740515,0,0,0,0
75572282,75572094,3932170,2.8040893,-1.3924677,-11.915942,20.691555,0,0,0,0
76573671,76573479,3932170,-2.2577322,5.998912,-15.601097,20.740515,0,0,0,0
77574836,77574647,3932170,2.4406493,4.3210554,-9.580638,21.13219,0,0,0,0
78574866,78574681,3932170,-1.29239,-5.486074,-8.237969,20.789474,0,0,0,0
79572406,79572221,3932170,3.6808457,-7.1998434,-11.6061325,20.740515,0,0,0,0
80575146,80574960,3932170,0.5707777,-8.655518,-8.133582,20.887392,0,0,0,0
81572473,81572288,3932170,-2.0657172,-2.0087352,-3.9437292,20.789474,0,0,0,0
82572511,82572323,3932170,1.7027563,6.1832657,-13.558844,20.985312,0,0,0,0
83573825,83573639,3932170,0.87292594,0.21308395,-6.5122285,20.887392,0,0,0,0
84573825,84573636,3932170,1.6290148,-7.7797194,-6.0060945,20.789474,0,0,0,0
85575109,85574919,3932170,-2.2380998,-7.3674374,-6.3096795,20.936352,0,0,0,0
86572643,86572458,3932170,-1.2239159,-4.628471,-12.143391,20.789474,0,0,0,0
87575469,87575254,3932170,1.6819267,9.741209,-10.038489,20.789474,0,0,0,0
88575207,88575019,3932170,2.5110388,1.268448,-8.683769,20.789474,0,0,0,0
89572746,89572560,3932170,-2.9376855,-3.958573,-6.8052793,20.936352,0,0,0,0
90572866,90572679,3932170,-1.45759,7.225701,-13.875835,20.789474,0,0,0,0
91574128,91573941,3932170,-1.283292,4.4972687,-12.174038,20.691555,0,0,0,0
92575341,92575154,3932170,-3.0238767,-8.726386,-6.208644,20.740515,0,0,0,0
93572883,93572696,3932170,5.1676455,6.2555704,-9.974724,20.887392,0,0,0,0
94574325,94574163,3932170,-1.7196354,3.4009635,-7.307702,20.691555,0,0,0,0
95574217,95574022,3932170,4.8817773,-2.3429658,-12.535562,20.789474,0,0,0,0
96571740,96571554,3932170,-0.60573304,-9.726684,-8.553046,20.740515,0,0,0,0
97573039,97572851,3932170,-1.619438,12.627499,-10.833763,20.789474,0,0,0,0
98574308,98574113,3932170,6.1004257,-2.557965,-14.409742,20.936352,0,0,0,0
99575578,99575394,3932170,0.89303726,-0.25905263,-8.133103,20.789474,0,0,0,0
100573122,100572934,3932170,-1.6472107,-6.7334533,-11.843159,20.789474,0,0,0,0
101574570,101574406,3932170,0.91099375,-0.5638345,-8.031349,20.789474,0,0,0,0
102574442,102574250,3932170,0.14221558,-0.47979805,-11.6281595,20.740515,0,0,0,0
103571981,103571790,3932170,1.2823346,-14.361858,-10.911335,20.936352,0,0,0,0
104573262,104573073,3932170,-0.56551045,-5.684314,-7.541735,20.887392,0,0,0,0
105574543,105574354,3932170,0.2810793,-1.0630256,-12.405316,21.083231,0,0,0,0
106574634,106574443,3932170,3.4203565,14.573985,-12.140039,20.789474,0,0,0,0
107572124,107571928,3932170,1.8363527,4.052426,-7.083964,20.691555,0,0,0,0
108573571,108573381,3932170,-0.30933085,12.052891,-13.470258,20.936352,0,0,0,0
109574682,109574497,3932170,0.5439626,-1.4949396,-14.334085,20.740515,0,0,0,0
110572231,110572045,3932170,-4.277002,6.9034414,-9.492531,20.740515,0,0,0,0
111573498,111573309,3932170,3.7555447,7.285077,-16.630604,20.887392,0,0,0,0
112574786,112574596,3932170,-2.6561275,-7.330088,-3.3791764,20.740515,0,0,0,0
113574815,113574630,3932170,-2.4191015,-16.667953,-4.691199,20.789474,0,0,0,0
114572377,114572171,3932170,3.4955344,0.8106767,-9.616072,20.789474,0,0,0,0
115573804,115573614,3932170,2.2064965,-5.2772994,-9.208578,20.691555,0,0,0,0
116574933,116574740,3932170,-3.9930496,-14.166971,-5.2026005,20.936352,0,0,0,0
117572521,117572330,3932170,-2.8773518,-11.470142,-5.1580687,20.887392,0,0,0,0
118573748,118573560,3932170,1.0141839,10.032662,-13.675202,20.936352,0,0,0,0
119573782,119573597,3932170,4.525999,5.17387,-12.595895,20.985312,0,0,0,0
120575110,120574910,3932170,-0.37541083,-11.317871,-13.272976,20.789474,0,0,0,0
121572610,121572417,3932170,3.473508,11.170867,-11.800063,20.789474,0,0,0,0
122574032,122573842,3932170,3.0128634,-7.5053434,-13.201628,20.789474,0,0,0,0
123575166,123574980,3932170,0.22601265,7.51492,-14.41118,20.740515,0,0,0,0
124572707,124572522,3932170,1.4298173,3.593218,-5.956295,20.887392,0,0,0,0
125574055,125573868,3932170,-3.1890767,-10.184934,-6.817729,20.887392,0,0,0,0
126574025,126573840,3932170,0.0038307228,-1.8124107,-10.999442,20.936352,0,0,0,0
127575312,127575124,3932170,-6.322608,1.3278244,-11.090899,20.740515,0,0,0,0
128572854,128572667,3932170,6.8579516,9.958921,-14.438952,20.789474,0,0,0,0
129574271,129574082,3932170,3.4744656,-4.345955,-12.138124,20.936352,0,0,0,0
130574198,130573995,3932170,0.4429273,-2.120305,-4.846822,20.887392,0,0,0,0
131571710,131571523,3932170,1.829649,1.6510416,-11.751699,21.083231,0,0,0,0
132573007,132572819,3932170,0.797748,-4.439808,-5.782955,20.887392,0,0,0,0
133574319,133574134,3932170,0.23319525,1.6381128,-5.716875,20.789474,0,0,0,0
134575562,134575371,3932170,4.0117245,1.1161768,-6.9719152,20.985312,0,0,0,0
135573113,135572914,3932170,3.0799012,2.2888567,-14.576858,20.789474,0,0,0,0
136573261,136573072,3932170,0.66893995,1.0477027,-4.875074,20.887392,0,0,0,0
137574422,137574231,3932170,3.8580167,10.949642,-18.046055,20.887392,0,0,0,0
138571966,138571778,3932170,2.8208487,-8.2101965,-12.685438,20.936352,0,0,0,0
139573247,139573057,3932170,0.29496565,6.3709707,-17.007452,21.083231,0,0,0,0
140574528,140574338,3932170,-2.0968418,2.2663515,-9.021352,20.887392,0,0,0,0
141574580,141574394,3932170,-0.7891289,2.8414388,-11.247003,20.887392,0,0,0,0
142573350,142573163,3932170,-3.4605792,6.6271505,-8.848012,20.887392,0,0,0,0
143573506,143573311,3932170,-3.9643192,3.4471717,-4.0711007,20.789474,0,0,0,0
144574671,144574481,3932170,-1.4207194,-9.964667,-11.571656,20.887392,0,0,0,0
145572220,145572024,3932170,-1.5950172,-7.501034,-6.481104,20.740515,0,0,0,0
146573497,146573307,3932170,-6.0381765,7.039911,-10.840467,20.985312,0,0,0,0
147573535,147573345,3932170,1.3225571,-3.4414256,-11.968615,20.985312,0,0,0,0
148574824,148574637,3932170,2.5900476,3.4529178,-11.466789,20.936352,0,0,0,0
149574858,149574661,3932170,-0.48937485,-1.4571112,-11.747391,20.691555,0,0,0,0
150573780,150573593,3932170,9.333556,8.465898,-14.5897875,20.740515,0,0,0,0
151574926,151574733,3932170,3.4328065,-1.271321,-10.322841,20.936352,0,0,0,0
152572462,152572275,3932170,4.8113875,1.3642161,-9.345528,20.887392,0,0,0,0
153573748,153573559,3932170,2.6527755,2.3807943,-10.864887,20.936352,0,0,0,0
154574055,154573869,3932170,0.27820626,4.1170692,-3.110547,20.789474,0,0,0,0
155575081,155574889,3932170,1.2354081,1.6232687,-10.222283,20.740515,0,0,0,0
156572630,156572444,3932170,2.2759283,1.0697293,-9.134358,20.789474,0,0,0,0
157573976,157573782,3932170,-0.20590134,4.0385394,-16.167566,20.887392,0,0,0,0
158575181,158574988,3932170,3.9868248,10.00489,-12.268369,20.936352,0,0,0,0
159572718,159572528,3932170,1.0730813,1.0807426,-10.218452,20.740515,0,0,0,0
160574004,160573812,3932170,0.2671929,9.407297,-9.588299,20.936352,0,0,0,0
161574293,161574101,3932170,-0.107260235,6.627629,-14.5308895,21.083231,0,0,0,0
162575319,162575130,3932170,-0.9696517,1.1463438,-8.804916,20.789474,0,0,0,0
163572870,163572676,3932170,1.427902,3.0435095,-14.359943,20.985312,0,0,0,0
164574260,164574074,3932170,4.640442,2.809835,-11.23934,20.789474,0,0,0,0
165574183,165573992,3932170,-0.17046717,-6.960902,-11.76367,21.083231,0,0,0,0
166571732,166571536,3932170,-0.21883003,0.22026655,-8.772355,20.936352,0,0,0,0
167573011,167572819,3932170,-2.1217415,3.2412703,-9.508812,20.789474,0,0,0,0
168574543,168574356,3932170,0.4175488,-5.5377884,-12.976573,20.985312,0,0,0,0
169575587,169575389,3932170,1.0070013,-6.7679296,-4.543716,20.936352,0,0,0,0
170573126,170572929,3932170,-0.60716957,9.219113,-8.797734,20.985312,0,0,0,0
171574467,171574273,3932170,7.542214,8.662222,-12.256398,21.13219,0,0,0,0
172574432,172574247,3932170,3.7699099,-4.2176256,-11.834539,20.936352,0,0,0,0
173573222,173573037,3932170,0.9696517,11.610441,-9.652943,20.691555,0,0,0,0
174573266,174573073,3932170,-2.5005043,1.5562311,-12.84154,21.13219,0,0,0,0
175574749,175574584,3932170,-5.553351,-5.8442464,-7.2783732,20.789474,0,0,0,0
176574602,176574416,3932170,0.53007627,0.87196827,-13.359167,20.740515,0,0,0,0
177572122,177571936,3932170,5.4975657,-1.2133814,-10.961135,20.936352,0,0,0,0
178573471,178573281,3932170,-0.46255976,-8.428069,-6.850769,20.936352,0,0,0,0
179574697,179574503,3932170,0.3620033,-0.44819456,-9.948866,20.936352,0,0,0,0
180573479,180573294,3932170,-3.857538,-5.485116,-8.9758625,20.887392,0,0,0,0
181573518,181573330,3932170,-0.5616797,1.8708292,-11.181401,20.936352,0,0,0,0
182573833,182573612,3932170,3.7784495,-2.232593,-9.627884,20.936352,0,0,0,0
183572345,183572157,3932170,-4.1194634,-4.547068,-6.194758,20.936352,0,0,0,0
184572448,184572256,3932170,1.2741941,13.275371,-15.460318,21.083231,0,0,0,0
185573717,185573530,3932170,3.5175612,1.8353951,-11.145488,20.985312,0,0,0,0
186574989,186574801,3932170,-1.6745048,1.7650055,-7.735666,20.789474,0,0,0,0
187572494,187572303,3932170,0.28395233,9.569624,-13.725958,21.083231,0,0,0,0
188573780,188573592,3932170,2.1643584,1.3024458,-11.321702,20.936352,0,0,0,0
189574038,189573846,3932170,-1.5796943,-2.7313054,-8.272446,20.740515,0,0,0,0
190572603,190572414,3932170,-2.903209,-5.7537456,-11.368628,20.936352,0,0,0,0
191572655,191572458,3932170,-0.045968674,-8.057925,-9.513122,20.789474,0,0,0,0
192574002,192573816,3932170,-0.8350976,-5.2859187,-7.6413345,20.936352,0,0,0,0
193575216,193575021,3932170,3.6813245,-2.3922863,-9.32781,20.789474,0,0,0,0
194572759,194572565,3932170,2.9554026,2.823243,-12.373235,20.789474,0,0,0,0
195572794,195572600,3932170,-2.1480777,-2.5258827,-13.342408,20.789474,0,0,0,0
196574273,196574084,3932170,1.2109872,-1.9206287,-12.545138,20.985312,0,0,0,0
197572857,197572672,3932170,2.3137565,3.5012805,-13.1614065,20.936352,0,0,0,0
198572902,198572709,3932170,-1.0189723,-1.3024458,-6.587407,20.887392,0,0,0,0
199574201,199574011,3932170,6.2699356,2.9113493,-11.959995,20.936352,0,0,0,0
200574225,200574037,3932170,-0.8192958,-4.6294284,-4.765419,20.887392,0,0,0,0
201571766,201571574,3932170,1.481532,7.1284966,-14.845008,21.13219,0,0,0,0
202573051,202572858,3932170,0.2647987,-10.599131,-8.549215,20.985312,0,0,0,0
203574598,203574385,3932170,1.5450583,-7.602389,-9.669782,20.985312,0,0,0,0
204573132,204572943,3932170,0.47644615,6.8794994,-8.948568,20.740515,0,0,0,0
205573158,205572970,3932170,4.854483,-3.6377501,-10.131304,20.936352,0,0,0,0
206574502,206574317,3932170,0.5425261,5.5200715,-11.096168,21.23011,0,0,0,0
207574477,207574290,3932170,-0.24756046,9.631394,-13.508086,20.936352,0,0,0,0
208572032,208571841,3932170,1.3239936,4.1525035,-9.455661,21.13219,0,0,0,0
209573302,209573117,3932170,-0.4175488,0.512838,-10.138487,20.789474,0,0,0,0
210574782,210574590,3932170,-2.156218,1.0070013,-7.097372,21.13219,0,0,0,0
211574626,211574439,3932170,2.176808,5.0862427,-12.401965,20.887392,0,0,0,0
212573421,212573231,3932170,1.8344374,2.4483109,-9.187031,20.936352,0,0,0,0
213573453,213573267,3932170,-0.4429273,1.4863204,-9.38575,20.985312,0,0,0,0
214574741,214574551,3932170,-1.532768,-2.0537462,-10.5048,21.13219,0,0,0,0
215572281,215572094,3932170,-2.1006727,2.480393,-9.366596,20.936352,0,0,0,0
216573568,216573379,3932170,0.7096414,2.7806258,-12.785517,20.887392,0,0,0,0
217575011,217574821,3932170,-1.4958972,8.495585,-7.65953,21.13219,0,0,0,0
218574887,218574700,3932170,-2.9898791,-1.2148179,-2.9956253,20.936352,0,0,0,0
219572429,219572244,3932170,3.4246662,5.5018754,-12.798924,20.936352,0,0,0,0
220573767,220573575,3932170,1.5533581,10.157161,-5.8859057,20.936352,0,0,0,0
221572517,221572320,3932170,-3.1656137,-6.2182207,-5.3649273,21.23011,0,0,0,0
222572541,222572356,3932170,-2.1040244,-3.8235402,-8.136934,20.936352,0,0,0,0
223573828,223573641,3932170,4.0663123,1.532768,-11.698549,20.936352,0,0,0,0
224574025,224573833,3932170,2.7164612,-4.3794737,-10.683886,20.936352,0,0,0,0
225575163,225574976,3932170,-0.40318358,1.3000516,-6.5514936,20.887392,0,0,0,0
226572693,226572507,3932170,0.8628703,-7.0250664,-10.627383,20.985312,0,0,0,0
227573996,227573808,3932170,2.0733786,2.4933217,-10.695378,20.936352,0,0,0,0
228575261,228575075,3932170,1.6941372,2.5392902,-9.337865,20.985312,0,0,0,0
229571566,229571372,3932170,2.2740128,7.387549,-11.761756,20.936352,0,0,0,0
230574107,230573908,3932170,0.033518825,0.28155813,-10.871113,20.936352,0,0,0,0
231574301,231574112,3932170,0.7278373,9.902898,-12.25161,20.936352,0,0,0,0
232575411,232575226,3932170,0.034476507,-5.502354,-11.812513,20.789474,0,0,0,0
233572961,233572776,3932170,0.0818817,0.18579005,-12.606429,21.13219,0,0,0,0
234574256,234574065,3932170,-2.3353045,5.8380218,-13.406093,21.13219,0,0,0,0
235574276,235574092,3932170,1.8933346,-1.0323797,-7.124187,20.887392,0,0,0,0
236571831,236571646,3932170,1.5820885,-2.4013844,-12.985672,20.936352,0,0,0,0
237573118,237572923,3932170,0.3394978,1.2181699,-12.472354,21.23011,0,0,0,0
238574522,238574331,3932170,-1.1645397,-4.148673,-9.742485,20.789474,0,0,0,0
239575676,239575490,3932170,0.26048917,2.5187001,-11.280042,20.936352,0,0,0,0
240573237,240573051,3932170,-3.9355888,9.36899,-13.530591,21.083231,0,0,0,0
241574516,241574329,3932170,1.5983691,7.720343,-17.241125,20.985312,0,0,0,0
242574551,242574358,3932170,-4.39767,-0.7249643,-6.1411276,20.936352,0,0,0,0
243572093,243571903,3932170,1.160709,-0.11444284,-14.965198,20.789474,0,0,0,0
244573383,244573191,3932170,1.4848839,1.29239,-9.76116,20.936352,0,0,0,0
245574830,245574642,3932170,2.8002582,3.1962593,-11.309731,20.936352,0,0,0,0
246574709,246574510,3932170,-0.20590134,-2.7116728,-11.94994,20.936352,0,0,0,0
247572251,247572055,3932170,-7.7481155,-2.1926098,-7.9951973,20.936352,0,0,0,0
248573564,248573375,3932170,6.0448804,1.0563219,-12.699803,20.887392,0,0,0,0
249574815,249574628,3932170,2.8744786,4.816176,-8.764693,20.936352,0,0,0,0
250572359,250572169,3932170,4.5748405,1.8133684,-8.321767,21.083231,0,0,0,0
251573642,251573454,3932170,-3.7761352,-2.3870192,-4.280354,20.985312,0,0,0,0
252573836,252573649,3932170,-1.9948488,-3.0722399,-8.836999,20.887392,0,0,0,0
253574975,253574786,3932170,0.26384103,3.008075,-8.212111,20.936352,0,0,0,0
254572511,254572323,3932170,0.37445316,1.9551052,-12.551363,20.789474,0,0,0,0
255573796,255573608,3932170,0.13599065,-5.767632,-8.897332,20.936352,0,0,0,0
256575405,256575171,3932170,-0.46088383,-6.803124,-6.8789406,21.083231,0,0,0,0
257572626,257572437,3932170,2.74998,-2.1188686,-9.108022,21.083231,0,0,0,0
258573912,258573722,3932170,-1.2124237,1.3239936,-8.46063,21.083231,0,0,0,0
259574043,259573854,3932170,0.19919759,0.76183504,-10.663297,21.083231,0,0,0,0
260575240,260575046,3932170,-1.5404295,2.2280443,-10.5704,20.985312,0,0,0,0
261572806,261572612,3932170,0.036391865,1.6931795,-8.65887,20.985312,0,0,0,0
262574083,262573887,3932170,-0.92368305,-1.922544,-10.576626,20.985312,0,0,0,0
263574378,263574191,3932170,1.928769,4.260721,-13.266751,21.13219,0,0,0,0
264571645,264571459,3932170,1.4374788,1.4973338,-12.017456,20.936352,0,0,0,0
265574191,265573993,3932170,1.3924677,-4.02178,-10.835679,20.887392,0,0,0,0
266574307,266574116,3932170,3.3825283,-2.5076869,-11.40454,20.936352,0,0,0,0
267575530,267575344,3932170,2.198356,-1.0682929,-12.72183,20.887392,0,0,0,0
268573048,268572861,3932170,1.8119318,14.862726,-11.481154,20.985312,0,0,0,0
269574337,269574148,3932170,-2.7495012,-3.0224402,-11.866143,21.13219,0,0,0,0
270574640,270574452,3932170,-3.3020833,-7.574297,-8.909304,21.083231,0,0,0,0
271571925,271571733,3932170,0.5492299,5.8140798,-14.908694,20.936352,0,0,0,0
272573223,272573017,3932170,-2.8476636,-1.850239,-5.6642027,21.083231,0,0,0,0
273574613,273574426,3932170,2.4119189,-0.033997662,-11.293929,20.985312,0,0,0,0
274575776,274575588,3932170,-2.6082435,0.29017726,-5.706341,20.740515,0,0,0,0
275573328,275573134,3932170,-1.9709069,7.3971257,-9.725247,21.23011,0,0,0,0
276573370,276573173,3932170,-4.5652637,3.9025488,-9.71184,20.985312,0,0,0,0
277574887,277574698,3932170,-2.9324183,6.0118403,-6.134903,20.985312,0,0,0,0
278572206,278572005,3932170,0.5995081,0.4568137,-12.380897,20.936352,0,0,0,0
279573514,279573323,3932170,3.425624,1.2038046,-9.542331,20.985312,0,0,0,0
280574814,280574625,3932170,2.231875,7.9583263,-18.33719,20.936352,0,0,0,0
281574806,281574616,3932170,0.16663644,0.1814805,-10.8385515,20.936352,0,0,0,0
282572349,282572160,3932170,4.586333,3.3346443,-11.982022,21.083231,0,0,0,0
283573638,283573446,3932170,-3.9394195,-8.984003,-4.5245624,20.936352,0,0,0,0
284575145,284574957,3932170,-0.7225701,2.0283678,-9.923966,21.083231,0,0,0,0
285572508,285572322,3932170,-3.9389408,-7.3841968,-5.5492806,20.936352,0,0,0,0
286573756,286573565,3932170,-0.4213795,14.336959,-10.907025,21.083231,0,0,0,0
287573895,287573704,3932170,0.39983168,8.46925,-12.831485,20.985312,0,0,0,0
288575079,288574890,3932170,4.4264,6.304412,-10.910856,21.27907,0,0,0,0
289573876,289573687,3932170,1.5073894,-3.3250675,-17.029,21.13219,0,0,0,0
290573913,290573722,3932170,3.335602,0.82121116,-13.22557,20.936352,0,0,0,0
291575417,291575228,3932170,-2.0082564,6.8344884,-6.7262707,21.13219,0,0,0,0
292572740,292572554,3932170,-1.0745177,15.4512205,-13.40753,20.740515,0,0,0,0
293572797,293572596,3932170,-0.06703765,-6.1238894,-11.2656765,21.13219,0,0,0,0
294574153,294573967,3932170,0.16567877,-3.560178,-11.410766,21.23011,0,0,0,0
295575382,295575198,3932170,-0.7513005,-9.474814,-12.603557,21.083231,0,0,0,0
296572900,296572713,3932170,-0.5295974,10.192117,-13.037865,20.985312,0,0,0,0
297574206,297574000,3932170,2.7451916,7.1500444,-8.642111,21.083231,0,0,0,0
298574416,298574255,3932170,-0.98222125,7.713519,-7.1395097,20.936352,0,0,0,0
299571776,299571590,3932170,-2.2826319,-1.8076223,-9.244013,20.789474,0,0,0,0
300573071,300572882,3932170,-4.384741,0.4472369,-2.6848578,20.985312,0,0,0,0
301574478,301574286,3932170,4.6117115,8.070375,-12.237722,20.936352,0,0,0,0
302571918,302571727,3932170,1.9752164,15.567578,-10.228029,21.13219,0,0,0,0
303573181,303572992,3932170,-1.6903064,-3.0248344,-11.785698,20.887392,0,0,0,0
304574475,304574279,3932170,3.5362358,3.9576154,-5.245696,20.985312,0,0,0,0
305575910,305575752,3932170,2.582745,1.8004397,-11.059416,21.13219,0,0,0,0
306573303,306573114,3932170,0.97013056,-9.029014,-9.074983,20.985312,0,0,0,0
307573347,307573152,3932170,2.5517402,-1.4025233,-14.047739,21.23011,0,0,0,0
308574691,308574505,3932170,3.176148,15.658079,-13.72979,20.936352,0,0,0,0
309574667,309574479,3932170,2.0053835,8.7642145,-10.990823,21.13219,0,0,0,0
310572220,310572026,3932170,-0.7469909,5.845683,-13.096283,20.936352,0,0,0,0
311573502,311573313,3932170,1.1841722,-5.230852,-5.877765,21.083231,0,0,0,0
312574971,312574781,3932170,0.7546524,6.490202,-11.996866,20.985312,0,0,0,0
313573579,313573393,3932170,2.7882872,-0.19776106,-8.716809,21.083231,0,0,0,0
314573621,314573434,3932170,1.6821662,-3.200569,-9.544724,20.936352,0,0,0,0
315574963,315574771,3932170,-0.47165772,-0.5037401,-16.033491,20.936352,0,0,0,0
316574946,316574761,3932170,0.2762909,-1.3565547,-6.4653025,20.985312,0,0,0,0
317572496,317572308,3932170,-0.7297527,-0.034476507,-6.716694,20.936352,0,0,0,0
318573800,318573615,3932170,1.6266207,-3.4050338,-11.999739,21.083231,0,0,0,0
319575296,319575104,3932170,0.5674258,-1.164061,-10.71932,20.985312,0,0,0,0
320572620,320572430,3932170,0.1685518,-6.918764,-6.877105,21.23011,0,0,0,0
321572706,321572514,3932170,1.323036,-3.064578,-10.384132,21.13219,0,0,0,0
322573983,322573798,3932170,0.9059659,2.1226993,-7.5173144,21.083231,0,0,0,0
323572736,323572551,3932170,2.63027,-0.84419554,-8.781453,21.13219,0,0,0,0
324572790,324572592,3932170,5.035006,-2.550304,-15.162959,21.083231,0,0,0,0
325574078,325573879,3932170,-2.1011515,-0.8413225,-6.3072853,21.32803,0,0,0,0
326575516,326575328,3932170,0.61530983,4.3646297,-9.063969,21.13219,0,0,0,0
327571705,327571519,3932170,0.89495265,-3.6674383,-14.322115,21.13219,0,0,0,0
328572951,328572755,3932170,-0.2671929,6.3738437,-11.218751,20.985312,0,0,0,0
329574275,329574087,3932170,-1.1908759,4.0711007,-9.989567,21.083231,0,0,0,0
330571774,330571589,3932170,-2.231396,-8.651688,-7.9578476,20.936352,0,0,0,0
331573075,331572882,3932170,-0.78242517,1.6644491,-8.172847,20.985312,0,0,0,0
332574360,332574165,3932170,3.961925,9.247365,-15.094964,21.23011,0,0,0,0
333574543,333574353,3932170,0.5693412,-3.9710228,-4.0955215,20.887392,0,0,0,0
334571959,334571773,3932170,-1.4197617,-10.771513,-7.657136,20.936352,0,0,0,0
335573228,335573041,3932170,-0.9552865,3.677015,-9.924924,21.083231,0,0,0,0
336574526,336574341,3932170,1.6136919,7.11892,-20.606894,21.13219,0,0,0,0
337574554,337574370,3932170,0.2552219,-5.5286903,-6.1770406,21.23011,0,0,0,0
338572104,338571917,3932170,1.3450625,-1.8210299,-3.20009,21.23011,0,0,0,0
339574644,339574452,3932170,-0.15897499,10.1495,-7.1112576,20.985312,0,0,0,0
340574832,340574630,3932170,-0.2504335,-8.028716,-11.518984,21.083231,0,0,0,0
341572227,341572040,3932170,-0.5305551,1.94074,-8.058404,21.083231,0,0,0,0
342573520,342573329,3932170,-1.5763425,9.812876,-8.053616,21.23011,0,0,0,0
343574809,343574624,3932170,-1.8698715,7.4775705,-15.267346,21.083231,0,0,0,0
344574842,344574658,3932170,-3.9877822,7.342059,-9.10898,21.32803,0,0,0,0
345572391,345572205,3932170,0.9323021,0.26288337,-3.2283416,21.13219,0,0,0,0
346573682,346573493,3932170,-1.739627,8.084262,-11.35091,20.936352,0,0,0,0
347575142,347574955,3932170,3.9011123,-6.446149,-12.498212,21.23011,0,0,0,0
348572514,348572330,3932170,-0.46543282,-5.9155936,-8.159439,20.936352,0,0,0,0
349573803,349573618,3932170,2.1753716,9.6256485,-19.869959,20.985312,0,0,0,0
350575100,350574907,3932170,1.7372328,0.9792285,-0.22361845,21.083231,0,0,0,0
351575138,351574951,3932170,-1.0151415,-8.114907,-6.8933854,21.083231,0,0,0,0
352572689,352572495,3932170,1.9742588,4.534139,-4.17453,20.936352,0,0,0,0
353573978,353573786,3932170,0.12354081,-5.6402607,-7.264008,20.985312,0,0,0,0
354571711,354571522,3932170,-1.1903971,-11.02913,-5.3457737,21.23011,0,0,0,0
355571563,355571373,3932170,-2.0494366,-0.113485165,-7.83718,21.23011,0,0,0,0
356572849,356572662,3932170,-3.0157363,-0.25905263,-4.0380607,21.42595,0,0,0,0
357574157,357573959,3932170,3.229778,-0.07326257,-12.372277,21.23011,0,0,0,0
358575461,358575276,3932170,2.867296,-7.92385,-11.017638,21.27907,0,0,0,0
359572972,359572788,3932170,3.541982,-5.089115,-10.899843,21.23011,0,0,0,0
360574269,360574076,3932170,3.3509247,4.0538626,-9.4010725,21.13219,0,0,0,0
361573165,361572977,3932170,6.811504,8.610028,-10.367851,20.936352,0,0,0,0
362571854,362571666,3932170,-1.6323667,1.268448,-6.495948,21.23011,0,0,0,0
363573144,363572956,3932170,2.7035327,0.6986281,-6.137776,20.985312,0,0,0,0
364574454,364574245,3932170,4.2669463,-1.8373104,-12.418246,21.13219,0,0,0,0
365575999,365575811,3932170,0.24468742,-1.6711528,-12.11514,21.32803,0,0,0,0
366573267,366573081,3932170,2.3463178,2.4095247,-15.059528,21.23011,0,0,0,0
367574558,367574370,3932170,1.299094,-3.0008924,-12.363179,21.23011,0,0,0,0
368574799,368574602,3932170,-1.952711,-1.5466543,-5.044583,21.23011,0,0,0,0
369572152,369571960,3932170,1.0453085,5.9041014,-14.194744,20.887392,0,0,0,0
370573435,370573249,3932170,-5.264371,-15.944905,-3.7703888,21.23011,0,0,0,0
371574730,371574540,3932170,-3.1186872,8.003817,-6.352296,21.083231,0,0,0,0
372575036,372574845,3932170,-3.4897883,-12.001176,-5.6268525,21.13219,0,0,0,0
373572320,373572129,3932170,-0.18435353,2.7815835,-7.77924,21.083231,0,0,0,0
374573607,374573419,3932170,2.504335,4.1989512,-12.150096,21.13219,0,0,0,0
375574983,375574795,3932170,-3.9724596,0.7474698,-10.031227,20.985312,0,0,0,0
376572568,376572380,3932170,-0.524809,6.200504,-9.1305275,21.083231,0,0,0,0
377573860,377573669,3932170,3.2881966,-10.174399,-9.843042,21.23011,0,0,0,0
378573901,378573712,3932170,3.632004,-0.0019153614,-16.276262,21.23011,0,0,0,0
379575369,379575177,3932170,3.6372714,-7.759129,-9.498756,21.083231,0,0,0,0
380572733,380572549,3932170,-1.9847932,7.9190617,-8.375875,21.27907,0,0,0,0
381574026,381573838,3932170,0.80924016,-11.113406,-13.338098,21.23011,0,0,0,0
382575375,382575173,3932170,1.4709976,3.5553896,-19.986795,20.985312,0,0,0,0
383571682,383571496,3932170,-3.0492551,8.742667,-6.1181436,21.23011,0,0,0,0
384572907,384572718,3932170,2.1001937,0.8073248,-3.599443,20.985312,0,0,0,0
385574198,385574007,3932170,1.0089166,-9.110895,-10.298419,20.985312,0,0,0,0
386575643,386575453,3932170,3.2225955,9.17889,-15.796943,21.13219,0,0,0,0
387573034,387572845,3932170,3.1670501,-2.2831109,-10.768641,20.985312,0,0,0,0
388574333,388574138,3932170,-0.3596091,7.2338414,-4.729506,21.23011,0,0,0,0
389574366,389574177,3932170,3.2757468,-0.39839518,-7.390422,21.083231,0,0,0,0
390571914,390571725,3932170,1.1329362,-13.674243,-7.433996,21.083231,0,0,0,0
391573212,391573014,3932170,-2.5617957,-10.401849,-9.622296,21.083231,0,0,0,0
392574490,392574304,3932170,0.8595184,-2.8002582,-15.353538,21.32803,0,0,0,0
393575845,393575687,3932170,1.5987282,-2.552219,-10.681731,21.23011,0,0,0,0
394573332,394573141,3932170,0.07182605,-7.2304893,-3.3628957,21.083231,0,0,0,0
395573381,395573184,3932170,-3.7062242,3.2642546,-8.021534,21.083231,0,0,0,0
396574660,396574474,3932170,0.7211336,10.468408,-16.62007,21.32803,0,0,0,0
397572217,397572022,3932170,4.9703627,6.930735,-8.814014,21.23011,0,0,0,0
398573514,398573315,3932170,-1.8148049,1.8880676,-8.141244,21.083231,0,0,0,0
399574790,399574602,3932170,1.1789049,-3.8015137,-10.679576,21.13219,0,0,0,0
400574922,400574734,3932170,-3.5218706,2.512954,-10.537361,21.23011,0,0,0,0
401572399,401572203,3932170,0.93325984,-12.61026,-8.705796,21.23011,0,0,0,0
402573669,402573483,3932170,-2.579513,7.548918,-10.040804,21.083231,0,0,0,0
403574963,403574774,3932170,-0.71969706,3.6396656,-8.608113,21.23011,0,0,0,0
404572809,404572594,3932170,0.46168193,-1.0390835,-15.291766,21.13219,0,0,0,0
405573803,405573612,3932170,-2.078646,-7.7332716,-11.277169,20.936352,0,0,0,0
406573842,406573655,3932170,0.08714894,-3.6272156,-8.135018,21.23011,0,0,0,0
407575192,407575027,3932170,8.738237,-3.8792052,-9.792884,21.083231,0,0,0,0
408573929,408573741,3932170,0.7987057,1.532289,-8.366299,21.13219,0,0,0,0
409573980,409573784,3932170,1.5820885,5.2739477,-14.195222,21.23011,0,0,0,0
410575264,410575074,3932170,1.5547947,-2.714067,-9.205706,21.083231,0,0,0,0
411571859,411571658,3932170,-1.1702858,-4.051947,-8.297824,21.42595,0,0,0,0
412572854,412572666,3932170,3.45196,2.8787882,-12.075396,21.13219,0,0,0,0
413574152,413573959,3932170,-2.859156,-6.778464,-10.982682,21.083231,0,0,0,0
414575475,414575317,3932170,4.115034,2.7084408,-9.66659,21.27907,0,0,0,0
415572984,415572796,3932170,2.5910053,-7.062895,-8.55161,20.936352,0,0,0,0
416574270,416574085,3932170,-0.5884948,4.975151,-9.762597,21.32803,0,0,0,0
417575565,417575376,3932170,-0.25139117,-6.3714495,-10.156203,20.936352,0,0,0,0
418572147,418571955,3932170,1.2670115,4.9717994,-16.53675,21.083231,0,0,0,0
419573166,419572968,3932170,-2.550304,-15.007813,-5.791574,21.083231,0,0,0,0
420574446,420574258,3932170,-0.9758766,0.2801216,-5.947197,21.083231,0,0,0,0
421575847,421575659,3932170,4.830541,0.3122039,-11.940363,21.083231,0,0,0,0
422573287,422573099,3932170,2.7614722,-3.7138858,-8.1144285,20.985312,0,0,0,0
423573326,423573141,3932170,1.6414648,3.4524388,-12.887509,20.936352,0,0,0,0
424574620,424574431,3932170,-1.6673222,4.1132383,-13.071863,21.23011,0,0,0,0
425572413,425572220,3932170,1.6065093,-8.699093,-8.86956,21.13219,0,0,0,0
426573455,426573270,3932170,-0.045489833,4.5164223,-9.074983,21.42595,0,0,0,0
427574749,427574560,3932170,5.6833563,5.953422,-11.404062,21.23011,0,0,0,0
428574900,428574696,3932170,1.5002068,1.5969325,-11.818737,20.985312,0,0,0,0
429572340,429572153,3932170,2.4497473,7.1256227,-12.790305,21.23011,0,0,0,0
430573628,430573443,3932170,5.9170303,3.0727186,-10.386526,21.083231,0,0,0,0
431574925,431574734,3932170,0.9691729,5.023514,-10.854353,21.13219,0,0,0,0
432572710,432572515,3932170,2.94822,-0.79295963,-13.480313,21.27907,0,0,0,0
433573763,433573573,3932170,0.992636,1.2066777,-3.812527,21.13219,0,0,0,0
434573817,434573624,3932170,0.20398599,0.67324954,-10.068097,21.13219,0,0,0,0
435575200,435574995,3932170,2.1911733,-3.3619382,-15.760073,21.13219,0,0,0,0
436572644,436572456,3932170,-2.417186,11.6300745,-10.585723,21.13219,0,0,0,0
437573931,437573746,3932170,-3.389232,4.555208,-9.324937,20.985312,0,0,0,0
438575224,438575037,3932170,3.3662477,-2.1102495,-6.1100025,21.13219,0,0,0,0
439573032,439572844,3932170,-3.4763808,1.5763425,-7.4277716,21.23011,0,0,0,0
440572817,440572627,3932170,-0.022505498,-8.182902,-8.938992,21.23011,0,0,0,0
441574108,441573920,3932170,-4.1472363,-13.2351465,-5.81791,21.32803,0,0,0,0
442571755,442571567,3932170,1.7535133,2.8122292,-10.853395,21.13219,0,0,0,0
443572951,443572758,3932170,2.6010609,10.034578,-13.159012,21.083231,0,0,0,0
444574234,444574049,3932170,-2.3688233,5.2772994,-9.933543,21.23011,0,0,0,0
445575531,445575339,3932170,-4.6557646,0.23798366,-7.861122,21.27907,0,0,0,0
446572037,446571849,3932170,-1.6357186,3.655946,-10.902237,21.23011,0,0,0,0
447573121,447572933,3932170,-3.8312018,0.6995858,-10.358274,21.32803,0,0,0,0
448575653,448575469,3932170,4.2722135,-0.12210429,-12.576263,21.23011,0,0,0,0
449571996,449571808,3932170,2.309447,-9.4709835,-14.036247,21.42595,0,0,0,0
450573324,450573130,3932170,-2.534023,-8.156567,-1.0472238,21.083231,0,0,0,0
451574538,451574351,3932170,4.925831,4.478594,-15.772523,21.23011,0,0,0,0
452572088,452571903,3932170,-0.16328457,4.7500963,-15.560874,21.27907,0,0,0,0
453572338,453572144,3932170,0.21547815,-10.683886,-8.237491,21.13219,0,0,0,0
454573423,454573234,3932170,-0.5305551,-1.8626889,-6.622362,20.985312,0,0,0,0
455574718,455574525,3932170,-2.376006,-0.6512229,-6.8455014,21.13219,0,0,0,0
456572333,456572145,3932170,-2.0594923,-0.6502652,-6.5950685,21.23011,0,0,0,0
457572317,457572121,3932170,-1.4499286,3.122039,-8.763737,21.13219,0,0,0,0
458573597,458573407,3932170,2.02741,11.44189,-12.233414,21.083231,0,0,0,0
459574895,459574702,3932170,0.101992995,-10.884521,-5.70251,21.083231,0,0,0,0
460572702,460572517,3932170,-0.40509892,13.283031,-14.268485,21.083231,0,0,0,0
461573725,461573537,3932170,2.174414,-9.124303,-9.588299,21.23011,0,0,0,0
462575017,462574827,3932170,0.25474307,3.989219,-10.087729,21.083231,0,0,0,0
463575113,463574926,3932170,1.7238252,0.8643068,-8.522401,21.23011,0,0,0,0
464572607,464572420,3932170,0.7513005,6.0645127,-13.695313,21.13219,0,0,0,0
465573894,465573709,3932170,1.80858,0.5056554,-15.263515,21.083231,0,0,0,0
466575194,466575001,3932170,-3.587472,4.2640734,-5.3438582,21.083231,0,0,0,0
467572900,467572709,3932170,1.3172898,2.9836543,-8.99358,21.27907,0,0,0,0
468572783,468572593,3932170,0.32369608,8.466855,-12.611697,21.13219,0,0,0,0
469574075,469573885,3932170,0.025378538,11.475888,-14.610376,21.23011,0,0,0,0
470575366,470575175,3932170,-0.97108823,5.6565413,-9.2004385,20.936352,0,0,0,0
471572912,471572723,3932170,-1.2133814,0.4141969,-6.477752,21.32803,0,0,0,0
472574211,472574015,3932170,3.6176388,6.4906807,-15.135185,21.23011,0,0,0,0
473574249,473574057,3932170,3.6612134,5.3701944,-15.010208,20.985312,0,0,0,0
474571952,474571763,3932170,0.39743748,-3.833117,-7.435433,21.27907,0,0,0,0
475573088,475572896,3932170,2.516785,1.6089035,-10.059478,21.23011,0,0,0,0
476574389,476574195,3932170,-0.6818687,-8.354328,-10.926179,21.13219,0,0,0,0
477575675,477575488,3932170,-0.06512229,1.910573,-10.84765,20.936352,0,0,0,0
478573214,478573026,3932170,-1.9570205,-8.654081,-5.678568,21.32803,0,0,0,0
479574503,479574317,3932170,1.4590266,13.48558,-10.009679,21.083231,0,0,0,0
480572058,480571866,3932170,3.3054347,-3.0722399,-14.793294,21.23011,0,0,0,0
481572245,481572053,3932170,3.7339969,5.3529563,-16.497965,21.27907,0,0,0,0
482573395,482573201,3932170,2.2155943,-6.3910823,-7.269275,21.23011,0,0,0,0
483574681,483574492,3932170,-1.8631678,8.414661,-11.547714,21.474909,0,0,0,0
484574742,484574546,3932170,0.19967642,-2.111686,-10.839509,21.13219,0,0,0,0
485572273,485572084,3932170,-1.0764331,0.48219225,-13.624924,21.13219,0,0,0,0
486573565,486573374,3932170,1.5385141,-2.0958843,-8.770439,21.083231,0,0,0,0
487574853,487574664,3932170,-0.16711529,7.716512,-9.729557,21.32803,0,0,0,0
488572529,488572339,3932170,1.0184934,3.8249767,-8.854237,21.23011,0,0,0,0
489573690,489573505,3932170,-2.3175871,-5.7125654,-5.749915,21.27907,0,0,0,0
490573735,490573548,3932170,0.4127604,-3.9906554,-7.0427837,21.083231,0,0,0,0
491575023,491574834,3932170,3.056917,4.586333,-13.152786,21.083231,0,0,0,0
492572588,492572394,3932170,-0.25905263,3.7718253,-13.722607,21.23011,0,0,0,0
493575114,493574926,3932170,-0.851857,-2.1073763,-12.752476,21.27907,0,0,0,0
494575160,494574970,3932170,-0.19488803,-6.754043,-9.284235,20.936352,0,0,0,0
495572875,495572684,3932170,-3.541982,2.8926747,-7.8592067,21.474909,0,0,0,0
496574000,496573810,3932170,2.3582888,10.0508585,-13.285905,21.083231,0,0,0,0
497574072,497573886,3932170,-0.042616792,-3.0674515,-8.864772,21.083231,0,0,0,0
498575336,498575146,3932170,-0.02585738,-1.5710752,-10.920912,21.32803,0,0,0,0
499572887,499572694,3932170,1.1654974,-5.4175997,-10.049901,21.13219,0,0,0,0
500574191,500574005,3932170,4.4829035,2.7734432,-12.388079,21.23011,0,0,0,0
501574218,501574030,3932170,-0.9035717,-1.7137696,-9.828677,21.083231,0,0,0,0
502571886,502571693,3932170,1.2229583,3.0933087,-11.302069,20.985312,0,0,0,0
503573069,503572872,3932170,1.8420988,5.5693917,-10.935277,21.27907,0,0,0,0
504574352,504574163,3932170,2.7169402,-7.4636846,-9.82772,20.985312,0,0,0,0
505575640,505575453,3932170,3.2781413,5.803545,-15.352579,21.27907,0,0,0,0
506571967,506571779,3932170,2.9348125,-3.9628828,-8.40317,21.23011,0,0,0,0
507573268,507573077,3932170,-1.1985373,-1.9268535,-10.4631405,21.42595,0,0,0,0
508574523,508574337,3932170,0.1790863,-0.38642418,-10.329065,21.23011,0,0,0,0
