timestamp,timestamp_sample,device_id,x,y,z,temperature,error_count,clip_counter[0],clip_counter[1],clip_counter[2]
14571967,14571694,3670026,0.2063802,0.10342952,-10.153331,21.695227,0,0,0,0
14573220,14572943,3670026,0.5683835,0.13934255,-10.0341,21.705019,0,0,0,0
15574834,15574559,3670026,0.147004,0.7675811,-10.778218,21.680538,0,0,0,0
16572721,16572454,3670026,2.2567747,-0.9227253,-9.330204,21.709915,0,0,0,0
17573246,17572974,3670026,1.4106637,-0.60381764,-8.833168,21.660955,0,0,0,0
18574725,18574454,3670026,-2.3118412,-6.8814144,-13.62205,21.705019,0,0,0,0
19572631,19572357,3670026,3.3767822,2.3822308,-9.090305,21.807833,0,0,0,0
20573008,20572734,3670026,-3.2134976,6.688442,-10.489477,21.744186,0,0,0,0
21574620,21574354,3670026,-0.013407529,4.0112457,-11.069831,21.812729,0,0,0,0
22575004,22574734,3670026,2.670014,-2.3774424,-8.645941,21.822521,0,0,0,0
23572904,23572633,3670026,-1.5184027,-7.7222586,-12.8448925,21.768665,0,0,0,0
24573417,24573151,3670026,-0.021547815,-3.5343208,-14.077906,21.798042,0,0,0,0
25574919,25574642,3670026,0.4060566,4.6710877,-6.8660917,21.817625,0,0,0,0
26572857,26572577,3670026,1.8454506,13.433388,-6.0238113,21.817625,0,0,0,0
27573197,27572919,3670026,2.1859062,6.131551,-5.255273,21.802937,0,0,0,0
28573581,28573300,3670026,-0.28491,-9.335471,-16.580805,21.842106,0,0,0,0
29571483,29571202,3670026,0.022505498,-3.6190753,-14.098976,21.842106,0,0,0,0
30573090,30572822,3670026,0.35051116,-4.9866433,-9.534669,21.832314,0,0,0,0
31573624,31573356,3670026,3.6099775,-4.8822565,-8.801564,21.856792,0,0,0,0
32575102,32574829,3670026,1.928769,4.414429,-5.8921304,21.842106,0,0,0,0
33571755,33571487,3670026,2.5153482,-4.4067674,-8.731653,21.900856,0,0,0,0
34573380,34573111,3670026,2.2170308,-5.559815,-11.047804,21.842106,0,0,0,0
35575005,35574738,3670026,-2.7854142,15.229039,-6.1530986,21.905752,0,0,0,0
36575388,36575118,3670026,1.0500969,-3.7507563,-8.929415,21.92044,0,0,0,0
37573289,37573019,3670026,0.97539777,-3.380134,-8.058883,21.861689,0,0,0,0
38573841,38573576,3670026,-0.06991069,-3.572628,-13.652218,21.822521,0,0,0,0
39575336,39575065,3670026,-0.34332854,-5.7456055,-11.620976,21.817625,0,0,0,0
40571957,40571687,3670026,-1.8267759,-0.11444284,-8.590875,21.925337,0,0,0,0
41573579,41573311,3670026,3.4888308,-6.6372056,-12.169727,21.861689,0,0,0,0
42574022,42573751,3670026,2.9386432,-10.578062,-12.021766,21.905752,0,0,0,0
43575591,43575320,3670026,-3.2221167,11.165599,-7.3923373,21.910648,0,0,0,0
44573494,44573222,3670026,0.89495265,-6.0511055,-11.824484,21.954712,0,0,0,0
45574055,45573790,3670026,2.5933995,2.261563,-11.259931,21.93513,0,0,0,0
46574266,46573989,3670026,-2.360683,6.1248465,-11.567346,21.930233,0,0,0,0
47572199,47571925,3670026,-1.418804,4.4244847,-9.320148,21.905752,0,0,0,0
48573789,48573517,3670026,4.0567355,-5.4573436,-10.973105,21.925337,0,0,0,0
49574199,49573921,3670026,-5.235162,7.4277716,-10.509109,21.876377,0,0,0,0
50572085,50571807,3670026,0.80540943,5.4487243,-4.150588,21.866585,0,0,0,0
51572464,51572192,3670026,1.8579005,-0.60860604,-10.614933,22.033049,0,0,0,0
52574083,52573817,3670026,1.1453861,-16.790537,-15.268782,21.949816,0,0,0,0
53574467,53574198,3670026,0.61770403,-4.8702855,-10.850522,21.9694,0,0,0,0
54572418,54572151,3670026,0.45633486,-2.5474305,-7.7576923,21.99388,0,0,0,0
55572755,55572488,3670026,-1.3661315,2.966416,-7.7787614,21.87148,0,0,0,0
56574414,56574141,3670026,-1.49063,14.175111,-2.8993783,21.949816,0,0,0,0
57574766,57574497,3670026,-0.60094464,12.987107,-10.490913,21.988983,0,0,0,0
58572666,58572400,3670026,-0.78050977,3.9025488,-9.86028,21.94492,0,0,0,0
59574301,59574028,3670026,3.9312792,5.148012,-5.8863845,21.94492,0,0,0,0
60574680,60574412,3670026,-1.2320563,9.483433,-7.8204207,21.910648,0,0,0,0
61572585,61572315,3670026,-3.70383,-0.46543282,-12.548491,21.9694,0,0,0,0
62572972,62572702,3670026,0.65170175,2.2103271,-10.803596,21.974297,0,0,0,0
63574706,63574435,3670026,2.0829554,-3.68324,-9.638577,21.964504,0,0,0,0
64574985,64574713,3670026,-1.1118673,-1.0764331,-13.035471,22.01836,0,0,0,0
65572888,65572618,3670026,0.3098097,3.6123717,-4.936365,21.979193,0,0,0,0
66573285,66573003,3670026,7.791211,-6.3154254,-7.561847,21.99388,0,0,0,0
67572410,67572148,3670026,6.331706,-0.99407256,-7.9023023,21.9694,0,0,0,0
68572812,68572534,3670026,-3.2575507,-2.6537333,-12.064383,22.013464,0,0,0,0
69573194,69572919,3670026,3.925533,-11.179485,-13.508565,21.988983,0,0,0,0
70574879,70574611,3670026,1.157836,1.2708422,-10.335291,21.984089,0,0,0,0
71575217,71574934,3670026,-1.0994174,13.695791,-10.728897,21.974297,0,0,0,0
72573103,72572836,3670026,-0.9131485,6.40018,-10.959698,22.013464,0,0,0,0
73573503,73573232,3670026,0.045010995,5.434359,-10.316137,21.94492,0,0,0,0
74572631,74572367,3670026,5.618713,-2.6944346,-11.155543,22.01836,0,0,0,0
75571784,75571512,3670026,0.42281604,0.39025488,-12.816162,21.99388,0,0,0,0
76573415,76573141,3670026,-3.6521153,6.3929973,-11.248439,22.06732,0,0,0,0
77573863,77573593,3670026,-1.0898407,7.3683953,-8.1163435,21.998775,0,0,0,0
78575437,78575174,3670026,1.6587029,-6.2522187,-9.194693,21.99388,0,0,0,0
79573368,79573099,3670026,-1.5787367,6.563465,-5.329972,21.974297,0,0,0,0
80574951,80574685,3670026,0.56790465,-8.381143,-9.042421,21.998775,0,0,0,0
81572859,81572589,3670026,7.157227,-12.935393,-11.849383,21.954712,0,0,0,0
82572001,82571734,3670026,1.0951078,4.5781927,-11.155065,22.003672,0,0,0,0
83573631,83573361,3670026,3.9964015,-1.4882358,-8.042124,21.988983,0,0,0,0
84574098,84573829,3670026,3.3245885,-9.476251,-8.689516,22.008568,0,0,0,0
85575644,85575375,3670026,1.727656,-8.987354,-10.853395,22.003672,0,0,0,0
86572302,86572039,3670026,0.049320556,-9.116162,-16.162777,21.99388,0,0,0,0
87575244,87574972,3670026,1.9713857,10.324277,-6.113355,22.01836,0,0,0,0
88575566,88575294,3670026,2.9534872,0.6799533,-6.438487,22.028152,0,0,0,0
89572230,89571957,3670026,4.1419687,-7.4689517,-12.186486,21.974297,0,0,0,0
90573850,90573585,3670026,-1.9201498,6.2876525,-11.229285,21.930233,0,0,0,0
91574401,91574132,3670026,-2.5263617,5.6029105,-10.912293,21.92044,0,0,0,0
92574623,92574358,3670026,2.6398468,-8.438125,-11.846032,21.974297,0,0,0,0
93572547,93572269,3670026,1.1104308,8.714416,-5.5377884,22.047735,0,0,0,0
94574159,94573890,3670026,2.8103142,0.5779603,-8.916486,22.023256,0,0,0,0
95574551,95574277,3670026,1.8976444,3.0827742,-8.2451515,22.023256,0,0,0,0
96572493,96572224,3670026,-2.3750482,-4.654807,-12.968912,21.99388,0,0,0,0
97572847,97572568,3670026,-4.376122,15.912822,-5.6646814,22.052631,0,0,0,0
98574641,98574367,3670026,-0.9888053,5.622544,-5.2198386,22.06732,0,0,0,0
99574850,99574583,3670026,0.6076484,3.1158142,-3.7459679,22.023256,0,0,0,0
100572759,100572495,3670026,0.84658974,-10.949163,-17.092205,22.082006,0,0,0,0
101574402,101574120,3670026,0.82169,-1.6294937,-8.858546,22.096695,0,0,0,0
102574766,102574500,3670026,-2.4358609,4.8449063,-7.6480384,22.008568,0,0,0,0
103572681,103572410,3670026,-4.4484267,-1.5207969,-8.749849,22.057528,0,0,0,0
104573069,104572796,3670026,-0.076614454,-5.796841,-12.770194,22.052631,0,0,0,0
105574873,105574603,3670026,-2.091096,2.303222,-10.304645,22.06732,0,0,0,0
106575099,106574834,3670026,3.3140543,6.3671403,-9.829155,22.101591,0,0,0,0
107573004,107572740,3670026,4.8496947,-5.812643,-11.04158,22.077112,0,0,0,0
108573377,108573104,3670026,-3.7751772,15.320976,-8.826465,22.04284,0,0,0,0
109574999,109574732,3670026,-3.4328065,7.8414893,-6.4629083,22.091799,0,0,0,0
110571677,110571402,3670026,-1.3838485,5.369237,-9.288067,22.028152,0,0,0,0
111573303,111573031,3670026,-2.381273,11.608526,-8.577946,22.037943,0,0,0,0
112573808,112573540,3670026,4.255454,2.2146366,-5.150886,22.106487,0,0,0,0
113575309,113575041,3670026,0.31076738,-16.885347,-16.705782,22.06732,0,0,0,0
114573221,114572946,3670026,2.5766401,-4.993826,-6.522284,22.033049,0,0,0,0
115573610,115573334,3670026,3.4486082,-6.394434,-10.161949,22.008568,0,0,0,0
116575262,116574989,3670026,1.2962209,-18.18444,-14.664007,22.047735,0,0,0,0
117571888,117571623,3670026,4.2190623,-11.790486,-12.276988,22.086903,0,0,0,0
118574762,118574497,3670026,2.8759153,3.0459037,-9.825326,22.013464,0,0,0,0
119574057,119573786,3670026,-1.3670892,12.073481,-4.6294284,22.11628,0,0,0,0
120575541,120575273,3670026,-3.4845212,1.5188816,-8.271967,22.062424,0,0,0,0
121573447,121573178,3670026,6.3341002,1.7085024,-6.0769625,22.028152,0,0,0,0
122573839,122573568,3670026,-2.8768728,-2.2572534,-14.551479,22.086903,0,0,0,0
123574227,123573954,3670026,-1.463815,-0.8480263,-14.008953,22.047735,0,0,0,0
124572130,124571860,3670026,3.554911,7.992803,-5.21122,22.06732,0,0,0,0
125573761,125573490,3670026,3.5673606,-14.797604,-11.718181,22.140759,0,0,0,0
126574294,126574028,3670026,-1.0098743,1.3220782,-8.248025,22.130966,0,0,0,0
127575777,127575510,3670026,-3.149333,2.82851,-9.97999,22.047735,0,0,0,0
128572455,128572176,3670026,0.6986281,12.505395,-3.8786068,22.047735,0,0,0,0
129574078,129573801,3670026,2.3827095,-3.800556,-9.263645,22.028152,0,0,0,0
130574469,130574202,3670026,5.9371414,-10.562739,-10.527305,22.111383,0,0,0,0
131572380,131572116,3670026,1.5207969,2.7935545,-5.233725,22.052631,0,0,0,0
132572755,132572484,3670026,5.0982137,-7.066726,-10.11215,22.101591,0,0,0,0
133574592,133574322,3670026,2.6657043,-2.5953147,-7.561847,22.037943,0,0,0,0
134574769,134574498,3670026,7.7332716,8.298303,-3.1311371,22.077112,0,0,0,0
135572679,135572410,3670026,-3.0157363,5.965872,-10.4631405,22.121176,0,0,0,0
136574305,136574038,3670026,3.566403,-13.47361,-11.3375025,22.106487,0,0,0,0
137574691,137574426,3670026,-2.9056032,20.37753,-5.6067414,22.072216,0,0,0,0
138572597,138572332,3670026,-1.7602171,7.1677613,-5.5823207,22.091799,0,0,0,0
139572991,139572722,3670026,-5.1676455,7.8836274,-11.722969,22.072216,0,0,0,0
140574804,140574538,3670026,-1.0223241,0.20111294,-10.120291,22.072216,0,0,0,0
141575021,141574746,3670026,-1.244506,3.6583402,-11.698549,22.12607,0,0,0,0
142572922,142572646,3670026,1.520318,4.705564,-10.555557,22.037943,0,0,0,0
143573308,143573040,3670026,0.14987703,0.40078938,-8.149862,22.082006,0,0,0,0
144575040,144574777,3670026,-4.192726,-4.258806,-15.667656,22.170135,0,0,0,0
145572841,145572570,3670026,0.019632453,-15.1107645,-15.742355,22.101591,0,0,0,0
146573239,146572961,3670026,-1.0649409,3.941335,-12.933477,22.047735,0,0,0,0
147574867,147574591,3670026,-5.251921,11.6114,-10.831368,22.096695,0,0,0,0
148575253,148574979,3670026,1.0639832,4.00119,-7.255389,22.052631,0,0,0,0
149574396,149574126,3670026,-1.6792932,-0.1733402,-11.283873,22.047735,0,0,0,0
150573590,150573323,3670026,3.8479612,12.985192,-1.4729129,22.086903,0,0,0,0
151575252,151574982,3670026,2.743755,-1.5442601,-11.2896185,22.101591,0,0,0,0
152573084,152572810,3670026,4.927267,-1.6812085,-6.978619,22.106487,0,0,0,0
153573475,153573199,3670026,2.057577,3.5889084,-7.145256,22.086903,0,0,0,0
154573861,154573590,3670026,2.420538,4.6141057,-5.2902284,22.06732,0,0,0,0
155575485,155575217,3670026,3.2163706,-3.821625,-12.010273,22.111383,0,0,0,0
156572157,156571882,3670026,1.9867085,3.6099775,-9.176975,22.160343,0,0,0,0
157573779,157573512,3670026,-1.2761095,4.2133164,-13.93186,22.077112,0,0,0,0
158574275,158573996,3670026,-0.6162675,9.56723,-8.366777,22.062424,0,0,0,0
159572083,159571808,3670026,0.29592332,4.164953,-7.44884,22.086903,0,0,0,0
160573726,160573453,3670026,1.0386047,10.052296,-7.9645514,22.140759,0,0,0,0
161574093,161573827,3670026,-1.4834474,7.377972,-13.663709,22.130966,0,0,0,0
162575723,162575457,3670026,0.4122815,-0.48075572,-7.089231,22.062424,0,0,0,0
163572393,163572123,3670026,-3.6655228,6.5658593,-11.794795,22.062424,0,0,0,0
164574020,164573753,3670026,2.6968288,4.132392,-6.0554147,22.111383,0,0,0,0
165574462,165574191,3670026,-2.8668172,-2.3180661,-13.200671,22.135862,0,0,0,0
166572341,166572071,3670026,0.24756046,1.4183252,-8.546822,22.086903,0,0,0,0
167572713,167572440,3670026,0.6531383,0.98976296,-11.159374,22.072216,0,0,0,0
168574346,168574070,3670026,-0.88010854,-4.3239284,-15.26974,22.111383,0,0,0,0
169574731,169574459,3670026,5.98311,-2.0944476,-8.008605,22.06732,0,0,0,0
170572634,170572365,3670026,2.797864,12.710339,-8.181945,22.145655,0,0,0,0
171574269,171573995,3670026,2.5024197,13.155661,-1.1444284,22.121176,0,0,0,0
172574706,172574436,3670026,-0.024899699,1.6716317,-6.7535644,22.140759,0,0,0,0
173573798,173573534,3670026,0.5659893,4.537012,-5.772899,22.052631,0,0,0,0
174572952,174572681,3670026,-3.3360808,0.055066638,-13.577997,22.072216,0,0,0,0
175574576,175574312,3670026,0.13551182,-10.648452,-11.377726,22.082006,0,0,0,0
176574972,176574701,3670026,-2.4875755,6.169379,-8.703402,22.04284,0,0,0,0
177572921,177572647,3670026,3.6750996,-1.034774,-6.979098,22.135862,0,0,0,0
178573273,178572998,3670026,4.648582,-12.957899,-11.523293,22.11628,0,0,0,0
179574973,179574701,3670026,1.6701952,-1.3014882,-8.0924015,22.135862,0,0,0,0
180572819,180572538,3670026,0.17142484,-2.5924418,-10.399934,22.145655,0,0,0,0
181573200,181572926,3670026,-1.3781025,3.0214825,-9.904813,22.106487,0,0,0,0
182574826,182574556,3670026,3.8680723,4.114675,-4.4436383,22.130966,0,0,0,0
183571505,183571224,3670026,0.15370776,-4.6797066,-9.193255,22.15055,0,0,0,0
184573127,184572853,3670026,-0.8542512,12.057679,-8.287291,22.140759,0,0,0,0
185573522,185573251,3670026,0.19297266,4.675876,-5.8112063,22.12607,0,0,0,0
186575315,186575046,3670026,2.5732882,-3.9609673,-10.601525,22.082006,0,0,0,0
187571812,187571540,3670026,-4.197036,7.124187,-11.731588,22.101591,0,0,0,0
188573436,188573170,3670026,-0.7431602,1.4154521,-6.399701,22.160343,0,0,0,0
189573842,189573563,3670026,1.4417883,-5.728846,-10.804075,22.145655,0,0,0,0
190572981,190572708,3670026,-2.9826965,-2.2586899,-13.386939,22.106487,0,0,0,0
191573379,191573098,3670026,-0.38019922,-2.0949266,-9.378567,22.15055,0,0,0,0
192573757,192573489,3670026,2.7341783,-7.615956,-11.78474,22.121176,0,0,0,0
193574240,193573962,3670026,0.44244847,-1.4618996,-8.48553,22.111383,0,0,0,0
194572052,194571784,3670026,-1.058716,0.2183512,-8.499416,22.086903,0,0,0,0
195573685,195573416,3670026,-3.7435737,7.0700774,-10.998962,22.111383,0,0,0,0
196574080,196573805,3670026,1.9637243,-2.4406493,-14.094666,22.155447,0,0,0,0
197573228,197572954,3670026,-0.5635951,8.8341255,-4.0567355,22.140759,0,0,0,0
198572370,198572102,3670026,-0.67564374,1.1722012,-8.214027,22.082006,0,0,0,0
199574003,199573733,3670026,1.8071434,6.439445,-4.5992613,22.082006,0,0,0,0
200574502,200574229,3670026,4.1127596,-10.985555,-12.075396,22.096695,0,0,0,0
201572302,201572034,3670026,-0.12689269,9.74488,-7.6556997,22.121176,0,0,0,0
202572693,202572421,3670026,3.5051112,-15.178761,-11.915463,22.06732,0,0,0,0
203574324,203574054,3670026,-0.7431602,-6.1214952,-12.024638,22.140759,0,0,0,0
204572243,204571962,3670026,1.4130579,9.414959,-5.0182467,22.057528,0,0,0,0
205572619,205572349,3670026,3.9250543,-2.0130448,-6.8426285,22.11628,0,0,0,0
206574257,206573980,3670026,1.5476121,4.130477,-9.853098,22.086903,0,0,0,0
207574747,207574481,3670026,-0.8676587,11.686098,-8.2101965,22.106487,0,0,0,0
208572544,208572278,3670026,3.8714242,1.0472238,-6.1655483,22.101591,0,0,0,0
209572936,209572668,3670026,-0.95432884,-0.44915226,-10.258197,22.15055,0,0,0,0
210574586,210574303,3670026,2.2060175,-3.101449,-9.180327,22.15055,0,0,0,0
211574961,211574690,3670026,-0.14604631,8.006689,-9.969456,22.160343,0,0,0,0
212572881,212572610,3670026,0.42521024,5.914157,-8.928457,22.228886,0,0,0,0
213573263,213572988,3670026,0.34141317,1.5816097,-11.812513,22.145655,0,0,0,0
214575019,214574745,3670026,-0.53247046,-2.8529308,-12.894213,22.155447,0,0,0,0
215572799,215572526,3670026,0.12306197,-0.37445316,-7.9789166,22.130966,0,0,0,0
216573190,216572917,3670026,2.540248,-0.5664681,-13.627796,22.170135,0,0,0,0
217574818,217574549,3670026,0.65218055,6.5476627,-5.9955597,22.140759,0,0,0,0
218575213,218574939,3670026,5.7393804,-15.594872,-11.556811,22.135862,0,0,0,0
219573120,219572846,3670026,2.507208,5.291186,-8.652645,22.170135,0,0,0,0
220573519,220573241,3670026,3.8340747,11.142614,-2.6714504,22.135862,0,0,0,0
221572797,221572521,3670026,0.085233584,-9.276095,-12.695494,22.12607,0,0,0,0
222571802,222571534,3670026,1.3632585,-3.4577062,-10.2649,22.184822,0,0,0,0
223573436,223573166,3670026,0.8192958,5.7599707,-9.713755,22.170135,0,0,0,0
224573830,224573556,3670026,2.13898,-4.049074,-7.5479603,22.15055,0,0,0,0
225575500,225575231,3670026,4.0581717,-7.4201097,-12.896607,22.130966,0,0,0,0
226573362,226573095,3670026,-2.7212496,3.688507,-10.936235,22.06732,0,0,0,0
227573754,227573485,3670026,3.2800562,1.580652,-13.294524,22.135862,0,0,0,0
228575581,228575312,3670026,0.8959103,3.9298427,-7.4670362,22.140759,0,0,0,0
229572057,229571784,3670026,1.5049952,4.1668687,-6.3719287,22.189718,0,0,0,0
230573683,230573415,3670026,-1.7578229,1.4178463,-10.776781,22.155447,0,0,0,0
231574108,231573840,3670026,1.1645397,9.615114,-8.831253,22.11628,0,0,0,0
232575704,232575437,3670026,-1.5552735,-1.5586253,-14.158351,22.16524,0,0,0,0
233572373,233572104,3670026,-3.1929073,-0.60381764,-12.137645,22.155447,0,0,0,0
234574006,234573736,3670026,-1.8349162,5.507622,-13.09772,22.130966,0,0,0,0
235574545,235574280,3670026,1.8727446,-1.751598,-7.1275387,22.135862,0,0,0,0
236572314,236572036,3670026,-2.1375432,4.172136,-11.995908,22.135862,0,0,0,0
237572702,237572426,3670026,-1.8574216,2.699223,-12.429738,22.194614,0,0,0,0
238574327,238574057,3670026,0.72687966,-6.078878,-9.590693,22.170135,0,0,0,0
239574765,239574497,3670026,-0.374932,-0.19871874,-9.854056,22.121176,0,0,0,0
240572626,240572357,3670026,-3.775656,7.0006456,-11.294887,22.184822,0,0,0,0
241574272,241573989,3670026,-4.466623,9.984778,-10.19499,22.145655,0,0,0,0
242574827,242574555,3670026,0.8355764,-6.827306,-11.6300745,22.17503,0,0,0,0
243572558,243572288,3670026,-1.4298173,10.475112,-9.818622,22.179926,0,0,0,0
244572953,244572679,3670026,3.9279273,2.9549239,-9.749668,22.096695,0,0,0,0
245574586,245574311,3670026,0.52097833,4.8932695,-7.9583263,22.184822,0,0,0,0
246575046,246574772,3670026,-2.1686678,1.0146627,-12.450328,22.209303,0,0,0,0
247572885,247572610,3670026,-2.7940333,-4.997657,-17.3005,22.194614,0,0,0,0
248573277,248573001,3670026,2.8500578,0.78721356,-7.1605787,22.145655,0,0,0,0
249575104,249574819,3670026,2.4133554,5.0220776,-5.389827,22.179926,0,0,0,0
250572816,250572543,3670026,5.944324,-1.4149733,-5.684314,22.184822,0,0,0,0
251574440,251574174,3670026,0.1766921,-14.644374,-17.298107,22.194614,0,0,0,0
252573592,252573324,3670026,0.566947,-5.1939816,-12.429258,22.253366,0,0,0,0
253575294,253575029,3670026,1.3704411,-0.740766,-8.0766,22.16524,0,0,0,0
254573143,254572865,3670026,1.2574347,4.187459,-7.851066,22.209303,0,0,0,0
255573529,255573256,3670026,-0.25187004,-4.708437,-11.543404,22.155447,0,0,0,0
256575167,256574891,3670026,1.514572,-8.8451395,-13.405135,22.16524,0,0,0,0
257573086,257572818,3670026,2.4329877,-0.26623523,-5.8025875,22.17503,0,0,0,0
258574696,258574429,3670026,1.0730813,-4.535576,-10.585245,22.194614,0,0,0,0
259573850,259573579,3670026,1.3934253,-0.60142344,-6.5332975,22.184822,0,0,0,0
260575508,260575244,3670026,-1.8248606,2.942474,-11.408851,22.2142,0,0,0,0
261573390,261573121,3670026,1.3905523,-1.2847288,-7.353072,22.160343,0,0,0,0
262573784,262573512,3670026,-0.5176264,-5.038358,-11.2508335,22.194614,0,0,0,0
263574178,263573904,3670026,-1.7798496,6.88333,-10.435368,22.189718,0,0,0,0
264572085,264571816,3670026,-0.37588966,7.2898655,-5.5842366,22.219093,0,0,0,0
265573720,265573448,3670026,-1.4063542,-1.7908629,-12.171643,22.145655,0,0,0,0
266574112,266573832,3670026,-0.06464344,0.16759412,-7.839095,22.170135,0,0,0,0
267574546,267574276,3670026,1.9689915,-7.65139,-10.824665,22.11628,0,0,0,0
268572407,268572137,3670026,-1.1391612,18.129375,-8.168537,22.170135,0,0,0,0
269574042,269573770,3670026,-3.8699877,-3.3284194,-14.285724,22.160343,0,0,0,0
270574444,270574167,3670026,-0.22313961,-10.516292,-13.672328,22.179926,0,0,0,0
271572354,271572079,3670026,-2.4909275,9.062532,-9.42693,22.184822,0,0,0,0
272572736,272572462,3670026,4.282748,-4.0687065,-9.710882,22.184822,0,0,0,0
273574372,273574099,3670026,3.0281863,-0.19297266,-12.045229,22.19951,0,0,0,0
274574902,274574630,3670026,-2.7466283,8.694304,-7.606379,22.19951,0,0,0,0
275572674,275572397,3670026,1.2550405,7.8955984,-10.216059,22.253366,0,0,0,0
276574301,276574029,3670026,-0.5018247,-2.765303,-10.569922,22.184822,0,0,0,0
277574690,277574421,3670026,1.8880676,3.8924932,-8.13023,22.155447,0,0,0,0
278572607,278572333,3670026,-2.3013067,5.9725757,-10.322841,22.238678,0,0,0,0
279572997,279572722,3670026,4.027047,1.5217547,-7.6197867,22.189718,0,0,0,0
280574621,280574351,3670026,-3.4725502,11.969093,-11.40454,22.121176,0,0,0,0
281575085,281574810,3670026,-1.9484013,3.092351,-10.592427,22.17503,0,0,0,0
282572934,282572661,3670026,3.442862,2.43203,-6.997294,22.22399,0,0,0,0
283573323,283573049,3670026,5.148492,-14.509341,-11.837891,22.268053,0,0,0,0
284574949,284574682,3670026,-1.6218323,2.960191,-8.383059,22.189718,0,0,0,0
285571626,285571352,3670026,1.5385141,-7.1581845,-11.023862,22.22399,0,0,0,0
286573271,286572989,3670026,-0.051235914,17.320612,-7.587225,22.179926,0,0,0,0
287573646,287573376,3670026,0.11300632,9.36899,-9.868422,22.155447,0,0,0,0
288575356,288575082,3670026,0.21404164,9.869379,-5.1293383,22.27295,0,0,0,0
289574430,289574162,3670026,-3.992092,12.768757,-12.057679,22.238678,0,0,0,0
290573587,290573320,3670026,-0.88681227,1.3235147,-6.974788,22.233782,0,0,0,0
291575220,291574948,3670026,3.2225955,1.2382811,-7.4991183,22.219093,0,0,0,0
292571886,292571613,3670026,-4.355053,15.395675,-9.516473,22.170135,0,0,0,0
293573520,293573249,3670026,-0.6789956,6.085582,-6.6338544,22.219093,0,0,0,0
294573911,294573641,3670026,1.8234241,-5.785828,-12.392867,22.219093,0,0,0,0
295575652,295575386,3670026,-2.765303,-5.21505,-15.839081,22.209303,0,0,0,0
296572219,296571944,3670026,-3.9748538,11.770853,-9.527487,22.189718,0,0,0,0
297573844,297573578,3670026,4.6888046,8.388804,-6.2579646,22.170135,0,0,0,0
298574251,298573972,3670026,1.0204087,6.396828,-6.7593102,22.24847,0,0,0,0
299572158,299571880,3670026,0.19057845,-2.5464728,-9.474335,22.263157,0,0,0,0
300573796,300573522,3670026,3.7804444,-15.626954,-12.075396,22.238678,0,0,0,0
301574278,301574009,3670026,0.81642276,12.163024,-1.2732364,22.17503,0,0,0,0
302572191,302571922,3670026,2.195483,14.601758,-1.9871874,22.189718,0,0,0,0
303572480,303572211,3670026,0.0818817,-4.049074,-13.972561,22.253366,0,0,0,0
304574111,304573845,3670026,7.3794084,4.6806645,-5.568913,22.189718,0,0,0,0
305575744,305575478,3670026,2.794991,1.0783484,-7.672459,22.228886,0,0,0,0
306573663,306573389,3670026,0.48985368,-8.277234,-13.847105,22.253366,0,0,0,0
307572818,307572541,3670026,-0.46255976,-2.9467835,-12.613133,22.253366,0,0,0,0
308574447,308574175,3670026,0.06368577,18.958725,-6.0037003,22.263157,0,0,0,0
309574941,309574671,3670026,0.28538886,9.177933,-5.7690687,22.2142,0,0,0,0
310572753,310572479,3670026,0.49416324,5.118803,-10.081984,22.219093,0,0,0,0
311574386,311574113,3670026,1.7927783,-4.906198,-8.450575,22.258263,0,0,0,0
312574777,312574506,3670026,-1.868435,8.966764,-10.196905,22.258263,0,0,0,0
313572700,313572420,3670026,0.9255984,5.2720323,-6.145916,22.253366,0,0,0,0
314573080,314572812,3670026,1.3924677,-7.243897,-8.481699,22.204407,0,0,0,0
315574710,315574444,3670026,-2.5421634,-0.32369608,-14.62953,22.243574,0,0,0,0
316575223,316574949,3670026,1.1066,-2.7902026,-7.9674244,22.24847,0,0,0,0
317573018,317572748,3670026,0.7326257,-5.2356405,-9.168835,22.258263,0,0,0,0
318573415,318573142,3670026,-0.84419554,-3.578853,-11.729673,22.2142,0,0,0,0
319575049,319574776,3670026,0.6100426,-1.2028469,-8.810184,22.228886,0,0,0,0
320571749,320571479,3670026,3.6827612,-9.809045,-9.501629,22.253366,0,0,0,0
321573351,321573081,3670026,1.0481815,1.4025233,-9.381919,22.29743,0,0,0,0
322573743,322573475,3670026,3.7541082,1.9914969,-5.7163963,22.292534,0,0,0,0
323571772,323571500,3670026,-0.06751649,-1.0453085,-7.96934,22.243574,0,0,0,0
324573290,324573020,3670026,0.36487636,7.322427,-10.680533,22.243574,0,0,0,0
325573679,325573413,3670026,1.9594147,-1.2354081,-9.3484,22.19951,0,0,0,0
326575324,326575048,3670026,-0.38307226,5.3529563,-7.4493194,22.27295,0,0,0,0
327571984,327571713,3670026,-3.4533966,6.2661047,-11.434708,22.282742,0,0,0,0
328573621,328573352,3670026,0.90021986,3.7426162,-10.793541,22.27295,0,0,0,0
329574026,329573750,3670026,0.46112326,3.2158918,-11.584584,22.27295,0,0,0,0
330572045,330571778,3670026,2.582865,-14.397772,-12.946885,22.277845,0,0,0,0
331572318,331572051,3670026,3.3217156,-0.48410758,-10.334811,22.24847,0,0,0,0
332573961,332573685,3670026,1.5543158,11.076534,-9.484391,22.307222,0,0,0,0
333574350,333574081,3670026,6.706159,-9.529881,-8.931331,22.292534,0,0,0,0
334572297,334572030,3670026,0.55593365,-13.594756,-19.533335,22.209303,0,0,0,0
335572658,335572385,3670026,-0.23511061,3.809654,-8.5635805,22.292534,0,0,0,0
336574288,336574020,3670026,-5.2806516,9.7286,-10.653719,22.233782,0,0,0,0
337574825,337574557,3670026,2.5766401,-8.5985365,-10.307038,22.258263,0,0,0,0
338572618,338572351,3670026,7.4239407,-16.180973,-10.746614,22.258263,0,0,0,0
339574234,339573961,3670026,2.9826965,12.590629,-6.1090455,22.233782,0,0,0,0
340574627,340574354,3670026,-1.5207969,-7.029855,-13.462596,22.326805,0,0,0,0
341572574,341572301,3670026,1.86221,-1.1779473,-10.353486,22.22399,0,0,0,0
342572941,342572662,3670026,-1.5629349,16.859968,-5.3859963,22.29743,0,0,0,0
343574563,343574295,3670026,-2.972162,7.7098083,-11.698549,22.277845,0,0,0,0
344575113,344574846,3670026,1.8124107,0.58226985,-10.200256,22.233782,0,0,0,0
345572887,345572617,3670026,5.925649,-11.903971,-9.432198,22.29743,0,0,0,0
346573268,346572996,3670026,-2.063323,8.2667,-9.505939,22.258263,0,0,0,0
347574895,347574630,3670026,0.32225958,-3.5496433,-12.561419,22.268053,0,0,0,0
348571619,348571353,3670026,3.287718,-3.4112587,-10.435368,22.321909,0,0,0,0
349573205,349572936,3670026,-4.996699,6.0060945,-13.768576,22.282742,0,0,0,0
350574843,350574572,3670026,4.615063,2.9295452,-4.4244847,22.302326,0,0,0,0
351575461,351575195,3670026,3.3528402,-11.439975,-13.165715,22.302326,0,0,0,0
352573150,352572878,3670026,4.0064573,-4.8789043,-9.298601,22.287638,0,0,0,0
353573553,353573272,3670026,1.0477027,-4.8123455,-9.305305,22.292534,0,0,0,0
354571467,354571190,3670026,3.2977734,-14.911568,-12.073481,22.321909,0,0,0,0
355571850,355571582,3670026,0.9246407,-6.0314727,-11.811076,22.292534,0,0,0,0
356573486,356573214,3670026,3.7167587,-13.346238,-14.48109,22.268053,0,0,0,0
357573877,357573609,3670026,1.7266983,0.5243302,-11.553939,22.243574,0,0,0,0
358575739,358575465,3670026,0.8331822,-5.548802,-12.608345,22.29743,0,0,0,0
359572189,359571917,3670026,2.2400153,-7.282683,-10.28597,22.312117,0,0,0,0
360575056,360574792,3670026,1.5720329,-3.5836413,-8.84466,22.282742,0,0,0,0
361572969,361572705,3670026,1.5059528,13.617742,-1.4001291,22.233782,0,0,0,0
362572178,362571912,3670026,2.7092786,-5.297411,-8.461109,22.326805,0,0,0,0
363573763,363573494,3670026,4.604529,-7.5225816,-9.364202,22.331701,0,0,0,0
364574163,364573889,3670026,0.79679036,-1.5011644,-8.886798,22.258263,0,0,0,0
365575807,365575528,3670026,-4.262158,1.265575,-12.16877,22.370869,0,0,0,0
366572480,366572214,3670026,-3.2082303,-1.0400412,-12.548491,22.35618,0,0,0,0
367574107,367573833,3670026,1.8957288,-7.2065473,-9.578722,22.263157,0,0,0,0
368574499,368574228,3670026,4.3675027,-6.459556,-10.031705,22.390453,0,0,0,0
369572424,369572156,3670026,-0.7733272,7.57286,-10.913729,22.317013,0,0,0,0
370574041,370573776,3670026,-2.0082564,-15.237179,-18.515799,22.292534,0,0,0,0
371574441,371574171,3670026,2.738009,6.802885,-8.687121,22.27295,0,0,0,0
372574837,372574566,3670026,2.8874073,-17.70991,-14.110947,22.22399,0,0,0,0
373572772,373572489,3670026,3.4366372,-3.4830847,-8.720161,22.331701,0,0,0,0
374574384,374574115,3670026,1.3268666,-1.2282255,-12.97801,22.292534,0,0,0,0
375574791,375574521,3670026,-3.1914709,-0.1685518,-9.3091345,22.268053,0,0,0,0
376572850,376572572,3670026,1.7262194,4.406289,-8.891108,22.307222,0,0,0,0
377574331,377574059,3670026,-0.33806127,0.04357447,-9.4949255,22.302326,0,0,0,0
378574725,378574455,3670026,-2.1619642,16.934668,-8.147947,22.331701,0,0,0,0
379575118,379574848,3670026,3.9351099,-7.7639174,-11.838849,22.326805,0,0,0,0
380573038,380572761,3670026,1.8751388,-2.3075316,-11.192415,22.326805,0,0,0,0
381573425,381573156,3670026,-0.90213525,-15.325765,-18.739897,22.277845,0,0,0,0
382575065,382574793,3670026,-4.3689394,7.1859574,-13.760914,22.365973,0,0,0,0
383571955,383571686,3670026,3.2618604,-0.76422924,-7.207026,22.365973,0,0,0,0
384573375,384573100,3670026,9.024704,-14.694653,-10.018297,22.326805,0,0,0,0
385573767,385573495,3670026,-0.875799,-8.930372,-14.751634,22.292534,0,0,0,0
386575393,386575131,3670026,-3.6731844,12.979446,-5.6709065,22.35618,0,0,0,0
387573306,387573042,3670026,1.8607736,-1.2349292,-13.725001,22.312117,0,0,0,0
388573710,388573439,3670026,3.6569037,13.110648,-4.148194,22.331701,0,0,0,0
389575343,389575075,3670026,4.9588704,-13.990757,-9.519825,22.287638,0,0,0,0
390572181,390571918,3670026,-0.13838486,-10.849565,-14.05588,22.317013,0,0,0,0
391573661,391573395,3670026,-3.2173283,-9.696996,-17.581102,22.307222,0,0,0,0
392574043,392573778,3670026,-0.43861774,-5.0436254,-14.885231,22.302326,0,0,0,0
393575679,393575415,3670026,1.7659633,-3.2632968,-8.638759,22.302326,0,0,0,0
394572370,394572097,3670026,4.5307875,3.7531505,-3.8857894,22.361076,0,0,0,0
395573996,395573723,3670026,1.2047623,-1.1511322,-11.456735,22.375765,0,0,0,0
396574385,396574118,3670026,-5.2078676,15.670529,-8.38641,22.326805,0,0,0,0
397572484,397572221,3670026,5.4444146,3.6861129,-6.5840545,22.253366,0,0,0,0
398572739,398572469,3670026,-1.3192052,2.5143907,-10.166738,22.307222,0,0,0,0
399574350,399574085,3670026,-2.835214,-3.439989,-13.6972275,22.351286,0,0,0,0
400574731,400574459,3670026,-0.2777274,-0.5037401,-12.389036,22.34639,0,0,0,0
401572725,401572454,3670026,-1.154484,-8.047391,-11.280042,22.4541,0,0,0,0
402574289,402574016,3670026,3.2695217,-3.0013711,-11.709083,22.307222,0,0,0,0
403574710,403574442,3670026,-0.38881838,3.2642546,-8.413225,22.42962,0,0,0,0
404572587,404572322,3670026,-4.7711654,5.9012284,-7.7064567,22.29743,0,0,0,0
405572990,405572714,3670026,0.60094464,-13.184391,-13.84519,22.380661,0,0,0,0
406574626,406574354,3670026,-1.6290148,-1.4489709,-9.561484,22.326805,0,0,0,0
407575024,407574747,3670026,5.351041,-0.8896854,-6.732974,22.312117,0,0,0,0
408574202,408573933,3670026,2.956839,-2.186385,-8.263826,22.351286,0,0,0,0
409573328,409573057,3670026,-1.6352397,4.345476,-10.540712,22.40514,0,0,0,0
410574962,410574694,3670026,2.13898,-3.8733397,-9.61655,22.35618,0,0,0,0
411572877,411572607,3670026,2.3506272,1.403481,-10.63696,22.258263,0,0,0,0
412573276,412573003,3670026,-1.7626113,7.989451,-4.222414,22.321909,0,0,0,0
413573663,413573398,3670026,-0.42568907,-11.822568,-16.927963,22.312117,0,0,0,0
414575313,414575040,3670026,1.5423448,4.964138,-5.1489706,22.380661,0,0,0,0
415573262,415572988,3670026,2.58478,-3.4471717,-7.668628,22.331701,0,0,0,0
416573616,416573346,3670026,1.4901512,5.207389,-10.159077,22.341494,0,0,0,0
417575254,417574982,3670026,2.8476636,-8.863335,-15.307569,22.370869,0,0,0,0
418571951,418571660,3670026,-4.9861646,10.648452,-11.145009,22.336597,0,0,0,0
419573560,419573291,3670026,2.5119965,-17.246393,-12.849681,22.331701,0,0,0,0
420573969,420573696,3670026,1.8315643,2.8534098,-5.174349,22.326805,0,0,0,0
421575601,421575325,3670026,-0.14221558,4.8238378,-6.559155,22.336597,0,0,0,0
422572367,422572096,3670026,2.2998703,-4.924873,-10.163865,22.375765,0,0,0,0
423573926,423573659,3670026,-0.065601125,6.946537,-10.564654,22.370869,0,0,0,0
424574308,424574034,3670026,-4.0303993,6.102341,-11.131123,22.331701,0,0,0,0
425572216,425571943,3670026,-0.30071172,-7.2127724,-11.431835,22.34639,0,0,0,0
426572611,426572343,3670026,-1.8545487,9.268434,-4.4283156,22.414932,0,0,0,0
427574247,427573977,3670026,-2.3922863,11.247481,-2.9348125,22.307222,0,0,0,0
428574642,428574373,3670026,1.5064317,1.6759412,-10.973584,22.341494,0,0,0,0
429572613,429572344,3670026,0.3725378,7.9310327,-3.9149988,22.317013,0,0,0,0
430574195,430573923,3670026,2.6326642,5.662287,-4.58346,22.287638,0,0,0,0
431574625,431574352,3670026,1.7362751,4.236779,-8.231744,22.361076,0,0,0,0
432572511,432572235,3670026,1.6175227,-0.008619127,-11.700463,22.375765,0,0,0,0
433572904,433572629,3670026,0.9275137,8.228871,-2.8725634,22.287638,0,0,0,0
434574533,434574266,3670026,0.5200206,9.033802,-4.0394974,22.317013,0,0,0,0
435574935,435574663,3670026,-2.717419,0.92128885,-13.703933,22.365973,0,0,0,0
436572922,436572647,3670026,-0.014844052,4.6203303,-10.973105,22.331701,0,0,0,0
437573251,437572974,3670026,-1.8641255,8.281544,-9.404425,22.312117,0,0,0,0
438574882,438574609,3670026,6.907272,-3.9873035,-7.306625,22.390453,0,0,0,0
439572840,439572560,3670026,1.8392258,-2.501462,-11.469184,22.307222,0,0,0,0
440573243,440572970,3670026,-1.1386824,-6.253655,-10.657071,22.326805,0,0,0,0
441574825,441574561,3670026,-0.49320555,-4.9713206,-13.660357,22.410036,0,0,0,0
442571513,442571229,3670026,1.379539,3.1411927,-5.5507174,22.351286,0,0,0,0
443573237,443572963,3670026,1.0520122,12.330139,-5.4573436,22.385557,0,0,0,0
444573590,444573321,3670026,-1.5614984,7.377972,-9.923009,22.331701,0,0,0,0
445575170,445574900,3670026,-0.42904094,-3.485,-11.843637,22.34639,0,0,0,0
446571845,446571571,3670026,-3.0856473,5.20691,-9.302911,22.336597,0,0,0,0
447573482,447573208,3670026,-1.6266207,-2.1906946,-11.162725,22.287638,0,0,0,0
448575120,448574852,3670026,-2.831383,1.8593371,-8.131667,22.292534,0,0,0,0
449571805,449571525,3670026,-1.0261549,-6.607518,-16.833155,22.370869,0,0,0,0
450572280,450572006,3670026,2.8174968,5.0675673,-5.2385135,22.331701,0,0,0,0
451573811,451573550,3670026,-1.496376,0.39121258,-9.779357,22.321909,0,0,0,0
452571725,452571464,3670026,-0.24851814,5.402277,-12.40819,22.385557,0,0,0,0
453572141,453571860,3670026,1.292869,-11.969572,-12.913366,22.317013,0,0,0,0
454573762,454573497,3670026,3.098097,-5.7757726,-12.803713,22.351286,0,0,0,0
455574243,455573962,3670026,0.8231266,-0.20350714,-9.800426,22.35618,0,0,0,0
456572084,456571807,3670026,3.1440659,-4.976109,-11.103829,22.351286,0,0,0,0
457572644,457572376,3670026,-0.6775591,4.546589,-6.7506914,22.292534,0,0,0,0
458574105,458573839,3670026,2.1049821,8.220252,-5.5827994,22.400246,0,0,0,0
459574505,459574235,3670026,6.0951586,-14.274231,-11.518984,22.29743,0,0,0,0
460572464,460572196,3670026,-2.3056161,15.373169,-8.7733135,22.326805,0,0,0,0
461572823,461572544,3670026,4.1673474,-10.675267,-11.121067,22.361076,0,0,0,0
462574461,462574181,3670026,-0.19919759,5.172434,-8.41945,22.390453,0,0,0,0
463574846,463574577,3670026,0.38881838,2.1250935,-8.324639,22.361076,0,0,0,0
464572883,464572611,3670026,-0.34715924,8.298781,-9.313923,22.414932,0,0,0,0
465574392,465574128,3670026,-4.5652637,11.645397,-10.794498,22.361076,0,0,0,0
466574794,466574524,3670026,0.67803794,4.627034,-8.02728,22.263157,0,0,0,0
467572706,467572437,3670026,2.4904487,1.5097836,-7.378451,22.351286,0,0,0,0
468573103,468572835,3670026,0.9935937,6.1334662,-7.840532,22.40514,0,0,0,0
469574739,469574471,3670026,-1.1745954,4.1869802,-9.619424,22.341494,0,0,0,0
470575133,470574867,3670026,0.90021986,4.4536943,-9.3982,22.419828,0,0,0,0
471573239,471572967,3670026,2.1021092,-3.8340747,-11.470142,22.326805,0,0,0,0
472573476,472573202,3670026,0.6885724,3.482127,-11.02865,22.370869,0,0,0,0
473575085,473574814,3670026,-0.12976573,10.445424,-9.193734,22.341494,0,0,0,0
474571760,474571486,3670026,3.3154907,-5.539225,-7.8156323,22.336597,0,0,0,0
475573422,475573147,3670026,3.0669725,0.8944738,-6.889555,22.341494,0,0,0,0
476573787,476573520,3670026,2.3013067,-12.443624,-14.701356,22.292534,0,0,0,0
477575430,477575157,3670026,-0.5741296,2.3908498,-10.039367,22.331701,0,0,0,0
478572247,478571973,3670026,1.9847932,-8.300219,-10.972627,22.380661,0,0,0,0
479573751,479573470,3670026,-1.6970102,18.413805,-5.619191,22.29743,0,0,0,0
480571661,480571381,3670026,0.25234887,-2.5038562,-13.008177,22.35618,0,0,0,0
481572050,481571780,3670026,-1.5480909,8.662701,-10.57088,22.326805,0,0,0,0
482573775,482573509,3670026,3.78236,-7.712682,-10.647972,22.29743,0,0,0,0
483574081,483573811,3670026,-2.1916523,9.91008,-8.731653,22.331701,0,0,0,0
484575721,484575448,3670026,0.4237737,-3.5309687,-8.862856,22.317013,0,0,0,0
485572542,485572277,3670026,-3.1517272,4.082593,-11.955207,22.375765,0,0,0,0
486574029,486573758,3670026,0.94858277,-2.843354,-8.192,22.375765,0,0,0,0
487574427,487574154,3670026,1.0319009,8.062235,-9.152076,22.400246,0,0,0,0
488572336,488572069,3670026,1.6223111,3.9427714,-6.280949,22.351286,0,0,0,0
489573980,489573708,3670026,0.81642276,-6.944143,-11.35139,22.380661,0,0,0,0
490574375,490574103,3670026,1.1358093,-9.304346,-10.382216,22.375765,0,0,0,0
491574771,491574499,3670026,0.78865004,6.2584434,-9.438901,22.321909,0,0,0,0
492572865,492572592,3670026,-2.9817388,7.5680714,-9.296685,22.361076,0,0,0,0
493574329,493574053,3670026,-2.8151026,-3.0085537,-14.360422,22.380661,0,0,0,0
494574714,494574447,3670026,1.0936713,-8.12592,-11.888648,22.365973,0,0,0,0
495572629,495572361,3670026,0.48650178,0.09768343,-11.062169,22.361076,0,0,0,0
496573055,496572774,3670026,-1.9129672,12.604994,-9.024225,22.317013,0,0,0,0
497574664,497574395,3670026,0.92655605,1.1975797,-10.210793,22.40514,0,0,0,0
498575061,498574791,3670026,-0.43143514,-1.4863204,-10.998962,22.370869,0,0,0,0
499573158,499572891,3670026,0.033039983,-2.5239675,-9.514558,22.39535,0,0,0,0
500573378,500573102,3670026,2.7514167,1.2023681,-10.571358,22.331701,0,0,0,0
501575016,501574740,3670026,-1.7161638,-3.2130187,-13.867216,22.35618,0,0,0,0
502571684,502571412,3670026,0.92847145,4.202303,-10.656591,22.351286,0,0,0,0
503573399,503573125,3670026,2.225171,7.3468475,-5.5416193,22.385557,0,0,0,0
504573743,504573473,3670026,3.3121388,-9.74488,-9.730036,22.42962,0,0,0,0
505575357,505575085,3670026,-1.8669984,8.796297,-7.8778815,22.385557,0,0,0,0
506573276,506573002,3670026,2.4827871,13.886849,-5.657499,22.307222,0,0,0,0
507573665,507573396,3670026,-1.5528793,-1.64338,-10.963529,22.390453,0,0,0,0
508575297,508575034,3670026,0.29352912,-0.3653552,-10.341515,22.370869,0,0,0,0
