timestamp,timestamp_sample,device_id,x,y,z,temperature,error_count,is_external
14576393,14575557,396809,-0.007910668,0.36765578,0.44340575,nan,0,1
14587559,14586723,396809,-0.02639679,0.36765578,0.44936222,nan,0,1
15582727,15581834,396809,-0.029477812,0.36467016,0.44936222,nan,0,1
16578321,16577474,396809,-0.01407271,0.35869893,0.42255822,nan,0,1
17572619,17571752,396809,-0.03255883,0.35869893,0.4046889,nan,0,1
18578887,18578046,396809,-0.029477812,0.35869893,0.41362354,nan,0,1
19575246,19574385,396809,-0.035639852,0.35869893,0.41064534,nan,0,1
20580773,20579874,396809,0.004413411,0.33779964,0.42255822,nan,0,1
21575977,21575139,396809,0.004413411,0.34078524,0.41958,nan,0,1
22582825,22581985,396809,-0.010991691,0.35571334,0.41660175,nan,0,1
23578196,23577301,396809,-0.02023475,0.34377086,0.42255822,nan,0,1
24574088,24573248,396809,-0.017153732,0.34078524,0.41362354,nan,0,1
25580336,25579460,396809,-0.0048296493,0.34078524,0.42255822,nan,0,1
26574722,26573887,396809,-0.007910668,0.34078524,0.42553642,nan,0,1
27582226,27581311,396809,-0.0048296493,0.33481404,0.42255822,nan,0,1
28577791,28576953,396809,-0.007910668,0.3318284,0.41958,nan,0,1
29572201,29571359,396809,-0.010991691,0.35571334,0.40171066,nan,0,1
30579649,30578809,396809,0.001332392,0.33481404,0.4046889,nan,0,1
31574177,31573299,396809,0.0074944333,0.3288428,0.41362354,nan,0,1
32580307,32579421,396809,-0.017153732,0.32287157,0.41958,nan,0,1
33575863,33575027,396809,-0.010991691,0.32585716,0.41064534,nan,0,1
34582159,34581302,396809,-0.029477812,0.31391472,0.40766713,nan,0,1
35577341,35576467,396809,-0.02023475,0.3467565,0.38681954,nan,0,1
36584518,36583683,396809,-0.010991691,0.31391472,0.40766713,nan,0,1
37579804,37578964,396809,0.004413411,0.31391472,0.40766713,nan,0,1
38574086,38573251,396809,-0.007910668,0.3109291,0.4046889,nan,0,1
39580965,39580129,396809,-0.007910668,0.3109291,0.41362354,nan,0,1
40576087,40575248,396809,-0.017153732,0.3079435,0.40766713,nan,0,1
41572408,41571571,396809,-0.01407271,0.30197224,0.4046889,nan,0,1
42579642,42578718,396809,-0.01407271,0.30495787,0.4046889,nan,0,1
43574889,43574025,396809,0.0074944333,0.30197224,0.39873245,nan,0,1
44581272,44580438,396809,-0.01407271,0.3079435,0.39873245,nan,0,1
45577505,45576670,396809,0.019818509,0.30197224,0.4046889,nan,0,1
46583667,46582832,396809,0.010575452,0.3318284,0.38384134,nan,0,1
47579789,47578920,396809,-0.01407271,0.29898664,0.41660175,nan,0,1
48574464,48573625,396809,0.029061573,0.32287157,0.39575422,nan,0,1
49581239,49580248,396809,-0.010991691,0.30197224,0.40171066,nan,0,1
50577374,50576538,396809,0.01673749,0.32585716,0.38979778,nan,0,1
51572759,51571925,396809,-0.007910668,0.29600102,0.4046889,nan,0,1
52578101,52577180,396809,-0.010991691,0.3288428,0.38979778,nan,0,1
53573472,53572632,396809,-0.010991691,0.3079435,0.4046889,nan,0,1
54578917,54578054,396809,-0.01407271,0.34377086,0.37788492,nan,0,1
55573456,55572622,396809,-0.007910668,0.36765578,0.37192845,nan,0,1
56579816,56578963,396809,-0.01407271,0.30495787,0.40171066,nan,0,1
57573955,57573120,396809,0.03522361,0.33779964,0.38086313,nan,0,1
58579268,58578368,396809,-0.0048296493,0.34377086,0.37788492,nan,0,1
59574578,59573703,396809,-0.0048296493,0.3079435,0.4046889,nan,0,1
60581265,60580429,396809,-0.0017486307,0.3318284,0.38681954,nan,0,1
61575585,61574690,396809,0.001332392,0.29898664,0.4046889,nan,0,1
62582270,62581415,396809,0.001332392,0.33481404,0.38086313,nan,0,1
63576524,63575689,396809,0.013656471,0.31690034,0.4046889,nan,0,1
64582834,64581998,396809,-0.010991691,0.29600102,0.40766713,nan,0,1
65578446,65577607,396809,-0.0017486307,0.33481404,0.38681954,nan,0,1
66573741,66572907,396809,-0.010991691,0.30495787,0.40766713,nan,0,1
67580169,67579332,396809,-0.007910668,0.31988594,0.40171066,nan,0,1
68574650,68573811,396809,0.022899535,0.34078524,0.38681954,nan,0,1
69580115,69579249,396809,-0.007910668,0.29898664,0.40766713,nan,0,1
70576447,70575611,396809,0.041385654,0.31391472,0.40171066,nan,0,1
71582084,71581248,396809,0.01673749,0.31391472,0.4046889,nan,0,1
72576928,72576091,396809,-0.017153732,0.30495787,0.41064534,nan,0,1
73572625,73571787,396809,-0.007910668,0.30495787,0.40171066,nan,0,1
74577951,74577112,396809,0.022899535,0.3079435,0.41064534,nan,0,1
75572139,75571303,396809,0.01673749,0.30197224,0.4046889,nan,0,1
76579920,76579087,396809,-0.02639679,0.29600102,0.40171066,nan,0,1
77575239,77574394,396809,-0.13731353,0.26017362,0.392776,nan,0,1
78582035,78581150,396809,-0.22974414,0.17956202,0.38979778,nan,0,1
79577498,79576632,396809,-0.25747332,0.14672026,0.38979778,nan,0,1
80583742,80582907,396809,-0.1927719,0.16463394,0.42851466,nan,0,1
81579667,81578775,396809,-0.2543923,0.15567711,0.38681954,nan,0,1
82575900,82575064,396809,-0.27595943,0.11089288,0.39575422,nan,0,1
83582721,83581885,396809,-0.2728784,0.11387849,0.39575422,nan,0,1
84577218,84576383,396809,-0.2728784,0.11089288,0.39575422,nan,0,1
85574803,85573969,396809,-0.23898719,0.11984972,0.41660175,nan,0,1
86580355,86579513,396809,-0.2852025,0.08700796,0.39575422,nan,0,1
87575712,87574847,396809,-0.2852025,0.07805111,0.39575422,nan,0,1
88583411,88582575,396809,-0.28212145,0.084022336,0.39873245,nan,0,1
89578605,89577770,396809,-0.2852025,0.084022336,0.39575422,nan,0,1
90575180,90574336,396809,-0.27595943,0.08999357,0.39575422,nan,0,1
91581506,91580672,396809,-0.28212145,0.07805111,0.39575422,nan,0,1
92577292,92576392,396809,-0.27904046,0.07506549,0.40171066,nan,0,1
93573847,93573005,396809,-0.28828353,0.06909426,0.38681954,nan,0,1
94579720,94578886,396809,-0.29136452,0.06909426,0.38979778,nan,0,1
95575546,95574707,396809,-0.2543923,0.101936035,0.4046889,nan,0,1
96571584,96570727,396809,-0.29136452,0.06312303,0.39575422,nan,0,1
97577911,97577075,396809,-0.28828353,0.06013742,0.38979778,nan,0,1
98572714,98571880,396809,-0.26363534,0.05416619,0.41064534,nan,0,1
99580203,99579366,396809,-0.26979738,0.057151806,0.40171066,nan,0,1
100574432,100573520,396809,-0.26363534,0.06610865,0.4046889,nan,0,1
101579945,101579109,396809,-0.29136452,0.057151806,0.392776,nan,0,1
102576090,102575249,396809,-0.26979738,0.06312303,0.4046889,nan,0,1
103571583,103570749,396809,-0.26363534,0.07506549,0.40766713,nan,0,1
104577226,104576390,396809,-0.2852025,0.06013742,0.38681954,nan,0,1
105572992,105572082,396809,-0.2852025,0.05416619,0.39575422,nan,0,1
106579503,106578659,396809,-0.29136452,0.04222373,0.38681954,nan,0,1
107574896,107574057,396809,-0.29444554,0.0362525,0.392776,nan,0,1
108581518,108580681,396809,-0.26979738,0.0362525,0.40766713,nan,0,1
109576605,109575768,396809,-0.29752657,0.07805111,0.37788492,nan,0,1
110573232,110572396,396809,-0.2852025,0.057151806,0.392776,nan,0,1
111578656,111577820,396809,-0.25747332,0.045209344,0.41362354,nan,0,1
112573908,112573046,396809,-0.27595943,0.045209344,0.39873245,nan,0,1
113580791,113579905,396809,-0.3006076,0.04222373,0.38384134,nan,0,1
114576149,114575253,396809,-0.29752657,0.027295655,0.38681954,nan,0,1
115582686,115581849,396809,-0.28828353,0.05416619,0.392776,nan,0,1
116579089,116578249,396809,-0.29444554,0.045209344,0.38681954,nan,0,1
117574459,117573594,396809,-0.29136452,0.04222373,0.38979778,nan,0,1
118580318,118579482,396809,-0.29752657,0.045209344,0.38681954,nan,0,1
119576834,119575995,396809,-0.29136452,0.04819496,0.392776,nan,0,1
120583144,120582308,396809,-0.26979738,0.07805111,0.4046889,nan,0,1
121577760,121576925,396809,-0.29752657,0.04819496,0.38979778,nan,0,1
122574146,122573249,396809,-0.2728784,0.06909426,0.40171066,nan,0,1
123579530,123578693,396809,-0.2852025,0.04222373,0.39575422,nan,0,1
124574993,124574118,396809,-0.30368862,0.04222373,0.38384134,nan,0,1
125582567,125581685,396809,-0.3006076,0.06013742,0.37788492,nan,0,1
126577038,126576167,396809,-0.30368862,0.092979185,0.37490666,nan,0,1
127583317,127582481,396809,-0.3006076,0.027295655,0.38681954,nan,0,1
128578934,128578070,396809,-0.29136452,0.012367578,0.39575422,nan,0,1
129573256,129572421,396809,-0.30676964,0.015353193,0.38681954,nan,0,1
130580020,130579185,396809,-0.30676964,0.015353193,0.38681954,nan,0,1
131575158,131574322,396809,-0.30985066,0.05118057,0.37788492,nan,0,1
132580837,132580001,396809,-0.30368862,0.021324424,0.38681954,nan,0,1
133576802,133575913,396809,-0.29444554,0.021324424,0.39575422,nan,0,1
134582645,134581811,396809,-0.30368862,0.015353193,0.38979778,nan,0,1
135577001,135576150,396809,-0.30676964,0.012367578,0.38384134,nan,0,1
136573427,136572593,396809,-0.3006076,0.018338805,0.392776,nan,0,1
137578904,137578069,396809,-0.30368862,0.021324424,0.38979778,nan,0,1
138573083,138572249,396809,-0.30985066,0.009381965,0.38384134,nan,0,1
139579569,139578729,396809,-0.2852025,0.030281268,0.4046889,nan,0,1
140573758,140572922,396809,-0.29752657,0.018338805,0.392776,nan,0,1
141580309,141579443,396809,-0.29136452,0.018338805,0.39873245,nan,0,1
142575993,142575154,396809,-0.31293166,0.021324424,0.38681954,nan,0,1
143582284,143581451,396809,-0.30368862,0.024310037,0.39575422,nan,0,1
144576685,144575825,396809,-0.28828353,0.015353193,0.4046889,nan,0,1
145571922,145571085,396809,-0.2852025,0.012367578,0.39873245,nan,0,1
146578224,146577348,396809,-0.31293166,0.009381965,0.38384134,nan,0,1
147572635,147571792,396809,-0.29752657,0.015353193,0.38681954,nan,0,1
148579271,148578434,396809,-0.30676964,0.018338805,0.38086313,nan,0,1
149573398,149572564,396809,-0.3006076,0.006396351,0.38086313,nan,0,1
150579799,150578944,396809,-0.30368862,0.006396351,0.38086313,nan,0,1
151574292,151573457,396809,-0.29444554,0.012367578,0.38384134,nan,0,1
152580033,152579151,396809,-0.2728784,0.018338805,0.4046889,nan,0,1
153576272,153575430,396809,-0.29136452,0.009381965,0.38384134,nan,0,1
154581987,154581146,396809,-0.28828353,0.0034107296,0.38681954,nan,0,1
155577225,155576389,396809,-0.2667164,-0.11004264,0.38979778,nan,0,1
156572469,156571567,396809,-0.23898719,-0.16676934,0.38681954,nan,0,1
157578607,157577774,396809,-0.12807046,-0.2742515,0.38681954,nan,0,1
158573612,158572774,396809,-0.12190842,-0.2563378,0.40171066,nan,0,1
159581230,159580393,396809,-0.13423249,-0.24439533,0.4046889,nan,0,1
160576272,160575430,396809,0.010575452,-0.3130645,0.38681954,nan,0,1
161582178,161581340,396809,0.01673749,-0.28917956,0.4046889,nan,0,1
162578499,162577664,396809,-0.0017486307,-0.29813638,0.4046889,nan,0,1
163572728,163571891,396809,-0.0048296493,-0.2951508,0.40171066,nan,0,1
164578149,164577290,396809,-0.0017486307,-0.31007886,0.39575422,nan,0,1
165573377,165572542,396809,-0.007910668,-0.31605008,0.39575422,nan,0,1
166578857,166577997,396809,0.022899535,-0.31903568,0.38979778,nan,0,1
167574105,167573249,396809,0.038304638,-0.31903568,0.392776,nan,0,1
168581137,168580302,396809,0.03214259,-0.26828024,0.42851466,nan,0,1
169576478,169575617,396809,0.0783579,-0.3130645,0.39575422,nan,0,1
170571739,170570904,396809,0.044466674,-0.31605008,0.38979778,nan,0,1
171578662,171577827,396809,0.03214259,-0.3130645,0.39575422,nan,0,1
172573762,172572924,396809,0.029061573,-0.29813638,0.4046889,nan,0,1
173581597,173580759,396809,0.029061573,-0.3130645,0.392776,nan,0,1
174577044,174576168,396809,0.029061573,-0.30709323,0.39575422,nan,0,1
175583679,175582836,396809,0.029061573,-0.31007886,0.38681954,nan,0,1
176578947,176578109,396809,0.044466674,-0.29216516,0.40171066,nan,0,1
177573312,177572474,396809,0.038304638,-0.31007886,0.38979778,nan,0,1
178579581,178578728,396809,0.038304638,-0.30410764,0.39873245,nan,0,1
179575129,179574293,396809,0.03214259,-0.31007886,0.38979778,nan,0,1
180581861,180580998,396809,0.01673749,-0.3130645,0.38681954,nan,0,1
181577278,181576409,396809,0.029061573,-0.29813638,0.39873245,nan,0,1
182572804,182571931,396809,0.047547694,-0.28320834,0.41064534,nan,0,1
183579240,183578377,396809,0.044466674,-0.30410764,0.39873245,nan,0,1
184574887,184574011,396809,0.050628714,-0.301122,0.4046889,nan,0,1
185581558,185580724,396809,0.044466674,-0.301122,0.4046889,nan,0,1
186576994,186576156,396809,0.03522361,-0.30410764,0.39873245,nan,0,1
187572510,187571660,396809,0.029061573,-0.31007886,0.40171066,nan,0,1
188580056,188579180,396809,0.013656471,-0.28917956,0.41362354,nan,0,1
189575361,189574497,396809,-0.0048296493,-0.301122,0.4046889,nan,0,1
190571087,190570251,396809,0.019818509,-0.30410764,0.40766713,nan,0,1
191578092,191577253,396809,0.019818509,-0.2742515,0.42553642,nan,0,1
192573013,192572178,396809,0.03214259,-0.30709323,0.40766713,nan,0,1
193579306,193578442,396809,0.038304638,-0.29813638,0.41362354,nan,0,1
194573677,194572839,396809,0.019818509,-0.2951508,0.41660175,nan,0,1
195579325,195578483,396809,0.044466674,-0.29813638,0.41064534,nan,0,1
196575382,196574506,396809,0.004413411,-0.301122,0.40171066,nan,0,1
197581086,197580248,396809,0.010575452,-0.26828024,0.42553642,nan,0,1
198575170,198574334,396809,0.044466674,-0.301122,0.40171066,nan,0,1
199582443,199581584,396809,0.013656471,-0.29813638,0.39873245,nan,0,1
200577225,200576390,396809,0.022899535,-0.2951508,0.39575422,nan,0,1
201571780,201570906,396809,0.0074944333,-0.29813638,0.39575422,nan,0,1
202579229,202578393,396809,0.03522361,-0.2742515,0.41064534,nan,0,1
203573727,203572892,396809,0.022899535,-0.301122,0.39575422,nan,0,1
204579905,204579069,396809,0.038304638,-0.29813638,0.40171066,nan,0,1
205575432,205574598,396809,0.03522361,-0.29813638,0.40171066,nan,0,1
206580919,206580079,396809,0.01673749,-0.29216516,0.39873245,nan,0,1
207576111,207575249,396809,0.03522361,-0.29813638,0.40171066,nan,0,1
208571542,208570709,396809,0.022899535,-0.301122,0.39575422,nan,0,1
209577272,209576430,396809,0.013656471,-0.30709323,0.39575422,nan,0,1
210583702,210582861,396809,0.010575452,-0.27126586,0.41362354,nan,0,1
211579686,211578823,396809,0.029061573,-0.31007886,0.38681954,nan,0,1
212574425,212573564,396809,0.15230238,-0.28320834,0.39575422,nan,0,1
213580802,213579940,396809,0.28786728,-0.15184127,0.41362354,nan,0,1
214575599,214574763,396809,0.30635342,-0.13392757,0.41362354,nan,0,1
215570738,215569904,396809,0.3094344,-0.13094196,0.41064534,nan,0,1
216577330,216576471,396809,0.33100158,-0.12198511,0.4046889,nan,0,1
217582614,217581778,396809,0.33716363,-0.092128955,0.41362354,nan,0,1
218577474,218576601,396809,0.32483953,-0.09511456,0.42553642,nan,0,1
219573405,219572571,396809,0.33716363,-0.10407141,0.41064534,nan,0,1
220578728,220577893,396809,0.34024462,-0.083172105,0.41958,nan,0,1
221573375,221572539,396809,0.33100158,-0.065258406,0.43149287,nan,0,1
222579686,222578849,396809,0.33100158,-0.062272802,0.42553642,nan,0,1
223573866,223573016,396809,0.33408257,-0.065258406,0.42255822,nan,0,1
224579464,224578624,396809,0.32792056,-0.065258406,0.42851466,nan,0,1
225575563,225574723,396809,0.33100158,-0.056301575,0.42553642,nan,0,1
226581871,226581029,396809,0.33408257,-0.03838788,0.42553642,nan,0,1
227576605,227575751,396809,0.33408257,-0.035402264,0.42553642,nan,0,1
228583525,228582692,396809,0.33408257,-0.047344726,0.42553642,nan,0,1
229578647,229577807,396809,0.33408257,-0.05033035,0.42255822,nan,0,1
230573804,230572935,396809,0.3494877,-0.044359114,0.41064534,nan,0,1
231580751,231579915,396809,0.34024462,-0.05033035,0.41660175,nan,0,1
232574888,232574050,396809,0.33716363,-0.059287183,0.42553642,nan,0,1
233570137,233569297,396809,0.34024462,-0.03241665,0.42255822,nan,0,1
234576762,234575927,396809,0.35873076,-0.029431036,0.4046889,nan,0,1
235582352,235581491,396809,0.34024462,-0.026445422,0.42255822,nan,0,1
236578272,236577424,396809,0.33408257,-0.03241665,0.42553642,nan,0,1
237573026,237572186,396809,0.33716363,-0.03241665,0.42255822,nan,0,1
238579082,238578248,396809,0.33716363,-0.020474188,0.42255822,nan,0,1
239575348,239574515,396809,0.34332564,-0.03241665,0.41660175,nan,0,1
240581488,240580648,396809,0.34024462,-0.002560498,0.42255822,nan,0,1
241576853,241575983,396809,0.3464067,-0.03241665,0.41660175,nan,0,1
242583781,242582916,396809,0.36181176,-0.035402264,0.4046889,nan,0,1
243579313,243578427,396809,0.34024462,-0.03241665,0.42255822,nan,0,1
244574303,244573467,396809,0.33716363,-0.03241665,0.41958,nan,0,1
245581271,245580436,396809,0.3464067,-0.03241665,0.41958,nan,0,1
246575629,246574791,396809,0.3464067,-0.03241665,0.41660175,nan,0,1
247581761,247580925,396809,0.3494877,-0.035402264,0.41362354,nan,0,1
248577400,248576566,396809,0.36181176,-0.029431036,0.40766713,nan,0,1
249583633,249582695,396809,0.3464067,-0.035402264,0.41362354,nan,0,1
250578257,250577371,396809,0.36489278,-0.026445422,0.4046889,nan,0,1
251575166,251574332,396809,0.34332564,-0.03838788,0.42255822,nan,0,1
252581391,252580549,396809,0.3464067,-0.0413735,0.41958,nan,0,1
253576249,253575411,396809,0.3494877,-0.03838788,0.41958,nan,0,1
254572241,254571367,396809,0.35256872,-0.059287183,0.41362354,nan,0,1
255578583,255577733,396809,0.34332564,-0.0413735,0.41362354,nan,0,1
256574160,256573279,396809,0.34332564,-0.026445422,0.41958,nan,0,1
257580999,257580140,396809,0.3494877,-0.023459801,0.41064534,nan,0,1
258576283,258575440,396809,0.3464067,-0.01450296,0.41362354,nan,0,1
259582860,259581977,396809,0.3464067,0.018338805,0.41362354,nan,0,1
260578628,260577791,396809,0.35873076,-0.008531725,0.41064534,nan,0,1
261573817,261572983,396809,0.35256872,-0.011517347,0.41362354,nan,0,1
262580275,262579435,396809,0.3494877,0.0004251159,0.42255822,nan,0,1
263575463,263574511,396809,0.35256872,-0.023459801,0.41660175,nan,0,1
264581289,264580424,396809,0.36181176,-0.011517347,0.41064534,nan,0,1
265576438,265575603,396809,0.35873076,-0.01450296,0.41362354,nan,0,1
266581890,266581044,396809,0.35256872,-0.008531725,0.42255822,nan,0,1
267576203,267575367,396809,0.3556497,-0.011517347,0.41362354,nan,0,1
268571681,268570842,396809,0.36489278,0.015353193,0.40766713,nan,0,1
269578108,269577262,396809,0.34332564,0.06909426,0.41362354,nan,0,1
270583428,270582563,396809,0.27862424,0.20046133,0.41660175,nan,0,1
271579013,271578175,396809,0.11224911,0.3109291,0.41958,nan,0,1
272573367,272572531,396809,0.15230238,0.3109291,0.40171066,nan,0,1
273579693,273578858,396809,0.16462646,0.3079435,0.4046889,nan,0,1
274576109,274575274,396809,0.10916809,0.3079435,0.41362354,nan,0,1
275571752,275570916,396809,0.09992504,0.3079435,0.41064534,nan,0,1
276578296,276577461,396809,0.11841115,0.3109291,0.41660175,nan,0,1
277583707,277582833,396809,0.062952794,0.3527277,0.38681954,nan,0,1
278577857,278577020,396809,0.025980555,0.31391472,0.41958,nan,0,1
279573298,279572427,396809,0.056790758,0.32287157,0.40766713,nan,0,1
280579051,280578216,396809,0.03214259,0.35571334,0.39873245,nan,0,1
281574133,281573256,396809,0.038304638,0.31690034,0.41362354,nan,0,1
282580589,282579754,396809,0.044466674,0.31988594,0.41362354,nan,0,1
283576159,283575283,396809,0.062952794,0.32585716,0.40766713,nan,0,1
284582144,284581294,396809,0.03522361,0.31988594,0.41362354,nan,0,1
285578229,285577394,396809,0.038304638,0.31988594,0.41362354,nan,0,1
286572701,286571868,396809,0.038304638,0.31690034,0.41362354,nan,0,1
287578925,287578090,396809,0.03522361,0.31690034,0.41362354,nan,0,1
288575373,288574522,396809,0.072195865,0.32287157,0.41362354,nan,0,1
289581028,289580193,396809,0.06603381,0.3318284,0.40171066,nan,0,1
290575294,290574456,396809,0.025980555,0.31690034,0.41064534,nan,0,1
291581777,291580888,396809,0.03522361,0.31690034,0.41362354,nan,0,1
292575925,292575049,396809,0.022899535,0.31690034,0.41362354,nan,0,1
293581658,293580802,396809,0.044466674,0.31988594,0.41660175,nan,0,1
294577995,294577160,396809,0.053709738,0.31988594,0.41064534,nan,0,1
295584754,295583885,396809,0.044466674,0.31988594,0.4046889,nan,0,1
296581001,296580165,396809,0.050628714,0.31391472,0.41362354,nan,0,1
297575404,297574568,396809,0.041385654,0.31391472,0.41362354,nan,0,1
298582354,298581521,396809,0.050628714,0.31391472,0.41064534,nan,0,1
299578165,299577324,396809,0.044466674,0.3109291,0.41660175,nan,0,1
300573222,300572388,396809,0.047547694,0.3109291,0.41660175,nan,0,1
301579591,301578756,396809,0.06603381,0.30197224,0.41064534,nan,0,1
302575084,302574248,396809,0.03522361,0.30197224,0.41660175,nan,0,1
303581375,303580537,396809,0.041385654,0.30197224,0.41362354,nan,0,1
304576720,304575885,396809,0.050628714,0.34078524,0.38979778,nan,0,1
305583502,305582661,396809,0.004413411,0.30197224,0.41362354,nan,0,1
306578382,306577526,396809,0.029061573,0.31391472,0.41362354,nan,0,1
307573227,307572391,396809,0.019818509,0.30495787,0.40766713,nan,0,1
308580949,308580062,396809,0.01673749,0.30495787,0.41362354,nan,0,1
309576305,309575408,396809,0.022899535,0.30197224,0.41064534,nan,0,1
310570988,310570113,396809,0.013656471,0.30495787,0.4046889,nan,0,1
311578269,311577409,396809,0.013656471,0.30495787,0.4046889,nan,0,1
312573249,312572416,396809,0.010575452,0.3109291,0.40766713,nan,0,1
313579907,313579068,396809,0.0074944333,0.30197224,0.4046889,nan,0,1
314576204,314575365,396809,0.03522361,0.30495787,0.40171066,nan,0,1
315582509,315581672,396809,0.041385654,0.3079435,0.40766713,nan,0,1
316577485,316576583,396809,0.022899535,0.29898664,0.40766713,nan,0,1
317572785,317571940,396809,0.0074944333,0.33481404,0.38681954,nan,0,1
318578769,318577934,396809,0.022899535,0.31690034,0.4046889,nan,0,1
319574092,319573248,396809,0.038304638,0.31391472,0.40171066,nan,0,1
320579843,320579005,396809,0.022899535,0.3079435,0.40766713,nan,0,1
321575085,321574249,396809,0.019818509,0.29898664,0.40766713,nan,0,1
322581475,322580641,396809,0.03214259,0.31988594,0.39873245,nan,0,1
323575832,323574995,396809,0.025980555,0.3079435,0.40766713,nan,0,1
324582176,324581306,396809,0.022899535,0.30495787,0.39873245,nan,0,1
325577651,325576784,396809,0.022899535,0.30197224,0.392776,nan,0,1
326583242,326582408,396809,0.025980555,0.30197224,0.39575422,nan,0,1
327578507,327577664,396809,0.022899535,0.30197224,0.38979778,nan,0,1
328573942,328573108,396809,-0.03255883,0.2930154,0.39575422,nan,0,1
329579323,329578489,396809,-0.24206822,0.17060517,0.392776,nan,0,1
330573578,330572711,396809,-0.30368862,0.021324424,0.392776,nan,0,1
331580440,331579606,396809,-0.29444554,0.045209344,0.39575422,nan,0,1
332574634,332573802,396809,-0.2852025,0.04222373,0.39873245,nan,0,1
333580964,333580129,396809,-0.28212145,0.04222373,0.39873245,nan,0,1
334577695,334576855,396809,-0.2852025,0.05118057,0.4046889,nan,0,1
335572938,335572069,396809,-0.29752657,0.07805111,0.38681954,nan,0,1
336578328,336577489,396809,-0.2728784,0.045209344,0.40766713,nan,0,1
337573705,337572868,396809,-0.27904046,0.045209344,0.4046889,nan,0,1
338579257,338578380,396809,-0.27595943,0.04222373,0.39873245,nan,0,1
339574658,339573787,396809,-0.3006076,0.018338805,0.392776,nan,0,1
340580904,340580068,396809,-0.29444554,0.06312303,0.38384134,nan,0,1
341575736,341574901,396809,-0.27595943,0.027295655,0.40766713,nan,0,1
342571939,342571068,396809,-0.2728784,0.0034107296,0.40766713,nan,0,1
343578382,343577504,396809,-0.29444554,0.0004251159,0.39575422,nan,0,1
344573934,344573093,396809,-0.29136452,0.006396351,0.38979778,nan,0,1
345580740,345579907,396809,-0.29444554,0.009381965,0.39575422,nan,0,1
346574776,346573890,396809,-0.29752657,0.015353193,0.38681954,nan,0,1
347580474,347579634,396809,-0.28212145,0.012367578,0.40171066,nan,0,1
348576857,348576023,396809,-0.27904046,0.006396351,0.40766713,nan,0,1
349582487,349581651,396809,-0.28828353,0.012367578,0.39575422,nan,0,1
350577470,350576618,396809,-0.2728784,0.0034107296,0.4046889,nan,0,1
351584223,351583358,396809,-0.29752657,0.021324424,0.38979778,nan,0,1
352578549,352577716,396809,-0.29752657,0.033266883,0.38979778,nan,0,1
353573822,353572945,396809,-0.29136452,0.012367578,0.39575422,nan,0,1
354580417,354579557,396809,-0.29136452,0.006396351,0.38681954,nan,0,1
355574846,355574008,396809,-0.27904046,0.018338805,0.4046889,nan,0,1
356580368,356579531,396809,-0.29444554,0.012367578,0.392776,nan,0,1
357576764,357575929,396809,-0.29752657,0.024310037,0.38979778,nan,0,1
358583237,358582391,396809,-0.2728784,0.027295655,0.40766713,nan,0,1
359578588,359577754,396809,-0.28212145,0.030281268,0.41064534,nan,0,1
360584116,360583282,396809,-0.30676964,0.033266883,0.38384134,nan,0,1
361578381,361577509,396809,-0.3006076,0.012367578,0.38979778,nan,0,1
362573599,362572765,396809,-0.30368862,0.015353193,0.38681954,nan,0,1
363579727,363578875,396809,-0.2728784,0.04222373,0.41064534,nan,0,1
364574515,364573604,396809,-0.29136452,0.05416619,0.39873245,nan,0,1
365581039,365580183,396809,-0.29752657,0.012367578,0.39575422,nan,0,1
366575369,366574534,396809,-0.29752657,0.021324424,0.39575422,nan,0,1
367581943,367581037,396809,-0.3006076,0.027295655,0.392776,nan,0,1
368577403,368576566,396809,-0.29136452,0.021324424,0.39575422,nan,0,1
369571619,369570785,396809,-0.30676964,0.015353193,0.38086313,nan,0,1
370576789,370575954,396809,-0.30985066,0.018338805,0.38979778,nan,0,1
371583503,371582642,396809,-0.30368862,0.006396351,0.38979778,nan,0,1
372577870,372577032,396809,-0.30676964,0.018338805,0.38681954,nan,0,1
373572455,373571620,396809,-0.29444554,0.018338805,0.39873245,nan,0,1
374579787,374578954,396809,-0.29752657,0.012367578,0.39873245,nan,0,1
375573964,375573129,396809,-0.30368862,0.015353193,0.38681954,nan,0,1
376579171,376578303,396809,-0.30676964,0.021324424,0.38979778,nan,0,1
377575342,377574506,396809,-0.30368862,0.06013742,0.38681954,nan,0,1
378581614,378580770,396809,-0.28828353,0.033266883,0.40171066,nan,0,1
379577864,379576953,396809,-0.28828353,0.015353193,0.40171066,nan,0,1
380572800,380571960,396809,-0.27595943,0.015353193,0.41362354,nan,0,1
381579063,381578172,396809,-0.31293166,0.009381965,0.38681954,nan,0,1
382575392,382574532,396809,-0.28212145,0.015353193,0.40766713,nan,0,1
383580823,383579988,396809,-0.30676964,0.012367578,0.38384134,nan,0,1
384575006,384574172,396809,-0.30985066,0.012367578,0.38384134,nan,0,1
385581640,385580806,396809,-0.2852025,0.04222373,0.38979778,nan,0,1
386576908,386576068,396809,-0.29444554,0.024310037,0.38086313,nan,0,1
387571267,387570428,396809,-0.29136452,0.015353193,0.38681954,nan,0,1
388577835,388576998,396809,-0.29444554,0.012367578,0.37490666,nan,0,1
389583182,389582315,396809,-0.28212145,0.015353193,0.38384134,nan,0,1
390577442,390576577,396809,-0.22974414,-0.16975494,0.38086313,nan,0,1
391572829,391571982,396809,-0.10650332,-0.27126586,0.36895025,nan,0,1
392578360,392577525,396809,-0.038720872,-0.28320834,0.37490666,nan,0,1
393573895,393573038,396809,-0.041801896,-0.24439533,0.41064534,nan,0,1
394581718,394580880,396809,-0.044882912,-0.2951508,0.38681954,nan,0,1
395576913,395576079,396809,0.013656471,-0.30709323,0.38086313,nan,0,1
396583419,396582574,396809,0.013656471,-0.29813638,0.38681954,nan,0,1
397578786,397577924,396809,0.0074944333,-0.31007886,0.38681954,nan,0,1
398574298,398573462,396809,0.029061573,-0.3130645,0.38384134,nan,0,1
399580728,399579886,396809,0.041385654,-0.29813638,0.38681954,nan,0,1
400577264,400576409,396809,0.03214259,-0.30709323,0.38979778,nan,0,1
401571904,401571067,396809,0.025980555,-0.30410764,0.39575422,nan,0,1
402578260,402577426,396809,0.010575452,-0.30709323,0.38681954,nan,0,1
403573723,403572886,396809,0.029061573,-0.3130645,0.38681954,nan,0,1
404580510,404579672,396809,0.072195865,-0.2563378,0.42851466,nan,0,1
405575946,405575080,396809,0.056790758,-0.32500693,0.38681954,nan,0,1
406582269,406581436,396809,0.062952794,-0.30709323,0.39575422,nan,0,1
407577600,407576750,396809,0.081438914,-0.2772371,0.41362354,nan,0,1
408573121,408572252,396809,0.050628714,-0.31605008,0.38681954,nan,0,1
409579682,409578846,396809,0.081438914,-0.28320834,0.41064534,nan,0,1
410574145,410573277,396809,0.06603381,-0.30410764,0.39873245,nan,0,1
411581438,411580601,396809,0.059871778,-0.31605008,0.38681954,nan,0,1
412576290,412575453,396809,0.044466674,-0.30410764,0.39575422,nan,0,1
413582893,413582024,396809,0.01673749,-0.2563378,0.42255822,nan,0,1
414579461,414578625,396809,-0.01407271,-0.301122,0.38979778,nan,0,1
415573843,415573006,396809,0.0074944333,-0.30709323,0.39575422,nan,0,1
416579288,416578455,396809,0.019818509,-0.3130645,0.392776,nan,0,1
417575689,417574855,396809,0.029061573,-0.33097818,0.38086313,nan,0,1
418581291,418580454,396809,0.050628714,-0.301122,0.4046889,nan,0,1
419575800,419574940,396809,0.029061573,-0.3130645,0.392776,nan,0,1
420582790,420581954,396809,0.019818509,-0.31007886,0.39575422,nan,0,1
421577164,421576324,396809,0.03214259,-0.27126586,0.42255822,nan,0,1
422573672,422572833,396809,0.044466674,-0.31007886,0.392776,nan,0,1
423579614,423578701,396809,0.022899535,-0.30410764,0.39873245,nan,0,1
424574667,424573833,396809,0.041385654,-0.2802227,0.41958,nan,0,1
425581398,425580544,396809,0.025980555,-0.301122,0.40766713,nan,0,1
426576438,426575601,396809,0.025980555,-0.30410764,0.4046889,nan,0,1
427581944,427581087,396809,0.038304638,-0.24439533,0.44936222,nan,0,1
428577422,428576567,396809,0.0074944333,-0.301122,0.41362354,nan,0,1
429572955,429572094,396809,0.025980555,-0.29216516,0.42255822,nan,0,1
430578332,430577498,396809,0.0074944333,-0.29216516,0.41958,nan,0,1
431573697,431572832,396809,0.004413411,-0.30410764,0.4046889,nan,0,1
432579370,432578537,396809,-0.01407271,-0.29813638,0.4046889,nan,0,1
433574608,433573774,396809,0.022899535,-0.30709323,0.39873245,nan,0,1
434581347,434580442,396809,-0.007910668,-0.30709323,0.39575422,nan,0,1
435576483,435575649,396809,0.013656471,-0.301122,0.39575422,nan,0,1
436571477,436570565,396809,0.03214259,-0.29813638,0.40171066,nan,0,1
437578578,437577739,396809,0.03522361,-0.29813638,0.39575422,nan,0,1
438584243,438583407,396809,0.03214259,-0.29813638,0.39575422,nan,0,1
439579042,439578179,396809,0.022899535,-0.301122,0.39873245,nan,0,1
440575156,440574295,396809,0.025980555,-0.2951508,0.39575422,nan,0,1
441581307,441580473,396809,0.019818509,-0.301122,0.38979778,nan,0,1
442577469,442576614,396809,0.025980555,-0.29813638,0.39575422,nan,0,1
443573278,443572432,396809,0.03522361,-0.301122,0.392776,nan,0,1
444578985,444578150,396809,0.022899535,-0.30410764,0.392776,nan,0,1
445574514,445573675,396809,0.062952794,-0.30410764,0.38681954,nan,0,1
446579985,446579127,396809,0.25397605,-0.20856793,0.4046889,nan,0,1
447575727,447574892,396809,0.3217585,-0.092128955,0.40766713,nan,0,1
448583220,448582341,396809,0.33408257,-0.11601388,0.38681954,nan,0,1
449578324,449577461,396809,0.31867748,-0.14885564,0.39575422,nan,0,1
450572514,450571678,396809,0.3217585,-0.12198511,0.41064534,nan,0,1
451579732,451578896,396809,0.32792056,-0.101085804,0.41958,nan,0,1
452574628,452573794,396809,0.33716363,-0.056301575,0.42255822,nan,0,1
453579866,453579030,396809,0.33716363,-0.056301575,0.42255822,nan,0,1
454575604,454574765,396809,0.3494877,-0.05033035,0.41362354,nan,0,1
455581746,455580882,396809,0.34332564,-0.002560498,0.41362354,nan,0,1
456576388,456575551,396809,0.34024462,-0.011517347,0.41958,nan,0,1
457571605,457570771,396809,0.34332564,-0.011517347,0.41958,nan,0,1
458576946,458576111,396809,0.34024462,-0.017488575,0.41958,nan,0,1
459583309,459582474,396809,0.34024462,-0.01450296,0.41362354,nan,0,1
460579294,460578460,396809,0.34024462,-0.017488575,0.42553642,nan,0,1
461574432,461573599,396809,0.34332564,-0.020474188,0.41064534,nan,0,1
462580782,462579948,396809,0.34024462,-0.008531725,0.41660175,nan,0,1
463575166,463574332,396809,0.34332564,-0.008531725,0.42255822,nan,0,1
464580881,464580048,396809,0.34024462,-0.020474188,0.42255822,nan,0,1
465576707,465575872,396809,0.34024462,-0.020474188,0.41958,nan,0,1
466582526,466581661,396809,0.35873076,-0.020474188,0.4046889,nan,0,1
467577959,467577125,396809,0.34024462,-0.020474188,0.42255822,nan,0,1
468573628,468572794,396809,0.36489278,-0.011517347,0.39575422,nan,0,1
469580092,469579252,396809,0.3494877,0.0004251159,0.41064534,nan,0,1
470575291,470574428,396809,0.3464067,-0.026445422,0.41958,nan,0,1
471571289,471570449,396809,0.34024462,-0.026445422,0.42255822,nan,0,1
472577581,472576746,396809,0.34332564,-0.020474188,0.41958,nan,0,1
473582896,473582061,396809,0.3464067,-0.023459801,0.41958,nan,0,1
474578555,474577715,396809,0.35873076,-0.01450296,0.4046889,nan,0,1
475574003,475573165,396809,0.34332564,0.018338805,0.41958,nan,0,1
476580317,476579477,396809,0.3464067,-0.029431036,0.41660175,nan,0,1
477576107,477575271,396809,0.3494877,-0.002560498,0.41958,nan,0,1
478571084,478570197,396809,0.35256872,-0.023459801,0.41064534,nan,0,1
479576648,479575783,396809,0.35256872,0.0004251159,0.41660175,nan,0,1
480572088,480571254,396809,0.3494877,-0.029431036,0.41660175,nan,0,1
481577327,481576492,396809,0.35256872,-0.03241665,0.41362354,nan,0,1
482571914,482571034,396809,0.3464067,-0.029431036,0.41362354,nan,0,1
483579210,483578355,396809,0.34332564,-0.03241665,0.41362354,nan,0,1
484574577,484573709,396809,0.3494877,-0.026445422,0.41064534,nan,0,1
485571054,485570166,396809,0.3494877,-0.023459801,0.41362354,nan,0,1
486576909,486576072,396809,0.35256872,-0.01450296,0.40766713,nan,0,1
487582875,487582027,396809,0.3556497,-0.026445422,0.41362354,nan,0,1
488578643,488577786,396809,0.3556497,-0.03838788,0.41362354,nan,0,1
489573169,489572336,396809,0.35256872,-0.047344726,0.41958,nan,0,1
490578485,490577651,396809,0.3556497,-0.035402264,0.41660175,nan,0,1
491574224,491573391,396809,0.3556497,-0.008531725,0.41362354,nan,0,1
492580778,492579944,396809,0.35873076,-0.035402264,0.41660175,nan,0,1
493576002,493575167,396809,0.35873076,-0.035402264,0.41362354,nan,0,1
494582610,494581745,396809,0.35873076,-0.03241665,0.41660175,nan,0,1
495576947,495576112,396809,0.3556497,-0.029431036,0.41660175,nan,0,1
496572183,496571346,396809,0.35873076,-0.03241665,0.41958,nan,0,1
497579392,497578548,396809,0.35873076,-0.029431036,0.41660175,nan,0,1
498574229,498573358,396809,0.36181176,-0.035402264,0.41362354,nan,0,1
499579496,499578662,396809,0.36489278,-0.03838788,0.41660175,nan,0,1
500575050,500574162,396809,0.36489278,-0.03241665,0.41958,nan,0,1
501581312,501580432,396809,0.36489278,-0.0055461116,0.41362354,nan,0,1
502575837,502575003,396809,0.35873076,-0.029431036,0.42255822,nan,0,1
503571510,503570672,396809,0.36181176,-0.035402264,0.41958,nan,0,1
504578112,504577272,396809,0.36489278,-0.03838788,0.42255822,nan,0,1
505574235,505573337,396809,0.36489278,-0.026445422,0.41660175,nan,0,1
506580759,506579824,396809,0.36489278,-0.026445422,0.41660175,nan,0,1
507575372,507574538,396809,0.3802979,-0.008531725,0.39873245,nan,0,1
508581969,508581131,396809,0.3802979,-0.0055461116,0.39873245,nan,0,1
