timestamp,timestamp_sample,xyz[0],xyz[1],xyz[2]
14580612,14580386,-0.021947665,0.008016287,0.018222729
14583152,14582923,-0.009206359,-0.0053671203,0.024318067
14604284,14604056,0.020736692,-0.010488841,0.0008240257
14621764,14621528,0.0057889237,0.009053621,-0.009476191
14642671,14642443,0.0048524956,0.019175597,0.014305701
14663770,14663543,0.061891824,-0.011824587,-0.007721226
14681183,14680953,-0.020759124,0.017288055,-0.00093384204
14702249,14702019,0.040334083,-0.0024827244,0.014142974
14723395,14723167,-0.0134931775,0.0007496517,0.009926632
14740722,14740495,-0.02707984,0.009309424,0.009144311
14761828,14761596,0.035153277,-0.022094,0.0020739723
14782929,14782695,0.04412517,0.01774669,-0.000913635
14802786,14802553,-0.016313726,-0.013427799,0.027331114
14821401,14821171,0.019317253,0.037949316,-0.025986578
14841314,14841087,0.07340471,-0.0151456315,0.021847213
14862393,14862168,-0.08686494,-0.012277779,0.012263901
14883644,14883418,0.050007988,0.019852387,-0.0009769921
14900838,14900605,-0.011520865,0.004148461,0.015290052
14921937,14921706,-0.02147626,-0.007112218,0.017048893
14943040,14942805,-0.001469086,0.0046130717,-0.014507542
14960417,14960181,0.03585583,0.013165463,0.027428798
14981505,14981281,-0.027239991,-0.024276296,0.02854656
15002608,15002381,-0.007952577,0.007129244,-0.027848128
15023716,15023482,0.02895535,0.017234862,-0.02141547
15041080,15040857,-0.00904164,0.0006238011,0.05700202
15062190,15061960,-0.02651341,-0.0139586665,0.0059018093
15083285,15083056,0.019083867,0.006522368,-0.05132562
15100662,15100433,0.014904954,0.009295926,0.049751956
15121775,15121551,-0.028311387,-0.013310663,0.061581805
15142994,15142754,-0.0033924333,-0.0067081316,-0.030475661
15164146,15163921,0.028718268,0.018727578,-0.06863524
15181336,15181108,0.007940994,-0.0024797567,0.0823964
15202440,15202209,-0.038866375,-0.008812875,0.06423105
15223577,15223351,0.009326059,0.003921724,-0.05291868
15240910,15240684,0.048636787,0.015636882,-0.016190872
15262016,15261784,-0.01321714,0.0020372218,0.096711285
15283110,15282884,-0.0412945,-0.0064716623,0.07064551
15304224,15303992,0.008636034,0.0060141915,-0.054297086
15321590,15321360,0.04973303,0.012680553,-0.023539467
15342686,15342459,-0.018676022,0.002102659,0.0916183
15363785,15363560,-0.055968486,-0.013840662,0.081824034
15381206,15380974,0.060492437,0.014133746,-0.086620584
15402319,15402085,0.056865923,0.024651432,-0.035293512
15422282,15422054,-0.026102554,0.0020172375,0.09256084
15440739,15440512,-0.038261805,-0.018597916,0.020596165
15461846,15461613,0.053490028,0.010838209,-0.076632455
15481700,15481470,0.057665724,0.022857348,-0.021488626
15502829,15502605,-0.013574615,0.009984049,0.0771397
15520236,15520001,-0.03373816,-0.017065004,0.00581254
15541276,15541048,0.049275775,-0.0009190001,-0.066659234
15562378,15562146,0.06569027,0.01733418,-0.024416495
15583473,15583245,0.007914066,0.028226756,0.059964743
15600847,15600622,-0.03686435,-0.0043284805,0.011809462
15621946,15621722,0.020775829,-0.021734519,-0.04813376
15643049,15642823,0.05058266,-0.0074753957,-0.025148291
15660490,15660261,-0.010676453,0.03550791,0.06434431
15681621,15681390,-0.0326371,0.0137733035,0.016470982
15702823,15702591,0.015782233,-0.028544992,-0.03249886
15723727,15723498,0.03779211,-0.028392036,-0.01397316
15741102,15740873,0.0004171181,0.044355348,0.045534246
15762203,15761973,-0.019114941,0.031022048,0.005618525
15783310,15783074,0.010374986,-0.007817255,-0.023659509
15800675,15800450,0.012953852,-0.020136023,0.028872019
15821773,15821549,0.0012574428,0.0326135,0.0406094
15842880,15842652,-0.0066639,0.04529176,-0.0054566516
15863973,15863749,0.0055031544,0.0013910092,-0.026617747
15881358,15881125,-0.001730501,-0.037263963,0.031977814
15902453,15902225,0.007776516,0.01112161,0.048741776
15923555,15923326,0.008119663,0.05507004,-9.660646e-05
15940982,15940758,0.015987473,-0.015277377,-0.028428055
15962184,15961951,-0.006332316,-0.043602955,0.03401568
15983134,15982904,-0.01194901,-0.017089037,0.061823845
16004240,16004000,0.009938204,0.04240838,0.018006202
16021608,16021377,0.03345918,0.006936551,-0.049257673
16042712,16042479,-0.01205759,-0.033492096,0.015618043
16063813,16063578,-0.034461282,-0.035395604,0.065247096
16082437,16082203,0.014816405,0.03925701,0.0076637883
16102284,16102052,0.05789639,0.03851848,-0.05692903
16123380,16123152,0.014694723,-0.0038701878,-0.014902627
16140766,16140536,-0.04600313,-0.03133086,0.08016497
16161874,16161632,-0.0034254584,0.011442829,0.020702543
16182962,16182728,0.059234127,0.03799742,-0.0518097
16200343,16200108,0.0029242681,0.0001480543,0.010729402
16220287,16220056,-0.05294878,-0.015860274,0.08788618
16241300,16241067,-0.032255173,-0.0011933813,0.032853276
16262393,16262163,0.058705863,0.010074253,-0.042085294
16283500,16283268,0.067012966,0.0013788237,-0.05075601
16300863,16300639,-0.0443794,0.0032541826,0.071041934
16321964,16321739,-0.054490052,0.0059468746,0.054761183
16343068,16342842,0.024037069,0.0028959722,-0.025797214
16360441,16360215,0.05576065,-0.00082637987,-0.028584607
16381537,16381315,-0.021580946,0.010659659,0.05613694
16402639,16402415,-0.060655024,0.0068839374,0.07133775
16423743,16423514,-0.00877999,-0.013934353,0.0010494107
16441118,16440891,0.06496023,0.0020061352,-0.040638097
16462223,16461991,0.01560825,0.027467301,0.025982017
16483434,16483205,-0.039878406,0.038396947,0.06952347
16500836,16500611,0.010124122,-0.032358926,-0.022082796
16521794,16521567,0.05108638,-0.030643117,-0.037460234
16542911,16542676,0.028145302,0.019669065,0.01274882
16563996,16563766,-0.014204369,0.05958317,0.052341953
16581367,16581142,-0.010915207,-0.022113383,-0.010089154
16602473,16602243,0.02316193,-0.06705213,-0.028738238
16623576,16623344,0.029757917,-0.022528678,0.0089775715
16640960,16640723,-0.014436666,0.07607486,0.028486943
16662049,16661818,-0.0027304108,0.02558866,-0.0053245355
16683155,16682919,0.000979082,-0.052333876,-0.016857151
16704242,16704018,0.025676869,-0.053845588,0.012804267
16721631,16721395,-0.008277599,0.06682488,0.025640963
16742749,16742521,0.0055094664,0.056165624,-0.012688718
16762697,16762467,0.00017226282,-0.032700676,-0.01409299
16781204,16780973,0.0061192983,-0.031892426,0.040206525
16802317,16802077,0.0064693773,0.02853088,0.03576095
16823403,16823170,0.012611886,0.05242818,-0.013233697
16840809,16840574,0.008009005,-0.033681385,-0.013206184
16861887,16861651,-0.009797869,-0.036282383,0.037774485
16881737,16881505,-0.0010646048,0.026287548,0.048059776
16900366,16900122,0.033639397,0.04359308,-0.038031567
16920213,16919980,0.016068146,-0.021059824,-0.024498537
16941313,16941082,-0.018914726,-0.043430254,0.05071115
16962414,16962180,-0.025870973,-0.018195715,0.079566196
16983504,16983280,0.010676272,0.034986656,0.004776491
17000889,17000657,0.040554438,0.02023298,-0.060027868
17022068,17021829,-0.008286774,-0.026313404,0.03126883
17043258,17043028,-0.045836236,-0.04261096,0.09334977
17060465,17060236,0.02043314,0.024418252,-0.02836328
17081558,17081332,0.062713474,0.03410872,-0.0794894
17102658,17102433,0.028514028,0.010090397,-0.0070146346
17123763,17123531,-0.04342655,-0.01870234,0.08623448
17141133,17140908,-0.0038434435,-0.009943615,0.001880094
17162234,17162007,0.0684785,0.027385911,-0.0756342
17183337,17183109,0.056543678,0.030883549,-0.04178422
17200712,17200484,-0.06285605,-0.013332224,0.09546141
17221812,17221583,-0.04275014,-0.029493023,0.03328339
17242919,17242683,0.04211601,-0.0023913607,-0.059087317
17264014,17263785,0.0798889,0.03414829,-0.06455051
17281415,17281190,-0.044819888,0.01326916,0.08509113
17302611,17302383,-0.066014044,-0.02659765,0.057919994
17323583,17323359,-0.013432904,-0.033304684,-0.036534637
17340964,17340736,0.067152895,0.029096864,-0.01921497
17362070,17361835,0.015178426,0.03477769,0.06614474
17383176,17382943,-0.054752667,0.0066624843,0.07640645
17404317,17404081,-0.04029597,-0.019641563,-0.006744375
17421642,17421411,0.07267694,-0.0014274869,-0.04149886
17442746,17442512,0.04073408,0.028892541,0.04626111
17463842,17463611,-0.033313952,0.027636204,0.070662886
17481223,17480987,-0.018455533,-0.020933172,-0.03909204
17502323,17502087,0.052449867,-0.022487104,-0.04886297
17522172,17521945,0.03493215,0.014307886,0.047921997
17540790,17540563,-0.035468932,0.028229889,0.050906062
17560723,17560495,-0.030293707,-0.0025503293,-0.041004073
17581927,17581697,0.030529661,-0.025000317,-0.04919166
17600371,17600139,0.030628145,0.0010729907,0.061915845
17620232,17619998,-0.012480263,0.023460545,0.050310083
17641378,17641148,-0.02640795,0.025709914,-0.03575994
17662433,17662199,0.003762177,0.005066295,-0.055622347
17683578,17683353,0.028036343,-0.03536833,0.014991802
17700905,17700674,-0.0014959088,-0.0020504824,0.063882746
17721999,17721775,-0.014341137,0.040465716,-0.021871941
17743099,17742873,-0.0008475934,0.046335045,-0.0624665
17760489,17760251,0.008600508,-0.0421006,0.048402485
17781577,17781349,0.0016742478,-0.054370537,0.07413723
17802679,17802450,0.013069449,0.00874253,0.027276382
17823823,17823593,0.030570084,0.084804066,-0.038810868
17841328,17841104,-0.011664588,0.007907152,-0.019022893
17862254,17862030,-0.054218713,-0.09556657,0.039113436
17883360,17883126,-0.041408937,-0.14508891,0.053504754
17900731,17900501,0.04747952,0.060946252,0.0025198802
17921828,17921601,0.04826226,0.1699594,-0.017181268
17942933,17942701,0.0057333414,0.21326156,-0.034187246
17964037,17963802,-0.118052036,0.17828783,-0.017769491
17981415,17981177,0.05929567,-0.08170639,0.015135366
18002508,18002277,0.0038478293,-0.055535678,0.04131314
18023608,18023377,-0.23074935,0.002256736,0.053378347
18041029,18040805,-0.13984637,-0.0183805,0.022419356
18062084,18061852,0.106247514,-0.025925588,0.014242281
18083199,18082968,-0.007249829,0.06252955,0.007915104
18104379,18104150,-0.043320954,-0.004819983,-0.04187885
18121843,18121604,0.049106907,-0.0097002145,0.0027235048
18142757,18142528,-0.016710404,0.013422961,0.0039190543
18163860,18163628,-0.019519318,0.008686622,-0.024398694
18181244,18181007,-0.043228682,0.010257341,0.0048332624
18202335,18202104,0.00722757,-0.05340161,0.008083125
18222193,18221963,0.120082416,-0.006274042,-0.011945039
18240817,18240580,0.03011542,0.03229197,0.022222605
18260668,18260440,-0.03276506,-0.03662528,-0.00080176676
18281765,18281539,0.06923794,-0.045830153,0.019758588
18302871,18302639,-0.078759305,0.020739514,0.025614837
18320244,18320015,-0.033433855,0.02336609,-0.0044701463
18341343,18341117,-0.0574693,0.04060126,0.021492701
18362487,18362261,0.093106225,-0.022089578,-0.009115464
18383687,18383458,-0.04549314,0.040792625,0.029126612
18400922,18400692,-0.09824253,0.0029081297,0.0057023102
18422068,18421838,0.0013563613,-0.0007475012,0.004510333
18443125,18442891,-0.09340491,0.037097223,0.0020723995
18460503,18460269,-0.13629349,-0.007621347,-0.025159864
18481589,18481366,-0.06964729,0.031432196,0.026695669
18502694,18502468,0.07547793,-0.049008735,0.0045711393
18523798,18523567,-0.049449943,0.026487185,0.008307965
18541174,18540948,-0.10449986,-0.006578565,0.005364355
18562266,18562038,0.021182163,-0.02682768,-0.040357087
18583376,18583143,-0.05536057,0.04634294,0.015643688
18600746,18600518,-0.034626406,0.027459104,0.013142042
18621851,18621621,-0.12095995,0.035215277,0.028371008
18643041,18642812,0.010882726,-0.008660483,0.018421287
18664046,18663821,-0.023454025,0.032231573,0.013918122
18681424,18681198,-0.067650996,-0.020868745,-0.0040913434
18702523,18702294,0.030064587,-0.097637564,-0.013780978
18723621,18723394,-0.029477835,0.028900845,0.007915707
18741007,18740775,-0.006079204,0.019683504,-0.0038189115
18762105,18761870,-0.06425452,0.07566749,0.010163329
18783201,18782970,-0.01272408,-0.058159463,-0.006174052
18804295,18804070,0.0696522,0.043190237,0.027240695
18821680,18821446,-0.05163901,0.0742754,0.024865964
18842780,18842546,0.034687113,0.0036618656,-0.0030876244
18863873,18863646,0.034035716,-0.01033978,0.0029006216
18881277,18881044,0.07366393,-0.016876282,-0.019173114
18901160,18900930,-0.034811754,0.04081302,0.03986368
18922350,18922124,0.10135324,-0.0063504255,0.05404427
18940835,18940598,-0.13496953,0.060775146,0.04944653
18960747,18960518,0.00059119985,-0.023301532,0.012950752
18981789,18981557,0.05251995,0.025792332,0.014101497
19002887,19002656,-0.0412301,-0.014780781,-0.007948481
19020267,19020033,0.005185938,-0.06529205,0.0065845107
19041372,19041140,0.025130942,0.06401967,0.051931854
19062457,19062232,0.03243162,-0.017910669,0.046682987
19083557,19083332,-0.09978413,-0.028933449,0.0031762756
19100941,19100709,0.065991476,0.016948123,-0.021349797
19122038,19121810,0.049455043,-0.004990231,-0.025627349
19143146,19142915,-0.05612587,-0.01695378,-0.0049394188
19160536,19160302,0.004368395,-0.03596355,-0.025907166
19181706,19181480,0.004216519,0.037404876,-0.012383087
19202710,19202487,-0.008761774,-0.0055664307,-0.028656952
19223812,19223584,0.014119389,-0.035569858,-0.016203046
19241193,19240960,-0.006244787,0.018760027,0.011627643
19262285,19262060,0.014981979,0.012253711,0.013380754
19283401,19283172,-0.008817971,-0.01379086,-0.03938817
19300767,19300537,0.018894784,-0.039584536,-0.049222156
19321876,19321641,0.033599745,0.021969266,-0.04860766
19342970,19342736,0.02736872,0.0034605528,-0.021647599
19364071,19363837,-0.08567365,0.005381533,0.03587809
19381443,19381212,0.0027484014,-0.04572416,0.029389903
19402541,19402312,-0.025434624,0.030815056,0.05851842
19423637,19423412,0.024778375,0.07617457,0.04294149
19441182,19440956,-0.09159316,0.028200854,-0.0058926386
19462274,19462039,-0.0022871327,0.050899852,0.005417358
19483226,19482990,0.01274397,0.058632914,0.0070941923
19504321,19504087,-0.08463188,0.04877913,0.036776118
19521717,19521487,0.009664732,-0.000263604,0.049158465
19542806,19542565,0.044642508,0.043613315,0.043818884
19563890,19563663,0.02705503,-0.0021821456,0.0049019377
19581275,19581040,-0.057726733,0.0068880925,0.0027454493
19602377,19602142,0.10114466,-0.043987047,0.0020082616
19622241,19621999,-0.10280916,0.0011245875,-0.008616038
19640852,19640616,-0.019710906,0.006368841,0.026404837
19660704,19660476,0.007243554,0.08906693,0.01711197
19681811,19681579,-0.05185576,0.023709005,-0.0003273883
19702927,19702699,-0.030449882,0.0075314706,0.046252448
19720400,19720169,0.037552577,-0.021123901,0.09325224
19741383,19741154,-0.008752148,-0.043072883,0.06721439
19762508,19762283,-0.009643339,0.01801436,0.042890683
19783578,19783350,-0.03537088,0.012952086,0.039120395
19800991,19800760,0.056465667,-0.008693298,0.0104020955
19822057,19821827,-0.016317094,-0.039747197,0.04049954
19843153,19842926,0.003443112,0.014285657,0.02996102
19860533,19860303,-0.090851404,0.10028379,0.06078169
19881630,19881403,0.00501475,-0.007912967,0.025571164
19902734,19902504,0.00014119805,-0.055975184,0.031706247
19923834,19923603,-0.103220746,-0.13109583,0.056929454
19941222,19940989,-0.06499968,-0.01020186,0.06473105
19962306,19962078,-0.13431913,0.03773687,0.034655344
19983532,19983304,-0.092159085,0.054935034,0.00065921916
20000932,20000703,-0.13465847,0.028271625,0.06015129
20021880,20021654,-0.12667583,0.0031626178,0.03789427
20042988,20042754,-0.15612166,-0.03327065,0.05204092
20064088,20063858,-0.093219295,-0.021670526,0.07078301
20081467,20081235,-0.03131451,-0.05532173,0.06945911
20102560,20102330,-0.03697263,-0.063712895,0.08526842
20123663,20123433,-0.15068361,-0.017086014,0.08482642
20141032,20140806,-0.19473809,0.04341413,0.093014784
20162149,20161919,-0.1986451,0.0638238,0.09883861
20183242,20183009,-0.18874718,-0.029554626,0.08689075
20204371,20204136,-0.09628547,-0.0055112545,0.088631764
20222949,20222721,-0.124919616,-0.008093723,0.12260057
20242925,20242694,-0.14941207,-0.060097862,0.11164142
20262803,20262567,-0.046326034,-0.0635097,0.12872466
20281294,20281058,-0.06346933,-0.04922071,0.14359137
20302394,20302158,-0.033565644,-0.025351817,0.1407359
20322252,20322020,0.019498799,-0.001863172,0.16397116
20340864,20340634,0.0023226887,-0.027762145,0.1365183
20360723,20360496,0.043779485,-0.015818015,0.1578708
20381828,20381593,-0.05108545,0.0006741263,0.18906972
20402920,20402692,-0.12256031,-0.04811745,0.18239567
20420302,20420070,-0.07063969,-0.036425658,0.18026496
20441408,20441172,-0.07772144,-0.048613954,0.109749526
20462498,20462269,-0.005430264,0.009243131,0.13729542
20483595,20483368,-0.022578452,0.014037969,0.15879175
20501004,20500778,0.06963469,0.03146226,0.15599687
20522229,20521996,0.005036014,0.0074949088,0.18342666
20543343,20543118,-0.04077328,0.021033464,0.16350216
20560557,20560321,0.053864803,0.006201498,0.13415986
20581646,20581420,0.03745402,-0.03345929,0.120518334
20602750,20602521,0.1329935,0.07741277,0.15844733
20623850,20623620,0.051514328,0.0054211114,0.16333823
20641229,20640996,0.13732615,-0.055025607,0.16235378
20662326,20662098,0.11262435,-0.022765893,0.16190068
20683433,20683201,0.12702668,0.040018797,0.11455113
20700799,20700572,0.117413566,0.0053672125,0.11413325
20721896,20721672,0.1443464,-0.03961158,0.13867569
20743008,20742779,0.12380214,-0.101093434,0.15112759
20764100,20763875,0.10416188,-0.057035204,0.09977069
20781557,20781331,0.018785225,0.06331456,0.093079634
20802699,20802470,0.12443943,0.055338103,0.042121015
20823677,20823447,0.055660453,0.056429885,0.035099816
20841048,20840824,0.09010898,0.013100573,0.04363331
20862190,20861956,0.04110922,0.030914705,0.05279039
20883250,20883023,0.09445182,-0.011985322,0.06443673
20904360,20904125,-0.08690872,-0.012388722,0.029242568
20921731,20921500,-0.017457264,-0.1038629,0.07444318
20942835,20942599,-0.013411536,-0.015203567,0.010923445
20962684,20962458,-0.009915551,-0.019495076,-0.0065490366
20981318,20981077,-0.037059687,0.06226552,0.011561228
21001165,21000934,-0.07326203,-0.06284481,0.025644608
21022272,21022043,-0.039510168,-0.044823427,0.017261254
21043361,21043136,-0.16220534,-0.08602936,-0.010358276
21060881,21060647,-0.14819789,-0.02501682,-0.012851517
21082020,21081791,-0.14702897,-0.106205985,-0.03206403
21102941,21102710,-0.15622193,-0.12705068,-0.038203284
21120316,21120086,-0.108132936,-0.013625913,-0.073211044
21141463,21141234,-0.09252576,-0.007707568,-0.08853603
21162513,21162286,-0.10384791,0.008365083,-0.08619706
21183610,21183386,0.02068168,-0.021100696,-0.06344886
21201031,21200801,0.06362456,0.007961414,-0.07266585
21222090,21221863,0.0397925,-0.04121065,-0.08659164
21243275,21243049,0.1359756,-0.038395435,-0.07427077
21260572,21260342,0.111352585,-0.05074367,-0.059485104
21281663,21281438,0.064704634,-0.025350522,-0.062240355
21302772,21302539,0.0778804,-0.054499652,-0.04437856
21323934,21323704,-0.0034980443,0.017876014,-0.054520402
21341369,21341144,-0.009234134,0.060839735,-0.062914215
21362340,21362114,-0.101768486,0.022927301,-0.03866807
21383445,21383215,-0.1526988,0.017708015,-0.06329452
21400817,21400590,-0.09470038,0.03305853,-0.065039165
21421921,21421695,-0.030287562,-0.0094369855,-0.0377036
21443021,21442790,-0.041475307,-0.030285481,-0.07093317
21464156,21463921,0.038842734,0.018667722,-0.10267332
21481541,21481315,0.025191598,0.063789956,-0.07166866
21502593,21502366,0.020441135,0.032531578,-0.08763398
21523690,21523466,0.09450278,0.0778801,-0.091250196
21541065,21540842,-0.011851473,0.076313466,-0.06297523
21562176,21561943,0.016859291,0.064142235,-0.09956452
21583328,21583096,0.06534199,-0.00022457697,-0.10024045
21603228,21602997,0.00088679,-0.025993688,-0.05872959
21620688,21620454,-0.034485023,-0.07022584,-0.09101498
21642875,21642628,-0.06104,-0.06958963,-0.06869482
21662708,21662476,-0.020902943,-0.0005077735,-0.029056162
21681331,21681094,-0.013172932,0.016405227,-0.08573821
21701183,21700952,-0.04297976,-0.0001428621,-0.11120567
21722281,21722053,0.06809509,-0.015962439,-0.092965536
21740909,21740670,0.053400885,0.033932004,-0.094771944
21760811,21760583,0.16792814,0.027007742,-0.11208252
21781854,21781628,0.1808362,0.019488283,-0.0815721
21802955,21802728,0.12444225,0.021808436,-0.03595972
21820339,21820105,0.10385593,-0.0073930295,-0.081500776
21841442,21841210,0.044306036,0.009080307,-0.08503057
21862628,21862402,-0.05756343,0.033403326,-0.063469924
21883777,21883553,-0.033273943,0.01730184,-0.034766737
21901016,21900784,-0.12429738,-0.051866665,-0.01324985
21922111,21921881,-0.08959425,-0.09860034,-0.06570529
21943213,21942980,0.040188584,-0.18165368,-0.08508154
21960586,21960357,0.035817955,-0.064836465,-0.059174377
21981679,21981456,0.08404198,-0.08558456,-0.06935259
22002792,22002556,0.31027177,-0.004599806,-0.09337148
22023887,22023656,0.31820995,0.017396932,-0.10850893
22041260,22041032,0.14110859,0.029169956,-0.10010729
22062362,22062133,0.2419595,0.02208633,-0.06249303
22083463,22083234,0.15651593,-0.048171148,-0.099424794
22100837,22100611,0.30805507,-0.048910428,-0.108607545
22121986,22121759,0.31014168,-0.06707713,-0.11527489
22143163,22142924,0.40730157,-0.13064961,-0.09089313
22164135,22163911,0.34127605,-0.25386995,-0.09708674
22181510,22181284,0.3946632,-0.28644812,-0.10769573
22202652,22202418,0.27776948,-0.32837328,-0.11408102
22223716,22223486,0.12105281,-0.39010298,-0.102531835
22241083,22240860,0.049210336,-0.2398887,-0.08978672
22262203,22261962,-0.08362481,-0.16105314,-0.0847231
22283305,22283063,-0.12233182,-0.111131,-0.09610589
22304389,22304160,0.063784204,-0.051756132,-0.07741449
22323016,22322784,0.036652997,0.03762012,-0.08054692
22342878,22342639,0.08522395,-0.032287303,-0.09103571
22362727,22362498,0.09091183,-0.12504177,-0.08018406
22381373,22381136,-0.10372651,-0.11228832,-0.0815653
22401316,22401086,-0.09665142,-0.08420129,-0.0507912
22422457,22422228,-0.13710059,-0.06892421,-0.057940178
22443398,22443171,-0.08316651,-0.025212683,-0.048206653
22460777,22460547,-0.13863829,0.076446325,-0.06286344
22481916,22481688,-0.1478915,0.12790826,-0.03823237
22502974,22502746,-0.23917307,0.28868753,-0.030235093
22520352,22520123,-0.28335044,0.2569971,-0.07427451
22541451,22541223,-0.23618029,0.30015695,-0.064095706
22562549,22562323,-0.28937063,0.365479,-0.07696981
22583649,22583423,-0.29981196,0.22412643,-0.052017525
22601027,22600799,-0.26358798,0.15104546,-0.034644563
22622127,22621900,-0.20103353,0.05334508,-0.030336747
22643237,22643000,-0.026784638,0.039259937,-0.025287433
22660674,22660448,-0.028559549,0.14470986,-0.040380146
22681807,22681582,0.03132345,0.040139314,-0.02767698
22702809,22702575,0.022403024,-0.0091650775,-0.0076174126
22725151,22724916,-0.07533248,0.03404006,0.011815992
22741280,22741052,-0.025072988,0.043016378,-0.027244652
22762389,22762157,-0.09198476,0.062495716,-0.038591057
22783483,22783250,-0.05788655,0.04285637,-0.04143123
22800853,22800627,-0.08458841,0.07853472,0.032492895
22821998,22821774,-0.084994934,0.040194605,0.044015303
22843055,22842826,-0.050818764,-0.07852226,0.055194598
22864158,22863927,-0.012438394,-0.17902455,0.06925227
22881538,22881312,0.046253484,-0.08115381,0.030299788
22903877,22903645,0.058087975,0.021498987,0.046380717
22923776,22923547,0.022890132,0.07093769,0.023748422
22941166,22940941,0.013238911,0.08910826,0.00809906
22962381,22962145,0.001978486,0.117157355,0.020560157
22983328,22983078,-0.04674391,0.07832087,0.023424258
23003172,23002937,-0.12743339,0.04866468,0.040097877
23021782,23021554,-0.053581975,0.049924746,0.06036762
23042893,23042655,0.045129284,0.05000709,0.053295657
23062747,23062516,0.1557273,0.06296703,0.037538238
23081360,23081130,0.1832113,0.03638651,-0.00429972
23101273,23101046,0.13560294,-0.01778995,0.009982786
23122322,23122091,0.026969098,-0.028154334,0.012068483
23143422,23143195,-0.09399178,0.0048619313,0.010521987
23160802,23160565,-0.15967858,0.1605716,0.05407906
23181944,23181716,-0.1826325,0.1898392,0.050635222
23203025,23202800,-0.17247492,0.19207409,0.043227863
23220490,23220260,-0.014311165,0.10915206,6.4660817e-06
23241478,23241244,0.031118102,-0.0068851016,-0.010337296
23262566,23262341,0.09809599,-0.074839346,-0.0061418945
23283668,23283441,0.06723455,-0.11600795,-0.0031488445
23301050,23300819,-0.04285703,-0.095335625,0.058209345
23322142,23321917,-0.053140245,-0.055526596,0.041489694
23343246,23343017,-0.05936248,0.014533869,0.024565253
23360621,23360393,0.005627227,0.02945005,-0.050776895
23381741,23381516,0.06612673,0.083887,-0.044286937
23402821,23402593,0.06286162,0.085541174,-0.04333779
23423970,23423741,0.030492393,0.040417388,-0.02732037
23441297,23441069,-0.014846299,-0.0038290971,0.027339539
23462484,23462259,-0.03216304,-0.04781138,0.032138515
23483571,23483344,0.0011791938,-0.06654033,0.020133661
23501026,23500801,0.06765388,-0.05438323,-0.03514865
23521971,23521745,0.025742536,-0.08478796,-0.02906718
23543100,23542867,0.07867191,-0.13922559,-0.017720245
23564180,23563946,0.07351892,-0.07858941,-0.024648273
23581547,23581321,0.080438204,-0.043945465,0.047866262
23602681,23602451,0.050825413,-0.0171337,0.046337426
23623755,23623524,0.09349092,0.03873619,0.053830206
23641137,23640905,0.0062472057,-0.030934764,0.0023726197
23663481,23663241,-0.05885161,0.024196412,0.032579
23683333,23683097,-0.0762191,0.041802,0.027792742
23703184,23702956,-0.09651631,0.08581814,0.0006303461
23721813,23721573,-0.03669203,0.08522614,-0.012378799
23741751,23741520,0.017769344,0.033740886,-0.0039566346
23762930,23762698,0.14497274,0.037517298,-0.009999829
23781379,23781149,0.13826823,0.003073101,0.03847857
23801242,23801008,0.16611534,-0.01745976,0.04972688
23822344,23822110,0.09694018,-0.08250236,0.046041038
23843434,23843207,0.10813996,-0.02726089,0.04990955
23860812,23860584,0.10468753,-0.042103462,0.045552023
23881917,23881684,0.0770506,-0.022150889,0.054518178
23903017,23902788,0.062267024,-0.0057909214,0.053769346
23920393,23920163,0.08516865,-0.035234224,0.011517634
23941497,23941266,0.16985357,0.031091545,0.01386089
23962585,23962360,0.252212,0.06434078,0.01735471
23981225,23980979,0.2678661,0.08363962,0.0037426946
24001075,24000839,0.22969154,0.09957275,0.028466403
24022241,24022013,0.21321778,0.09307945,0.027934864
24043450,24043225,0.2648903,0.09166726,0.03046003
24060643,24060413,0.25558743,0.06775563,0.015295504
24081738,24081512,0.27844676,0.03474172,0.018522432
24102840,24102612,0.27461305,0.04043706,0.014956115
24123943,24123711,0.31015947,0.015050286,0.01775584
24141319,24141090,0.3494528,-5.203693e-05,-0.0026726853
24162417,24162192,0.3483607,-0.0057719103,0.0006724659
24183517,24183287,0.31009123,-0.0032147702,-0.0039512753
24200888,24200663,0.27073,0.014893887,0.020039823
24221992,24221764,0.09199937,0.014635957,0.012659301
24243095,24242864,-0.058271796,0.022137905,0.016656056
24264195,24263963,-0.2456968,0.029065572,0.022461683
24281603,24281379,-0.40459007,0.030164702,0.047185965
24302849,24302611,-0.49628517,0.04104083,0.059344165
24323767,24323540,-0.5981168,0.084224254,0.0631002
24341139,24340916,-0.59389424,0.029691046,-0.014817369
24362259,24362015,-0.48376888,0.012544912,-0.007849837
24383385,24383156,-0.36245513,0.0029600805,-0.017744223
24403205,24402974,-0.2516987,-0.039786365,-0.023774091
24421826,24421592,-0.22378045,0.005201301,0.022059642
24442924,24442691,-0.1784688,0.0066996333,0.030849127
24462782,24462550,-0.17279148,0.011670078,0.050698366
24480167,24479928,-0.12766485,-0.022914818,0.0032370156
24501261,24501027,-0.09301685,-0.028669227,0.0039471304
24522355,24522126,-0.10115875,-0.050689604,0.00029397357
24543464,24543239,-0.11300343,-0.03489199,0.006407572
24560917,24560687,-0.08326417,0.014926016,-0.005618332
24582114,24581886,-0.0843389,0.062270913,-0.010556394
24603030,24602803,-0.047734324,0.063256994,-0.0071206405
24620412,24620178,-0.059612524,0.056434903,0.018377546
24641508,24641278,-0.029667541,0.025952809,0.016411627
24662647,24662423,-0.00646985,-0.015718706,0.013255217
24683704,24683478,0.0042543113,-0.035985094,0.014539564
24701085,24700854,-0.0068149436,-0.07146391,0.03178246
24722179,24721954,-0.004824271,-0.06635186,0.037378263
24743280,24743054,0.020772344,-0.044342652,0.035786945
24760658,24760430,0.014153809,-0.014813903,-0.005894151
24781757,24781530,0.03202462,0.0026340531,0.002660847
24802857,24802630,0.017716216,0.004353975,0.006320329
24824010,24823782,0.0102077555,-0.019149426,0.012112707
24841466,24841242,0.0048524593,-0.026273465,0.023149848
24862431,24862206,-0.013322623,-0.034406926,0.035267532
24883537,24883306,-0.038806506,-0.030371342,0.042009547
24900914,24900683,-0.05801867,-0.01971885,0.02460762
24922013,24921785,-0.035649534,-0.0022526283,0.020542566
24943111,24942882,0.025762333,-0.001824551,0.010640061
24964214,24963982,0.04744079,0.020336647,0.0084568225
24981591,24981360,0.03371223,-0.005841155,0.03604907
25002691,25002461,0.043450575,-0.01678492,0.046145093
25023782,25023558,0.021010924,-0.017919924,0.042052075
25041160,25040936,0.05793678,-0.023452064,-0.0221915
25062265,25062034,0.046209916,-0.005852742,-0.019010985
25082129,25081901,0.0147318365,-0.025707781,-0.009285359
25103321,25103094,0.022462973,-0.080437735,0.0011956607
25120811,25120586,0.01283138,-0.10220869,0.048085056
25141698,25141469,0.033911332,-0.1380047,0.042988975
25162842,25162615,0.05762179,-0.16049087,0.03603927
25181422,25181191,0.067442395,-0.17012788,-0.005961138
25201279,25201046,0.092036344,-0.16642702,0.015283182
25222371,25222145,0.098900504,-0.14052044,0.016883101
25243470,25243245,0.036777414,-0.11408264,0.015199874
25260853,25260621,0.058248244,-0.10147404,0.032354586
25281959,25281733,0.045651536,-0.08716442,0.032279257
25303047,25302821,0.06053771,-0.08636559,0.02116392
25320430,25320198,0.08828864,-0.08383773,-0.013518278
25341545,25341320,0.102684,-0.08818336,-0.010531457
25362681,25362451,0.12755136,-0.10992109,-0.0052802744
25383985,25383760,0.103938535,-0.09568368,-0.0059205648
25401108,25400878,0.04225596,-0.045899197,0.026869401
25422210,25421976,-0.062968425,0.05194697,0.03137824
25443299,25443072,-0.1350872,0.16397318,0.032544862
25460686,25460456,-0.18692103,0.22384232,-0.013998509
25481777,25481549,-0.2254098,0.26556012,-0.018449243
25502929,25502702,-0.20035982,0.24502584,-0.01625026
25523977,25523748,-0.1322372,0.19556585,-0.021345833
25541368,25541140,-0.08546793,0.20163465,0.004846344
25562450,25562225,-0.046297096,0.1410406,0.010921888
25583578,25583350,-0.01088916,0.031851552,0.02161833
25600928,25600701,0.061716974,-0.0656961,-0.034373
25622057,25621827,0.056110036,-0.08077079,-0.040781323
25643258,25643023,0.05343968,-0.10011399,-0.04326593
25664242,25664003,0.039092805,-0.07559948,-0.044003632
25681601,25681377,0.034550685,-0.0030578363,0.007764638
25702715,25702480,-0.0096582,0.034244724,0.008724236
25723815,25723578,-0.047546487,0.079626404,0.01251772
25741183,25740955,-0.06548755,0.068203025,-0.029758329
25762293,25762063,-0.05795094,0.07292301,-0.03053623
25783386,25783153,-0.047723804,0.07109777,-0.040425207
25803251,25803012,-0.036689166,0.07420594,-0.027168993
25821863,25821629,-0.012038776,0.09390658,0.0064613433
25841724,25841492,-0.020490238,0.047125567,0.013697965
25862829,25862590,0.008321161,-0.0002311741,0.008595372
25880201,25879972,0.011994996,-0.08403342,-0.016869504
25901350,25901121,0.02186474,-0.06927162,-0.0043631895
25922561,25922331,0.005740989,-0.027031135,-0.0008897114
25943490,25943263,-0.03450583,-0.015576374,0.009829708
25960867,25960640,0.040103566,-0.030781757,-0.021332972
25981969,25981740,0.049630076,-0.038986076,-0.044970065
26003069,26002839,0.064653166,-0.0005056379,-0.05207789
26020446,26020216,0.001347737,0.046136353,0.0283424
26041554,26041317,-0.03134842,0.05830667,0.03280247
26062639,26062416,-0.04334145,0.04643655,0.011552272
26083742,26083515,-0.046687435,0.039188795,-0.010015222
26101125,26100893,-0.008451861,0.05227343,-0.02763078
26122222,26121991,-0.017503282,0.05877952,-0.010115129
26143321,26143097,-0.025008125,0.043828227,0.0001485399
26160714,26160486,-0.024613662,-0.007339351,-0.037976984
26181908,26181680,-0.011706004,-0.006614344,-0.032049753
26202900,26202668,-0.011684682,-0.008957509,-0.009421728
26224028,26223798,0.0014058575,0.0021964707,0.012627988
26241372,26241144,0.03442875,-0.04356238,-0.03541681
26262523,26262300,0.07221728,-0.060275912,-0.039730083
26283576,26283344,0.114349775,-0.038463112,-0.026945334
26300954,26300720,0.046851676,-0.0074355393,0.03332974
26322045,26321820,0.060152486,-0.0018750515,0.014700511
26343148,26342920,0.030629229,0.01431449,-0.011571937
26364251,26364020,0.0151019525,0.031539466,-0.03500157
26381625,26381400,-0.016454408,0.06471733,-0.011094345
26402729,26402497,-0.05414446,0.08070467,0.008815535
26423836,26423597,-0.07144075,0.062783554,0.019373959
26441316,26441084,-0.012893066,-0.021578776,-0.033110358
26461213,26460985,0.033118285,-0.060737424,-0.040088672
26482162,26481932,0.058351334,-0.05688786,-0.04126763
26503295,26503066,0.06411278,-0.041357283,-0.03386952
26521880,26521648,0.019220596,-0.026700668,0.03037951
26541741,26541507,-0.0021297294,-0.03362817,0.025185388
26562843,26562608,0.011769913,-0.041342627,0.012026562
26580234,26579990,0.07085345,-0.032262936,-0.029474072
26601311,26601083,0.034605667,-0.0033331108,-0.028970182
26622418,26622183,0.022993628,0.019849915,-0.025348663
26643507,26643282,-0.070144616,0.03259236,-0.020166941
26662148,26661918,-0.04731038,0.02934325,0.011143571
26681996,26681765,-0.0055394503,0.053978782,0.010913446
26703114,26702888,0.048832156,0.06030946,-0.0076004677
26720582,26720352,0.09792872,0.011381008,-0.025084147
26741568,26741335,0.18853061,-0.032997373,-0.009932589
26762659,26762434,0.3206694,-0.13994531,0.009900343
26783762,26783534,0.43866774,-0.20435905,0.011951711
26801138,26800911,0.5653219,-0.27402937,-0.040162604
26822246,26822012,0.67086434,-0.32393456,-0.036539175
26843336,26843111,0.72235394,-0.32362017,-0.03332932
26860721,26860488,0.7184811,-0.2711423,0.017603142
26881811,26881587,0.6539554,-0.19918287,0.01598349
26902919,26902689,0.53389907,-0.14420204,0.013376097
26924014,26923786,0.4609002,-0.08042589,0.023133725
26941391,26941164,0.26434204,-0.057846796,0.015107489
26962489,26962262,0.08734776,-0.033542346,0.024879452
26983674,26983446,-0.047790702,0.028748937,0.029571466
27001183,27000956,-0.11414599,0.0092250025,-0.027860973
27022070,27021838,-0.2748842,0.09433475,-0.0191945
27043169,27042940,-0.45467377,0.15144074,-0.0013080983
27064276,27064046,-0.6407962,0.24301158,-0.0016032289
27081640,27081415,-0.8017914,0.31596836,0.026388904
27102750,27102522,-0.82149464,0.2995893,0.038759187
27123851,27123615,-0.69667256,0.26034296,0.04466393
27141227,27140995,-0.5612764,0.1695293,0.009029373
27162331,27162091,-0.34414354,0.12678747,0.013931529
27183430,27183195,-0.15277705,0.06235558,0.012869396
27203277,27203050,-0.08984501,0.020262016,0.012506647
27220658,27220426,-0.035777476,-0.034152046,-0.010358002
27241786,27241557,-0.05490192,-0.047556892,-0.019675633
27262996,27262758,-0.089130394,-0.053737126,-0.02193866
27280241,27280012,-0.14797446,0.039288547,0.041800037
27301333,27301097,-0.18614617,0.05460113,0.041813586
27322430,27322202,-0.15793268,0.06056445,0.046171315
27343541,27343317,-0.16014417,0.054117605,0.03182884
27360908,27360678,-0.05806445,0.014051534,-0.023713106
27382022,27381796,-0.0043967045,0.026221927,-0.022538928
27403105,27402877,0.016054414,0.0024673,-0.008539696
27420484,27420254,-0.01409737,0.037441283,0.03335193
27441582,27441354,-0.018767767,0.04143071,0.026313243
27462677,27462453,-0.008263594,-0.006298815,0.021209484
27483781,27483553,-0.020968655,0.005900886,0.006434262
27501156,27500930,-0.052603573,-0.006818912,-0.00566996
27522405,27522176,-0.04075476,-0.00037761594,0.0066170925
27543543,27543316,-0.044561863,0.014624655,0.01777032
27560741,27560509,-0.03379304,-0.009443956,0.01946692
27581836,27581606,-0.00932852,-0.035867587,0.004005664
27602952,27602711,0.008767528,-0.07093841,-0.007352859
27624035,27623805,0.0132059725,-0.12156154,-0.0167933
27641413,27641181,-0.0045112832,-0.15400204,0.0066442974
27662507,27662282,0.0068205283,-0.23010862,0.01811642
27683613,27683382,-0.0011615611,-0.3234473,0.016519463
27700985,27700758,0.027636925,-0.3986557,0.017857298
27722084,27721859,0.06309329,-0.36655554,0.020225449
27743190,27742958,0.06826593,-0.31749046,0.01730175
27764287,27764058,0.049998436,-0.26722383,0.011355189
27781704,27781473,0.011759162,-0.1721592,0.03746384
27802908,27802673,-0.025986025,-0.13399224,0.025931058
27823866,27823633,-0.037217442,-0.10576775,0.015213436
27841236,27841011,0.01200857,-0.081588164,0.0047955574
27862355,27862113,0.017759759,-0.11327745,0.009051663
27882203,27881968,0.022789117,-0.10894662,0.011286046
27903299,27903069,0.009800423,-0.11904893,0.01620401
27920667,27920444,0.038412686,-0.13877676,-0.00071054365
27941775,27941545,0.067,-0.12383448,0.0039940868
27962872,27962644,0.053358484,-0.06651524,-0.00024152124
27980251,27980022,0.05232597,-0.019517936,0.025510147
28001354,28001125,0.06538653,0.040423915,0.01847388
28022468,28022240,0.030478854,0.13563298,0.014674609
28043562,28043334,-0.026796531,0.20825858,-0.00019779478
28061012,28060783,-0.04026258,0.3053438,-0.016472409
28082218,28081988,-0.07846109,0.41865322,-0.012527769
28103124,28102896,-0.076122664,0.4770676,-0.0038981603
28120501,28120273,-0.055886354,0.44566175,-0.009556525
28141601,28141373,-0.037442185,0.36698753,-0.020152925
28162699,28162473,-0.019117767,0.26209754,-0.03384238
28183848,28183625,0.00085268635,0.15888949,-0.04007959
28201191,28200957,0.024319308,0.12718382,-0.008847238
28222272,28222048,0.032041565,0.07596757,-0.0099568
28243372,28243148,0.015303396,0.05256055,-0.01147205
28260752,28260525,0.017646883,0.042931415,-0.018852342
28281849,28281625,-0.0010487778,0.060615633,-0.015310397
28302955,28302726,-0.06630062,0.06282856,-0.013286463
28324111,28323882,-0.0761252,0.06834528,-0.010879651
28341617,28341394,-0.025303038,0.055153105,-0.041374642
28362529,28362301,0.014071739,0.049494434,-0.05665904
28383630,28383401,0.035562865,0.026160022,-0.045381185
28401008,28400777,-0.00901404,0.061683368,0.0036147307
28422104,28421876,-0.026480593,0.07989557,0.008701874
28443216,28442978,-0.050064825,0.053968254,0.0012815795
28464309,28464076,-0.013540229,0.052289292,-0.0252106
28481679,28481453,0.00025071643,0.067706205,0.0044915727
28502791,28502553,-0.018884484,0.04982636,0.02151678
28523880,28523652,-0.023231328,-0.0020862722,0.028580222
28541287,28541060,0.046591148,-0.03766273,-0.027967937
28562363,28562129,0.0543809,-0.044375192,-0.025536794
28582244,28582011,0.096386716,0.01407524,-0.02311099
28603427,28603202,0.17547886,0.019529091,0.0004163472
28620893,28620668,0.33424628,0.00084778416,-0.060214948
28641793,28641563,0.45886645,0.041327953,-0.0471817
28662899,28662665,0.5537162,0.055068813,-0.034115646
28680275,28680044,0.61990654,-0.014766545,-0.043915074
28701369,28701140,0.6348979,-0.03167387,-0.061197773
28722471,28722240,0.5785594,-0.039389703,-0.038248055
28743564,28743339,0.4173447,-0.0056075603,-0.02220854
28760954,28760716,0.20292339,-0.009573147,0.024309613
28782045,28781816,0.1619057,-0.0095470715,0.021794455
28803146,28802916,0.023617757,-0.020421496,-0.0068952166
28821766,28821535,-0.025889983,-0.035710536,-0.012148051
28841624,28841394,-0.12652628,0.0223098,0.021046203
28862784,28862553,-0.27672464,-0.02543592,0.03899565
28883976,28883750,-0.31857535,0.002124652,0.037400965
28901218,28900971,-0.4381463,-0.018876804,-0.022218375
28922293,28922068,-0.49006,-0.019826299,0.0030024983
28943394,28943167,-0.52366555,0.039831918,0.013578753
28960804,28960577,-0.56866235,0.0065713925,0.0065477677
28981868,28981644,-0.39873552,0.043861736,-0.022594765
29002967,29002744,-0.26953962,0.034092993,-0.030457752
29024075,29023844,-0.13016124,0.007916022,-0.012801675
29041494,29041268,-0.077811345,-0.007895688,-0.008324673
29062571,29062349,0.0072775595,-0.049665958,-0.022525169
29083653,29083423,0.01744245,-0.035066172,-0.021926248
29101027,29100797,-0.02735614,-0.051160317,0.007987539
29122199,29121965,-0.026620055,-0.01909229,-0.003649736
29143350,29143112,-0.0743389,0.004699391,-0.02923665
29164329,29164098,-0.06524639,0.054152884,-0.046936203
29181700,29181472,-0.09260244,0.09092571,0.015992556
29202814,29202572,-0.06754524,0.08927965,0.019640002
29223910,29223675,-0.050808813,0.06857139,0.008272925
29241277,29241050,-0.02457002,0.0060521686,-0.0045088367
29262395,29262163,-0.0134765385,0.0338851,0.011824388
29282245,29282008,-0.016287655,-0.008529345,0.019156532
29303348,29303111,-0.021124898,0.00018365859,0.02019399
29320708,29320483,-0.00080830033,-0.064398564,-0.008569587
29343066,29342833,0.023389349,-0.038337305,0.01328386
29362920,29362685,0.016375469,0.0030374608,0.008696581
29380304,29380078,0.047039118,0.013793599,-0.01838299
29401456,29401225,0.12246067,0.0015579133,0.0059245396
29422657,29422423,0.28405902,0.017029338,0.02403945
29443584,29443359,0.33707887,0.06663326,0.020875199
29460964,29460735,0.46284917,0.018490437,-0.029154522
29482077,29481837,0.42955354,0.0067930454,-0.032346066
29503163,29502935,0.40797952,-0.07844245,-0.0025743935
29520538,29520311,0.32307562,-0.056846317,0.015224942
29541642,29541412,0.26635197,-0.14014137,0.012213864
29562737,29562511,0.281798,-0.14742662,-0.0007845936
29580165,29579937,0.27138662,-0.04888547,0.002019079
29601219,29600987,0.3083824,-0.026849972,0.007969508
29622318,29622088,0.3300437,-0.036494892,0.0130307395
29643419,29643194,0.2687031,0.005056268,-0.00557547
29660822,29660591,0.27780917,-0.039040543,0.0006929547
29682059,29681830,0.18251629,-0.025459304,-0.010365663
29703002,29702763,0.12801497,0.012299058,-0.0025568195
29724093,29723862,0.07572429,0.018913548,0.01584436
29741469,29741239,-0.012182307,-0.03382706,-0.017109837
29762566,29762340,-0.07985684,0.003703385,-0.012807346
29783668,29783441,-0.20024103,-0.007040148,0.0017834704
29801048,29800816,-0.38625547,0.054738376,0.039762598
29822145,29821916,-0.5710017,0.008965886,0.02229822
29843246,29843015,-0.5828123,0.01114484,0.006821724
29864357,29864115,-0.5506732,0.06624066,-0.027857397
29881719,29881491,-0.48101828,0.118544295,0.0067552202
29902834,29902591,-0.3444638,0.09825154,0.017213788
29922680,29922450,-0.20545383,0.03803284,-0.020459812
29940118,29939892,-0.07967667,-0.0045968937,-0.05933199
29961364,29961136,0.0018002448,-0.030518902,-0.03877158
29982263,29982028,0.0629397,-0.052281857,-0.03526734
30000873,30000643,0.064563006,-0.09267717,-0.06491137
30020731,30020504,-0.016543802,-0.12793241,-0.07265741
30043077,30042844,-0.05145698,-0.19098511,-0.073689155
30062944,30062704,-0.10826438,-0.21934177,-0.063936815
30080301,30080078,-0.16180043,-0.23337236,-0.018322611
30101426,30101197,-0.14888576,-0.22382647,-0.025237449
30122511,30122279,-0.21324722,-0.28324598,-0.04601422
30143645,30143419,-0.09809907,-0.33227187,-0.061510332
30160987,30160754,-0.097504176,-0.33150563,-0.043651115
30182089,30181860,-0.045895703,-0.35450357,-0.03544341
30203261,30203030,0.019934742,-0.29262027,-0.034352038
30221934,30221697,0.024403127,-0.2609044,-0.06753052
30241660,30241431,0.025458368,-0.25208133,-0.07611571
30262755,30262530,0.047795277,-0.2456143,-0.05069428
30281385,30281150,0.04895517,-0.13387491,-0.0812514
30301292,30301066,0.032969166,-0.05636043,-0.0742419
30322346,30322109,-0.014337105,0.008237464,-0.06805907
30343462,30343237,-0.025402037,0.03150359,-0.06484406
30360818,30360583,-0.005394458,0.044644166,-0.072396025
30381911,30381682,0.021555103,0.084852144,-0.07535528
30403016,30402782,0.012770858,0.09173109,-0.07408245
30424119,30423887,-0.003503074,0.054492775,-0.061450638
30441489,30441258,-0.015655972,0.05741713,-0.035435934
30462584,30462358,-0.02524569,0.02366016,-0.04032285
30483783,30483554,-0.02300267,0.0021063571,-0.04239659
30501234,30501007,-0.014584566,-0.024814298,-0.056910936
30522164,30521939,0.0053232587,-0.038907338,-0.05373552
30543273,30543041,0.050500173,-0.0085754525,-0.048344478
30564394,30564162,0.054761764,0.06231227,-0.05339912
30581735,30581510,0.022776216,0.1710131,-0.029153233
30602847,30602610,-0.007383539,0.2773691,-0.020563524
30623949,30623712,-0.06681442,0.37442705,-0.007807799
30641373,30641144,-0.08393972,0.39247847,-0.05837789
30661171,30660945,-0.06781119,0.41507322,-0.05209206
30682269,30682040,-0.06550926,0.37297663,-0.041575603
30703376,30703147,-0.047323767,0.29306966,-0.031537574
30720748,30720523,-0.04415069,0.22879878,0.017655902
30741895,30741665,-0.018014839,0.13566202,0.014184033
30763100,30762866,0.0072586085,0.06448391,0.0069238693
30780332,30780099,0.04670312,0.031937506,-0.00773471
30801430,30801200,0.018765513,0.026920523,-0.002763637
30822532,30822300,-0.04764873,0.03994849,0.0017684347
30843625,30843397,-0.049571596,0.042512517,0.004940844
30861002,30860773,-0.024798559,-0.003833444,0.009408664
30882107,30881877,0.019598775,-0.0066220346,-0.002939481
30903204,30902973,0.026999677,0.020459054,-0.010916333
30920625,30920398,-0.0004550722,0.062390313,0.021780174
30941680,30941452,-0.04242446,0.06283301,0.019208644
30962787,30962551,-0.035054315,0.06905476,0.02482939
30981411,30981169,-0.05311878,0.051945522,0.03426875
31001273,31001038,-0.045669805,0.054704394,0.0031348323
31022512,31022277,0.006792024,0.015555368,0.006282663
31041180,31040938,0.044659447,0.004422264,-0.0032258104
31060839,31060607,0.07750964,0.002696905,0.010682596
31081929,31081702,0.035749707,0.014843372,0.010786737
31103028,31102803,-0.0093413405,-0.010510938,0.02505283
31124133,31123904,-0.03515739,-0.020880189,0.022434385
31141539,31141315,-0.04660835,-0.028207654,0.0069939457
31162600,31162378,-0.03356556,-0.021530239,0.011306622
31183710,31183478,0.016780803,-0.036164887,0.024970505
31201082,31200854,0.100995116,-0.053711995,0.004457396
31222196,31221954,0.08830615,-0.08063372,-0.0041542538
31243278,31243050,0.061239284,-0.12926191,-0.0066395975
31263142,31262912,0.018677518,-0.23969217,-0.03176416
31281812,31281578,0.008640946,-0.35594097,0.036500376
31301752,31301528,-0.019203706,-0.38172248,0.036665104
31322715,31322488,-0.0031576352,-0.41248086,0.038017493
31341341,31341108,0.006420968,-0.40181935,-0.0074420427
31361199,31360966,0.017212845,-0.39161855,-0.025934327
31382295,31382064,0.032691684,-0.32731342,-0.013097914
31403431,31403205,-0.004823388,-0.23853374,-0.0026193655
31420776,31420542,-0.005636696,-0.16652362,-0.009238432
31441871,31441641,-0.024870012,-0.11618864,-0.019394089
31462973,31462744,-0.028409677,-0.07486239,-0.018408086
31480342,31480117,-0.049769584,-0.06855669,-0.010739405
31501446,31501218,-0.053919658,-0.028427467,-0.014204519
31522544,31522317,-0.03822692,-0.00021703205,-0.019904617
31543659,31543435,-0.03384447,-0.0018748945,-0.019425455
31561177,31560948,-0.058813136,0.0046996414,-0.006287556
31582131,31581896,-0.059030853,-0.016434878,-0.0060028676
31603237,31603006,-0.06873703,-0.058631558,0.0010702464
31621894,31621663,-0.042226262,-0.08714625,-0.022363845
31641734,31641507,-0.03131929,-0.10006446,-0.033186443
31662803,31662570,0.008640949,-0.06235076,-0.02604201
31683895,31683669,0.036878657,-0.029107837,-0.027866576
31701286,31701049,0.038204607,-0.012068514,-0.008340695
31722369,31722145,0.04716003,0.034811303,-0.009837274
31743470,31743246,0.020103425,0.061758034,-0.008966111
31760869,31760630,-0.022887152,0.05610237,-0.023634173
31781955,31781731,-0.02940342,0.03590744,-0.01710937
31803050,31802822,-0.03595819,0.027078198,-0.002754014
31824278,31824048,-0.035461336,0.030231966,0.007373083
31841672,31841444,0.014634563,0.024290437,-0.0016521662
31862626,31862401,0.013562119,0.08195368,-0.005556289
31883729,31883497,0.011696148,0.17167674,-0.00604045
31901095,31900873,0.019545695,0.215357,-0.014952743
31922204,31921973,-0.0039811786,0.31411126,-0.012995768
31943319,31943074,-0.012805361,0.39570025,-0.013114708
31964404,31964173,-0.049823172,0.44178438,-0.015984971
31981842,31981606,-0.06947609,0.43697855,0.0185341
32002903,32002670,-0.08597995,0.385434,0.03199288
32022735,32022508,-0.075576894,0.29262966,0.01595548
32041362,32041126,0.0044460003,0.2231447,-0.0102446
32061213,32060984,0.013757227,0.15632014,0.008979282
32082338,32082109,0.012734505,0.09539533,0.013519935
32103528,32103302,0.007980677,0.07757086,0.018755792
32120790,32120563,-0.0072174217,0.0278222,0.0010417384
32141892,32141661,-0.016458625,0.030712888,-0.005388981
32162999,32162760,-0.011646181,0.015126039,0.0006983397
32180364,32180136,-0.05090772,0.11844005,0.044664893
32201468,32201238,-0.015247976,0.1276934,0.06273523
32222570,32222338,0.01996304,0.1062677,0.069614135
32243665,32243436,0.042276118,0.080942735,0.066840775
32261092,32260862,0.06475284,0.013847772,-0.005177024
32282146,32281916,0.079837635,-0.061987255,0.0071933363
32303240,32303012,0.060948554,-0.04673216,0.015906848
32321870,32321633,0.06047759,-0.04393342,0.026383558
32341757,32341525,0.06410334,0.013243809,0.04493753
32362939,32362710,-0.0014261053,0.03665001,0.03322246
32380344,32380115,-0.023117833,0.022353593,0.025663191
32401295,32401065,-0.036184087,0.035832405,0.030533945
32422393,32422165,-0.015758531,0.03705995,0.04525859
32443492,32443266,-0.03476768,0.034797087,0.045875497
32460868,32460641,-0.04101414,0.008524921,0.0118734175
32481964,32481740,-0.054838225,-0.0070793517,0.006429596
32503066,32502841,-0.031284552,-0.028699815,0.0021430363
32525420,32525184,-0.034777652,-0.034900375,0.0018003375
32541540,32541317,-0.03179364,-0.024544816,0.04620778
32562641,32562418,-0.00031359485,-0.058117278,0.040978067
32583746,32583516,0.026519658,-0.06324471,0.023791624
32601130,32600895,0.058294903,-0.04130591,0.027143417
32622315,32622079,0.13606979,-0.01762953,0.035484202
32642254,32642029,0.22947043,0.0011318092,0.045893054
32663180,32662951,0.33446965,0.019514807,0.050441112
32681794,32681569,0.35299262,0.023749335,0.0154470485
32702905,32702669,0.3934248,0.010188829,0.030019827
32724004,32723771,0.37935078,0.009039699,0.038377058
32741372,32741145,0.26432666,0.008991465,0.076682575
32761241,32761004,0.18822715,-0.025650673,0.06965202
32782334,32782103,0.18418697,-0.022657618,0.05463776
32803441,32803207,0.13973139,-0.0025826213,0.054819733
32820805,32820581,0.115472354,-0.012190046,0.07728997
32841912,32841680,0.099141814,0.005773917,0.08863489
32863013,32862783,-0.012050076,0.034051243,0.085930094
32880418,32880193,-0.07197967,-0.031490203,0.06266601
32901597,32901364,-0.1530271,0.0038812447,0.07002428
32922759,32922531,-0.3518706,0.013722385,0.056571156
32943682,32943456,-0.44761992,0.028740931,0.07047825
32961062,32960832,-0.481393,0.034485012,0.08546779
32982176,32981937,-0.37709016,0.06981125,0.042764902
33003265,33003034,-0.25031236,0.04966032,0.046396114
33021884,33021650,-0.18366827,0.15377104,0.0477778
33041740,33041509,-0.09486589,0.10368974,0.06174932
33062836,33062609,-0.03585908,0.16233508,0.030093256
33080232,33079994,-0.039954457,0.029441932,0.05158502
33101316,33101086,0.020775406,-0.01108971,0.054646123
33122413,33122184,0.024046771,-0.060766473,0.040442202
33143508,33143279,0.028836058,-0.08725892,0.033100415
33160932,33160702,0.050506044,-0.099371426,0.053859793
33182117,33181891,0.03572653,-0.11482424,0.044396933
33203093,33202861,0.04876187,-0.084938735,0.03301908
33224197,33223961,-0.017392376,-0.038527574,0.021206146
33241562,33241336,0.0074430127,-0.032928113,0.02792657
33262672,33262436,-0.04021459,0.05805002,0.0057925303
33283772,33283537,-0.019771498,0.007174563,-0.0007942923
33301144,33300913,-0.099105574,0.013214826,0.017994795
33322295,33322068,-0.06692264,-0.031401277,-0.018630931
33343349,33343113,0.010138723,-0.0037899157,-0.0022355444
33363202,33362968,0.030816155,0.023249967,-0.018074343
33381830,33381588,0.052517228,0.0005290369,0.0098117255
33401725,33401495,0.0067203064,0.03087324,-0.02880845
33422791,33422552,0.04753525,-0.025739647,-0.01724049
33440228,33439995,0.026715795,0.04158012,-0.015779998
33461433,33461208,0.068825826,0.026569627,-0.0031125832
33482354,33482126,0.06839655,0.024477158,-0.015291834
33503450,33503224,0.09568063,-0.0026450267,-0.042879518
33520824,33520601,0.11880048,-0.02756823,-0.0388993
33541932,33541699,0.10306461,-0.004919466,-0.031447116
33563030,33562800,0.084777,0.05945201,-0.025783677
33580443,33580211,0.07467821,-0.025427498,-0.061457794
33601551,33601323,0.079462945,0.007709964,-0.068010926
33622604,33622375,-0.01661047,0.017657377,-0.058288492
33643704,33643475,-0.003003362,0.008120626,-0.05840936
33661080,33660852,-0.06048262,0.03696408,-0.049416974
33682179,33681954,-0.105764374,0.04329719,-0.06729568
33703370,33703144,-0.059719197,0.031236982,-0.10054036
33720783,33720554,-0.03828095,0.02777043,-0.068940096
33741757,33741528,-0.028390866,0.038747795,-0.08195471
33762859,33762629,-0.035249177,0.01969456,-0.0801578
33783958,33783728,-0.029031243,-0.017515175,-0.07163398
33801336,33801110,-0.059087582,-0.050693724,-0.10802943
33822429,33822204,-0.036915675,-0.066983946,-0.11586583
33843532,33843305,-0.030666435,-0.061448257,-0.119742304
33860909,33860680,-0.051666204,0.006665084,-0.09635025
33882005,33881780,-0.070901185,0.024802415,-0.08792748
33903108,33902880,-0.08448141,0.036597602,-0.08155719
33924215,33923981,-0.055814065,0.026376326,-0.06865172
33941585,33941356,-0.044708297,-0.019578295,-0.12581113
33962739,33962516,-0.019275008,-0.052016854,-0.11899625
33983891,33983658,0.031390443,-0.045796566,-0.11481656
34001352,34001116,0.022947386,-0.003536725,-0.09352882
34022260,34022032,0.034572598,-0.002075832,-0.08392687
34043402,34043159,0.026164493,0.008808778,-0.08104537
34063224,34062991,-0.0038868259,-0.014475666,-0.06694504
34081840,34081608,-0.044907037,-0.0562554,-0.09278902
34101693,34101467,-0.05196859,-0.07688946,-0.106418155
34122803,34122567,-0.043094024,-0.08324568,-0.09913374
34140169,34139943,-0.019529063,-0.0006369573,-0.09302599
34161309,34161083,-0.02910703,0.01818439,-0.09052877
34182370,34182143,-0.013216676,0.03566463,-0.0761832
34203473,34203246,-0.010343552,0.051283225,-0.067619026
34220850,34220619,-0.019764751,0.09067753,-0.052903093
34242088,34241859,-0.030237596,0.06667143,-0.051960655
34263219,34262987,-0.03896594,0.03403576,-0.04040875
34280429,34280198,0.029287266,-0.029768655,-0.073981114
34301528,34301296,0.027053969,-0.06452902,-0.06120227
34322644,34322416,0.048482813,-0.072924264,-0.056181036
34343724,34343495,0.054828636,-0.10583611,-0.05178558
34361099,34360871,0.02712163,-0.050904915,0.017184518
34382219,34381976,0.04105291,-0.051296752,0.011037217
34403300,34403071,0.006685876,-0.025155712,0.008204993
34421925,34421690,0.030885955,-0.05070689,-0.03133631
34441778,34441548,0.012018898,-0.054834526,-0.06028686
34462877,34462648,-0.012526675,-0.02480895,-0.059094395
34480258,34480027,-0.06734713,0.04813871,-0.00015732048
34501371,34501143,-0.08662454,0.10419664,0.0033743144
34522552,34522327,-0.06651812,0.09910278,0.004351368
34543550,34543327,-0.02552895,0.081498265,-0.0017802975
34560933,34560700,0.01402027,0.040326115,-0.034187686
34582025,34581800,0.0039603263,0.046375684,-0.0458135
34603126,34602901,-0.011368998,0.040195942,-0.03709685
34624240,34624002,-0.017789349,0.027130965,-0.019951766
34641609,34641377,-0.05291315,0.020114303,0.010943352
34662713,34662481,-0.067345396,0.016799869,0.001095392
34683812,34683575,-0.07315418,0.019906186,-0.017739799
34701189,34700954,-0.042294286,0.030918099,-0.008229122
34722281,34722052,-0.05754383,0.024804182,0.018004293
34743383,34743152,-0.065019466,0.021758024,0.039571386
34763244,34763010,-0.013063751,0.009369789,0.023864958
34781922,34781688,0.036136772,-0.016450498,-0.034902025
34801866,34801636,0.062143162,-0.008608381,-0.012972135
34822823,34822586,0.04406268,0.0344138,0.005018093
34840198,34839965,0.050168842,0.034817014,0.025486296
34861296,34861063,0.0959837,0.0453013,0.008244082
34882401,34882163,0.2074203,0.033599045,-0.011560095
34903494,34903263,0.31825396,0.051588006,-0.028136961
34920864,34920639,0.38531795,0.05159124,0.011446171
34941995,34941763,0.43238655,0.038888674,0.019912202
34963066,34962839,0.41915768,0.0137304915,0.024642058
34980438,34980215,0.4143464,-0.028985081,-0.014024013
35001546,35001315,0.35072404,-0.04305751,-0.005312375
35022641,35022415,0.2899205,-0.0276387,0.013914208
35043839,35043602,0.2776807,-0.02555151,0.025557127
35061240,35061006,0.30518773,-0.025129855,0.052865565
35082226,35081991,0.3327433,-0.020321386,0.05562292
35103321,35103091,0.36996728,0.008108728,0.053208735
35120698,35120468,0.40090567,-0.009145548,0.021046782
35141807,35141571,0.40190583,0.019746216,0.031286053
35162915,35162687,0.34597924,0.018159067,0.033928633
35180273,35180043,0.27318522,0.0387189,0.0733819
35201382,35201154,0.20610301,0.05924577,0.07035268
35222468,35222243,0.15548697,0.022556312,0.07270047
35243570,35243343,0.11846335,0.009347575,0.07270744
35260953,35260720,0.063918896,0.0015608922,0.05972697
35282047,35281819,0.008171897,-0.0120773185,0.060354736
35303187,35302957,-0.046780217,0.0048851008,0.0651883
35324334,35324098,-0.10974883,0.00989251,0.07376093
35341829,35341593,-0.12715681,0.0028435357,0.086868726
35362721,35362495,-0.18644981,0.004555146,0.08440718
35383907,35383672,-0.201328,-0.019156622,0.09221193
35401200,35400972,-0.1617767,-0.021251626,0.059046324
35422296,35422072,-0.09561671,-0.033741955,0.044638406
35442170,35441930,-0.025314448,-0.037042607,0.060121108
35463265,35463031,0.0048578186,-0.050038226,0.06633073
35481874,35481648,-0.02965553,-0.013870952,0.09565282
35501731,35501506,-0.06460565,-0.03160338,0.09435567
35522836,35522606,-0.10624527,-0.0358247,0.09028331
35540227,35539989,-0.111881405,-0.038261823,0.05437173
35561316,35561083,-0.13813445,-0.021069368,0.0684765
35583692,35583460,-0.123860344,-0.0030454292,0.08201308
35603648,35603411,-0.10989599,0.01688857,0.08489538
35620887,35620659,-0.07115045,0.0063022096,0.053432945
35641991,35641759,-0.028274752,0.004113121,0.0387553
35663107,35662879,0.00957542,0.0012991179,0.027969465
35680459,35680235,0.026245596,-0.009874314,0.07552607
35701565,35701335,-0.012532518,-0.033794556,0.0796166
35722671,35722436,-0.09015765,-0.053784464,0.077253945
35743761,35743534,-0.1879763,-0.022348922,0.07107772
35761146,35760913,-0.33013034,0.0002760753,0.054722775
35782255,35782021,-0.5181209,-0.00356038,0.051901188
35803337,35803111,-0.5617611,-0.0037845548,0.047093067
35821958,35821727,-0.56368846,0.068370625,0.05520939
35841841,35841612,-0.50278014,0.07773162,0.06861578
35862995,35862763,-0.37597153,0.047545776,0.066394
35880452,35880221,-0.2301112,0.04221031,0.016986648
35901399,35901165,-0.10458542,0.012984743,0.012314033
35922495,35922270,-0.03756671,-0.018024433,0.02586364
35943589,35943363,-0.0060471403,-0.023633122,0.03767385
35960978,35960742,-0.019702097,-0.055542488,-0.0043440857
35982068,35981839,-0.044696808,-0.052365735,0.020841714
36003235,36003002,-0.10163635,-0.028094321,0.03691427
36024276,36024039,-0.12725712,-0.011430672,0.03204735
36041643,36041416,-0.12979436,0.011198287,-0.019408615
36062741,36062515,-0.09696914,0.05693616,0.0011206121
36083852,36083615,-0.04899692,0.06176665,0.014963586
36101223,36100991,-0.012952592,0.04128515,-0.021899939
36122355,36122121,-0.045220565,0.031264305,-0.059235197
36142296,36142072,-0.06897163,0.029661989,-0.0047576707
36163279,36163050,-0.07539435,0.016410748,0.016986784
36181896,36181667,-0.07353359,-1.7084545e-05,-0.029212616
