timestamp,timestamp_sample,accel_device_id,gyro_device_id,delta_angle[0],delta_angle[1],delta_angle[2],delta_velocity[0],delta_velocity[1],delta_velocity[2],delta_angle_dt,delta_velocity_dt,delta_velocity_clipping
14579606,14579494,4259850,4325386,-0.00020820925,-8.313164e-05,0.0002257672,0.0006994571,-9.883726e-05,-0.04742507,4988,4911,0
14584591,14584479,4259850,4325386,0.00038957543,-0.00022424891,5.046998e-05,-0.0025563857,-0.00015882144,-0.04693391,4985,4909,0
15082803,15082662,4259850,4325386,-0.00022023308,-0.00016445933,-0.00023957776,-0.0007485165,-0.0041980403,-0.04815057,4987,4910,0
15581489,15581345,4259850,4325386,0.00028236245,0.00021707834,9.2256996e-05,-0.002156303,0.0012614588,-0.048464883,4980,4956,0
16080146,16080035,4259850,4325386,-0.0002105623,9.659167e-05,0.00033505776,-0.0014173905,-0.004104314,-0.045237064,4958,4675,0
16577321,16577215,4259850,4325386,-0.0001779816,-0.00017401994,-0.00022705138,0.0018274286,-0.001305998,-0.04786391,4969,4909,0
17081020,17080910,4259850,4325386,0.00029340188,0.00024548307,-0.0005407289,-0.0050213207,-0.004534251,-0.047825396,5011,4903,0
17579679,17579568,4259850,4325386,2.7807697e-05,-0.00023258416,-0.00071688567,-0.001696057,-0.0028961345,-0.04683494,4987,5004,0
18083421,18083310,4259850,4325386,-0.0024793213,0.00034715832,0.0001623156,0.008542976,-0.000660537,-0.04778689,4982,4975,0
18582301,18582184,4259850,4325386,-0.0013859475,0.00060009235,5.548846e-05,0.012610519,0.004665239,-0.04202134,5248,4911,0
19081342,19081152,4259850,4325386,-0.0009657687,-0.0001937218,-3.133239e-05,0.0046083904,-0.00017074529,-0.048580226,4976,5740,0
19579437,19579299,4259850,4325386,-0.000832613,0.000246035,0.00017006828,0.00043412123,0.015378931,-0.050391283,4978,4985,0
20078286,20078022,4259850,4325386,0.00022709454,-0.00016603514,0.0006267798,0.000635013,0.0117407665,-0.038075294,4990,3923,0
20582036,20581888,4259850,4325386,-0.00020474594,-0.0007894307,0.00069030374,0.0069920137,-0.0028311273,-0.040486146,4958,4909,0
21080460,21080322,4259850,4325386,-0.000818023,-0.00053125905,-0.000201688,0.0016636957,0.0076176687,-0.045486882,4984,4910,0
21579152,21579005,4259850,4325386,0.0005940425,0.00018790155,-0.0006349734,0.0012757872,0.010296614,-0.04590592,4985,4910,0
22082827,22082681,4259850,4325386,0.0005680378,0.0006113527,-0.00044783033,-0.0032771803,0.016732348,-0.05059493,4992,4655,0
22581478,22581359,4259850,4325386,-0.0015617161,0.0012023061,-0.00054060586,-0.004945467,-0.0047077467,-0.051117964,4982,4908,0
23080273,23080159,4259850,4325386,0.0009936859,-0.00024305974,-0.00030057784,-0.0049015903,-0.00936654,-0.052439325,4959,4909,0
23578930,23578726,4259850,4325386,-0.00084157416,0.000100824065,0.001502454,-0.009726915,0.012103328,-0.061647624,4987,5688,0
24082159,24081982,4259850,4325386,0.00094350625,0.00057800865,0.0010459208,-0.0073646717,0.019955939,-0.05059941,4964,4913,0
24581055,24580907,4259850,4325386,0.00025750717,0.00029751906,-0.0002575003,0.009165889,-0.00027556324,-0.04658425,4986,4913,0
25079527,25079408,4259850,4325386,0.00041166952,-0.00021458293,-0.00039685276,0.008820583,-0.00094596605,-0.041554023,4968,4907,0
25582548,25582437,4259850,4325386,-0.00069217157,0.00084533857,0.0009224623,-0.0050246883,0.013431637,-0.05350179,4973,4948,0
26081430,26081316,4259850,4325386,-0.00023486813,-0.0005300214,-0.00012311457,-0.009632197,-0.015007188,-0.04628564,4969,4990,0
26579923,26579803,4259850,4325386,0.0005419822,-0.00097551325,-0.0011637677,-0.0069201114,-0.02547655,-0.046006072,4987,4967,0
27078995,27078490,4259850,4325386,-0.0041538,0.0022057649,0.00077271345,-0.0050477902,0.0064441445,-0.052405734,4990,4979,0
27582310,27582162,4259850,4325386,-0.000614759,0.000447625,0.0009446179,-0.0048392285,0.007904559,-0.052204944,4988,4969,0
28081202,28081007,4259850,4325386,-0.0005483429,0.001661779,-0.00021944853,0.0011224584,-0.0054863025,-0.03959143,4987,4927,0
28579963,28579818,4259850,4325386,0.00090797327,0.0007144241,0.00017281201,0.0023375174,0.0071080658,-0.048913974,5247,4779,0
29083374,29083263,4259850,4325386,0.00013726698,-0.0004054482,-0.00048788622,0.000458937,-0.0035780324,-0.046518333,4991,4960,0
29577159,29577040,4259850,4325386,0.0015878872,0.00036776005,0.00079647044,-0.00338479,0.025655014,-0.053837247,4986,4949,0
30080707,30080575,4259850,4325386,-7.4582575e-05,-0.0009928549,0.00021482374,0.0031203555,0.021272194,-0.045993555,5000,4893,0
30579446,30579309,4259850,4325386,-0.00035598504,0.0012973618,0.0003465898,-0.0077253543,0.010632748,-0.052488014,4967,4913,0
31078573,31078444,4259850,4325386,-0.00032066138,0.00014293514,0.00026714627,-0.004856014,0.0074579967,-0.051331107,4967,4910,0
31577728,31577611,4259850,4325386,-0.00034043414,-0.00013074439,-0.0004565002,-0.005024156,-0.013782244,-0.051874407,4987,4996,0
32081397,32081283,4259850,4325386,0.00026382366,0.00078184257,-0.00011157743,0.006079989,0.0048903604,-0.04772001,4943,4904,0
32585210,32585049,4259850,4325386,-0.00058797275,0.00043491382,0.0013281585,-0.00072319235,0.002535581,-0.051991086,4974,4974,0
33078788,33078649,4259850,4325386,0.00016035263,2.5826046e-05,1.4799924e-05,0.0043372214,-0.00058005896,-0.044743426,4987,4918,0
33577529,33577336,4259850,4325386,0.0012689899,-0.00071463105,-0.00091881544,0.00012924844,-0.0144834975,-0.045294575,4987,4911,0
34081112,34081003,4259850,4325386,-0.00080733746,-0.00044850016,-0.00017759619,-0.011687443,0.001722633,-0.05121823,4987,4961,0
34580531,34579781,4259850,4325386,0.00026200045,-1.6000415e-05,-0.0005691143,0.00011303209,-0.004315742,-0.041635413,4962,4910,0
35078859,35078725,4259850,4325386,0.0015921218,-0.00015929826,3.6052922e-06,-0.0029255892,-0.00078994816,-0.051765535,4922,4719,0
35582328,35582209,4259850,4325386,-0.00069825246,0.000103969964,0.00042540437,0.0007481446,-0.00081726024,-0.04416525,4947,4908,0
36080863,36080726,4259850,4325386,-0.00063904864,0.000617512,0.00057860743,-0.0021836502,-0.0062929303,-0.044593573,4987,4913,0
36584583,36584398,4259850,4325386,0.0005057616,0.00016266048,-0.000109826105,0.0010160326,0.008181069,-0.048257872,4988,4966,0
37078258,37078141,4259850,4325386,-0.00036187714,0.00018942506,0.0006314162,-0.006591332,-0.0006550904,-0.05270673,4982,4980,0
37582130,37581985,4259850,4325386,0.00032395255,-0.0004406381,0.0005954615,-0.00429395,0.0008283194,-0.050356098,4970,4910,0
38080571,38080451,4259850,4325386,0.0009295683,0.00014541217,-0.0006508535,-0.00119855,-0.013981773,-0.04606716,4990,4912,0
38579246,38579132,4259850,4325386,-0.00037817904,0.00057709165,0.00081723015,-0.0015488177,0.00023318107,-0.049303267,4986,5016,0
39082792,39082639,4259850,4325386,-6.694986e-05,-0.00045913208,0.0011638358,-0.0016535575,0.009671776,-0.045519754,5021,4631,0
39581210,39581091,4259850,4325386,-0.00054031727,0.00031152432,0.00022700438,-0.002452436,0.0062526953,-0.045578483,4995,4910,0
40079966,40079854,4259850,4325386,-0.0006505987,0.00092796853,0.00066741626,-0.0052379593,0.009563956,-0.054217584,4989,4912,0
40578543,40578368,4259850,4325386,-0.0005692024,0.00039754936,0.00032684178,-0.0064747627,0.015893051,-0.061251696,4997,5932,0
41077275,41077121,4259850,4325386,0.00049953454,-0.00029096229,-0.0005233871,0.0069072666,0.012766776,-0.04069732,4966,4912,0
41581353,41581233,4259850,4325386,-8.672084e-05,8.086296e-05,0.0010264267,-0.0016389306,0.009961129,-0.04728758,4954,4907,0
42080357,42080183,4259850,4325386,-0.00031102798,-0.00019910825,-0.00041451704,-0.0060047614,-0.0070071947,-0.048099246,4961,4964,0
42578841,42578693,4259850,4325386,0.00022394214,-0.0006181562,-0.0005956249,-0.0027212712,-0.010094454,-0.04430311,4996,4910,0
43082556,43082442,4259850,4325386,-0.00074421,-0.00010159087,0.00050202705,-0.0054081557,0.0076670833,-0.050386727,4978,4912,0
43581089,43580935,4259850,4325386,0.0006130893,-0.0005963888,-0.0007069594,0.002444509,-0.02182877,-0.03691302,4986,3853,0
44079730,44079621,4259850,4325386,-0.00056883885,0.00094399793,0.0006867796,0.00014839093,0.011027604,-0.04836462,4972,4920,0
44581971,44581793,4259850,4325386,-0.0009247987,0.0008916594,-1.474828e-05,-0.0042717517,0.0025346645,-0.047367502,4987,4909,0
45080661,45080479,4259850,4325386,5.676146e-06,-0.0013304024,-0.0008303595,0.0026446923,-0.016451193,-0.0407771,4986,4912,0
45579271,45579160,4259850,4325386,0.00013263724,0.00033313636,-0.00037399167,0.0062801386,0.0082396865,-0.0417471,4986,4976,0
46083024,46082883,4259850,4325386,0.00031849096,0.00037887195,-4.6718313e-05,-0.0055480916,0.012035553,-0.05316358,5018,5010,0
46580642,46580520,4259850,4325386,0.0005475037,-9.011774e-05,-0.000466133,0.008760472,0.00565819,-0.039579812,4988,4954,0
47079530,47079417,4259850,4325386,0.0007130836,-0.0006141094,-0.00063986523,-0.0042641237,-0.010578093,-0.042618193,4958,4912,0
47577528,47577393,4259850,4325386,-0.00086571055,0.0006703351,0.000517501,-0.0016152617,-0.0033156842,-0.037507236,4990,3924,0
48081264,48081066,4259850,4325386,0.0014569745,-0.0024742899,-0.00029384778,-0.003231882,-0.012071296,-0.053781852,4972,4959,0
48580226,48580001,4259850,4325386,8.537343e-05,-0.00034030387,-0.0011795827,-0.00066252676,-0.0136767365,-0.055437315,4956,6019,0
49078557,49078428,4259850,4325386,-0.00016868315,-7.3269526e-05,0.0005830558,0.004292181,0.0024127313,-0.04226955,4985,4913,0
49582268,49582098,4259850,4325386,0.00024707272,-0.00030578065,-0.001070934,-0.002771474,-0.012256372,-0.04466333,4986,4955,0
50080902,50080783,4259850,4325386,-0.0005463888,-0.0006654825,0.0003378108,-0.004265507,-0.0012538286,-0.045619696,4987,5000,0
50579638,50579525,4259850,4325386,-0.0010695643,-7.125259e-05,0.0003925657,-0.0053525087,-0.015687687,-0.04893771,4962,4949,0
51078294,51078151,4259850,4325386,-0.001322136,0.0014794017,-0.00017338949,-0.006145544,-0.018105356,-0.043269563,4987,4907,0
51581949,51581827,4259850,4325386,-0.00023424395,-0.0002226546,-3.9794322e-05,-0.0020813376,-0.024880724,-0.04525478,4992,4960,0
52080320,52080155,4259850,4325386,0.002586271,-0.0008429235,-0.000889647,-0.0009901285,-0.018747665,-0.053461842,5013,5956,0
52578832,52578692,4259850,4325386,0.0005016111,-0.0012004279,-0.0004993186,-0.0023516072,-0.006410468,-0.042329784,4987,4938,0
53082477,53082363,4259850,4325386,0.0018646377,0.0005440449,0.000489394,-0.008495759,0.0033181054,-0.05429785,4986,4976,0
53580795,53580683,4259850,4325386,-0.00014787182,0.00012632365,-0.0002561354,-0.0002672192,-0.0012211734,-0.045429286,4969,4995,0
54079379,54079233,4259850,4325386,-0.0001757726,-9.823535e-05,-0.000116070434,-0.009323698,-0.0051337364,-0.047785517,4987,4924,0
54578393,54577918,4259850,4325386,0.0008040753,-0.000507463,-0.000401568,-0.005049956,-0.016843215,-0.051517032,4987,5890,0
55081737,55081591,4259850,4325386,0.0013013635,-0.00020024546,0.00030352623,-0.007823979,0.011372911,-0.05041682,4953,4908,0
55581250,55580468,4259850,4325386,-0.0030365894,0.001373294,-8.9251094e-05,0.0026887788,-0.002712665,-0.049298514,5026,4925,0
56079571,56079459,4259850,4325386,-0.000580367,0.00013116696,-0.00053870224,0.0022849222,-0.0034974013,-0.040918447,5056,4910,0
56583312,56583149,4259850,4325386,-0.0003407372,0.00023237935,0.0007223068,-0.013975618,0.007364827,-0.053549666,4981,4908,0
57082221,57082083,4259850,4325386,0.00042320904,-0.00095551356,0.00020209099,0.0053069172,-0.00056490145,-0.047714747,5005,4893,0
57580659,57580501,4259850,4325386,0.00069025916,0.00033864676,0.00010410044,0.0027729066,-0.0077364086,-0.053123757,4991,4995,0
58079379,58079242,4259850,4325386,0.0005582797,-0.00024163336,-0.0013600909,-0.0008822685,-0.016228843,-0.048909735,5038,4932,0
58578161,58577951,4259850,4325386,-0.003346629,0.00037935184,0.0008651501,-0.0032190334,0.0059837545,-0.055484783,4978,5891,0
59081913,59081761,4259850,4325386,-0.001451556,-0.00015484277,-0.00016523353,-0.0065507093,-0.0014098798,-0.042809308,4967,4915,0
59580345,59580221,4259850,4325386,0.00012301843,-1.7638296e-05,-0.0005398069,0.004179537,-0.0020765776,-0.04241873,4987,4993,0
60079121,60078911,4259850,4325386,-0.0012996972,0.0006415726,-0.00045799415,0.0025170697,0.003330418,-0.041247014,4991,4906,0
60582748,60582577,4259850,4325386,0.0015646021,-0.00066453597,-0.00062211533,0.0028220497,-0.010946145,-0.047552418,4987,5832,0
61081926,61081779,4259850,4325386,-0.006262927,0.0012220076,0.00035920608,-0.010655477,-0.013720705,-0.048673544,4984,4940,0
61580732,61580545,4259850,4325386,-0.00019766066,-0.00032572311,0.00031311103,-0.01359236,-0.006086702,-0.054520965,4986,4985,0
62079860,62079318,4259850,4325386,-3.2472257e-05,0.00050538447,-0.00016061455,-0.006002538,0.015036654,-0.056122676,4988,4923,0
62578090,62577941,4259850,4325386,-0.0034667344,0.0005319415,-0.00024104735,0.006277998,-0.005812342,-0.046515685,4960,4911,0
63081629,63081485,4259850,4325386,0.00069064146,-0.0006321461,0.00063306966,0.0014610752,-0.0073130582,-0.05009768,4987,4982,0
63580287,63580170,4259850,4325386,-0.0007885015,0.00021851153,-0.0009488792,0.002000473,-0.010975283,-0.044203255,4987,4989,0
64084000,64083888,4259850,4325386,-4.1275198e-05,-0.0008872641,0.00025078095,-0.012064418,0.0075863115,-0.051711082,5034,4907,0
64582639,64582526,4259850,4325386,0.0012674814,0.00051448046,-0.0003459617,0.0075967708,-0.0052013374,-0.046617012,4986,4983,0
65081505,65081390,4259850,4325386,0.0003913191,-0.00055006286,-0.0010104772,0.0033789799,-0.0022817727,-0.043916855,4968,4951,0
65580104,65579901,4259850,4325386,-0.00041144254,-0.0005554408,0.00022127245,-0.011824701,0.00085870223,-0.059760936,4988,5787,0
66078687,66078579,4259850,4325386,-0.00036085735,-0.0008352675,-0.00025608347,-0.001269678,-0.010714551,-0.043117728,4987,4910,0
66582481,66582254,4259850,4325386,-0.00013271031,-0.0006259491,-0.00016301624,-0.010145776,-0.003648987,-0.047303043,4984,4965,0
67081129,67080994,4259850,4325386,0.0001126924,-1.334076e-05,-0.0004425295,0.0028346821,-0.02775802,-0.03561136,4975,4910,0
67580070,67579874,4259850,4325386,0.0030513622,-0.0012103448,-0.0007747715,-0.002733993,-0.021216547,-0.04978923,4966,4962,0
68083402,68083291,4259850,4325386,-0.00025752696,0.0004201751,0.0010857603,-0.0026988834,0.0068208496,-0.05311789,4987,4951,0
68577196,68577078,4259850,4325386,0.0016885661,-0.00012014901,-0.00041728068,0.006152587,-0.0107973805,-0.04536163,5035,4934,0
69080946,69080791,4259850,4325386,-0.0020683552,0.0017920644,0.00087707053,0.00027858882,0.007068211,-0.05245065,4988,4989,0
69579545,69579415,4259850,4325386,-0.000118209224,0.00023706931,0.00054869,0.0003194576,0.019919433,-0.056271017,4943,4911,0
70078161,70078031,4259850,4325386,0.00025130357,-0.0009147406,-0.00039503266,-0.0056485645,-0.011674041,-0.045629073,4988,4910,0
70581810,70581701,4259850,4325386,0.00021994117,0.00060523424,-9.765102e-05,-0.0008101099,-0.012169239,-0.041194182,4986,4902,0
71080967,71080389,4259850,4325386,9.212651e-05,0.0004844435,0.0013186986,-0.00010987006,0.011737606,-0.05060131,4988,4908,0
71584167,71584058,4259850,4325386,-0.0006400377,-0.0004379157,-0.00053276727,-0.0026564987,-0.015747614,-0.043142457,4986,4967,0
72078036,72077886,4259850,4325386,-0.00018786664,-0.00023295802,-0.0009013471,-0.010067672,-0.01599836,-0.0472199,4965,4910,0
72581574,72581427,4259850,4325386,-0.00030560594,0.00041911425,-0.00043667972,-0.0017557966,-0.009356884,-0.041761376,4987,4951,0
73080252,73080111,4259850,4325386,-0.000621256,0.00046952016,0.00079405797,-0.012804619,-0.0047283373,-0.053345885,4986,4909,0
73578925,73578812,4259850,4325386,0.00037090413,-0.000117638294,0.00022393162,-0.004318677,-0.0070793508,-0.046279255,4997,4891,0
74082629,74082514,4259850,4325386,4.7156987e-05,-0.0005267775,0.00013260025,0.0014716891,0.004903808,-0.048746683,4971,4781,0
74581449,74581335,4259850,4325386,-0.0004403825,0.00012509938,-9.599285e-05,0.0083157765,-0.014294685,-0.040197082,4969,4996,0
75079950,75079837,4259850,4325386,0.0009640916,0.0015746028,-0.00081342924,-0.00033066235,0.008141787,-0.045976974,4987,4915,0
75579357,75579243,4259850,4325386,5.231431e-05,0.0010694686,-0.00012070767,0.0030961167,-0.008810464,-0.045389753,4969,4916,0
76077821,76077704,4259850,4325386,-0.00066355855,-0.00022015361,-0.00015350392,-0.010855305,0.006946959,-0.05736194,4985,4965,0
76581512,76581377,4259850,4325386,-0.00037992475,0.00037995056,-0.00028456657,-0.0034500686,-0.007447119,-0.05193319,4984,4910,0
77080165,77080057,4259850,4325386,-0.00018436795,-3.4505127e-05,-0.0009618445,0.0023662797,-0.010741071,-0.041000076,4944,4946,0
77579039,77578847,4259850,4325386,-0.00016960419,-0.00040411475,-0.0028240997,-0.003083475,0.0030671603,-0.044757456,4981,4919,0
78082822,78082682,4259850,4325386,-0.0010937571,-0.00040059324,-0.0012458314,-0.003536133,-0.006223431,-0.04894705,5251,4985,0
78581330,78581123,4259850,4325386,0.00070823985,-2.243226e-05,-0.0034730053,-0.012036572,-0.02000247,-0.051783368,4997,4971,0
79080002,79079884,4259850,4325386,0.00014876,0.00012481524,0.00037941211,0.0020577493,-0.0014509142,-0.051393323,4980,4912,0
79578783,79578653,4259850,4325386,-0.0005839859,2.5390578e-05,0.00035478175,-0.0098667415,-0.005920879,-0.04562675,4990,4914,0
80082373,80082232,4259850,4325386,0.0003831238,-0.00082195725,-0.0006407864,0.0067355395,-5.9981994e-05,-0.04672817,4980,4908,0
80580961,80580827,4259850,4325386,0.00046045738,-0.0011661982,-1.9393228e-06,0.0056751533,0.0022053085,-0.03750646,4985,4926,0
81079732,81079516,4259850,4325386,-0.00031888485,-0.00022250907,-0.000138627,0.0016178107,-0.002564376,-0.037734825,4984,4911,0
81578036,81577829,4259850,4325386,0.0002651499,0.0004346226,-0.000886109,0.010635198,-0.01375408,-0.05920152,4962,5893,0
82081504,82081370,4259850,4325386,0.00016542363,-6.614305e-05,-0.0020368805,-0.0068025,-0.00026455478,-0.0592318,4987,4912,0
82580105,82579557,4259850,4325386,0.0008195676,-0.0005334821,-0.0012917244,0.0070549767,-0.008307688,-0.039924957,4982,4964,0
83078965,83078822,4259850,4325386,-0.00025021576,-0.00010434204,-0.000119988144,-0.0025189216,-0.01641775,-0.04301649,5000,4992,0
83583103,83581918,4259850,4325386,-0.0003493897,0.00017306034,0.00081644044,-0.0042716665,0.006540943,-0.04640649,4991,4913,0
84080738,84080605,4259850,4325386,-5.3177206e-05,0.00042898266,-0.0003922979,-0.001330771,-0.012483681,-0.04416194,4993,4983,0
84579402,84579284,4259850,4325386,-0.0005613788,0.00015979404,0.000109405664,-0.006836477,0.0035544785,-0.05230126,4986,4991,0
85078093,85077969,4259850,4325386,0.00046642305,-0.002528913,-8.8069486e-05,-0.012440031,-0.018106604,-0.050026484,4970,4909,0
85581276,85581139,4259850,4325386,0.0014352867,-0.0009239007,-0.0005180318,0.009031791,-0.0020998474,-0.047044847,4987,4910,0
86079977,86079830,4259850,4325386,-0.0014652852,1.1244591e-05,-8.04523e-05,-0.0084559135,-0.016185569,-0.04793363,4991,4904,0
86578634,86578521,4259850,4325386,0.00093319156,0.00025080185,-0.00080607523,0.009997355,-0.0025288481,-0.051225267,4970,4904,0
87082577,87082444,4259850,4325386,-0.0005865267,-7.4831805e-06,0.00075689325,-0.0019277935,0.004639391,-0.042740542,4965,3932,0
87580976,87580865,4259850,4325386,0.00031458287,-0.0007695251,-0.0008428834,0.0021501298,-0.014322891,-0.03968238,4964,4908,0
88080053,88079553,4259850,4325386,5.6939753e-05,-0.00064681226,6.1351435e-05,0.00214405,-0.005134339,-0.042895094,4978,4961,0
88583226,88583033,4259850,4325386,0.00035751463,-0.0005210814,-0.0007053239,-0.0018814519,-0.0034616457,-0.050545033,4978,4987,0
89081578,89081467,4259850,4325386,-0.0003634259,0.0002858987,0.0011319376,0.0011068457,0.011401811,-0.044944406,4992,4912,0
89580404,89580233,4259850,4325386,-0.00018270197,-0.00039415195,-0.0008816895,-0.0055627213,-0.016975744,-0.056618195,4982,5889,0
90077887,90077780,4259850,4325386,0.0009846947,-0.0004896913,-0.0006009291,0.005516606,-0.0159338,-0.043438766,4987,4965,0
90582195,90581521,4259850,4325386,-0.00044333903,-0.0017726764,-0.0005703251,-0.00604749,-0.009973337,-0.0481502,4974,4975,0
91080609,91080456,4259850,4325386,0.00054516713,-0.00078871346,-0.0008903602,-0.0044272565,-0.006800479,-0.04615447,4966,4967,0
91578953,91578821,4259850,4325386,-0.00011158283,0.00067433296,0.0006123366,-0.0013111507,0.0030476872,-0.045048214,4983,4863,0
92082689,92082544,4259850,4325386,3.3408538e-05,-0.000112781425,0.0007434769,-0.0064125066,0.009133037,-0.047617882,5037,4913,0
92580955,92580841,4259850,4325386,-0.0002717613,-0.00096668676,0.00029543525,-0.00544344,-0.0064590215,-0.0438262,4969,4910,0
93079476,93079364,4259850,4325386,-0.0001676822,0.00038809836,0.0008938396,-0.0061310115,-0.0024235311,-0.047890767,4984,4909,0
93578166,93578054,4259850,4325386,-0.00042264455,0.00031121928,-0.0013084235,-0.0026421621,0.0034798451,-0.044773646,4991,4911,0
94082346,94081769,4259850,4325386,0.0012595411,-0.0002774324,-0.0009511976,0.0002934302,0.0034636133,-0.046198454,5030,4906,0
94580727,94580568,4259850,4325386,0.0024721904,-0.0007432756,-0.0007609877,-0.0024589913,-0.0071664643,-0.051318936,4965,4966,0
95079631,95079442,4259850,4325386,-0.0005881265,-0.0011896543,0.00061927293,0.000411256,0.007549762,-0.052849345,4981,4980,0
95583056,95582931,4259850,4325386,0.00021296088,-0.00022775897,0.0006218499,-0.009575428,0.004123163,-0.055285692,4987,4909,0
96082346,96082200,4259850,4325386,-0.00011223529,0.0006931928,0.00024276624,-0.0035122149,0.017257573,-0.04758129,4965,4908,0
96580742,96580630,4259850,4325386,-0.0003004388,0.00028552135,0.00022604068,-0.00017359936,0.004216975,-0.04102796,4987,4908,0
97079427,97079315,4259850,4325386,0.000365002,0.00026823152,-0.00018539841,-0.0046253647,0.014263682,-0.050193034,4987,4962,0
97578240,97578023,4259850,4325386,-0.00057740463,0.00013558153,6.1019713e-05,-0.0071488917,0.007396695,-0.057865407,4981,5882,0
98082095,98081928,4259850,4325386,-0.0006888018,-0.0012197978,-8.431388e-06,-0.0034782663,0.00021872371,-0.04713244,4979,4983,0
98580676,98580550,4259850,4325386,-0.0009239317,0.00049622566,7.1863935e-05,-0.0028744864,-0.0011046206,-0.0454932,4998,4910,0
99079183,99079041,4259850,4325386,-8.936798e-05,3.6933878e-05,-0.00036542467,-0.0013047118,-0.007142269,-0.050735388,4986,4968,0
99582830,99582714,4259850,4325386,3.9617145e-05,0.0003356634,0.000749291,-0.005190503,0.018385094,-0.046628695,4984,3835,0
100081511,100081400,4259850,4325386,0.0006230417,-0.00085965137,-1.3112988e-06,-0.0031048818,-0.008496642,-0.042850185,4989,4958,0
100580457,100580218,4259850,4325386,-0.00014585981,0.0011342086,-0.0004758923,-0.0018352832,-0.014657961,-0.045289505,4967,4909,0
101078924,101078768,4259850,4325386,0.0009887381,2.6594029e-05,-0.0008664758,0.0068135094,0.002495968,-0.043557115,4988,4909,0
101582582,101582441,4259850,4325386,0.0006375739,-0.00019540328,1.0245529e-05,-0.005384555,0.0029678599,-0.049634974,4988,4955,0
102081245,102081127,4259850,4325386,-0.00033541504,-0.00014804842,-6.964249e-05,-0.008703398,0.0071435478,-0.052498076,4990,4910,0
102579923,102579809,4259850,4325386,0.00016936498,-0.0005702345,7.8018995e-05,-0.0013756857,-0.00050938374,-0.05002876,4987,4782,0
103083791,103083678,4259850,4325386,0.0011286517,-0.00023448754,-0.00054482504,0.0053911703,0.0039931824,-0.045028605,4982,4914,0
103577291,103577178,4259850,4325386,-0.0022934019,0.0007418297,0.00059857254,-0.007743958,-0.012433882,-0.04569845,4982,4955,0
104080958,104080851,4259850,4325386,-0.00024741265,-0.0006017842,-3.940886e-05,-0.0029780287,-0.01695461,-0.036947876,4984,4143,0
104579695,104579554,4259850,4325386,-0.0001396397,0.00034199873,0.0005245182,0.0023260482,0.02593553,-0.054708358,4987,4987,0
105078727,105078427,4259850,4325386,-0.000295091,0.00037063772,0.0012855997,-0.008096577,0.014650636,-0.067213975,4982,5893,0
105582502,105582315,4259850,4325386,0.00056771334,5.377543e-05,-0.0024888783,0.006036538,0.0069206934,-0.055010166,5270,5990,0
106081255,106081104,4259850,4325386,-0.00064864836,0.00083392585,0.00060337735,-0.0046027047,0.01584135,-0.046692517,4959,4720,0
106579899,106579760,4259850,4325386,0.0004621458,-1.2591415e-06,-0.00027453018,0.0046259793,-0.0047859247,-0.04619663,4986,4907,0
107078553,107078446,4259850,4325386,0.0004079914,-0.0005436629,-0.0011335227,-0.00088639784,-0.013887075,-0.04584146,4987,4968,0
107577804,107577680,4259850,4325386,0.00011717229,0.00016166264,4.1510662e-05,-0.0034743962,0.010619594,-0.049840502,4990,4909,0
108081459,108081348,4259850,4325386,-0.00027116545,0.0006709419,0.0003144986,-0.0063498006,0.022662066,-0.0518062,4987,4910,0
108580140,108580034,4259850,4325386,-0.0002463549,8.242411e-05,-0.00034159937,0.0034478807,-0.0052161305,-0.044650666,4987,4919,0
109078843,109078732,4259850,4325386,0.0014350462,0.0013977609,0.00052836904,-0.003201011,0.0101590445,-0.05544755,4966,4968,0
109582622,109582511,4259850,4325386,-0.0010747503,0.0008222415,0.0014146112,-0.008378471,0.0007212271,-0.052094076,4960,4959,0
110081271,110081086,4259850,4325386,-0.0014636797,-0.0006784883,0.00038131856,-0.0018122923,-0.012976751,-0.05193343,4997,5465,0
110580169,110579764,4259850,4325386,0.0004976861,-0.00032665647,-0.000116997406,-0.0065111034,-0.008856317,-0.06528026,4988,5696,0
111078704,111078493,4259850,4325386,0.0012403028,-0.001992965,-0.0011679201,0.0072809197,-0.011636093,-0.049433995,5002,5892,0
111582873,111582572,4259850,4325386,0.00014204565,0.00045072337,-0.00046735947,-0.0055349926,-0.0063536493,-0.056572516,4990,5775,0
112081114,112080959,4259850,4325386,-0.000671821,-0.00013964158,0.0005066843,0.00017312888,0.0073800553,-0.05000725,4923,4633,0
112579632,112579487,4259850,4325386,-0.0004738038,0.0007910086,-7.816489e-05,-0.0052812076,0.014465157,-0.050121337,4987,4909,0
113083997,113083872,4259850,4325386,-0.0012717936,0.0013384824,0.0005135347,-0.0018715155,0.008533101,-0.04253612,5026,4918,0
113582452,113582309,4259850,4325386,-0.00012892489,0.00014478594,8.862917e-05,0.0002554474,0.0062558283,-0.04717231,4981,4912,0
114081234,114081085,4259850,4325386,0.000736763,-0.00079406035,-0.0017205852,0.0057156985,-0.010301685,-0.038098387,4987,4912,0
114580278,114580163,4259850,4325386,0.00073777314,0.00018802975,0.0010234511,-0.008920655,0.009299529,-0.052159503,4984,4908,0
115083955,115083838,4259850,4325386,0.0006659253,-0.0005588528,0.0007191158,-0.00268894,0.0029458788,-0.049866762,4988,4976,0
115582742,115582552,4259850,4325386,-0.0008757605,0.0005100493,0.00047594242,-0.005550826,0.0021243822,-0.05132842,4974,4971,0
116081535,116081425,4259850,4325386,0.00058402884,-0.0012538267,-0.0006190521,0.004238479,-0.0052758628,-0.03808799,4984,4906,0
116580080,116579922,4259850,4325386,0.0002943898,-0.0002595224,-0.00038179505,-0.0031355752,0.00085522706,-0.046030667,4986,4909,0
117083901,117083730,4259850,4325386,-0.0007702182,-0.00053686014,0.0013513082,-0.006383096,0.020447446,-0.055961214,5035,4931,0
117577391,117577263,4259850,4325386,-0.0004779317,0.0011411598,8.846896e-05,-0.0008670827,-0.0035520291,-0.04213341,4986,4912,0
118081087,118080933,4259850,4325386,0.0011249909,0.00040531083,0.00039366487,-0.008447684,-0.006359426,-0.05322698,4986,4960,0
118579900,118579746,4259850,4325386,-0.0005069073,0.00014737392,-5.687585e-05,0.005012412,0.014012703,-0.043548584,4975,4911,0
119082909,119082791,4259850,4325386,0.002086149,7.873965e-05,-0.0006513549,-0.0015833899,-0.0045729782,-0.05068612,4934,4907,0
119581697,119581544,4259850,4325386,0.0006707397,0.0005974438,0.00032399638,-0.001343995,0.010379459,-0.051971834,4967,4963,0
120080482,120080321,4259850,4325386,0.00012965848,-0.0001902312,0.00035689704,-0.00053862686,-0.00020824849,-0.041829634,4969,4954,0
120584001,120583833,4259850,4325386,0.0002181504,8.321111e-05,0.00013815577,-0.006221426,0.005785781,-0.048359044,4968,4751,0
121077733,121077625,4259850,4325386,0.00027169002,0.0010710296,0.00055681716,0.0009613651,0.025687126,-0.051511034,5037,4935,0
121581917,121581342,4259850,4325386,-7.8089484e-05,-0.0007695428,0.00011011644,-0.0022269653,-0.01319736,-0.044444323,4990,4964,0
122079552,122079437,4259850,4325386,0.00064274494,-0.00027803594,-0.0008295639,0.0025969117,-0.0043035764,-0.05128777,4987,4909,0
122578243,122578122,4259850,4325386,-0.0018332879,-0.00021034825,0.0009884076,-0.011619726,0.0057835993,-0.056542724,4987,4909,0
123081905,123081794,4259850,4325386,0.00040067176,0.0010147176,-0.00016916863,-0.0073149735,0.021148384,-0.054311458,4986,4905,0
123580602,123580490,4259850,4325386,7.1981936e-05,-0.00036774273,-0.0006261376,0.003926306,-0.0049424963,-0.04302817,4968,4968,0
124084496,124084373,4259850,4325386,0.00016172415,-6.9031084e-05,-0.0008645424,-0.00206347,-0.022524897,-0.040911652,4977,4906,0
124578451,124578340,4259850,4325386,-6.784384e-05,0.0007845869,0.00015247041,-0.013699468,0.007851379,-0.05380502,4970,4918,0
125082124,125081979,4259850,4325386,4.5370005e-05,-0.00037274294,-0.00045770552,-0.004495731,-0.018774033,-0.04305535,4993,4909,0
125580765,125580658,4259850,4325386,0.0009888133,-0.000427955,0.00023216887,-0.012276579,-0.014005889,-0.05184503,4987,4909,0
126079461,126079345,4259850,4325386,-0.0006431765,0.00073209166,0.00017619666,-0.0025218993,-0.0001118201,-0.05104341,4986,4916,0
126582705,126582570,4259850,4325386,0.0010224165,8.187206e-05,0.00082969025,-0.00828214,0.008713002,-0.051822383,4990,4911,0
127081393,127081249,4259850,4325386,-0.0004383203,0.0005299475,0.00056592695,-0.0030380227,-0.011920278,-0.049706314,4978,4848,0
127580053,127579935,4259850,4325386,0.0010128316,0.0002499107,-0.0024393024,0.0027622913,-0.0044701127,-0.04341514,4979,4964,0
128079289,128079077,4259850,4325386,-0.00087898603,0.00052062457,0.00011156466,0.004342724,0.0032554194,-0.0524765,4990,5718,0
128577955,128577840,4259850,4325386,0.00010742681,-0.00029438487,-0.00048378104,-0.007969142,-0.012987371,-0.05350704,4982,4908,0
129081750,129081601,4259850,4325386,-0.0005936916,0.00057160057,0.00080982805,-0.007164892,0.00948888,-0.055119153,4990,4958,0
129580416,129580286,4259850,4325386,-0.00011864252,8.67458e-05,-0.00038702626,-0.00245814,-0.008527658,-0.049558908,4912,4901,0
130078905,130078797,4259850,4325386,0.0001723376,0.00023727491,-0.0004177694,-0.0012207499,0.0010097371,-0.055288598,4987,5395,0
130582778,130582471,4259850,4325386,0.0006077981,-0.000485191,-0.00048986875,0.0007263417,-0.008093461,-0.044588793,4933,4907,0
131081275,131081161,4259850,4325386,4.377807e-07,-0.0007380466,-0.00030393768,0.0022027844,0.005688528,-0.043800738,4993,4965,0
131580037,131579842,4259850,4325386,0.0019534032,-0.0006191448,0.0007346969,-0.011967449,-0.002473437,-0.052027185,4985,4906,0
132078907,132078772,4259850,4325386,-0.0006326762,0.0006560114,0.0004234391,0.007193501,0.009866001,-0.046500918,4957,4908,0
132582317,132582198,4259850,4325386,-0.00025287538,-0.000257318,-0.00024916025,-0.0057902,-0.015189377,-0.055296004,4988,4968,0
133080991,133080882,4259850,4325386,-0.0009969915,0.00076883385,0.00084767555,-0.0040535983,0.018842958,-0.05020158,4977,4911,0
133579675,133579537,4259850,4325386,-0.00048354806,0.00049725716,9.220552e-05,-0.007727317,-0.009460339,-0.052087236,4941,4906,0
134083113,134082790,4259850,4325386,3.7900212e-05,0.000500098,-0.00060862483,0.0080861775,-0.0018117229,-0.04752435,4962,4911,0
134581586,134581475,4259850,4325386,5.22252e-05,-8.7822555e-05,-0.0010542516,-0.010945962,-0.021081902,-0.049776535,4986,4944,0
135080817,135080613,4259850,4325386,-8.349493e-06,0.000330288,-9.995382e-05,-0.0019407222,0.009385853,-0.058444135,4989,5709,0
135579454,135579339,4259850,4325386,-0.0004476822,0.0006093441,0.00040431932,0.0051918677,0.014403692,-0.045905598,4990,4911,0
136078292,136078112,4259850,4325386,0.0017252818,-0.00016304762,0.00021211896,-0.0012959545,0.007139289,-0.05302897,4987,4961,0
136581921,136581767,4259850,4325386,-0.00017655852,-0.000109899964,-0.00073242915,-0.00240015,-0.011394914,-0.05028017,4971,4911,0
137080504,137080338,4259850,4325386,0.00030641086,0.0003172741,-0.00061016856,-0.0033320177,-0.0048207515,-0.05546469,4986,5405,0
137584129,137584012,4259850,4325386,0.0007088913,-0.0015328979,-0.00054689636,-0.003726576,-0.004662751,-0.04753324,4986,4911,0
138082813,138082695,4259850,4325386,0.00038570288,-0.0002381234,-0.000959747,-0.0045520426,-0.021834845,-0.04803805,4980,4956,0
138581496,138581383,4259850,4325386,-0.000695363,0.00094022567,0.0011162027,-0.008377087,0.020607434,-0.052547473,4985,4648,0
139079720,139079615,4259850,4325386,0.0007537957,-0.00038804492,0.00011591413,-0.0012232648,0.008320913,-0.048730683,4986,4993,0
139578456,139578295,4259850,4325386,-0.0004268343,0.00026010393,0.00050886616,0.006809675,0.011469743,-0.044988,4983,4989,0
140082275,140082078,4259850,4325386,0.00077578507,-0.0003217464,-0.0010017367,-0.0010601367,0.0059112385,-0.04715452,4960,4912,0
140581735,140581091,4259850,4325386,-0.00016124782,-0.0011306717,0.0005392275,-0.0054320944,-0.0065606404,-0.050140157,5037,4928,0
141080000,141079865,4259850,4325386,-0.00027754475,9.791145e-05,0.0008003795,-0.0051846774,0.011610188,-0.050863944,4985,4708,0
141583844,141583701,4259850,4325386,0.0010223935,-0.001975189,-0.00073535444,-0.0035048614,-0.014020847,-0.043599725,4960,4984,0
142077303,142077164,4259850,4325386,0.0008465123,0.00017001962,0.0010911778,0.0012464344,0.021107927,-0.049828082,4983,4858,0
142581043,142580900,4259850,4325386,-0.0002601459,3.9120063e-05,-0.00022395434,-0.00057022145,-0.014073156,-0.047245696,5039,4925,0
143079839,143079622,4259850,4325386,0.00026723344,-0.0002770753,-0.000854629,-0.007463699,-0.006114118,-0.047393143,4993,4968,0
143578684,143578488,4259850,4325386,0.0009920562,-1.7133969e-05,-1.084835e-05,-0.004841577,0.007568217,-0.052371997,4978,4976,0
144082007,144081879,4259850,4325386,0.000936004,-0.0007794176,-0.0010133084,-0.0002889808,-0.003969819,-0.052608464,4983,5401,0
144580672,144580564,4259850,4325386,-0.0006271349,0.00038328025,0.0012783069,0.004089069,0.0019271219,-0.04337797,4983,4858,0
145084410,145084288,4259850,4325386,-1.455154e-05,-0.00012679717,0.00019645038,0.0027765292,0.021506406,-0.050509546,5035,4912,0
145577081,145576938,4259850,4325386,-0.0010300516,0.00078097574,0.0008689116,-0.0076885857,0.009249621,-0.048337925,4984,4905,0
146080721,146080610,4259850,4325386,-0.001631205,0.00064988167,0.001404518,-0.0063493345,0.021331208,-0.051207293,4986,4943,0
146579959,146579841,4259850,4325386,0.0011640787,-0.00068401144,-0.00094224187,0.00014555517,-0.017845301,-0.0436979,4985,4963,0
147078705,147078585,4259850,4325386,0.0011109053,-0.0007071583,-0.0002315134,-0.0025516592,-0.0124769695,-0.04452461,4970,4909,0
147582580,147582469,4259850,4325386,0.001087051,-0.0015809968,-3.257765e-05,-0.0024720277,-0.021249661,-0.04524743,4917,4906,0
148081151,148081031,4259850,4325386,0.000244061,0.00034103316,-0.0012293621,0.005308324,-0.0038153082,-0.04539691,4985,4909,0
148579997,148579576,4259850,4325386,0.0012745642,-0.0017053777,-0.0007759029,0.00012765129,-0.008102439,-0.041985244,4993,4911,0
149078372,149078257,4259850,4325386,-0.001972407,0.0019777839,-0.0006766128,0.0008212644,-0.01673835,-0.04373133,4987,4909,0
149582066,149581928,4259850,4325386,0.0002962824,-7.9916e-05,-0.00014120399,0.0028678724,0.012565828,-0.04328091,4986,4971,0
150080979,150080810,4259850,4325386,-0.00029308823,0.00037934305,0.00094544294,0.002886872,0.020796554,-0.04483829,4915,4643,0
150579441,150579306,4259850,4325386,0.0001542116,-0.0005049838,-0.0010092221,-0.0033198074,-0.02126744,-0.05153279,4995,4908,0
151083114,151083004,4259850,4325386,0.0005092179,-0.0005294544,-0.0006417021,-0.005631775,-0.0039721704,-0.04912409,5021,4910,0
151581834,151581656,4259850,4325386,0.0010591728,-2.8663544e-05,-0.00068362645,-0.0030457599,0.00635453,-0.058047824,4987,5892,0
152080525,152080347,4259850,4325386,-8.643647e-05,-0.0005012421,-5.720217e-05,-0.0024525982,-0.02310096,-0.05096357,4966,5891,0
152579413,152579297,4259850,4325386,0.0004866994,-0.0018240763,-0.00027525052,0.0023376034,-0.0045157336,-0.042461544,5258,4911,0
153077831,153077716,4259850,4325386,0.00104041,0.0002700257,-0.00078658754,0.0003889696,-0.002064437,-0.040203854,4991,4918,0
153581492,153581383,4259850,4325386,0.0007993768,-0.00016043455,-0.00036939545,-0.0029373118,0.0037188074,-0.048030395,4987,4964,0
154080738,154080075,4259850,4325386,0.0012219372,-0.0007870376,-0.00033097062,-0.0011657262,-0.0028454594,-0.04913649,4962,5894,0
154579180,154579070,4259850,4325386,-0.0009361562,0.0005922835,-0.00027512963,-0.0039891433,0.015038269,-0.053456675,5011,4906,0
155082714,155082586,4259850,4325386,-0.00069486577,0.0005482572,-0.0014523831,-0.007849612,-0.009567506,-0.061225403,5041,5901,0
155581254,155581115,4259850,4325386,9.623015e-06,-0.00088946085,-0.004143283,4.079883e-05,-0.008662804,-0.045213904,4798,4917,0
156079983,156079798,4259850,4325386,-0.00057519716,4.5429224e-05,0.0006443631,-0.011665995,-0.020222979,-0.051673267,4988,4910,0
156578919,156578484,4259850,4325386,-0.0008210327,-4.4338904e-05,-0.0024778391,-0.0021344079,-0.000621845,-0.045631114,4987,4974,0
157082399,157082279,4259850,4325386,-0.00082392665,0.0008890594,0.00063249527,-0.0046597314,0.009260193,-0.0539249,4958,4910,0
157580996,157580842,4259850,4325386,0.0011602961,-0.0010182457,-0.0033751037,0.0065635457,-0.011262742,-0.044976365,4987,4916,0
158079261,158079106,4259850,4325386,5.9394326e-05,-0.00058907876,-0.0004615712,-0.0034232112,-0.015720015,-0.03918701,4926,4921,0
158583609,158583199,4259850,4325386,0.001304022,-1.2611374e-05,0.00062675384,-0.003914271,-0.00032596284,-0.04500237,4986,4971,0
159077017,159076902,4259850,4325386,-0.0008068027,0.00075436983,0.0009852281,-0.0023896876,0.02788417,-0.058149118,4991,4910,0
159580314,159580205,4259850,4325386,-0.0023691729,0.0007430924,0.00069520494,-0.00023533747,0.007935442,-0.052445695,4979,4908,0
160078843,160078703,4259850,4325386,-8.262565e-05,0.000704624,-0.0007966638,0.0028710326,0.014331666,-0.041008007,4983,4858,0
160582602,160582461,4259850,4325386,-0.00013483554,-0.0001825388,-0.0020084402,0.0012760657,-0.016500426,-0.046315603,5014,4905,0
161081983,161081067,4259850,4325386,-0.00031328588,-0.00012974265,0.00020437916,-0.0119952625,-0.0011548854,-0.057421934,4990,4913,0
161579865,161579750,4259850,4325386,0.001979141,0.0009689046,0.0006174866,0.00652293,0.0097721545,-0.052455362,4987,4910,0
162083544,162083432,4259850,4325386,4.7530506e-05,0.0006394885,0.00077142636,0.005906286,0.007214278,-0.048097193,4991,4909,0
162582236,162582117,4259850,4325386,-0.0029115432,-0.00042023417,0.00022680163,-0.0034788542,-0.016122067,-0.039002508,4994,4954,0
163080547,163080389,4259850,4325386,-0.0009994447,-9.4543706e-05,0.00034719578,9.686818e-05,-0.00401503,-0.043228775,5043,4938,0
163579250,163579102,4259850,4325386,-0.0006434539,0.00053627644,0.0007010582,0.008204637,0.01912401,-0.045372978,4987,4915,0
164078302,164078164,4259850,4325386,-0.0004006846,-0.0001378593,-0.0001736765,-0.0062058675,-0.0025337338,-0.05377122,4985,4964,0
164581950,164581838,4259850,4325386,-0.00024843443,-7.921375e-06,-0.00022412669,-0.012329522,-0.0075131324,-0.05602072,4987,4671,0
165080774,165080622,4259850,4325386,0.0004889455,0.00015399556,-2.8213599e-06,0.008371435,0.0016106125,-0.043687973,4960,4907,0
165583883,165583750,4259850,4325386,0.0011219233,-0.00020958022,-0.00050947536,0.0035635992,-0.013438657,-0.041156594,5037,4912,0
166082489,166082381,4259850,4325386,-0.0018700135,0.0005844359,3.0370154e-05,-0.008740481,-0.0058539566,-0.053943675,4984,4947,0
166581226,166581078,4259850,4325386,-0.00045323238,0.00038916094,-0.00032067165,0.0020837516,0.00030437467,-0.048348714,4984,4981,0
167080098,167079964,4259850,4325386,-0.00074262026,0.0006939386,0.0007367028,-0.0055431845,-0.0070181917,-0.05317202,4958,4983,0
167578556,167578440,4259850,4325386,0.00027229133,-4.9293605e-05,-8.075639e-05,0.0054212357,0.017751325,-0.044045776,4989,4989,0
168082265,168082147,4259850,4325386,-0.001261141,0.0005772152,0.00073414954,-0.007420384,0.0016823589,-0.05202271,5024,4897,0
168580691,168580558,4259850,4325386,-0.00064843596,0.0007638735,0.0009363685,-0.000567928,0.0084027415,-0.05033133,5245,4962,0
169084086,169083975,4259850,4325386,-0.000943508,0.00062360114,0.00033882933,-0.0021402424,0.010569356,-0.041497212,4988,4060,0
169582763,169582654,4259850,4325386,-0.00016591974,-0.0008217605,-0.00012894669,-0.009160595,-0.008575995,-0.04462734,4987,4909,0
170077073,170076906,4259850,4325386,-0.0012840119,0.00047978605,0.0007646123,-0.003755914,0.015596402,-0.05270689,5038,4925,0
170580709,170580599,4259850,4325386,2.4356223e-05,-0.00075540756,-0.00058534415,-0.0012171098,-0.024512773,-0.04667393,4988,4960,0
171078843,171078710,4259850,4325386,0.0009852963,4.232359e-05,0.00127435,-0.012886678,-0.0057882555,-0.05454114,4986,4929,0
171582511,171582384,4259850,4325386,-9.6698146e-05,0.0004729052,0.00071015424,-0.009004373,0.0037034259,-0.055115428,4988,4916,0
172081181,172081069,4259850,4325386,-0.00020116405,0.00024654873,0.00010090671,4.2710162e-05,0.00053640205,-0.038962055,4988,4910,0
172579902,172579789,4259850,4325386,-0.00026104136,-0.00065487425,-0.000305956,0.0035118486,-0.0018828991,-0.043746762,5022,4909,0
173083658,173083544,4259850,4325386,0.001088895,-0.00019963959,0.00062454125,0.0016456125,-0.002039699,-0.04215404,4968,4773,0
173582528,173582114,4259850,4325386,-0.00053233263,0.00027153394,0.0008175408,0.00057306845,-0.0025671935,-0.0539275,4990,5000,0
174080907,174080796,4259850,4325386,0.00038359204,-0.00019998668,-0.00048207634,-0.0029001695,0.008357077,-0.04362284,4986,4953,0
174580207,174579507,4259850,4325386,0.0005023671,-0.00034264498,0.00026583424,0.0032389,-0.00053847954,-0.042897772,4990,4976,0
175078414,175078304,4259850,4325386,-0.00072436786,7.139042e-06,0.00049539184,-0.006871582,-0.0030032983,-0.047574867,4897,4631,0
175581453,175581341,4259850,4325386,-0.00078984594,0.00022086145,0.00075865263,-0.009151617,-0.003468773,-0.05306281,4983,4909,0
176080137,176080027,4259850,4325386,0.00014344927,0.00097023393,0.0010673112,-0.0061244057,0.013894215,-0.053005777,4971,4909,0
176583809,176583699,4259850,4325386,-0.0021359506,0.00083116384,-0.0009161542,0.00013761084,5.9191174e-05,-0.05099392,4983,4980,0
177077767,177077655,4259850,4325386,0.00050336216,-0.0015116412,-0.00028504568,0.0012837115,-0.023792012,-0.04285674,5236,4908,0
177580746,177580619,4259850,4325386,-0.0007509068,0.00020870724,0.0006347855,-0.007406397,0.009365709,-0.053732958,4986,4910,0
178079482,178079307,4259850,4325386,-0.00045284885,6.572192e-05,0.0007159518,-0.012418497,0.0016002347,-0.05397954,4986,4909,0
178578626,178578452,4259850,4325386,0.001170908,-0.00053190056,-0.00043012612,0.004877876,-0.006995006,-0.05166192,4978,5893,0
179082635,179082353,4259850,4325386,0.00023444726,-0.00075663533,0.0005886459,0.0053259893,0.015337049,-0.044337526,4958,4965,0
179581108,179580983,4259850,4325386,-0.00013660952,-0.00036033243,-0.0009667346,-0.006099704,-0.015392316,-0.046813097,5041,4744,0
180079643,180079485,4259850,4325386,0.0010008562,0.00023019577,0.00037692106,-0.0014523928,-0.0032209363,-0.043862745,4987,4968,0
180578320,180578170,4259850,4325386,-0.00016384541,-0.0003811065,-0.00021255341,-0.010421891,-0.015718902,-0.049365677,4987,4912,0
181081971,181081846,4259850,4325386,0.00044331796,-0.000116285904,-0.0011216804,-0.003625796,-0.0029413542,-0.05048076,4990,4911,0
181580842,181580656,4259850,4325386,-0.0021246052,0.00038257978,-0.000747415,-0.005072991,-0.009197364,-0.049785513,4969,4967,0
182079368,182079215,4259850,4325386,0.003997182,-0.00041562342,-0.0015349899,-0.0027597472,-0.0251131,-0.046050947,4989,4914,0
182583096,182582888,4259850,4325386,-0.004117077,-0.00039516194,0.0011402944,-0.012489303,0.009128863,-0.05422869,4987,4915,0
183081681,183081572,4259850,4325386,0.0010948055,-0.00038019518,-0.00087419007,0.0020971505,9.1731294e-05,-0.04199076,4987,4975,0
183580404,183580261,4259850,4325386,0.00066174445,9.5963034e-05,-0.00029450483,0.0017212003,-0.0011502398,-0.04868234,4978,4688,0
184079341,184079138,4259850,4325386,-0.0021280348,-0.00032013404,0.00051815313,-0.008191873,0.008007125,-0.050858993,4957,4902,0
184582305,184582170,4259850,4325386,-0.00017582433,5.4491998e-06,-0.00031382646,-0.005480638,-0.0185134,-0.04727997,4990,4912,0
185080994,185080851,4259850,4325386,-0.00014985123,-0.00068364793,-0.00018681368,-0.00208533,-0.009606677,-0.043708965,4943,4931,0
185579854,185579724,4259850,4325386,-0.0009013528,-0.00030991776,0.00039635654,-0.006654203,-0.0060779722,-0.049494352,4973,4910,0
186083406,186083208,4259850,4325386,-0.000106919804,-0.0005149022,0.00038215818,-0.004601048,0.0006520285,-0.061883893,4983,5599,0
186582009,186581893,4259850,4325386,0.0005793391,0.002065354,-0.00035379516,-0.00086007384,-0.01559768,-0.050592218,4976,4909,0
187081160,187080583,4259850,4325386,0.00020187588,8.4427586e-05,-0.00021622016,0.0032884544,0.009332468,-0.040072083,4981,4908,0
187579401,187579266,4259850,4325386,-7.2495575e-05,-3.1826105e-05,-0.00084215373,-0.0043922137,-0.012529887,-0.043547384,4959,4910,0
188078422,188078226,4259850,4325386,-0.00033349943,0.00025187616,0.0002793219,-0.0050894055,-0.0029237084,-0.05273985,5263,6072,0
188581734,188581622,4259850,4325386,-0.0009894829,0.00022670212,0.0005530437,-0.0021923245,0.0053522056,-0.055561967,4986,4918,0
189080448,189080340,4259850,4325386,0.002563719,0.000705306,2.7336657e-05,0.0073305224,0.013216708,-0.050949346,5019,4896,0
189579111,189578993,4259850,4325386,-8.450506e-05,0.00021789521,-0.00036228352,0.00058018917,-0.006708244,-0.049398117,4951,4906,0
190082992,190082880,4259850,4325386,0.0001988544,-0.0005457441,0.00015108509,-0.0121355485,-0.012101984,-0.048136782,4985,4716,0
190581575,190581357,4259850,4325386,0.0003535473,4.4691667e-05,-0.0007119225,0.002319321,-0.00084952405,-0.046446115,4992,4915,0
191080267,191080108,4259850,4325386,-0.00010290411,0.00037074534,0.00046712387,-0.0009930744,0.010190925,-0.045428295,4984,4978,0
191579355,191579179,4259850,4325386,0.00041150628,0.00023778706,0.0013274265,-0.0036017322,0.017684624,-0.048979368,4987,4910,0
192077978,192077866,4259850,4325386,-0.0008487801,-0.0001233642,0.00074267265,0.0047557955,0.0067463582,-0.046200972,4994,4885,0
192582031,192581533,4259850,4325386,-0.0004485711,-0.00027727283,-0.00042264472,0.0033051705,0.008436344,-0.04292082,4987,4949,0
193080825,193080715,4259850,4325386,-8.324358e-05,0.00039521477,4.049788e-05,0.0039517083,0.020550804,-0.045555726,4983,4797,0
193579557,193579403,4259850,4325386,-5.2176903e-05,0.0010642246,5.558398e-05,-0.0058466946,-0.003338818,-0.052839793,4987,4988,0
194078253,194078112,4259850,4325386,-0.0002725853,-0.00033189522,-6.1663395e-06,-0.0026749638,-0.009896818,-0.044540245,4951,4673,0
194581401,194581261,4259850,4325386,0.0014669194,0.00014147862,0.0010270624,-0.0042590396,0.0072061922,-0.04920962,4987,4910,0
195080147,195079964,4259850,4325386,-0.0007615973,0.0007764037,0.0007811806,-0.0004221167,0.012915605,-0.04740279,5002,4878,0
195578874,195578657,4259850,4325386,-0.00018793509,-0.00023887376,0.0005837469,-0.0031641934,0.0013540714,-0.055020057,4969,5892,0
196082732,196082582,4259850,4325386,0.0026811387,0.00034787957,0.0008411527,-0.0075615332,0.022007294,-0.053580616,5264,4915,0
196581099,196580991,4259850,4325386,0.00020072421,-0.00014001981,0.00010049959,0.0022161887,-0.012069895,-0.04905301,4988,4911,0
197080244,197079679,4259850,4325386,0.00020427759,0.00016832701,0.00058710185,-0.0029862467,-0.009056492,-0.06303478,4990,5898,0
197578474,197578361,4259850,4325386,0.00045381198,0.00012533549,-0.00075613154,-0.00077247235,-0.0147135295,-0.04657871,4986,4752,0
198077298,198077145,4259850,4325386,1.1227599e-07,-0.00016877471,-0.0005859361,-0.0039447946,-0.006512269,-0.05202136,4963,4989,0
198580865,198580719,4259850,4325386,0.00025373395,0.0011958282,-0.00014126174,0.006416838,0.012139598,-0.04916232,4987,4963,0
199079101,199078963,4259850,4325386,0.0011415588,-0.00036003804,-0.00078386563,0.004058889,-0.022018904,-0.043345865,4993,4962,0
199582868,199582707,4259850,4325386,-0.0004891278,0.0004138454,0.0009536354,-0.0065054307,0.005563167,-0.051307417,4971,4906,0
200082006,200081844,4259850,4325386,-0.0020364497,0.0011772426,-0.00035324576,0.0025837172,-0.0047753593,-0.03867472,4961,4958,0
200580921,200580735,4259850,4325386,-4.6359244e-05,0.0006161396,0.0011093125,0.0047234655,0.023990741,-0.044039458,4980,4972,0
201079444,201079296,4259850,4325386,-0.00075509155,0.00041425848,0.0012998689,0.0018410295,0.015853167,-0.056827404,5050,4938,0
201578171,201578016,4259850,4325386,-0.00057440315,0.00024769327,-0.00015132375,-0.00024066902,-0.00889121,-0.047830995,4991,4983,0
202077114,202077004,4259850,4325386,-0.00029933293,-0.00012051444,-0.00014471095,0.002727663,-0.0026953772,-0.0425066,4987,4914,0
202581238,202580680,4259850,4325386,0.0005328892,-0.00058295554,-0.00024505693,-0.011588553,0.0064670597,-0.05797167,4987,5847,0
203079475,203079364,4259850,4325386,-0.0004353842,-0.00012686354,-0.00041549097,-0.0035992984,0.0009077215,-0.04996179,4985,4959,0
203583416,203583219,4259850,4325386,0.000559505,-0.00045715438,-0.00053039356,0.00014740003,0.0016713256,-0.035306886,4968,3924,0
204082289,204082106,4259850,4325386,0.000268117,-3.1477077e-05,-0.0003296933,-0.002109729,-0.0058639813,-0.046675924,4984,4985,0
204580550,204580410,4259850,4325386,0.00034108496,-5.7445868e-05,0.0006178214,-0.0063060457,0.0012882074,-0.051627707,4988,4910,0
205079239,205079092,4259850,4325386,-0.0008838471,6.4787295e-05,0.00076372403,-0.005437598,0.01163827,-0.052155823,4987,4936,0
205577895,205577779,4259850,4325386,0.00051464216,-0.00029410506,-0.0004645954,-0.0012592949,-0.02395216,-0.04502473,4988,4961,0
206080074,206079954,4259850,4325386,-6.542781e-05,-0.0006698623,-0.00042415725,0.0016285037,-0.009948179,-0.044176474,4987,4985,0
206583382,206583243,4259850,4325386,-0.0012381448,-0.00057569484,-0.00019270723,-0.005094145,-0.013187424,-0.0468884,5033,4918,0
207082249,207082093,4259850,4325386,-0.00011066384,0.00016386638,0.0007213457,-0.008209688,0.007925876,-0.052526597,4923,4909,0
207580683,207580510,4259850,4325386,0.000567159,-0.0009241705,-0.0009697281,-9.0960246e-05,-0.00072756654,-0.05140363,4998,5654,0
208084377,208084171,4259850,4325386,-0.0005770557,-0.0002145101,0.0009587439,0.007164004,0.021083007,-0.056760892,4981,5691,0
208577985,208577873,4259850,4325386,0.0006783028,-0.0007568806,-0.0013066349,-0.0029210546,-0.018234275,-0.048433922,4971,4910,0
209081655,209081543,4259850,4325386,0.00038523463,0.0008439848,0.00036777218,-0.0030396434,0.013936771,-0.050584063,4987,4910,0
209580533,209580386,4259850,4325386,0.0011538793,2.292903e-05,-0.0009583926,-0.0041777287,0.0044131298,-0.04679404,4963,4910,0
210079043,210078916,4259850,4325386,-0.00041759526,0.0003724452,0.0005094711,0.0033697865,0.01104989,-0.048131738,4969,4909,0
210582745,210582590,4259850,4325386,-0.0011957932,-0.00036726997,-0.0004644371,-0.009056215,-0.021528248,-0.052346684,4990,4967,0
211081387,211081277,4259850,4325386,-0.0002819883,-0.00032910783,-0.00031489448,-0.0071171895,-0.0052635297,-0.056657713,4990,5002,0
211580107,211579984,4259850,4325386,-0.0005158089,0.00021469199,-9.024985e-05,-0.002407107,0.01388196,-0.050823703,4960,4962,0
212078415,212078149,4259850,4325386,0.00044233937,-0.0006652764,-0.0022335756,0.010781608,0.00019089608,-0.0427485,4985,4920,0
212581933,212581819,4259850,4325386,0.00030360944,-0.00059792516,-0.0043235854,0.0058546206,0.008415457,-0.04576166,4988,4968,0
213080710,213080569,4259850,4325386,0.00017988816,-0.00028617252,-0.0025349865,-0.00890233,-0.0047392924,-0.053278,4962,4968,0
213578809,213578699,4259850,4325386,0.00024343024,0.0006090604,-0.0008205474,-0.0027597516,0.0073919836,-0.05128307,4995,4891,0
214082528,214082363,4259850,4325386,0.0002965612,-0.0003683994,-0.0006324234,-0.007981099,-0.018722326,-0.06757142,4978,5895,0
214581447,214581333,4259850,4325386,0.0003436216,-0.00032151537,-0.0006550629,0.012028126,-0.006111083,-0.036570277,5012,4718,0
215079915,215079796,4259850,4325386,-0.0006968894,0.0013157562,0.0003815262,-0.0075238924,0.010932369,-0.051614456,5033,4928,0
215579391,215578528,4259850,4325386,0.00036241903,-7.369899e-05,-0.00073462573,0.0031248967,-0.010991387,-0.042831033,4994,4909,0
216077405,216077293,4259850,4325386,-0.00058890035,-0.00039479436,0.00097366713,-0.005333382,0.0068990067,-0.048903324,4986,4909,0
216580933,216580780,4259850,4325386,0.0011979875,-0.00019256072,-0.0011342731,0.0059804264,-0.015885653,-0.041135985,4988,4913,0
217079748,217079596,4259850,4325386,-0.000997725,9.912853e-05,-5.3491196e-05,-0.010065372,-0.019098464,-0.04938928,4968,4910,0
217583331,217583138,4259850,4325386,-0.00039542842,0.0007994136,-0.0007168431,-0.010887681,-0.014183854,-0.05583176,4987,5661,0
218082063,218081825,4259850,4325386,-0.0016058721,0.0007924526,0.0006044519,-0.0074127135,0.0063729077,-0.05215847,4987,4909,0
218580617,218580508,4259850,4325386,0.00063158805,-0.0006747755,-0.0005609785,-0.004355789,-0.00789462,-0.046903383,4987,4911,0
219079310,219079198,4259850,4325386,0.0011383999,-0.0012001762,-0.00014439241,0.00557113,-0.004133532,-0.04319533,4990,4927,0
219578249,219578081,4259850,4325386,-0.0005774482,-4.4062832e-05,0.00010681894,-0.013353624,0.009077762,-0.055961255,4957,4967,0
220081668,220081553,4259850,4325386,0.00017382478,-0.0009443684,-7.023786e-05,-0.008465662,-0.0058601717,-0.048254687,4986,4938,0
220580347,220580238,4259850,4325386,-0.0031565442,0.0011915548,-0.0006369178,-0.0049926788,-0.019414978,-0.049940664,4982,4967,0
221079624,221078920,4259850,4325386,-0.000418525,-7.881953e-05,-0.00054680975,0.00027158108,-0.015437208,-0.04564755,4966,4963,0
221577906,221577772,4259850,4325386,-0.00042478845,0.000363626,7.543799e-05,-0.0044679977,0.024394676,-0.052368682,4966,4905,0
222081743,222081590,4259850,4325386,-1.9582754e-05,0.00020193956,0.00087532686,-0.010290657,-0.007058117,-0.05159392,5251,4984,0
222580206,222580035,4259850,4325386,-0.0003974401,-0.00022193788,0.0002001786,0.00021220693,-0.0019853632,-0.0413982,4994,5000,0
223078961,223078804,4259850,4325386,0.0002934444,-9.263622e-05,-5.87066e-05,0.0099560395,-0.002745685,-0.041663274,4992,4965,0
223582466,223582328,4259850,4325386,-6.8667156e-05,-0.00041879667,-0.00020239096,0.00803397,0.004387042,-0.04340009,4988,4912,0
224081265,224081131,4259850,4325386,0.0008300267,-0.0010370665,-0.0010704782,-0.0048367335,-0.008449937,-0.048895586,4958,4959,0
224579928,224579756,4259850,4325386,0.00010721342,-8.4341205e-05,-2.103088e-05,-0.007984422,-0.01726278,-0.049094513,5044,4913,0
225077523,225077387,4259850,4325386,-0.0013093224,0.00059240405,0.0009563923,-0.0055322256,0.024481261,-0.05130503,4987,4911,0
225581170,225581059,4259850,4325386,-8.481452e-05,0.00030908216,0.00012606976,-0.008855307,-0.0045664813,-0.046965297,4979,4915,0
226079857,226079745,4259850,4325386,-0.00029154195,-0.00020181683,-0.0006578499,0.005351312,0.007759809,-0.04712362,4987,4971,0
226579134,226578997,4259850,4325386,-0.0003446172,0.0007563844,0.0007886952,-0.0011145503,0.012495966,-0.059453376,5006,4901,0
227077902,227077709,4259850,4325386,2.1068365e-05,-0.0008491457,0.00059835514,-0.0016128792,0.006577353,-0.055115066,4987,4906,0
227581670,227581481,4259850,4325386,-0.0009437111,-0.0004963766,-0.0005768187,0.0029097411,-0.011930261,-0.04437352,4996,4960,0
228080312,228080172,4259850,4325386,-0.00040452738,-0.000115133604,-0.00016381539,-0.0035219337,-0.007025762,-0.041828386,4970,4911,0
228583905,228583700,4259850,4325386,0.0003357681,0.000103621554,4.3170854e-05,-0.007453054,-0.00088347605,-0.04411792,4992,4973,0
229083234,229083112,4259850,4325386,0.000254516,-5.431104e-05,-0.00020382783,-0.004348928,-0.01517422,-0.04343314,4986,4985,0
229581699,229581548,4259850,4325386,-0.0010406834,0.0006061887,0.0011507715,0.0022521205,0.011439826,-0.047911447,4992,4918,0
230080559,230080322,4259850,4325386,0.0007176014,0.00017851702,-0.00046595422,0.0025283974,-0.008889841,-0.050331127,4990,4995,0
230579503,230579388,4259850,4325386,-0.00019564832,-0.00059866824,0.0001532565,0.00042130775,-0.010334879,-0.040832777,4987,4962,0
231083492,231083063,4259850,4325386,0.0008331602,-0.00081458705,-0.0004249348,0.0057508503,0.0033103612,-0.056813844,4989,5658,0
231581909,231581769,4259850,4325386,0.00021975183,-0.0004671067,-0.0002385232,-0.0067453794,-0.0138853155,-0.045505323,4953,4955,0
232080815,232080669,4259850,4325386,0.00082144106,-0.00033217686,0.0006513526,-0.0064103846,-0.001225513,-0.051512197,4995,4910,0
232584322,232584153,4259850,4325386,0.0003670374,-0.00038230952,-0.00033746357,0.0047070505,-0.0051882677,-0.044565216,4984,4908,0
233078204,233077937,4259850,4325386,-0.0006823082,-0.0006359834,-0.0015299863,-0.00071900326,-0.0006644219,-0.054433256,4981,5814,0
233581608,233581477,4259850,4325386,5.7171197e-05,0.00034344304,-0.00020044313,0.005770801,-0.0042627878,-0.04099671,4988,4907,0
234080318,234080161,4259850,4325386,0.0002398179,0.0004314529,0.0003585269,-3.483046e-05,0.02488813,-0.048394024,4987,4910,0
234579111,234578980,4259850,4325386,-0.00021100338,0.00015982747,0.0004288888,-0.00023214564,0.003543572,-0.046352588,4971,4913,0
235082202,235082021,4259850,4325386,-0.00014785763,0.0009179791,0.0005138128,0.0008001698,0.0060701896,-0.057751648,4986,5893,0
235580985,235580845,4259850,4325386,-0.00040959503,0.00033608402,0.00017156004,0.0014101124,0.015602428,-0.05089679,4985,4983,0
236079754,236079624,4259850,4325386,0.0003554631,0.0004053349,0.00072481815,-0.004977236,0.0004917891,-0.05091282,5029,4925,0
236577744,236577632,4259850,4325386,-0.0005286833,0.00016214277,0.00055822864,-0.0031007254,0.012559991,-0.04978692,4980,4961,0
237081415,237081301,4259850,4325386,0.00077899714,-0.0007490108,-0.0009612318,-0.0072712144,-0.027868643,-0.049829554,4983,4963,0
237580272,237580155,4259850,4325386,0.000285923,9.0507405e-05,0.00028780554,0.0030916391,0.005313807,-0.044735488,4975,4911,0
238083338,238083119,4259850,4325386,0.0008253722,0.00017152092,-0.00054456544,0.0038042113,0.0047550774,-0.039637487,4994,4982,0
238582126,238582014,4259850,4325386,0.001924612,-0.00029933968,-0.000136518,-0.007895675,-0.020545898,-0.046128333,4955,4675,0
239081165,239080962,4259850,4325386,0.0002659054,5.0139424e-05,-0.00047207504,0.0059371516,0.0029709183,-0.045578815,5017,5014,0
239584290,239584160,4259850,4325386,-0.0002577593,-0.0010545593,0.0003065547,-0.0028879365,-0.0037704697,-0.050658908,4990,4856,0
240077977,240077858,4259850,4325386,0.00032070075,0.0011957593,0.0003717048,-0.0039358647,-0.0059627574,-0.050238945,4989,4632,0
240581649,240581529,4259850,4325386,-0.0007786205,-0.00045859147,-0.00044222648,0.0010543007,-0.02542175,-0.042701878,4987,4915,0
241080449,241080338,4259850,4325386,0.00024915521,0.00015136907,-0.0006816964,-0.0038303435,-0.0065691783,-0.04869049,5018,4913,0
241579038,241578903,4259850,4325386,0.00071914773,-0.0015333454,0.00015108635,-0.0024788594,0.012283864,-0.050610416,4988,4776,0
242081700,242081576,4259850,4325386,0.00018522685,-0.0006647928,-0.00047980528,0.0006312139,-0.024698893,-0.04589283,4987,4977,0
242579986,242579839,4259850,4325386,-2.4336718e-05,-0.00019636528,0.0001459462,-0.0065818094,-0.0072553633,-0.054308902,5008,4912,0
243083680,243083569,4259850,4325386,-0.0003633529,0.00074023224,0.00041997604,-0.011509383,0.0072806934,-0.058433294,4964,4908,0
243577286,243577137,4259850,4325386,0.00086807564,0.0005116997,0.00020430454,0.0017676409,0.015243591,-0.05122735,4986,4928,0
244080987,244080843,4259850,4325386,-7.6761724e-05,1.074605e-05,-0.00030761576,0.006525368,0.0028893382,-0.040663425,4924,4712,0
244579768,244579617,4259850,4325386,-0.00012093097,-0.000148051,0.00027923717,-0.009951755,-0.0052521187,-0.053731494,4987,4960,0
245079063,245078682,4259850,4325386,-7.5324046e-05,-6.0440634e-06,0.0003080751,0.0043300004,0.0021571782,-0.04538253,4990,4950,0
